time,ball_loc_x,ball_loc_y,ball_loc_z,ball_rot_x,ball_rot_y,ball_rot_z,ball_rot_w,ball_vel_x,ball_vel_y,ball_vel_z,ball_ang_x,ball_ang_y,ball_ang_z,player0_throttle,player0_steer,player0_pitch,player0_yaw,player0_roll,player0_jump,player0_boost,player0_handbrake,player0_loc_x,player0_loc_y,player0_loc_z,player0_rot_x,player0_rot_y,player0_rot_z,player0_rot_w,player0_vel_x,player0_vel_y,player0_vel_z,player0_ang_x,player0_ang_y,player0_ang_z
12.45,2000,0,91.24,0.000002697398,0.000002697398,0.000002697398,0.99999994,0,0,0,0,0,0,0,0,1,0,0,false,false,false,0,0,1000,-0.000002697398,0.8181923,-0.000002697398,0.5749445,0,0,0,0,-5.50001,0
12.458333,2000,0,91.24,0.000002697398,0.000002697398,0.000002697398,0.99999994,0,0,0,0,0,0,0,0,0,0,0,false,false,false,0,0,1000,-0.000002697398,0.8051301,-0.000002697398,0.59309804,0,0,0,0,-5.3681097,0
12.466666,2000,0,91.24,0.000002697398,0.000002697398,0.000002697398,0.99999994,0,0,0,0,0,0,0,0,0,0,0,false,false,false,0,0,1000,-0.0000026973983,0.79198986,-0.0000026973983,0.6105342,0,0,0,0,-5.23941,0
12.475,2000,0,91.24,0.000002697398,0.000002697398,0.000002697398,0.99999994,0,0,0,0,0,0,0,0,0,0,0,false,false,false,0,0,1000,-0.0000026973983,0.77880275,-0.0000026973983,0.62726885,0,0,0,0,-5.11381,0
12.483334,2000,0,91.24,0.000002697398,0.000002697398,0.000002697398,0.99999994,0,0,0,0,0,0,0,0,0,0,0,false,false,false,0,0,1000,-0.000002697398,0.7655896,-0.000002697398,0.64332914,0,0,0,0,-4.99121,0
12.491667,2000,0,91.24,0.000002697398,0.000002697398,0.000002697398,0.99999994,0,0,0,0,0,0,0,0,0,0,0,false,false,false,0,0,1000,-0.000002697398,0.75237334,-0.000002697398,0.6587368,0,0,0,0,-4.87151,0
12.5,2000,0,91.24,0.000002697398,0.000002697398,0.000002697398,0.99999994,0,0,0,0,0,0,0,0,0,0,0,false,false,false,0,0,1000,-0.000002697398,0.7391752,-0.000002697398,0.6735131,0,0,0,0,-4.7547097,0
12.508333,2000,0,91.24,0.000002697398,0.000002697398,0.000002697398,0.99999994,0,0,0,0,0,0,0,0,0,0,0,false,false,false,0,0,1000,-0.0000026973983,0.7260139,-0.0000026973983,0.68768,0,0,0,0,-4.64071,0
12.516666,2000,0,91.24,0.000002697398,0.000002697398,0.000002697398,0.99999994,0,0,0,0,0,0,0,0,0,0,0,false,false,false,0,0,1000,-0.000002697398,0.7129067,-0.000002697398,0.7012588,0,0,0,0,-4.52941,0
12.525,2000,0,91.24,0.000002697398,0.000002697398,0.000002697398,0.99999994,0,0,0,0,0,0,0,0,0,0,0,false,false,false,0,0,1000,-0.0000026973983,0.69986695,-0.0000026973983,0.7142732,0,0,0,0,-4.4208097,0
12.533334,2000,0,91.24,0.000002697398,0.000002697398,0.000002697398,0.99999994,0,0,0,0,0,0,0,0,0,0,0,false,false,false,0,0,1000,-0.000002697398,0.6869139,-0.000002697398,0.7267387,0,0,0,0,-4.31481,0
12.541667,2000,0,91.24,0.000002697398,0.000002697398,0.000002697398,0.99999994,0,0,0,0,0,0,0,0,0,0,0,false,false,false,0,0,1000,-0.000002697398,0.6740581,-0.000002697398,0.7386782,0,0,0,0,-4.21131,0
12.55,2000,0,91.24,0.000002697398,0.000002697398,0.000002697398,0.99999994,0,0,0,0,0,0,0,0,0,0,0,false,false,false,0,0,1000,-0.000002697398,0.66131014,-0.000002697398,0.7501125,0,0,0,0,-4.11031,0
12.558333,2000,0,91.24,0.000002697398,0.000002697398,0.000002697398,0.99999994,0,0,0,0,0,0,0,0,0,0,0,false,false,false,0,0,1000,-0.000002697398,0.6486808,-0.000002697398,0.7610605,0,0,0,0,-4.0117097,0
12.566667,2000,0,91.24,0.000002697398,0.000002697398,0.000002697398,0.99999994,0,0,0,0,0,0,0,0,0,0,0,false,false,false,0,0,1000,-0.000002697398,0.63618106,-0.000002697398,0.7715397,0,0,0,0,-3.91551,0
12.575,2000,0,91.24,0.000002697398,0.000002697398,0.000002697398,0.99999994,0,0,0,0,0,0,0,0,0,0,0,false,false,false,0,0,1000,-0.0000026973983,0.6238162,-0.0000026973983,0.78157103,0,0,0,0,-3.82161,0
12.583333,2000,0,91.24,0.000002697398,0.000002697398,0.000002697398,0.99999994,0,0,0,0,0,0,0,0,0,0,0,false,false,false,0,0,1000,-0.000002697398,0.6115969,-0.000002697398,0.7911694,0,0,0,0,-3.73001,0
12.591666,2000,0,91.24,0.000002697398,0.000002697398,0.000002697398,0.99999994,0,0,0,0,0,0,0,0,0,0,0,false,false,false,0,0,1000,-0.0000026973978,0.5995232,-0.0000026973978,0.8003572,0,0,0,0,-3.64061,0
12.6,2000,0,91.24,0.000002697398,0.000002697398,0.000002697398,0.99999994,0,0,0,0,0,0,0,0,0,0,0,false,false,false,0,0,1000,-0.000002697398,0.58760613,-0.000002697398,0.809147,0,0,0,0,-3.55331,0
12.608334,2000,0,91.24,0.000002697398,0.000002697398,0.000002697398,0.99999994,0,0,0,0,0,0,0,0,0,0,0,false,false,false,0,0,1000,-0.000002697398,0.5758508,-0.000002697398,0.8175547,0,0,0,0,-3.4681098,0
12.616667,2000,0,91.24,0.000002697398,0.000002697398,0.000002697398,0.99999994,0,0,0,0,0,0,0,0,0,0,0,false,false,false,0,0,1000,-0.000002697398,0.5642628,-0.000002697398,0.82559514,0,0,0,0,-3.3849099,0
12.625,2000,0,91.24,0.000002697398,0.000002697398,0.000002697398,0.99999994,0,0,0,0,0,0,0,0,0,0,0,false,false,false,0,0,1000,-0.000002697398,0.5528419,-0.000002697398,0.83328605,0,0,0,0,-3.30371,0
12.633333,2000,0,91.24,0.000002697398,0.000002697398,0.000002697398,0.99999994,0,0,0,0,0,0,0,0,0,0,0,false,false,false,0,0,1000,-0.000002697398,0.54159915,-0.000002697398,0.8406368,0,0,0,0,-3.22451,0
12.641666,2000,0,91.24,0.000002697398,0.000002697398,0.000002697398,0.99999994,0,0,0,0,0,0,0,0,0,0,0,false,false,false,0,0,1000,-0.000002697398,0.53052896,-0.000002697398,0.84766674,0,0,0,0,-3.14721,0
12.65,2000,0,91.24,0.000002697398,0.000002697398,0.000002697398,0.99999994,0,0,0,0,0,0,0,0,0,0,0,false,false,false,0,0,1000,-0.0000026973978,0.5196368,-0.0000026973978,0.85438704,0,0,0,0,-3.0717099,0
12.658334,2000,0,91.24,0.000002697398,0.000002697398,0.000002697398,0.99999994,0,0,0,0,0,0,0,0,0,0,0,false,false,false,0,0,1000,-0.000002697398,0.5089227,-0.000002697398,0.8608121,0,0,0,0,-2.99801,0
12.666667,2000,0,91.24,0.000002697398,0.000002697398,0.000002697398,0.99999994,0,0,0,0,0,0,0,0,0,0,0,false,false,false,0,0,1000,-0.000002697398,0.4983921,-0.000002697398,0.86695164,0,0,0,0,-2.92611,0
12.675,2000,0,91.24,0.000002697398,0.000002697398,0.000002697398,0.99999994,0,0,0,0,0,0,0,0,0,0,0,false,false,false,0,0,1000,-0.000002697398,0.4880394,-0.000002697398,0.8728215,0,0,0,0,-2.8559098,0
12.683333,2000,0,91.24,0.000002697398,0.000002697398,0.000002697398,0.99999994,0,0,0,0,0,0,0,0,0,0,0,false,false,false,0,0,1000,-0.0000026973983,0.47787023,-0.0000026973983,0.8784304,0,0,0,0,-2.78741,0
12.691667,2000,0,91.24,0.000002697398,0.000002697398,0.000002697398,0.99999994,0,0,0,0,0,0,0,0,0,0,0,false,false,false,0,0,1000,-0.000002697398,0.46788436,-0.000002697398,0.8837896,0,0,0,0,-2.72061,0
12.7,2000,0,91.24,0.000002697398,0.000002697398,0.000002697398,0.99999994,0,0,0,0,0,0,0,0,0,0,0,false,false,false,0,0,1000,-0.0000026973983,0.45807663,-0.0000026973983,0.8889127,0,0,0,0,-2.65541,0
12.708333,2000,0,91.24,0.000002697398,0.000002697398,0.000002697398,0.99999994,0,0,0,0,0,0,0,0,0,0,0,false,false,false,0,0,1000,-0.000002697398,0.4484522,-0.000002697398,0.89380676,0,0,0,0,-2.5917099,0
12.716666,2000,0,91.24,0.000002697398,0.000002697398,0.000002697398,0.99999994,0,0,0,0,0,0,0,0,0,0,0,false,false,false,0,0,1000,-0.000002697398,0.4390059,-0.000002697398,0.8984841,0,0,0,0,-2.52951,0
12.725,2000,0,91.24,0.000002697398,0.000002697398,0.000002697398,0.99999994,0,0,0,0,0,0,0,0,0,0,0,false,false,false,0,0,1000,-0.0000026973983,0.4297376,-0.0000026973983,0.9029538,0,0,0,0,-2.4688098,0
12.733334,2000,0,91.24,0.000002697398,0.000002697398,0.000002697398,0.99999994,0,0,0,0,0,0,0,0,0,0,0,false,false,false,0,0,1000,-0.0000026973983,0.42065278,-0.0000026973983,0.9072217,0,0,0,0,-2.40961,0
12.741667,2000,0,91.24,0.000002697398,0.000002697398,0.000002697398,0.99999994,0,0,0,0,0,0,0,0,0,0,0,false,false,false,0,0,1000,-0.0000026973978,0.4117405,-0.0000026973978,0.91130096,0,0,0,0,-2.35181,0
12.75,2000,0,91.24,0.000002697398,0.000002697398,0.000002697398,0.99999994,0,0,0,0,0,0,0,0,0,0,0,false,false,false,0,0,1000,-0.000002697398,0.4030063,-0.000002697398,0.91519713,0,0,0,0,-2.29541,0
12.758333,2000,0,91.24,0.000002697398,0.000002697398,0.000002697398,0.99999994,0,0,0,0,0,0,0,0,0,0,0,false,false,false,0,0,1000,-0.0000026973978,0.3944447,-0.0000026973978,0.9189195,0,0,0,0,-2.24031,0
12.766666,2000,0,91.24,0.000002697398,0.000002697398,0.000002697398,0.99999994,0,0,0,0,0,0,0,0,0,0,0,false,false,false,0,0,1000,-0.000002697398,0.38605574,-0.000002697398,0.9224754,0,0,0,0,-2.18661,0
12.775,2000,0,91.24,0.000002697398,0.000002697398,0.000002697398,0.99999994,0,0,0,0,0,0,0,0,0,0,0,false,false,false,0,0,1000,-0.000002697398,0.37783948,-0.000002697398,0.9258711,0,0,0,0,-2.1342099,0
12.783334,2000,0,91.24,0.000002697398,0.000002697398,0.000002697398,0.99999994,0,0,0,0,0,0,0,0,0,0,0,false,false,false,0,0,1000,-0.000002697398,0.36979043,-0.000002697398,0.9291151,0,0,0,0,-2.08301,0
12.791667,2000,0,91.24,0.000002697398,0.000002697398,0.000002697398,0.99999994,0,0,0,0,0,0,0,0,0,0,0,false,false,false,0,0,1000,-0.000002697398,0.36190856,-0.000002697398,0.93221354,0,0,0,0,-2.03301,0
12.8,2000,0,91.24,0.000002697398,0.000002697398,0.000002697398,0.99999994,0,0,0,0,0,0,0,0,0,0,0,false,false,false,0,0,1000,-0.000002697398,0.3541886,-0.000002697398,0.9351739,0,0,0,0,-1.98421,0
12.808333,2000,0,91.24,0.000002697398,0.000002697398,0.000002697398,0.99999994,0,0,0,0,0,0,0,0,0,0,0,false,false,false,0,0,1000,-0.000002697398,0.34663048,-0.000002697398,0.9380017,0,0,0,0,-1.93661,0
12.816667,2000,0,91.24,0.000002697398,0.000002697398,0.000002697398,0.99999994,0,0,0,0,0,0,0,0,0,0,0,false,false,false,0,0,1000,-0.000002697398,0.33923414,-0.000002697398,0.9407019,0,0,0,0,-1.89011,0
12.825,2000,0,91.24,0.000002697398,0.000002697398,0.000002697398,0.99999994,0,0,0,0,0,0,0,0,0,0,0,false,false,false,0,0,1000,-0.0000026973983,0.33199435,-0.0000026973983,0.94328135,0,0,0,0,-1.84481,0
12.833333,2000,0,91.24,0.000002697398,0.000002697398,0.000002697398,0.99999994,0,0,0,0,0,0,0,0,0,0,0,false,false,false,0,0,1000,-0.000002697398,0.32490554,-0.000002697398,0.9457464,0,0,0,0,-1.8005099,0
12.841666,2000,0,91.24,0.000002697398,0.000002697398,0.000002697398,0.99999994,0,0,0,0,0,0,0,0,0,0,0,false,false,false,0,0,1000,-0.0000026973978,0.31797314,-0.0000026973978,0.94809955,0,0,0,0,-1.7573099,0
12.85,2000,0,91.24,0.000002697398,0.000002697398,0.000002697398,0.99999994,0,0,0,0,0,0,0,0,0,0,0,false,false,false,0,0,1000,-0.0000026973978,0.31119186,-0.0000026973978,0.95034695,0,0,0,0,-1.71511,0
12.858334,2000,0,91.24,0.000002697398,0.000002697398,0.000002697398,0.99999994,0,0,0,0,0,0,0,0,0,0,0,false,false,false,0,0,1000,-0.000002697398,0.3045563,-0.000002697398,0.95249426,0,0,0,0,-1.6740099,0
12.866667,2000,0,91.24,0.000002697398,0.000002697398,0.000002697398,0.99999994,0,0,0,0,0,0,0,0,0,0,0,false,false,false,0,0,1000,-0.0000026973983,0.2980663,-0.0000026973983,0.95454514,0,0,0,0,-1.6338099,0
12.875,2000,0,91.24,0.000002697398,0.000002697398,0.000002697398,0.99999994,0,0,0,0,0,0,0,0,0,0,0,false,false,false,0,0,1000,-0.000002697398,0.2917166,-0.000002697398,0.9565047,0,0,0,0,-1.59461,0
12.883333,2000,0,91.24,0.000002697398,0.000002697398,0.000002697398,0.99999994,0,0,0,0,0,0,0,0,0,0,0,false,false,false,0,0,1000,-0.0000026973978,0.28550714,-0.0000026973978,0.9583764,0,0,0,0,-1.5563099,0
12.891666,2000,0,91.24,0.000002697398,0.000002697398,0.000002697398,0.99999994,0,0,0,0,0,0,0,0,0,0,0,false,false,false,0,0,1000,-0.000002697398,0.27943805,-0.000002697398,0.96016365,0,0,0,0,-1.51901,0
12.9,2000,0,91.24,0.000002697398,0.000002697398,0.000002697398,0.99999994,0,0,0,0,0,0,0,0,0,0,0,false,false,false,0,0,1000,-0.0000026973983,0.27350372,-0.0000026973983,0.9618709,0,0,0,0,-1.48261,0
12.908334,2000,0,91.24,0.000002697398,0.000002697398,0.000002697398,0.99999994,0,0,0,0,0,0,0,0,0,0,0,false,false,false,0,0,1000,-0.0000026973983,0.2676989,-0.0000026973983,0.9635026,0,0,0,0,-1.4470099,0
12.916667,2000,0,91.24,0.000002697398,0.000002697398,0.000002697398,0.99999994,0,0,0,0,0,0,0,0,0,0,0,false,false,false,0,0,1000,-0.000002697398,0.26202354,-0.000002697398,0.9650614,0,0,0,0,-1.41231,0
12.925,2000,0,91.24,0.000002697398,0.000002697398,0.000002697398,0.99999994,0,0,0,0,0,0,0,0,0,0,0,false,false,false,0,0,1000,-0.0000026973978,0.25647768,-0.0000026973978,0.96655,0,0,0,0,-1.37841,0
12.933333,2000,0,91.24,0.000002697398,0.000002697398,0.000002697398,0.99999994,0,0,0,0,0,0,0,0,0,0,0,false,false,false,0,0,1000,-0.0000026973983,0.25105587,-0.0000026973983,0.9679726,0,0,0,0,-1.34531,0
12.941667,2000,0,91.24,0.000002697398,0.000002697398,0.000002697398,0.99999994,0,0,0,0,0,0,0,0,0,0,0,false,false,false,0,0,1000,-0.0000026973983,0.24575819,-0.0000026973983,0.96933115,0,0,0,0,-1.31301,0
12.95,2000,0,91.24,0.000002697398,0.000002697398,0.000002697398,0.99999994,0,0,0,0,0,0,0,0,0,0,0,false,false,false,0,0,1000,-0.000002697398,0.24057917,-0.000002697398,0.97062945,0,0,0,0,-1.28151,0
12.958333,2000,0,91.24,0.000002697398,0.000002697398,0.000002697398,0.99999994,0,0,0,0,0,0,0,0,0,0,0,false,false,false,0,0,1000,-0.000002697398,0.23551884,-0.000002697398,0.9718697,0,0,0,0,-1.25071,0
12.966666,2000,0,91.24,0.000002697398,0.000002697398,0.000002697398,0.99999994,0,0,0,0,0,0,0,0,0,0,0,false,false,false,0,0,1000,-0.000002697398,0.23057173,-0.000002697398,0.97305524,0,0,0,0,-1.22071,0
12.975,2000,0,91.24,0.000002697398,0.000002697398,0.000002697398,0.99999994,0,0,0,0,0,0,0,0,0,0,0,false,false,false,0,0,1000,-0.0000026973978,0.22573796,-0.0000026973978,0.9741879,0,0,0,0,-1.19141,0
12.983334,2000,0,91.24,0.000002697398,0.000002697398,0.000002697398,0.99999994,0,0,0,0,0,0,0,0,0,0,0,false,false,false,0,0,1000,-0.0000026973978,0.22101752,-0.0000026973978,0.9752697,0,0,0,0,-1.16281,0
12.991667,2000,0,91.24,0.000002697398,0.000002697398,0.000002697398,0.99999994,0,0,0,0,0,0,0,0,0,0,0,false,false,false,0,0,1000,-0.000002697398,0.216405,-0.000002697398,0.97630364,0,0,0,0,-1.13491,0
13,2000,0,91.24,0.000002697398,0.000002697398,0.000002697398,0.99999994,0,0,0,0,0,0,0,0,0,0,0,false,false,false,0,0,1000,-0.0000026973978,0.21189491,-0.0000026973978,0.9772923,0,0,0,0,-1.10771,0
13.008333,2000,0,91.24,0.000002697398,0.000002697398,0.000002697398,0.99999994,0,0,0,0,0,0,0,0,0,0,0,false,false,false,0,0,1000,-0.0000026973983,0.20749272,-0.0000026973983,0.97823656,0,0,0,0,-1.08111,0
13.016666,2000,0,91.24,0.000002697398,0.000002697398,0.000002697398,0.99999994,0,0,0,0,0,0,0,0,0,0,0,false,false,false,0,0,1000,-0.000002697398,0.20318766,-0.000002697398,0.97913975,0,0,0,0,-1.05511,0
13.025,2000,0,91.24,0.000002697398,0.000002697398,0.000002697398,0.99999994,0,0,0,0,0,0,0,0,0,0,0,false,false,false,0,0,1000,-0.000002697398,0.19898511,-0.000002697398,0.98000246,0,0,0,0,-1.02981,0
13.033334,2000,0,91.24,0.000002697398,0.000002697398,0.000002697398,0.99999994,0,0,0,0,0,0,0,0,0,0,0,false,false,false,0,0,1000,-0.000002697398,0.19487968,-0.000002697398,0.9808271,0,0,0,0,-1.00511,0
13.041667,2000,0,91.24,0.000002697398,0.000002697398,0.000002697398,0.99999994,0,0,0,0,0,0,0,0,0,0,0,false,false,false,0,0,1000,-0.000002697398,0.19087134,-0.000002697398,0.981615,0,0,0,0,-0.98100996,0
13.05,2000,0,91.24,0.000002697398,0.000002697398,0.000002697398,0.99999994,0,0,0,0,0,0,0,0,0,0,0,false,false,false,0,0,1000,-0.000002697398,0.18695463,-0.000002697398,0.98236847,0,0,0,0,-0.95741,0
13.058333,2000,0,91.24,0.000002697398,0.000002697398,0.000002697398,0.99999994,0,0,0,0,0,0,0,0,0,0,0,false,false,false,0,0,1000,-0.0000026973983,0.18312974,-0.0000026973983,0.98308873,0,0,0,0,-0.93441,0
13.066667,2000,0,91.24,0.000002697398,0.000002697398,0.000002697398,0.99999994,0,0,0,0,0,0,0,0,0,0,0,false,false,false,0,0,1000,-0.000002697398,0.17939113,-0.000002697398,0.98377776,0,0,0,0,-0.91201,0
13.075,2000,0,91.24,0.000002697398,0.000002697398,0.000002697398,0.99999994,0,0,0,0,0,0,0,0,0,0,0,false,false,false,0,0,1000,-0.000002697398,0.17573886,-0.000002697398,0.98443675,0,0,0,0,-0.89011,0
13.083333,2000,0,91.24,0.000002697398,0.000002697398,0.000002697398,0.99999994,0,0,0,0,0,0,0,0,0,0,0,false,false,false,0,0,1000,-0.0000026973983,0.1721729,-0.0000026973983,0.9850667,0,0,0,0,-0.86871,0
13.091666,2000,0,91.24,0.000002697398,0.000002697398,0.000002697398,0.99999994,0,0,0,0,0,0,0,0,0,0,0,false,false,false,0,0,1000,-0.000002697398,0.16869324,-0.000002697398,0.98566854,0,0,0,0,-0.84781,0
13.1,2000,0,91.24,0.000002697398,0.000002697398,0.000002697398,0.99999994,0,0,0,0,0,0,0,0,0,0,0,false,false,false,0,0,1000,-0.000002697398,0.16529444,-0.000002697398,0.9862442,0,0,0,0,-0.82741,0
13.108334,2000,0,91.24,0.000002697398,0.000002697398,0.000002697398,0.99999994,0,0,0,0,0,0,0,0,0,0,0,false,false,false,0,0,1000,-0.000002697398,0.16197665,-0.000002697398,0.98679453,0,0,0,0,-0.80751,0
13.116667,2000,0,91.24,0.000002697398,0.000002697398,0.000002697398,0.99999994,0,0,0,0,0,0,0,0,0,0,0,false,false,false,0,0,1000,-0.000002697398,0.15873437,-0.000002697398,0.98732126,0,0,0,0,-0.78811,0
13.125,2000,0,91.24,0.000002697398,0.000002697398,0.000002697398,0.99999994,0,0,0,0,0,0,0,0,0,0,0,false,false,false,0,0,1000,-0.0000026973978,0.15556762,-0.0000026973978,0.9878251,0,0,0,0,-0.76921,0
13.133333,2000,0,91.24,0.000002697398,0.000002697398,0.000002697398,0.99999994,0,0,0,0,0,0,0,0,0,0,0,false,false,false,0,0,1000,-0.000002697398,0.1524764,-0.000002697398,0.98830706,0,0,0,0,-0.75071,0
13.141666,2000,0,91.24,0.000002697398,0.000002697398,0.000002697398,0.99999994,0,0,0,0,0,0,0,0,0,0,0,false,false,false,0,0,1000,-0.0000026973978,0.1494607,-0.0000026973978,0.9887675,0,0,0,0,-0.73271,0
13.15,2000,0,91.24,0.000002697398,0.000002697398,0.000002697398,0.99999994,0,0,0,0,0,0,0,0,0,0,0,false,false,false,0,0,1000,-0.0000026973978,0.14651515,-0.0000026973978,0.9892083,0,0,0,0,-0.71511,0
13.158334,2000,0,91.24,0.000002697398,0.000002697398,0.000002697398,0.99999994,0,0,0,0,0,0,0,0,0,0,0,false,false,false,0,0,1000,-0.000002697398,0.14363973,-0.000002697398,0.98963,0,0,0,0,-0.69791,0
13.166667,2000,0,91.24,0.000002697398,0.000002697398,0.000002697398,0.99999994,0,0,0,0,0,0,0,0,0,0,0,false,false,false,0,0,1000,-0.0000026973983,0.14082897,-0.0000026973983,0.9900339,0,0,0,0,-0.68111,0
13.175,2000,0,91.24,0.000002697398,0.000002697398,0.000002697398,0.99999994,0,0,0,0,0,0,0,0,0,0,0,false,false,false,0,0,1000,-0.000002697398,0.1380884,-0.000002697398,0.99041986,0,0,0,0,-0.66471,0
13.183333,2000,0,91.24,0.000002697398,0.000002697398,0.000002697398,0.99999994,0,0,0,0,0,0,0,0,0,0,0,false,false,false,0,0,1000,-0.000002697398,0.13541257,-0.000002697398,0.99078923,0,0,0,0,-0.64871,0
13.191667,2000,0,91.24,0.000002697398,0.000002697398,0.000002697398,0.99999994,0,0,0,0,0,0,0,0,0,0,0,false,false,false,0,0,1000,-0.0000026973983,0.13279612,-0.0000026973983,0.99114335,0,0,0,0,-0.63311,0
13.2,2000,0,91.24,0.000002697398,0.000002697398,0.000002697398,0.99999994,0,0,0,0,0,0,0,0,0,0,0,false,false,false,0,0,1000,-0.0000026973983,0.13024437,-0.0000026973983,0.9914819,0,0,0,0,-0.61791,0
13.208333,2000,0,91.24,0.000002697398,0.000002697398,0.000002697398,0.99999994,0,0,0,0,0,0,0,0,0,0,0,false,false,false,0,0,1000,-0.000002697398,0.12775198,-0.000002697398,0.9918061,0,0,0,0,-0.60301,0
13.216666,2000,0,91.24,0.000002697398,0.000002697398,0.000002697398,0.99999994,0,0,0,0,0,0,0,0,0,0,0,false,false,false,0,0,1000,-0.000002697398,0.12531891,-0.000002697398,0.99211645,0,0,0,0,-0.58851,0
13.225,2000,0,91.24,0.000002697398,0.000002697398,0.000002697398,0.99999994,0,0,0,0,0,0,0,0,0,0,0,false,false,false,0,0,1000,-0.000002697398,0.12294521,-0.000002697398,0.9924134,0,0,0,0,-0.57441,0
13.233334,2000,0,91.24,0.000002697398,0.000002697398,0.000002697398,0.99999994,0,0,0,0,0,0,0,0,0,0,0,false,false,false,0,0,1000,-0.000002697398,0.12062537,-0.000002697398,0.992698,0,0,0,0,-0.56061,0
13.241667,2000,0,91.24,0.000002697398,0.000002697398,0.000002697398,0.99999994,0,0,0,0,0,0,0,0,0,0,0,false,false,false,0,0,1000,-0.000002697398,0.11835955,-0.000002697398,0.99297076,0,0,0,0,-0.54711,0
13.25,2000,0,91.24,0.000002697398,0.000002697398,0.000002697398,0.99999994,0,0,0,0,0,0,0,0,0,0,0,false,false,false,0,0,1000,-0.000002697398,0.11614768,-0.000002697398,0.9932319,0,0,0,0,-0.53391,0
13.258333,2000,0,91.24,0.000002697398,0.000002697398,0.000002697398,0.99999994,0,0,0,0,0,0,0,0,0,0,0,false,false,false,0,0,1000,-0.000002697398,0.11398977,-0.000002697398,0.9934819,0,0,0,0,-0.52111,0
13.266666,2000,0,91.24,0.000002697398,0.000002697398,0.000002697398,0.99999994,0,0,0,0,0,0,0,0,0,0,0,false,false,false,0,0,1000,-0.0000026973983,0.1118858,-0.0000026973983,0.99372107,0,0,0,0,-0.50861,0
13.275,2000,0,91.24,0.000002697398,0.000002697398,0.000002697398,0.99999994,0,0,0,0,0,0,0,0,0,0,0,false,false,false,0,0,1000,-0.0000026973983,0.10983039,-0.0000026973983,0.9939503,0,0,0,0,-0.49641,0
13.283334,2000,0,91.24,0.000002697398,0.000002697398,0.000002697398,0.99999994,0,0,0,0,0,0,0,0,0,0,0,false,false,false,0,0,1000,-0.000002697398,0.10782351,-0.000002697398,0.99417,0,0,0,0,-0.48451,0
13.291667,2000,0,91.24,0.000002697398,0.000002697398,0.000002697398,0.99999994,0,0,0,0,0,0,0,0,0,0,0,false,false,false,0,0,1000,-0.000002697398,0.1058652,-0.000002697398,0.9943804,0,0,0,0,-0.47281,0
13.3,2000,0,91.24,0.000002697398,0.000002697398,0.000002697398,0.99999994,0,0,0,0,0,0,0,0,0,0,0,false,false,false,0,0,1000,-0.000002697398,0.10395545,-0.000002697398,0.9945819,0,0,0,0,-0.46141002,0
13.308333,2000,0,91.24,0.000002697398,0.000002697398,0.000002697398,0.99999994,0,0,0,0,0,0,0,0,0,0,0,false,false,false,0,0,1000,-0.000002697398,0.102088846,-0.000002697398,0.99477524,0,0,0,0,-0.45031,0
13.316667,2000,0,91.24,0.000002697398,0.000002697398,0.000002697398,0.99999994,0,0,0,0,0,0,0,0,0,0,0,false,false,false,0,0,1000,-0.000002697398,0.100265406,-0.000002697398,0.99496067,0,0,0,0,-0.43951,0
13.325,2000,0,91.24,0.000002697398,0.000002697398,0.000002697398,0.99999994,0,0,0,0,0,0,0,0,0,0,0,false,false,false,0,0,1000,-0.000002697398,0.09848504,-0.000002697398,0.99513847,0,0,0,0,-0.42891002,0
13.333333,2000,0,91.24,0.000002697398,0.000002697398,0.000002697398,0.99999994,0,0,0,0,0,0,0,0,0,0,0,false,false,false,0,0,1000,-0.000002697398,0.09674791,-0.000002697398,0.9953089,0,0,0,0,-0.41861,0
13.341666,2000,0,91.24,0.000002697398,0.000002697398,0.000002697398,0.99999994,0,0,0,0,0,0,0,0,0,0,0,false,false,false,0,0,1000,-0.000002697398,0.09505395,-0.000002697398,0.9954721,0,0,0,0,-0.40851,0
13.35,2000,0,91.24,0.000002697398,0.000002697398,0.000002697398,0.99999994,0,0,0,0,0,0,0,0,0,0,0,false,false,false,0,0,1000,-0.000002697398,0.093397744,-0.000002697398,0.99562883,0,0,0,0,-0.39871,0
13.358334,2000,0,91.24,0.000002697398,0.000002697398,0.000002697398,0.99999994,0,0,0,0,0,0,0,0,0,0,0,false,false,false,0,0,1000,-0.000002697398,0.0917847,-0.000002697398,0.9957788,0,0,0,0,-0.38911,0
13.366667,2000,0,91.24,0.000002697398,0.000002697398,0.000002697398,0.99999994,0,0,0,0,0,0,0,0,0,0,0,false,false,false,0,0,1000,-0.000002697398,0.09020942,-0.000002697398,0.99592274,0,0,0,0,-0.37971002,0
13.375,2000,0,91.24,0.000002697398,0.000002697398,0.000002697398,0.99999994,0,0,0,0,0,0,0,0,0,0,0,false,false,false,0,0,1000,-0.000002697398,0.0886719,-0.000002697398,0.99606085,0,0,0,0,-0.37061,0
13.383333,2000,0,91.24,0.000002697398,0.000002697398,0.000002697398,0.99999994,0,0,0,0,0,0,0,0,0,0,0,false,false,false,0,0,1000,-0.0000026973983,0.08717216,-0.0000026973983,0.99619323,0,0,0,0,-0.36171,0
13.391666,2000,0,91.24,0.000002697398,0.000002697398,0.000002697398,0.99999994,0,0,0,0,0,0,0,0,0,0,0,false,false,false,0,0,1000,-0.0000026973983,0.08570477,-0.0000026973983,0.99632055,0,0,0,0,-0.35301,0
13.4,2000,0,91.24,0.000002697398,0.000002697398,0.000002697398,0.99999994,0,0,0,0,0,0,0,0,0,0,0,false,false,false,0,0,1000,-0.0000026973983,0.08427515,-0.0000026973983,0.9964425,0,0,0,0,-0.34451002,0
13.408334,2000,0,91.24,0.000002697398,0.000002697398,0.000002697398,0.99999994,0,0,0,0,0,0,0,0,0,0,0,false,false,false,0,0,1000,-0.0000026973978,0.08287788,-0.0000026973978,0.99655956,0,0,0,0,-0.33621,0
13.416667,2000,0,91.24,0.000002697398,0.000002697398,0.000002697398,0.99999994,0,0,0,0,0,0,0,0,0,0,0,false,false,false,0,0,1000,-0.000002697398,0.08151301,-0.000002697398,0.9966722,0,0,0,0,-0.32811,0
13.425,2000,0,91.24,0.000002697398,0.000002697398,0.000002697398,0.99999994,0,0,0,0,0,0,0,0,0,0,0,false,false,false,0,0,1000,-0.0000026973978,0.08018049,-0.0000026973978,0.9967802,0,0,0,0,-0.32021,0
13.433333,2000,0,91.24,0.000002697398,0.000002697398,0.000002697398,0.99999994,0,0,0,0,0,0,0,0,0,0,0,false,false,false,0,0,1000,-0.000002697398,0.07888035,-0.000002697398,0.99688405,0,0,0,0,-0.31251,0
13.441667,2000,0,91.24,0.000002697398,0.000002697398,0.000002697398,0.99999994,0,0,0,0,0,0,0,0,0,0,0,false,false,false,0,0,1000,-0.000002697398,0.07761257,-0.000002697398,0.9969835,0,0,0,0,-0.30501002,0
13.45,2000,0,91.24,0.000002697398,0.000002697398,0.000002697398,0.99999994,0,0,0,0,0,0,0,0,0,0,0,false,false,false,0,0,1000,-0.000002697398,0.07637708,-0.000002697398,0.99707896,0,0,0,0,-0.29761,0
13.458333,2000,0,91.24,0.000002697398,0.000002697398,0.000002697398,0.99999994,0,0,0,0,0,0,0,0,0,0,0,false,false,false,0,0,1000,-0.0000026973983,0.07516865,-0.0000026973983,0.9971708,0,0,0,0,-0.29041,0
13.466666,2000,0,91.24,0.000002697398,0.000002697398,0.000002697398,0.99999994,0,0,0,0,0,0,0,0,0,0,0,false,false,false,0,0,1000,-0.000002697398,0.07399258,-0.000002697398,0.9972587,0,0,0,0,-0.28341,0
13.475,2000,0,91.24,0.000002697398,0.000002697398,0.000002697398,0.99999994,0,0,0,0,0,0,0,0,0,0,0,false,false,false,0,0,1000,-0.0000026973983,0.07284349,-0.0000026973983,0.99734336,0,0,0,0,-0.27661002,0
13.483334,2000,0,91.24,0.000002697398,0.000002697398,0.000002697398,0.99999994,0,0,0,0,0,0,0,0,0,0,0,false,false,false,0,0,1000,-0.000002697398,0.07172137,-0.000002697398,0.99742466,0,0,0,0,-0.26991,0
13.491667,2000,0,91.24,0.000002697398,0.000002697398,0.000002697398,0.99999994,0,0,0,0,0,0,0,0,0,0,0,false,false,false,0,0,1000,-0.000002697398,0.07062622,-0.000002697398,0.9975028,0,0,0,0,-0.26341,0
13.5,2000,0,91.24,0.000002697398,0.000002697398,0.000002697398,0.99999994,0,0,0,0,0,0,0,0,0,0,0,false,false,false,0,0,1000,-0.000002697398,0.069558054,-0.000002697398,0.99757785,0,0,0,0,-0.25701,0
13.508333,2000,0,91.24,0.000002697398,0.000002697398,0.000002697398,0.99999994,0,0,0,0,0,0,0,0,0,0,0,false,false,false,0,0,1000,-0.000002697398,0.06851686,-0.000002697398,0.9976499,0,0,0,0,-0.25081,0
13.516666,2000,0,91.24,0.000002697398,0.000002697398,0.000002697398,0.99999994,0,0,0,0,0,0,0,0,0,0,0,false,false,false,0,0,1000,-0.000002697398,0.06749724,-0.000002697398,0.9977194,0,0,0,0,-0.24471,0
13.525,2000,0,91.24,0.000002697398,0.000002697398,0.000002697398,0.99999994,0,0,0,0,0,0,0,0,0,0,0,false,false,false,0,0,1000,-0.0000026973983,0.066504605,-0.0000026973983,0.9977861,0,0,0,0,-0.23880999,0
13.533334,2000,0,91.24,0.000002697398,0.000002697398,0.000002697398,0.99999994,0,0,0,0,0,0,0,0,0,0,0,false,false,false,0,0,1000,-0.000002697398,0.06553353,-0.000002697398,0.9978503,0,0,0,0,-0.23301,0
13.541667,2000,0,91.24,0.000002697398,0.000002697398,0.000002697398,0.99999994,0,0,0,0,0,0,0,0,0,0,0,false,false,false,0,0,1000,-0.000002697398,0.06458945,-0.000002697398,0.9979119,0,0,0,0,-0.22740999,0
13.55,2000,0,91.24,0.000002697398,0.000002697398,0.000002697398,0.99999994,0,0,0,0,0,0,0,0,0,0,0,false,false,false,0,0,1000,-0.0000026973983,0.06366695,-0.0000026973983,0.9979712,0,0,0,0,-0.22191,0
13.558333,2000,0,91.24,0.000002697398,0.000002697398,0.000002697398,0.99999994,0,0,0,0,0,0,0,0,0,0,0,false,false,false,0,0,1000,-0.000002697398,0.06276601,-0.000002697398,0.9980282,0,0,0,0,-0.21651,0
13.566667,2000,0,91.24,0.000002697398,0.000002697398,0.000002697398,0.99999994,0,0,0,0,0,0,0,0,0,0,0,false,false,false,0,0,1000,-0.000002697398,0.061886657,-0.000002697398,0.9980831,0,0,0,0,-0.21131,0
13.575,2000,0,91.24,0.000002697398,0.000002697398,0.000002697398,0.99999994,0,0,0,0,0,0,0,0,0,0,0,false,false,false,0,0,1000,-0.0000026973983,0.06102889,-0.0000026973983,0.998136,0,0,0,0,-0.20620999,0
13.583333,2000,0,91.24,0.000002697398,0.000002697398,0.000002697398,0.99999994,0,0,0,0,0,0,0,0,0,0,0,false,false,false,0,0,1000,-0.000002697398,0.060192693,-0.000002697398,0.9981867,0,0,0,0,-0.20120999,0
13.591666,2000,0,91.24,0.000002697398,0.000002697398,0.000002697398,0.99999994,0,0,0,0,0,0,0,0,0,0,0,false,false,false,0,0,1000,-0.000002697398,0.059378076,-0.000002697398,0.9982355,0,0,0,0,-0.19631,0
13.6,2000,0,91.24,0.000002697398,0.000002697398,0.000002697398,0.99999994,0,0,0,0,0,0,0,0,0,0,0,false,false,false,0,0,1000,-0.0000026973983,0.05857965,-0.0000026973983,0.99828273,0,0,0,0,-0.19161,0
13.608334,2000,0,91.24,0.000002697398,0.000002697398,0.000002697398,0.99999994,0,0,0,0,0,0,0,0,0,0,0,false,false,false,0,0,1000,-0.000002697398,0.057802796,-0.000002697398,0.998328,0,0,0,0,-0.18700999,0
13.616667,2000,0,91.24,0.000002697398,0.000002697398,0.000002697398,0.99999994,0,0,0,0,0,0,0,0,0,0,0,false,false,false,0,0,1000,-0.000002697398,0.05704213,-0.000002697398,0.9983717,0,0,0,0,-0.18250999,0
13.625,2000,0,91.24,0.000002697398,0.000002697398,0.000002697398,0.99999994,0,0,0,0,0,0,0,0,0,0,0,false,false,false,0,0,1000,-0.000002697398,0.056303043,-0.000002697398,0.9984137,0,0,0,0,-0.17810999,0
13.633333,2000,0,91.24,0.000002697398,0.000002697398,0.000002697398,0.99999994,0,0,0,0,0,0,0,0,0,0,0,false,false,false,0,0,1000,-0.0000026973983,0.055580143,-0.0000026973983,0.9984542,0,0,0,0,-0.17380999,0
13.641666,2000,0,91.24,0.000002697398,0.000002697398,0.000002697398,0.99999994,0,0,0,0,0,0,0,0,0,0,0,false,false,false,0,0,1000,-0.000002697398,0.054873336,-0.000002697398,0.99849325,0,0,0,0,-0.16961,0
13.65,2000,0,91.24,0.000002697398,0.000002697398,0.000002697398,0.99999994,0,0,0,0,0,0,0,0,0,0,0,false,false,false,0,0,1000,-0.000002697398,0.054182805,-0.000002697398,0.998531,0,0,0,0,-0.16551,0
13.658334,2000,0,91.24,0.000002697398,0.000002697398,0.000002697398,0.99999994,0,0,0,0,0,0,0,0,0,0,0,false,false,false,0,0,1000,-0.000002697398,0.053508453,-0.000002697398,0.99856734,0,0,0,0,-0.16150999,0
13.666667,2000,0,91.24,0.000002697398,0.000002697398,0.000002697398,0.99999994,0,0,0,0,0,0,0,0,0,0,0,false,false,false,0,0,1000,-0.000002697398,0.052850287,-0.000002697398,0.9986024,0,0,0,0,-0.15761,0
13.675,2000,0,91.24,0.000002697398,0.000002697398,0.000002697398,0.99999994,0,0,0,0,0,0,0,0,0,0,0,false,false,false,0,0,1000,-0.0000026973983,0.05220831,-0.0000026973983,0.9986362,0,0,0,0,-0.15381,0
13.683333,2000,0,91.24,0.000002697398,0.000002697398,0.000002697398,0.99999994,0,0,0,0,0,0,0,0,0,0,0,false,false,false,0,0,1000,-0.000002697398,0.05158251,-0.000002697398,0.9986687,0,0,0,0,-0.15010999,0
13.691667,2000,0,91.24,0.000002697398,0.000002697398,0.000002697398,0.99999994,0,0,0,0,0,0,0,0,0,0,0,false,false,false,0,0,1000,-0.0000026973983,0.050972905,-0.0000026973983,0.9987,0,0,0,0,-0.14650999,0
13.7,2000,0,91.24,0.000002697398,0.000002697398,0.000002697398,0.99999994,0,0,0,0,0,0,0,0,0,0,0,false,false,false,0,0,1000,-0.0000026973983,0.050379477,-0.0000026973983,0.9987301,0,0,0,0,-0.14290999,0
13.708333,2000,0,91.24,0.000002697398,0.000002697398,0.000002697398,0.99999994,0,0,0,0,0,0,0,0,0,0,0,false,false,false,0,0,1000,-0.000002697398,0.049796835,-0.000002697398,0.9987593,0,0,0,0,-0.13940999,0
13.716666,2000,0,91.24,0.000002697398,0.000002697398,0.000002697398,0.99999994,0,0,0,0,0,0,0,0,0,0,0,false,false,false,0,0,1000,-0.000002697398,0.04923038,-0.000002697398,0.9987874,0,0,0,0,-0.13600999,0
13.725,2000,0,91.24,0.000002697398,0.000002697398,0.000002697398,0.99999994,0,0,0,0,0,0,0,0,0,0,0,false,false,false,0,0,1000,-0.000002697398,0.04868011,-0.000002697398,0.99881434,0,0,0,0,-0.13271,0
13.733334,2000,0,91.24,0.000002697398,0.000002697398,0.000002697398,0.99999994,0,0,0,0,0,0,0,0,0,0,0,false,false,false,0,0,1000,-0.000002697398,0.04814063,-0.000002697398,0.9988405,0,0,0,0,-0.12951,0
13.741667,2000,0,91.24,0.000002697398,0.000002697398,0.000002697398,0.99999994,0,0,0,0,0,0,0,0,0,0,0,false,false,false,0,0,1000,-0.000002697398,0.04761194,-0.000002697398,0.99886584,0,0,0,0,-0.12641,0
13.75,2000,0,91.24,0.000002697398,0.000002697398,0.000002697398,0.99999994,0,0,0,0,0,0,0,0,0,0,0,false,false,false,0,0,1000,-0.000002697398,0.047099438,-0.000002697398,0.99889016,0,0,0,0,-0.12330999,0
13.758333,2000,0,91.24,0.000002697398,0.000002697398,0.000002697398,0.99999994,0,0,0,0,0,0,0,0,0,0,0,false,false,false,0,0,1000,-0.0000026973978,0.046597715,-0.0000026973978,0.9989136,0,0,0,0,-0.12030999,0
13.766666,2000,0,91.24,0.000002697398,0.000002697398,0.000002697398,0.99999994,0,0,0,0,0,0,0,0,0,0,0,false,false,false,0,0,1000,-0.000002697398,0.046106793,-0.000002697398,0.9989365,0,0,0,0,-0.11741,0
13.775,2000,0,91.24,0.000002697398,0.000002697398,0.000002697398,0.99999994,0,0,0,0,0,0,0,0,0,0,0,false,false,false,0,0,1000,-0.0000026973983,0.045632053,-0.0000026973983,0.9989583,0,0,0,0,-0.11450999,0
13.783334,2000,0,91.24,0.000002697398,0.000002697398,0.000002697398,0.99999994,0,0,0,0,0,0,0,0,0,0,0,false,false,false,0,0,1000,-0.0000026973983,0.0451681,-0.0000026973983,0.9989794,0,0,0,0,-0.11171,0
13.791667,2000,0,91.24,0.000002697398,0.000002697398,0.000002697398,0.99999994,0,0,0,0,0,0,0,0,0,0,0,false,false,false,0,0,1000,-0.000002697398,0.044714935,-0.000002697398,0.9989997,0,0,0,0,-0.109009996,0
13.8,2000,0,91.24,0.000002697398,0.000002697398,0.000002697398,0.99999994,0,0,0,0,0,0,0,0,0,0,0,false,false,false,0,0,1000,-0.000002697398,0.04427256,-0.000002697398,0.99901944,0,0,0,0,-0.106309995,0
13.808333,2000,0,91.24,0.000002697398,0.000002697398,0.000002697398,0.99999994,0,0,0,0,0,0,0,0,0,0,0,false,false,false,0,0,1000,-0.000002697398,0.04384098,-0.000002697398,0.99903846,0,0,0,0,-0.103709996,0
13.816667,2000,0,91.24,0.000002697398,0.000002697398,0.000002697398,0.99999994,0,0,0,0,0,0,0,0,0,0,0,false,false,false,0,0,1000,-0.0000026973978,0.04342018,-0.0000026973978,0.99905676,0,0,0,0,-0.10121,0
13.825,2000,0,91.24,0.000002697398,0.000002697398,0.000002697398,0.99999994,0,0,0,0,0,0,0,0,0,0,0,false,false,false,0,0,1000,-0.000002697398,0.04301018,-0.000002697398,0.9990746,0,0,0,0,-0.09870999,0
13.833333,2000,0,91.24,0.000002697398,0.000002697398,0.000002697398,0.99999994,0,0,0,0,0,0,0,0,0,0,0,false,false,false,0,0,1000,-0.000002697398,0.042610966,-0.000002697398,0.9990917,0,0,0,0,-0.09631,0
13.841666,2000,0,91.24,0.000002697398,0.000002697398,0.000002697398,0.99999994,0,0,0,0,0,0,0,0,0,0,0,false,false,false,0,0,1000,-0.0000026973983,0.04221715,-0.0000026973983,0.99910843,0,0,0,0,-0.094009995,0
13.85,2000,0,91.24,0.000002697398,0.000002697398,0.000002697398,0.99999994,0,0,0,0,0,0,0,0,0,0,0,false,false,false,0,0,1000,-0.000002697398,0.041834116,-0.000002697398,0.9991245,0,0,0,0,-0.091709994,0
13.858334,2000,0,91.24,0.000002697398,0.000002697398,0.000002697398,0.99999994,0,0,0,0,0,0,0,0,0,0,0,false,false,false,0,0,1000,-0.0000026973983,0.041461878,-0.0000026973983,0.9991401,0,0,0,0,-0.089509994,0
13.866667,2000,0,91.24,0.000002697398,0.000002697398,0.000002697398,0.99999994,0,0,0,0,0,0,0,0,0,0,0,false,false,false,0,0,1000,-0.000002697398,0.041100424,-0.000002697398,0.999155,0,0,0,0,-0.087309994,0
13.875,2000,0,91.24,0.000002697398,0.000002697398,0.000002697398,0.99999994,0,0,0,0,0,0,0,0,0,0,0,false,false,false,0,0,1000,-0.000002697398,0.040744364,-0.000002697398,0.9991695,0,0,0,0,-0.085209996,0
13.883333,2000,0,91.24,0.000002697398,0.000002697398,0.000002697398,0.99999994,0,0,0,0,0,0,0,0,0,0,0,false,false,false,0,0,1000,-0.0000026973983,0.0403991,-0.0000026973983,0.9991836,0,0,0,0,-0.08311,0
13.891666,2000,0,91.24,0.000002697398,0.000002697398,0.000002697398,0.99999994,0,0,0,0,0,0,0,0,0,0,0,false,false,false,0,0,1000,-0.000002697398,0.040059227,-0.000002697398,0.99919724,0,0,0,0,-0.08110999,0
13.9,2000,0,91.24,0.000002697398,0.000002697398,0.000002697398,0.99999994,0,0,0,0,0,0,0,0,0,0,0,false,false,false,0,0,1000,-0.0000026973983,0.039730147,-0.0000026973983,0.9992104,0,0,0,0,-0.07911,0
13.908334,2000,0,91.24,0.000002697398,0.000002697398,0.000002697398,0.99999994,0,0,0,0,0,0,0,0,0,0,0,false,false,false,0,0,1000,-0.0000026973983,0.03940646,-0.0000026973983,0.99922323,0,0,0,0,-0.077209994,0
13.916667,2000,0,91.24,0.000002697398,0.000002697398,0.000002697398,0.99999994,0,0,0,0,0,0,0,0,0,0,0,false,false,false,0,0,1000,-0.000002697398,0.039093558,-0.000002697398,0.9992355,0,0,0,0,-0.07531,0
13.925,2000,0,91.24,0.000002697398,0.000002697398,0.000002697398,0.99999994,0,0,0,0,0,0,0,0,0,0,0,false,false,false,0,0,1000,-0.000002697398,0.038786054,-0.000002697398,0.9992475,0,0,0,0,-0.07351,0
13.933333,2000,0,91.24,0.000002697398,0.000002697398,0.000002697398,0.99999994,0,0,0,0,0,0,0,0,0,0,0,false,false,false,0,0,1000,-0.0000026973983,0.038489345,-0.0000026973983,0.999259,0,0,0,0,-0.07171,0
13.941667,2000,0,91.24,0.000002697398,0.000002697398,0.000002697398,0.99999994,0,0,0,0,0,0,0,0,0,0,0,false,false,false,0,0,1000,-0.000002697398,0.03819802,-0.000002697398,0.99927014,0,0,0,0,-0.06991,0
13.95,2000,0,91.24,0.000002697398,0.000002697398,0.000002697398,0.99999994,0,0,0,0,0,0,0,0,0,0,0,false,false,false,0,0,1000,-0.0000026973978,0.037912093,-0.0000026973978,0.9992809,0,0,0,0,-0.06821,0
13.958333,2000,0,91.24,0.000002697398,0.000002697398,0.000002697398,0.99999994,0,0,0,0,0,0,0,0,0,0,0,false,false,false,0,0,1000,-0.000002697398,0.03763696,-0.000002697398,0.9992914,0,0,0,0,-0.06651,0
13.966666,2000,0,91.24,0.000002697398,0.000002697398,0.000002697398,0.99999994,0,0,0,0,0,0,0,0,0,0,0,false,false,false,0,0,1000,-0.000002697398,0.037367225,-0.000002697398,0.99930155,0,0,0,0,-0.064909995,0
13.975,2000,0,91.24,0.000002697398,0.000002697398,0.000002697398,0.99999994,0,0,0,0,0,0,0,0,0,0,0,false,false,false,0,0,1000,-0.000002697398,0.037102878,-0.000002697398,0.9993114,0,0,0,0,-0.06331,0
13.983334,2000,0,91.24,0.000002697398,0.000002697398,0.000002697398,0.99999994,0,0,0,0,0,0,0,0,0,0,0,false,false,false,0,0,1000,-0.000002697398,0.03684393,-0.000002697398,0.999321,0,0,0,0,-0.061709996,0
13.991667,2000,0,91.24,0.000002697398,0.000002697398,0.000002697398,0.99999994,0,0,0,0,0,0,0,0,0,0,0,false,false,false,0,0,1000,-0.000002697398,0.036595766,-0.000002697398,0.9993301,0,0,0,0,-0.060209997,0
14,2000,0,91.24,0.000002697398,0.000002697398,0.000002697398,0.99999994,0,0,0,0,0,0,0,0,0,0,0,false,false,false,0,0,1000,-0.0000026973983,0.036353003,-0.0000026973983,0.999339,0,0,0,0,-0.058709998,0
14.008333,2000,0,91.24,0.000002697398,0.000002697398,0.000002697398,0.99999994,0,0,0,0,0,0,0,0,0,0,0,false,false,false,0,0,1000,-0.000002697398,0.03611563,-0.000002697398,0.99934757,0,0,0,0,-0.057309996,0
14.016666,2000,0,91.24,0.000002697398,0.000002697398,0.000002697398,0.99999994,0,0,0,0,0,0,0,0,0,0,0,false,false,false,0,0,1000,-0.000002697398,0.035883654,-0.000002697398,0.9993559,0,0,0,0,-0.05591,0
14.025,2000,0,91.24,0.000002697398,0.000002697398,0.000002697398,0.99999994,0,0,0,0,0,0,0,0,0,0,0,false,false,false,0,0,1000,-0.000002697398,0.035657074,-0.000002697398,0.999364,0,0,0,0,-0.054509997,0
14.033334,2000,0,91.24,0.000002697398,0.000002697398,0.000002697398,0.99999994,0,0,0,0,0,0,0,0,0,0,0,false,false,false,0,0,1000,-0.000002697398,0.035435885,-0.000002697398,0.9993719,0,0,0,0,-0.053209998,0
14.041667,2000,0,91.24,0.000002697398,0.000002697398,0.000002697398,0.99999994,0,0,0,0,0,0,0,0,0,0,0,false,false,false,0,0,1000,-0.0000026973983,0.035220098,-0.0000026973983,0.9993796,0,0,0,0,-0.051909998,0
14.05,2000,0,91.24,0.000002697398,0.000002697398,0.000002697398,0.99999994,0,0,0,0,0,0,0,0,0,0,0,false,false,false,0,0,1000,-0.0000026973983,0.0350097,-0.0000026973983,0.99938697,0,0,0,0,-0.05061,0
14.058333,2000,0,91.24,0.000002697398,0.000002697398,0.000002697398,0.99999994,0,0,0,0,0,0,0,0,0,0,0,false,false,false,0,0,1000,-0.0000026973983,0.034804698,-0.0000026973983,0.9993941,0,0,0,0,-0.04931,0
14.066667,2000,0,91.24,0.000002697398,0.000002697398,0.000002697398,0.99999994,0,0,0,0,0,0,0,0,0,0,0,false,false,false,0,0,1000,-0.0000026973983,0.03460509,-0.0000026973983,0.99940103,0,0,0,0,-0.048109997,0
14.075,2000,0,91.24,0.000002697398,0.000002697398,0.000002697398,0.99999994,0,0,0,0,0,0,0,0,0,0,0,false,false,false,0,0,1000,-0.000002697398,0.034410875,-0.000002697398,0.9994077,0,0,0,0,-0.04691,0
14.083333,2000,0,91.24,0.000002697398,0.000002697398,0.000002697398,0.99999994,0,0,0,0,0,0,0,0,0,0,0,false,false,false,0,0,1000,-0.000002697398,0.034222055,-0.000002697398,0.9994142,0,0,0,0,-0.045709997,0
14.091666,2000,0,91.24,0.000002697398,0.000002697398,0.000002697398,0.99999994,0,0,0,0,0,0,0,0,0,0,0,false,false,false,0,0,1000,-0.000002697398,0.034038633,-0.000002697398,0.99942046,0,0,0,0,-0.044609997,0
14.1,2000,0,91.24,0.000002697398,0.000002697398,0.000002697398,0.99999994,0,0,0,0,0,0,0,0,0,0,0,false,false,false,0,0,1000,-0.000002697398,0.03385521,-0.000002697398,0.99942666,0,0,0,0,-0.043509997,0
14.108334,2000,0,91.24,0.000002697398,0.000002697398,0.000002697398,0.99999994,0,0,0,0,0,0,0,0,0,0,0,false,false,false,0,0,1000,-0.0000026973983,0.033677187,-0.0000026973983,0.99943274,0,0,0,0,-0.042409997,0
14.116667,2000,0,91.24,0.000002697398,0.000002697398,0.000002697398,0.99999994,0,0,0,0,0,0,0,0,0,0,0,false,false,false,0,0,1000,-0.000002697398,0.03350455,-0.000002697398,0.9994385,0,0,0,0,-0.041309997,0
14.125,2000,0,91.24,0.000002697398,0.000002697398,0.000002697398,0.99999994,0,0,0,0,0,0,0,0,0,0,0,false,false,false,0,0,1000,-0.0000026973983,0.033337314,-0.0000026973983,0.9994441,0,0,0,0,-0.04031,0
14.133333,2000,0,91.24,0.000002697398,0.000002697398,0.000002697398,0.99999994,0,0,0,0,0,0,0,0,0,0,0,false,false,false,0,0,1000,-0.000002697398,0.033175465,-0.000002697398,0.9994495,0,0,0,0,-0.039309997,0
14.141666,2000,0,91.24,0.000002697398,0.000002697398,0.000002697398,0.99999994,0,0,0,0,0,0,0,0,0,0,0,false,false,false,0,0,1000,-0.000002697398,0.033013538,-0.000002697398,0.99945486,0,0,0,0,-0.03831,0
14.15,2000,0,91.24,0.000002697398,0.000002697398,0.000002697398,0.99999994,0,0,0,0,0,0,0,0,0,0,0,false,false,false,0,0,1000,-0.0000026973978,0.032857087,-0.0000026973978,0.9994599,0,0,0,0,-0.037309997,0
14.158334,2000,0,91.24,0.000002697398,0.000002697398,0.000002697398,0.99999994,0,0,0,0,0,0,0,0,0,0,0,false,false,false,0,0,1000,-0.0000026973978,0.03270603,-0.0000026973978,0.99946487,0,0,0,0,-0.036409996,0
14.166667,2000,0,91.24,0.000002697398,0.000002697398,0.000002697398,0.99999994,0,0,0,0,0,0,0,0,0,0,0,false,false,false,0,0,1000,-0.000002697398,0.032560375,-0.000002697398,0.9994697,0,0,0,0,-0.035509996,0
14.175,2000,0,91.24,0.000002697398,0.000002697398,0.000002697398,0.99999994,0,0,0,0,0,0,0,0,0,0,0,false,false,false,0,0,1000,-0.0000026973978,0.032414712,-0.0000026973978,0.99947435,0,0,0,0,-0.03461,0
14.183333,2000,0,91.24,0.000002697398,0.000002697398,0.000002697398,0.99999994,0,0,0,0,0,0,0,0,0,0,0,false,false,false,0,0,1000,-0.000002697398,0.03227445,-0.000002697398,0.999479,0,0,0,0,-0.03371,0
14.191667,2000,0,91.24,0.000002697398,0.000002697398,0.000002697398,0.99999994,0,0,0,0,0,0,0,0,0,0,0,false,false,false,0,0,1000,-0.000002697398,0.03213958,-0.000002697398,0.99948335,0,0,0,0,-0.032909997,0
14.2,2000,0,91.24,0.000002697398,0.000002697398,0.000002697398,0.99999994,0,0,0,0,0,0,0,0,0,0,0,false,false,false,0,0,1000,-0.0000026973983,0.032004714,-0.0000026973983,0.9994877,0,0,0,0,-0.03211,0
14.208333,2000,0,91.24,0.000002697398,0.000002697398,0.000002697398,0.99999994,0,0,0,0,0,0,0,0,0,0,0,false,false,false,0,0,1000,-0.000002697398,0.031875234,-0.000002697398,0.9994918,0,0,0,0,-0.03131,0
14.216666,2000,0,91.24,0.000002697398,0.000002697398,0.000002697398,0.99999994,0,0,0,0,0,0,0,0,0,0,0,false,false,false,0,0,1000,-0.000002697398,0.03174576,-0.000002697398,0.9994959,0,0,0,0,-0.030509999,0
14.225,2000,0,91.24,0.000002697398,0.000002697398,0.000002697398,0.99999994,0,0,0,0,0,0,0,0,0,0,0,false,false,false,0,0,1000,-0.000002697398,0.03162168,-0.000002697398,0.99949986,0,0,0,0,-0.02971,0
14.233334,2000,0,91.24,0.000002697398,0.000002697398,0.000002697398,0.99999994,0,0,0,0,0,0,0,0,0,0,0,false,false,false,0,0,1000,-0.000002697398,0.031502996,-0.000002697398,0.9995036,0,0,0,0,-0.02891,0
14.241667,2000,0,91.24,0.000002697398,0.000002697398,0.000002697398,0.99999994,0,0,0,0,0,0,0,0,0,0,0,false,false,false,0,0,1000,-0.0000026973983,0.03138431,-0.0000026973983,0.99950737,0,0,0,0,-0.02821,0
14.25,2000,0,91.24,0.000002697398,0.000002697398,0.000002697398,0.99999994,0,0,0,0,0,0,0,0,0,0,0,false,false,false,0,0,1000,-0.000002697398,0.031271018,-0.000002697398,0.9995109,0,0,0,0,-0.02751,0
14.258333,2000,0,91.24,0.000002697398,0.000002697398,0.000002697398,0.99999994,0,0,0,0,0,0,0,0,0,0,0,false,false,false,0,0,1000,-0.0000026973978,0.031157726,-0.0000026973978,0.99951434,0,0,0,0,-0.02681,0
14.266666,2000,0,91.24,0.000002697398,0.000002697398,0.000002697398,0.99999994,0,0,0,0,0,0,0,0,0,0,0,false,false,false,0,0,1000,-0.000002697398,0.031049835,-0.000002697398,0.9995178,0,0,0,0,-0.026109999,0
14.275,2000,0,91.24,0.000002697398,0.000002697398,0.000002697398,0.99999994,0,0,0,0,0,0,0,0,0,0,0,false,false,false,0,0,1000,-0.000002697398,0.030941937,-0.000002697398,0.99952114,0,0,0,0,-0.02541,0
14.283334,2000,0,91.24,0.000002697398,0.000002697398,0.000002697398,0.99999994,0,0,0,0,0,0,0,0,0,0,0,false,false,false,0,0,1000,-0.000002697398,0.030839438,-0.000002697398,0.9995243,0,0,0,0,-0.02481,0
14.291667,2000,0,91.24,0.000002697398,0.000002697398,0.000002697398,0.99999994,0,0,0,0,0,0,0,0,0,0,0,false,false,false,0,0,1000,-0.000002697398,0.030736936,-0.000002697398,0.99952745,0,0,0,0,-0.02421,0
14.3,2000,0,91.24,0.000002697398,0.000002697398,0.000002697398,0.99999994,0,0,0,0,0,0,0,0,0,0,0,false,false,false,0,0,1000,-0.000002697398,0.03063983,-0.000002697398,0.99953043,0,0,0,0,-0.02361,0
14.308333,2000,0,91.24,0.000002697398,0.000002697398,0.000002697398,0.99999994,0,0,0,0,0,0,0,0,0,0,0,false,false,false,0,0,1000,-0.000002697398,0.030542724,-0.000002697398,0.9995334,0,0,0,0,-0.02301,0
14.316667,2000,0,91.24,0.000002697398,0.000002697398,0.000002697398,0.99999994,0,0,0,0,0,0,0,0,0,0,0,false,false,false,0,0,1000,-0.000002697398,0.03045101,-0.000002697398,0.9995362,0,0,0,0,-0.02241,0
14.325,2000,0,91.24,0.000002697398,0.000002697398,0.000002697398,0.99999994,0,0,0,0,0,0,0,0,0,0,0,false,false,false,0,0,1000,-0.0000026973978,0.030359296,-0.0000026973978,0.9995389,0,0,0,0,-0.02181,0
14.333333,2000,0,91.24,0.000002697398,0.000002697398,0.000002697398,0.99999994,0,0,0,0,0,0,0,0,0,0,0,false,false,false,0,0,1000,-0.000002697398,0.030272983,-0.000002697398,0.9995416,0,0,0,0,-0.02121,0
14.341666,2000,0,91.24,0.000002697398,0.000002697398,0.000002697398,0.99999994,0,0,0,0,0,0,0,0,0,0,0,false,false,false,0,0,1000,-0.0000026973983,0.030186668,-0.0000026973983,0.99954426,0,0,0,0,-0.02071,0
14.35,2000,0,91.24,0.000002697398,0.000002697398,0.000002697398,0.99999994,0,0,0,0,0,0,0,0,0,0,0,false,false,false,0,0,1000,-0.000002697398,0.03010035,-0.000002697398,0.9995468,0,0,0,0,-0.02021,0
14.358334,2000,0,91.24,0.000002697398,0.000002697398,0.000002697398,0.99999994,0,0,0,0,0,0,0,0,0,0,0,false,false,false,0,0,1000,-0.000002697398,0.030019429,-0.000002697398,0.99954927,0,0,0,0,-0.01971,0
14.366667,2000,0,91.24,0.000002697398,0.000002697398,0.000002697398,0.99999994,0,0,0,0,0,0,0,0,0,0,0,false,false,false,0,0,1000,-0.0000026973983,0.029938508,-0.0000026973983,0.9995517,0,0,0,0,-0.01921,0
14.375,2000,0,91.24,0.000002697398,0.000002697398,0.000002697398,0.99999994,0,0,0,0,0,0,0,0,0,0,0,false,false,false,0,0,1000,-0.0000026973983,0.029862981,-0.0000026973983,0.999554,0,0,0,0,-0.01871,0
14.383333,2000,0,91.24,0.000002697398,0.000002697398,0.000002697398,0.99999994,0,0,0,0,0,0,0,0,0,0,0,false,false,false,0,0,1000,-0.0000026973983,0.029787453,-0.0000026973983,0.99955624,0,0,0,0,-0.01821,0
14.391666,2000,0,91.24,0.000002697398,0.000002697398,0.000002697398,0.99999994,0,0,0,0,0,0,0,0,0,0,0,false,false,false,0,0,1000,-0.000002697398,0.029711924,-0.000002697398,0.99955845,0,0,0,0,-0.01771,0
14.4,2000,0,91.24,0.000002697398,0.000002697398,0.000002697398,0.99999994,0,0,0,0,0,0,0,0,0,0,0,false,false,false,0,0,1000,-0.000002697398,0.029641792,-0.000002697398,0.99956053,0,0,0,0,-0.01721,0
14.408334,2000,0,91.24,0.000002697398,0.000002697398,0.000002697398,0.99999994,0,0,0,0,0,0,0,0,0,0,0,false,false,false,0,0,1000,-0.000002697398,0.02957166,-0.000002697398,0.9995626,0,0,0,0,-0.01671,0
14.416667,2000,0,91.24,0.000002697398,0.000002697398,0.000002697398,0.99999994,0,0,0,0,0,0,0,0,0,0,0,false,false,false,0,0,1000,-0.0000026973983,0.02950153,-0.0000026973983,0.9995647,0,0,0,0,-0.01631,0
14.425,2000,0,91.24,0.000002697398,0.000002697398,0.000002697398,0.99999994,0,0,0,0,0,0,0,0,0,0,0,false,false,false,0,0,1000,-0.0000026973983,0.029436791,-0.0000026973983,0.9995666,0,0,0,0,-0.01591,0
14.433333,2000,0,91.24,0.000002697398,0.000002697398,0.000002697398,0.99999994,0,0,0,0,0,0,0,0,0,0,0,false,false,false,0,0,1000,-0.0000026973983,0.029372053,-0.0000026973983,0.9995685,0,0,0,0,-0.015509999,0
14.441667,2000,0,91.24,0.000002697398,0.000002697398,0.000002697398,0.99999994,0,0,0,0,0,0,0,0,0,0,0,false,false,false,0,0,1000,-0.0000026973983,0.029307317,-0.0000026973983,0.9995704,0,0,0,0,-0.015109999,0
