time,ball_loc_x,ball_loc_y,ball_loc_z,ball_rot_x,ball_rot_y,ball_rot_z,ball_rot_w,ball_vel_x,ball_vel_y,ball_vel_z,ball_ang_x,ball_ang_y,ball_ang_z,player0_throttle,player0_steer,player0_pitch,player0_yaw,player0_roll,player0_jump,player0_boost,player0_handbrake,player0_loc_x,player0_loc_y,player0_loc_z,player0_rot_x,player0_rot_y,player0_rot_z,player0_rot_w,player0_vel_x,player0_vel_y,player0_vel_z,player0_ang_x,player0_ang_y,player0_ang_z
36.475,2000,0,91.24,0.000002697398,0.000002697398,0.000002697398,0.99999994,0,0,0,0,0,0,0,0,0,0,1,false,false,false,0,0,1000,0.58955365,-0.000002697398,-0.000002697398,0.8077291,0,0,0,-5.49991,0,0
36.483334,2000,0,91.24,0.000002697398,0.000002697398,0.000002697398,0.99999994,0,0,0,0,0,0,0,0,0,0,0,false,false,false,0,0,1000,0.57164294,-0.0000026973983,-0.0000026973983,0.82050246,0,0,0,-5.28021,0,0
36.491665,2000,0,91.24,0.000002697398,0.000002697398,0.000002697398,0.99999994,0,0,0,0,0,0,0,0,0,0,0,false,false,false,0,0,1000,0.5541852,-0.000002697398,-0.000002697398,0.8323933,0,0,0,-5.06921,0,0
36.5,2000,0,91.24,0.000002697398,0.000002697398,0.000002697398,0.99999994,0,0,0,0,0,0,0,0,0,0,0,false,false,false,0,0,1000,0.5371915,-0.000002697398,-0.000002697398,0.8434602,0,0,0,-4.8667097,0,0
36.508335,2000,0,91.24,0.000002697398,0.000002697398,0.000002697398,0.99999994,0,0,0,0,0,0,0,0,0,0,0,false,false,false,0,0,1000,0.5206727,-0.000002697398,-0.000002697398,0.8537563,0,0,0,-4.6722097,0,0
36.516666,2000,0,91.24,0.000002697398,0.000002697398,0.000002697398,0.99999994,0,0,0,0,0,0,0,0,0,0,0,false,false,false,0,0,1000,0.5046284,-0.000002697398,-0.000002697398,0.86333656,0,0,0,-4.48551,0,0
36.525,2000,0,91.24,0.000002697398,0.000002697398,0.000002697398,0.99999994,0,0,0,0,0,0,0,0,0,0,0,false,false,false,0,0,1000,0.48905903,-0.0000026973983,-0.0000026973983,0.8722507,0,0,0,-4.3063097,0,0
36.533333,2000,0,91.24,0.000002697398,0.000002697398,0.000002697398,0.99999994,0,0,0,0,0,0,0,0,0,0,0,false,false,false,0,0,1000,0.47396427,-0.000002697398,-0.000002697398,0.880544,0,0,0,-4.13421,0,0
36.541668,2000,0,91.24,0.000002697398,0.000002697398,0.000002697398,0.99999994,0,0,0,0,0,0,0,0,0,0,0,false,false,false,0,0,1000,0.459339,-0.000002697398,-0.000002697398,0.88826096,0,0,0,-3.9690099,0,0
36.55,2000,0,91.24,0.000002697398,0.000002697398,0.000002697398,0.99999994,0,0,0,0,0,0,0,0,0,0,0,false,false,false,0,0,1000,0.44517756,-0.000002697398,-0.000002697398,0.89544225,0,0,0,-3.81041,0,0
36.558334,2000,0,91.24,0.000002697398,0.000002697398,0.000002697398,0.99999994,0,0,0,0,0,0,0,0,0,0,0,false,false,false,0,0,1000,0.4314802,-0.0000026973983,-0.0000026973983,0.9021224,0,0,0,-3.65811,0,0
36.566666,2000,0,91.24,0.000002697398,0.000002697398,0.000002697398,0.99999994,0,0,0,0,0,0,0,0,0,0,0,false,false,false,0,0,1000,0.41823587,-0.000002697398,-0.000002697398,0.90833837,0,0,0,-3.51191,0,0
36.575,2000,0,91.24,0.000002697398,0.000002697398,0.000002697398,0.99999994,0,0,0,0,0,0,0,0,0,0,0,false,false,false,0,0,1000,0.4054339,-0.0000026973978,-0.0000026973978,0.9141242,0,0,0,-3.37161,0,0
36.583332,2000,0,91.24,0.000002697398,0.000002697398,0.000002697398,0.99999994,0,0,0,0,0,0,0,0,0,0,0,false,false,false,0,0,1000,0.39306906,-0.000002697398,-0.000002697398,0.9195089,0,0,0,-3.2369099,0,0
36.591667,2000,0,91.24,0.000002697398,0.000002697398,0.000002697398,0.99999994,0,0,0,0,0,0,0,0,0,0,0,false,false,false,0,0,1000,0.38113028,-0.000002697398,-0.000002697398,0.92452127,0,0,0,-3.10761,0,0
36.6,2000,0,91.24,0.000002697398,0.000002697398,0.000002697398,0.99999994,0,0,0,0,0,0,0,0,0,0,0,false,false,false,0,0,1000,0.36960703,-0.0000026973983,-0.0000026973983,0.92918813,0,0,0,-2.98341,0,0
36.608334,2000,0,91.24,0.000002697398,0.000002697398,0.000002697398,0.99999994,0,0,0,0,0,0,0,0,0,0,0,false,false,false,0,0,1000,0.35849363,-0.000002697398,-0.000002697398,0.9335321,0,0,0,-2.86421,0,0
36.616665,2000,0,91.24,0.000002697398,0.000002697398,0.000002697398,0.99999994,0,0,0,0,0,0,0,0,0,0,0,false,false,false,0,0,1000,0.34777418,-0.000002697398,-0.000002697398,0.93757826,0,0,0,-2.7497098,0,0
36.625,2000,0,91.24,0.000002697398,0.000002697398,0.000002697398,0.99999994,0,0,0,0,0,0,0,0,0,0,0,false,false,false,0,0,1000,0.33744305,-0.000002697398,-0.000002697398,0.9413459,0,0,0,-2.6398098,0,0
36.633335,2000,0,91.24,0.000002697398,0.000002697398,0.000002697398,0.99999994,0,0,0,0,0,0,0,0,0,0,0,false,false,false,0,0,1000,0.3274843,-0.0000026973983,-0.0000026973983,0.9448566,0,0,0,-2.5343099,0,0
36.641666,2000,0,91.24,0.000002697398,0.000002697398,0.000002697398,0.99999994,0,0,0,0,0,0,0,0,0,0,0,false,false,false,0,0,1000,0.31788686,-0.0000026973983,-0.0000026973983,0.94812864,0,0,0,-2.4330099,0,0
36.65,2000,0,91.24,0.000002697398,0.000002697398,0.000002697398,0.99999994,0,0,0,0,0,0,0,0,0,0,0,false,false,false,0,0,1000,0.30864555,-0.000002697398,-0.000002697398,0.95117706,0,0,0,-2.33581,0,0
36.658333,2000,0,91.24,0.000002697398,0.000002697398,0.000002697398,0.99999994,0,0,0,0,0,0,0,0,0,0,0,false,false,false,0,0,1000,0.29974416,-0.0000026973983,-0.0000026973983,0.9540196,0,0,0,-2.2425098,0,0
36.666668,2000,0,91.24,0.000002697398,0.000002697398,0.000002697398,0.99999994,0,0,0,0,0,0,0,0,0,0,0,false,false,false,0,0,1000,0.29117173,-0.000002697398,-0.000002697398,0.95667076,0,0,0,-2.15291,0,0
36.675,2000,0,91.24,0.000002697398,0.000002697398,0.000002697398,0.99999994,0,0,0,0,0,0,0,0,0,0,0,false,false,false,0,0,1000,0.28292304,-0.0000026973978,-0.0000026973978,0.95914245,0,0,0,-2.06691,0,0
36.683334,2000,0,91.24,0.000002697398,0.000002697398,0.000002697398,0.99999994,0,0,0,0,0,0,0,0,0,0,0,false,false,false,0,0,1000,0.2749819,-0.0000026973983,-0.0000026973983,0.9614494,0,0,0,-1.9843099,0,0
36.691666,2000,0,91.24,0.000002697398,0.000002697398,0.000002697398,0.99999994,0,0,0,0,0,0,0,0,0,0,0,false,false,false,0,0,1000,0.26734284,-0.0000026973983,-0.0000026973983,0.96360147,0,0,0,-1.90501,0,0
36.7,2000,0,91.24,0.000002697398,0.000002697398,0.000002697398,0.99999994,0,0,0,0,0,0,0,0,0,0,0,false,false,false,0,0,1000,0.2599897,-0.000002697398,-0.000002697398,0.96561134,0,0,0,-1.82891,0,0
36.708332,2000,0,91.24,0.000002697398,0.000002697398,0.000002697398,0.99999994,0,0,0,0,0,0,0,0,0,0,0,false,false,false,0,0,1000,0.25291708,-0.0000026973983,-0.0000026973983,0.96748793,0,0,0,-1.75581,0,0
36.716667,2000,0,91.24,0.000002697398,0.000002697398,0.000002697398,0.99999994,0,0,0,0,0,0,0,0,0,0,0,false,false,false,0,0,1000,0.24611422,-0.000002697398,-0.000002697398,0.9692408,0,0,0,-1.6856099,0,0
36.725,2000,0,91.24,0.000002697398,0.000002697398,0.000002697398,0.99999994,0,0,0,0,0,0,0,0,0,0,0,false,false,false,0,0,1000,0.2395757,-0.0000026973978,-0.0000026973978,0.9708775,0,0,0,-1.61821,0,0
36.733334,2000,0,91.24,0.000002697398,0.000002697398,0.000002697398,0.99999994,0,0,0,0,0,0,0,0,0,0,0,false,false,false,0,0,1000,0.2332854,-0.000002697398,-0.000002697398,0.97240824,0,0,0,-1.55351,0,0
36.741665,2000,0,91.24,0.000002697398,0.000002697398,0.000002697398,0.99999994,0,0,0,0,0,0,0,0,0,0,0,false,false,false,0,0,1000,0.22723776,-0.0000026973983,-0.0000026973983,0.9738393,0,0,0,-1.49141,0,0
36.75,2000,0,91.24,0.000002697398,0.000002697398,0.000002697398,0.99999994,0,0,0,0,0,0,0,0,0,0,0,false,false,false,0,0,1000,0.22142217,-0.000002697398,-0.000002697398,0.975178,0,0,0,-1.43181,0,0
36.758335,2000,0,91.24,0.000002697398,0.000002697398,0.000002697398,0.99999994,0,0,0,0,0,0,0,0,0,0,0,false,false,false,0,0,1000,0.21583316,-0.0000026973983,-0.0000026973983,0.97643024,0,0,0,-1.37461,0,0
36.766666,2000,0,91.24,0.000002697398,0.000002697398,0.000002697398,0.99999994,0,0,0,0,0,0,0,0,0,0,0,false,false,false,0,0,1000,0.21045993,-0.000002697398,-0.000002697398,0.9776024,0,0,0,-1.31961,0,0
36.775,2000,0,91.24,0.000002697398,0.000002697398,0.000002697398,0.99999994,0,0,0,0,0,0,0,0,0,0,0,false,false,false,0,0,1000,0.20529701,-0.0000026973978,-0.0000026973978,0.97869956,0,0,0,-1.2668099,0,0
36.783333,2000,0,91.24,0.000002697398,0.000002697398,0.000002697398,0.99999994,0,0,0,0,0,0,0,0,0,0,0,false,false,false,0,0,1000,0.20033382,-0.000002697398,-0.000002697398,0.9797276,0,0,0,-1.21621,0,0
36.791668,2000,0,91.24,0.000002697398,0.000002697398,0.000002697398,0.99999994,0,0,0,0,0,0,0,0,0,0,0,false,false,false,0,0,1000,0.19556482,-0.000002697398,-0.000002697398,0.9806907,0,0,0,-1.1676099,0,0
36.8,2000,0,91.24,0.000002697398,0.000002697398,0.000002697398,0.99999994,0,0,0,0,0,0,0,0,0,0,0,false,false,false,0,0,1000,0.19098465,-0.0000026973983,-0.0000026973983,0.981593,0,0,0,-1.1209099,0,0
36.808334,2000,0,91.24,0.000002697398,0.000002697398,0.000002697398,0.99999994,0,0,0,0,0,0,0,0,0,0,0,false,false,false,0,0,1000,0.18658239,-0.0000026973978,-0.0000026973978,0.98243916,0,0,0,-1.07611,0,0
36.816666,2000,0,91.24,0.000002697398,0.000002697398,0.000002697398,0.99999994,0,0,0,0,0,0,0,0,0,0,0,false,false,false,0,0,1000,0.18235287,-0.000002697398,-0.000002697398,0.9832331,0,0,0,-1.03311,0,0
36.825,2000,0,91.24,0.000002697398,0.000002697398,0.000002697398,0.99999994,0,0,0,0,0,0,0,0,0,0,0,false,false,false,0,0,1000,0.17829058,-0.0000026973978,-0.0000026973978,0.98397774,0,0,0,-0.99180996,0,0
36.833332,2000,0,91.24,0.000002697398,0.000002697398,0.000002697398,0.99999994,0,0,0,0,0,0,0,0,0,0,0,false,false,false,0,0,1000,0.17438476,-0.000002697398,-0.000002697398,0.98467755,0,0,0,-0.95211,0,0
36.841667,2000,0,91.24,0.000002697398,0.000002697398,0.000002697398,0.99999994,0,0,0,0,0,0,0,0,0,0,0,false,false,false,0,0,1000,0.17063537,-0.000002697398,-0.000002697398,0.98533416,0,0,0,-0.91401,0,0
36.85,2000,0,91.24,0.000002697398,0.000002697398,0.000002697398,0.99999994,0,0,0,0,0,0,0,0,0,0,0,false,false,false,0,0,1000,0.16703165,-0.000002697398,-0.000002697398,0.9859515,0,0,0,-0.87741,0,0
36.858334,2000,0,91.24,0.000002697398,0.000002697398,0.000002697398,0.99999994,0,0,0,0,0,0,0,0,0,0,0,false,false,false,0,0,1000,0.16356811,-0.000002697398,-0.000002697398,0.986532,0,0,0,-0.84231,0,0
36.866665,2000,0,91.24,0.000002697398,0.000002697398,0.000002697398,0.99999994,0,0,0,0,0,0,0,0,0,0,0,false,false,false,0,0,1000,0.16024491,-0.000002697398,-0.000002697398,0.98707724,0,0,0,-0.80861,0,0
36.875,2000,0,91.24,0.000002697398,0.000002697398,0.000002697398,0.99999994,0,0,0,0,0,0,0,0,0,0,0,false,false,false,0,0,1000,0.15705118,-0.0000026973978,-0.0000026973978,0.9875903,0,0,0,-0.77630997,0,0
36.883335,2000,0,91.24,0.000002697398,0.000002697398,0.000002697398,0.99999994,0,0,0,0,0,0,0,0,0,0,0,false,false,false,0,0,1000,0.15398157,-0.0000026973983,-0.0000026973983,0.9880737,0,0,0,-0.74521,0,0
36.891666,2000,0,91.24,0.000002697398,0.000002697398,0.000002697398,0.99999994,0,0,0,0,0,0,0,0,0,0,0,false,false,false,0,0,1000,0.151036,-0.000002697398,-0.000002697398,0.9885282,0,0,0,-0.71541,0,0
36.9,2000,0,91.24,0.000002697398,0.000002697398,0.000002697398,0.99999994,0,0,0,0,0,0,0,0,0,0,0,false,false,false,0,0,1000,0.14820375,-0.0000026973983,-0.0000026973983,0.9889568,0,0,0,-0.68681,0,0
36.908333,2000,0,91.24,0.000002697398,0.000002697398,0.000002697398,0.99999994,0,0,0,0,0,0,0,0,0,0,0,false,false,false,0,0,1000,0.14548475,-0.000002697398,-0.000002697398,0.98936045,0,0,0,-0.65931,0,0
36.916668,2000,0,91.24,0.000002697398,0.000002697398,0.000002697398,0.99999994,0,0,0,0,0,0,0,0,0,0,0,false,false,false,0,0,1000,0.14287357,-0.0000026973978,-0.0000026973978,0.9897408,0,0,0,-0.63291,0,0
36.925,2000,0,91.24,0.000002697398,0.000002697398,0.000002697398,0.99999994,0,0,0,0,0,0,0,0,0,0,0,false,false,false,0,0,1000,0.140365,-0.000002697398,-0.000002697398,0.9900998,0,0,0,-0.60761,0,0
36.933334,2000,0,91.24,0.000002697398,0.000002697398,0.000002697398,0.99999994,0,0,0,0,0,0,0,0,0,0,0,false,false,false,0,0,1000,0.13795891,-0.0000026973978,-0.0000026973978,0.9904378,0,0,0,-0.58331,0,0
36.941666,2000,0,91.24,0.000002697398,0.000002697398,0.000002697398,0.99999994,0,0,0,0,0,0,0,0,0,0,0,false,false,false,0,0,1000,0.13564996,-0.0000026973983,-0.0000026973983,0.9907568,0,0,0,-0.56001,0,0
36.95,2000,0,91.24,0.000002697398,0.000002697398,0.000002697398,0.99999994,0,0,0,0,0,0,0,0,0,0,0,false,false,false,0,0,1000,0.13343269,-0.000002697398,-0.000002697398,0.9910578,0,0,0,-0.53761,0,0
36.958332,2000,0,91.24,0.000002697398,0.000002697398,0.000002697398,0.99999994,0,0,0,0,0,0,0,0,0,0,0,false,false,false,0,0,1000,0.13130175,-0.000002697398,-0.000002697398,0.99134237,0,0,0,-0.51611,0,0
36.966667,2000,0,91.24,0.000002697398,0.000002697398,0.000002697398,0.99999994,0,0,0,0,0,0,0,0,0,0,0,false,false,false,0,0,1000,0.12925711,-0.000002697398,-0.000002697398,0.99161106,0,0,0,-0.49541,0,0
36.975,2000,0,91.24,0.000002697398,0.000002697398,0.000002697398,0.99999994,0,0,0,0,0,0,0,0,0,0,0,false,false,false,0,0,1000,0.12729341,-0.000002697398,-0.000002697398,0.99186504,0,0,0,-0.47561,0,0
36.983334,2000,0,91.24,0.000002697398,0.000002697398,0.000002697398,0.99999994,0,0,0,0,0,0,0,0,0,0,0,false,false,false,0,0,1000,0.12540524,-0.000002697398,-0.000002697398,0.99210554,0,0,0,-0.45661,0,0
36.991665,2000,0,91.24,0.000002697398,0.000002697398,0.000002697398,0.99999994,0,0,0,0,0,0,0,0,0,0,0,false,false,false,0,0,1000,0.12359259,-0.000002697398,-0.000002697398,0.992333,0,0,0,-0.43831,0,0
37,2000,0,91.24,0.000002697398,0.000002697398,0.000002697398,0.99999994,0,0,0,0,0,0,0,0,0,0,0,false,false,false,0,0,1000,0.12185007,-0.000002697398,-0.000002697398,0.99254847,0,0,0,-0.42081,0,0
37.008335,2000,0,91.24,0.000002697398,0.000002697398,0.000002697398,0.99999994,0,0,0,0,0,0,0,0,0,0,0,false,false,false,0,0,1000,0.120177604,-0.0000026973983,-0.0000026973983,0.9927524,0,0,0,-0.40391,0,0
37.016666,2000,0,91.24,0.000002697398,0.000002697398,0.000002697398,0.99999994,0,0,0,0,0,0,0,0,0,0,0,false,false,false,0,0,1000,0.11857535,-0.0000026973983,-0.0000026973983,0.992945,0,0,0,-0.38771,0,0
37.025,2000,0,91.24,0.000002697398,0.000002697398,0.000002697398,0.99999994,0,0,0,0,0,0,0,0,0,0,0,false,false,false,0,0,1000,0.117037825,-0.000002697398,-0.000002697398,0.9931274,0,0,0,-0.37221,0,0
37.033333,2000,0,91.24,0.000002697398,0.000002697398,0.000002697398,0.99999994,0,0,0,0,0,0,0,0,0,0,0,false,false,false,0,0,1000,0.11555966,-0.0000026973983,-0.0000026973983,0.9933005,0,0,0,-0.35731,0,0
37.041668,2000,0,91.24,0.000002697398,0.000002697398,0.000002697398,0.99999994,0,0,0,0,0,0,0,0,0,0,0,false,false,false,0,0,1000,0.11414082,-0.000002697398,-0.000002697398,0.9934645,0,0,0,-0.34301,0,0
37.05,2000,0,91.24,0.000002697398,0.000002697398,0.000002697398,0.99999994,0,0,0,0,0,0,0,0,0,0,0,false,false,false,0,0,1000,0.11277594,-0.000002697398,-0.000002697398,0.9936204,0,0,0,-0.32931,0,0
37.058334,2000,0,91.24,0.000002697398,0.000002697398,0.000002697398,0.99999994,0,0,0,0,0,0,0,0,0,0,0,false,false,false,0,0,1000,0.111465,-0.000002697398,-0.000002697398,0.9937683,0,0,0,-0.31611001,0,0
37.066666,2000,0,91.24,0.000002697398,0.000002697398,0.000002697398,0.99999994,0,0,0,0,0,0,0,0,0,0,0,false,false,false,0,0,1000,0.11020801,-0.000002697398,-0.000002697398,0.99390846,0,0,0,-0.30341,0,0
37.075,2000,0,91.24,0.000002697398,0.000002697398,0.000002697398,0.99999994,0,0,0,0,0,0,0,0,0,0,0,false,false,false,0,0,1000,0.10899958,-0.000002697398,-0.000002697398,0.99404174,0,0,0,-0.29121,0,0
37.083332,2000,0,91.24,0.000002697398,0.000002697398,0.000002697398,0.99999994,0,0,0,0,0,0,0,0,0,0,0,false,false,false,0,0,1000,0.107839696,-0.000002697398,-0.000002697398,0.9941682,0,0,0,-0.27951002,0,0
37.091667,2000,0,91.24,0.000002697398,0.000002697398,0.000002697398,0.99999994,0,0,0,0,0,0,0,0,0,0,0,false,false,false,0,0,1000,0.106728375,-0.0000026973983,-0.0000026973983,0.9942882,0,0,0,-0.26831,0,0
37.1,2000,0,91.24,0.000002697398,0.000002697398,0.000002697398,0.99999994,0,0,0,0,0,0,0,0,0,0,0,false,false,false,0,0,1000,0.1056602,-0.000002697398,-0.000002697398,0.9944022,0,0,0,-0.25751,0,0
37.108334,2000,0,91.24,0.000002697398,0.000002697398,0.000002697398,0.99999994,0,0,0,0,0,0,0,0,0,0,0,false,false,false,0,0,1000,0.10463519,-0.000002697398,-0.000002697398,0.9945106,0,0,0,-0.24721,0,0
37.116665,2000,0,91.24,0.000002697398,0.000002697398,0.000002697398,0.99999994,0,0,0,0,0,0,0,0,0,0,0,false,false,false,0,0,1000,0.103653334,-0.000002697398,-0.000002697398,0.9946134,0,0,0,-0.23730999,0,0
37.125,2000,0,91.24,0.000002697398,0.000002697398,0.000002697398,0.99999994,0,0,0,0,0,0,0,0,0,0,0,false,false,false,0,0,1000,0.102709256,-0.0000026973983,-0.0000026973983,0.9947114,0,0,0,-0.22781,0,0
37.133335,2000,0,91.24,0.000002697398,0.000002697398,0.000002697398,0.99999994,0,0,0,0,0,0,0,0,0,0,0,false,false,false,0,0,1000,0.101802915,-0.0000026973978,-0.0000026973978,0.99480444,0,0,0,-0.21870999,0,0
37.141666,2000,0,91.24,0.000002697398,0.000002697398,0.000002697398,0.99999994,0,0,0,0,0,0,0,0,0,0,0,false,false,false,0,0,1000,0.10093436,-0.000002697398,-0.000002697398,0.994893,0,0,0,-0.20990999,0,0
37.15,2000,0,91.24,0.000002697398,0.000002697398,0.000002697398,0.99999994,0,0,0,0,0,0,0,0,0,0,0,false,false,false,0,0,1000,0.10009817,-0.0000026973983,-0.0000026973983,0.99497753,0,0,0,-0.20151,0,0
37.158333,2000,0,91.24,0.000002697398,0.000002697398,0.000002697398,0.99999994,0,0,0,0,0,0,0,0,0,0,0,false,false,false,0,0,1000,0.09929426,-0.000002697398,-0.000002697398,0.99505806,0,0,0,-0.19341,0,0
37.166668,2000,0,91.24,0.000002697398,0.000002697398,0.000002697398,0.99999994,0,0,0,0,0,0,0,0,0,0,0,false,false,false,0,0,1000,0.09852281,-0.0000026973983,-0.0000026973983,0.9951348,0,0,0,-0.18561,0,0
37.175,2000,0,91.24,0.000002697398,0.000002697398,0.000002697398,0.99999994,0,0,0,0,0,0,0,0,0,0,0,false,false,false,0,0,1000,0.09778372,-0.0000026973983,-0.0000026973983,0.99520767,0,0,0,-0.17810999,0,0
37.183334,2000,0,91.24,0.000002697398,0.000002697398,0.000002697398,0.99999994,0,0,0,0,0,0,0,0,0,0,0,false,false,false,0,0,1000,0.097077,-0.000002697398,-0.000002697398,0.9952768,0,0,0,-0.17091,0,0
37.191666,2000,0,91.24,0.000002697398,0.000002697398,0.000002697398,0.99999994,0,0,0,0,0,0,0,0,0,0,0,false,false,false,0,0,1000,0.09639724,-0.0000026973978,-0.0000026973978,0.9953428,0,0,0,-0.16400999,0,0
37.2,2000,0,91.24,0.000002697398,0.000002697398,0.000002697398,0.99999994,0,0,0,0,0,0,0,0,0,0,0,false,false,false,0,0,1000,0.09574449,-0.0000026973983,-0.0000026973983,0.9954059,0,0,0,-0.15741,0,0
37.208332,2000,0,91.24,0.000002697398,0.000002697398,0.000002697398,0.99999994,0,0,0,0,0,0,0,0,0,0,0,false,false,false,0,0,1000,0.09511869,-0.000002697398,-0.000002697398,0.9954659,0,0,0,-0.15111,0,0
37.216667,2000,0,91.24,0.000002697398,0.000002697398,0.000002697398,0.99999994,0,0,0,0,0,0,0,0,0,0,0,false,false,false,0,0,1000,0.094514474,-0.0000026973983,-0.0000026973983,0.99552345,0,0,0,-0.14501,0,0
37.225,2000,0,91.24,0.000002697398,0.000002697398,0.000002697398,0.99999994,0,0,0,0,0,0,0,0,0,0,0,false,false,false,0,0,1000,0.093937226,-0.000002697398,-0.000002697398,0.99557805,0,0,0,-0.13921,0,0
37.233334,2000,0,91.24,0.000002697398,0.000002697398,0.000002697398,0.99999994,0,0,0,0,0,0,0,0,0,0,0,false,false,false,0,0,1000,0.09338157,-0.0000026973983,-0.0000026973983,0.9956304,0,0,0,-0.13361,0,0
37.241665,2000,0,91.24,0.000002697398,0.000002697398,0.000002697398,0.99999994,0,0,0,0,0,0,0,0,0,0,0,false,false,false,0,0,1000,0.092847474,-0.000002697398,-0.000002697398,0.9956803,0,0,0,-0.12821,0,0
37.25,2000,0,91.24,0.000002697398,0.000002697398,0.000002697398,0.99999994,0,0,0,0,0,0,0,0,0,0,0,false,false,false,0,0,1000,0.09233497,-0.000002697398,-0.000002697398,0.99572796,0,0,0,-0.123009995,0,0
37.258335,2000,0,91.24,0.000002697398,0.000002697398,0.000002697398,0.99999994,0,0,0,0,0,0,0,0,0,0,0,false,false,false,0,0,1000,0.09184404,-0.0000026973978,-0.0000026973978,0.99577326,0,0,0,-0.11801,0,0
37.266666,2000,0,91.24,0.000002697398,0.000002697398,0.000002697398,0.99999994,0,0,0,0,0,0,0,0,0,0,0,false,false,false,0,0,1000,0.091374695,-0.000002697398,-0.000002697398,0.9958165,0,0,0,-0.11320999,0,0
37.275,2000,0,91.24,0.000002697398,0.000002697398,0.000002697398,0.99999994,0,0,0,0,0,0,0,0,0,0,0,false,false,false,0,0,1000,0.090921536,-0.000002697398,-0.000002697398,0.995858,0,0,0,-0.10861,0,0
37.283333,2000,0,91.24,0.000002697398,0.000002697398,0.000002697398,0.99999994,0,0,0,0,0,0,0,0,0,0,0,false,false,false,0,0,1000,0.090489954,-0.0000026973983,-0.0000026973983,0.99589735,0,0,0,-0.10421,0,0
37.291668,2000,0,91.24,0.000002697398,0.000002697398,0.000002697398,0.99999994,0,0,0,0,0,0,0,0,0,0,0,false,false,false,0,0,1000,0.09007455,-0.000002697398,-0.000002697398,0.99593496,0,0,0,-0.10000999,0,0
37.3,2000,0,91.24,0.000002697398,0.000002697398,0.000002697398,0.99999994,0,0,0,0,0,0,0,0,0,0,0,false,false,false,0,0,1000,0.089675345,-0.0000026973983,-0.0000026973983,0.995971,0,0,0,-0.09601,0,0
37.308334,2000,0,91.24,0.000002697398,0.000002697398,0.000002697398,0.99999994,0,0,0,0,0,0,0,0,0,0,0,false,false,false,0,0,1000,0.0892923,-0.000002697398,-0.000002697398,0.9960054,0,0,0,-0.09210999,0,0
37.316666,2000,0,91.24,0.000002697398,0.000002697398,0.000002697398,0.99999994,0,0,0,0,0,0,0,0,0,0,0,false,false,false,0,0,1000,0.088925466,-0.0000026973983,-0.0000026973983,0.99603826,0,0,0,-0.08841,0,0
37.325,2000,0,91.24,0.000002697398,0.000002697398,0.000002697398,0.99999994,0,0,0,0,0,0,0,0,0,0,0,false,false,false,0,0,1000,0.088574804,-0.0000026973983,-0.0000026973983,0.9960695,0,0,0,-0.084809996,0,0
37.333332,2000,0,91.24,0.000002697398,0.000002697398,0.000002697398,0.99999994,0,0,0,0,0,0,0,0,0,0,0,false,false,false,0,0,1000,0.088234924,-0.000002697398,-0.000002697398,0.99609965,0,0,0,-0.08141,0,0
37.341667,2000,0,91.24,0.000002697398,0.000002697398,0.000002697398,0.99999994,0,0,0,0,0,0,0,0,0,0,0,false,false,false,0,0,1000,0.08791123,-0.000002697398,-0.000002697398,0.99612826,0,0,0,-0.078109995,0,0
37.35,2000,0,91.24,0.000002697398,0.000002697398,0.000002697398,0.99999994,0,0,0,0,0,0,0,0,0,0,0,false,false,false,0,0,1000,0.08759833,-0.0000026973978,-0.0000026973978,0.99615574,0,0,0,-0.07491,0,0
37.358334,2000,0,91.24,0.000002697398,0.000002697398,0.000002697398,0.99999994,0,0,0,0,0,0,0,0,0,0,0,false,false,false,0,0,1000,0.08730163,-0.000002697398,-0.000002697398,0.99618185,0,0,0,-0.071909994,0,0
37.366665,2000,0,91.24,0.000002697398,0.000002697398,0.000002697398,0.99999994,0,0,0,0,0,0,0,0,0,0,0,false,false,false,0,0,1000,0.0870157,-0.000002697398,-0.000002697398,0.9962069,0,0,0,-0.06901,0,0
37.375,2000,0,91.24,0.000002697398,0.000002697398,0.000002697398,0.99999994,0,0,0,0,0,0,0,0,0,0,0,false,false,false,0,0,1000,0.086740576,-0.0000026973983,-0.0000026973983,0.9962309,0,0,0,-0.066209994,0,0
37.383335,2000,0,91.24,0.000002697398,0.000002697398,0.000002697398,0.99999994,0,0,0,0,0,0,0,0,0,0,0,false,false,false,0,0,1000,0.08647623,-0.0000026973983,-0.0000026973983,0.9962539,0,0,0,-0.06351,0,0
37.391666,2000,0,91.24,0.000002697398,0.000002697398,0.000002697398,0.99999994,0,0,0,0,0,0,0,0,0,0,0,false,false,false,0,0,1000,0.08622266,-0.000002697398,-0.000002697398,0.99627584,0,0,0,-0.060909998,0,0
37.4,2000,0,91.24,0.000002697398,0.000002697398,0.000002697398,0.99999994,0,0,0,0,0,0,0,0,0,0,0,false,false,false,0,0,1000,0.0859799,-0.000002697398,-0.000002697398,0.9962968,0,0,0,-0.058409996,0,0
37.408333,2000,0,91.24,0.000002697398,0.000002697398,0.000002697398,0.99999994,0,0,0,0,0,0,0,0,0,0,0,false,false,false,0,0,1000,0.08574792,-0.000002697398,-0.000002697398,0.9963168,0,0,0,-0.056009997,0,0
37.416668,2000,0,91.24,0.000002697398,0.000002697398,0.000002697398,0.99999994,0,0,0,0,0,0,0,0,0,0,0,false,false,false,0,0,1000,0.08552674,-0.0000026973983,-0.0000026973983,0.99633586,0,0,0,-0.05371,0,0
37.425,2000,0,91.24,0.000002697398,0.000002697398,0.000002697398,0.99999994,0,0,0,0,0,0,0,0,0,0,0,false,false,false,0,0,1000,0.08531094,-0.000002697398,-0.000002697398,0.99635434,0,0,0,-0.05151,0,0
37.433334,2000,0,91.24,0.000002697398,0.000002697398,0.000002697398,0.99999994,0,0,0,0,0,0,0,0,0,0,0,false,false,false,0,0,1000,0.08510594,-0.000002697398,-0.000002697398,0.99637187,0,0,0,-0.049409997,0,0
37.441666,2000,0,91.24,0.000002697398,0.000002697398,0.000002697398,0.99999994,0,0,0,0,0,0,0,0,0,0,0,false,false,false,0,0,1000,0.08491173,-0.000002697398,-0.000002697398,0.99638844,0,0,0,-0.047409996,0,0
37.45,2000,0,91.24,0.000002697398,0.000002697398,0.000002697398,0.99999994,0,0,0,0,0,0,0,0,0,0,0,false,false,false,0,0,1000,0.08472291,-0.0000026973978,-0.0000026973978,0.9964044,0,0,0,-0.045509998,0,0
37.458332,2000,0,91.24,0.000002697398,0.000002697398,0.000002697398,0.99999994,0,0,0,0,0,0,0,0,0,0,0,false,false,false,0,0,1000,0.084539495,-0.0000026973983,-0.0000026973983,0.9964201,0,0,0,-0.04361,0,0
37.466667,2000,0,91.24,0.000002697398,0.000002697398,0.000002697398,0.99999994,0,0,0,0,0,0,0,0,0,0,0,false,false,false,0,0,1000,0.084366865,-0.0000026973983,-0.0000026973983,0.99643475,0,0,0,-0.04181,0,0
37.475,2000,0,91.24,0.000002697398,0.000002697398,0.000002697398,0.99999994,0,0,0,0,0,0,0,0,0,0,0,false,false,false,0,0,1000,0.08419961,-0.0000026973978,-0.0000026973978,0.99644876,0,0,0,-0.04011,0,0
37.483334,2000,0,91.24,0.000002697398,0.000002697398,0.000002697398,0.99999994,0,0,0,0,0,0,0,0,0,0,0,false,false,false,0,0,1000,0.08403777,-0.000002697398,-0.000002697398,0.9964625,0,0,0,-0.03851,0,0
37.491665,2000,0,91.24,0.000002697398,0.000002697398,0.000002697398,0.99999994,0,0,0,0,0,0,0,0,0,0,0,false,false,false,0,0,1000,0.08388673,-0.0000026973983,-0.0000026973983,0.9964753,0,0,0,-0.036909997,0,0
37.5,2000,0,91.24,0.000002697398,0.000002697398,0.000002697398,0.99999994,0,0,0,0,0,0,0,0,0,0,0,false,false,false,0,0,1000,0.08374106,-0.000002697398,-0.000002697398,0.9964875,0,0,0,-0.03541,0,0
37.508335,2000,0,91.24,0.000002697398,0.000002697398,0.000002697398,0.99999994,0,0,0,0,0,0,0,0,0,0,0,false,false,false,0,0,1000,0.0836008,-0.000002697398,-0.000002697398,0.99649924,0,0,0,-0.03391,0,0
37.516666,2000,0,91.24,0.000002697398,0.000002697398,0.000002697398,0.99999994,0,0,0,0,0,0,0,0,0,0,0,false,false,false,0,0,1000,0.08346593,-0.000002697398,-0.000002697398,0.99651057,0,0,0,-0.032509997,0,0
37.525,2000,0,91.24,0.000002697398,0.000002697398,0.000002697398,0.99999994,0,0,0,0,0,0,0,0,0,0,0,false,false,false,0,0,1000,0.08333645,-0.000002697398,-0.000002697398,0.9965214,0,0,0,-0.03121,0,0
37.533333,2000,0,91.24,0.000002697398,0.000002697398,0.000002697398,0.99999994,0,0,0,0,0,0,0,0,0,0,0,false,false,false,0,0,1000,0.08321237,-0.000002697398,-0.000002697398,0.9965318,0,0,0,-0.02991,0,0
37.541668,2000,0,91.24,0.000002697398,0.000002697398,0.000002697398,0.99999994,0,0,0,0,0,0,0,0,0,0,0,false,false,false,0,0,1000,0.08309368,-0.000002697398,-0.000002697398,0.9965417,0,0,0,-0.02871,0,0
37.55,2000,0,91.24,0.000002697398,0.000002697398,0.000002697398,0.99999994,0,0,0,0,0,0,0,0,0,0,0,false,false,false,0,0,1000,0.082980394,-0.000002697398,-0.000002697398,0.9965511,0,0,0,-0.02751,0,0
37.558334,2000,0,91.24,0.000002697398,0.000002697398,0.000002697398,0.99999994,0,0,0,0,0,0,0,0,0,0,0,false,false,false,0,0,1000,0.082872495,-0.000002697398,-0.000002697398,0.9965601,0,0,0,-0.02641,0,0
37.566666,2000,0,91.24,0.000002697398,0.000002697398,0.000002697398,0.99999994,0,0,0,0,0,0,0,0,0,0,0,false,false,false,0,0,1000,0.08276461,-0.0000026973983,-0.0000026973983,0.9965691,0,0,0,-0.02531,0,0
37.575,2000,0,91.24,0.000002697398,0.000002697398,0.000002697398,0.99999994,0,0,0,0,0,0,0,0,0,0,0,false,false,false,0,0,1000,0.0826621,-0.000002697398,-0.000002697398,0.99657756,0,0,0,-0.02421,0,0
37.583332,2000,0,91.24,0.000002697398,0.000002697398,0.000002697398,0.99999994,0,0,0,0,0,0,0,0,0,0,0,false,false,false,0,0,1000,0.082564995,-0.000002697398,-0.000002697398,0.9965856,0,0,0,-0.02321,0,0
37.591667,2000,0,91.24,0.000002697398,0.000002697398,0.000002697398,0.99999994,0,0,0,0,0,0,0,0,0,0,0,false,false,false,0,0,1000,0.08247328,-0.000002697398,-0.000002697398,0.99659324,0,0,0,-0.02221,0,0
37.6,2000,0,91.24,0.000002697398,0.000002697398,0.000002697398,0.99999994,0,0,0,0,0,0,0,0,0,0,0,false,false,false,0,0,1000,0.082386956,-0.0000026973978,-0.0000026973978,0.9966003,0,0,0,-0.02131,0,0
37.608334,2000,0,91.24,0.000002697398,0.000002697398,0.000002697398,0.99999994,0,0,0,0,0,0,0,0,0,0,0,false,false,false,0,0,1000,0.08230065,-0.000002697398,-0.000002697398,0.9966075,0,0,0,-0.02041,0,0
37.616665,2000,0,91.24,0.000002697398,0.000002697398,0.000002697398,0.99999994,0,0,0,0,0,0,0,0,0,0,0,false,false,false,0,0,1000,0.082219735,-0.0000026973983,-0.0000026973983,0.9966142,0,0,0,-0.019510001,0,0
37.625,2000,0,91.24,0.000002697398,0.000002697398,0.000002697398,0.99999994,0,0,0,0,0,0,0,0,0,0,0,false,false,false,0,0,1000,0.08214419,-0.0000026973978,-0.0000026973978,0.9966203,0,0,0,-0.01871,0,0
37.633335,2000,0,91.24,0.000002697398,0.000002697398,0.000002697398,0.99999994,0,0,0,0,0,0,0,0,0,0,0,false,false,false,0,0,1000,0.082068674,-0.000002697398,-0.000002697398,0.9966266,0,0,0,-0.01791,0,0
37.641666,2000,0,91.24,0.000002697398,0.000002697398,0.000002697398,0.99999994,0,0,0,0,0,0,0,0,0,0,0,false,false,false,0,0,1000,0.08199854,-0.000002697398,-0.000002697398,0.9966324,0,0,0,-0.01711,0,0
37.65,2000,0,91.24,0.000002697398,0.000002697398,0.000002697398,0.99999994,0,0,0,0,0,0,0,0,0,0,0,false,false,false,0,0,1000,0.0819284,-0.0000026973978,-0.0000026973978,0.99663806,0,0,0,-0.01641,0,0
37.658333,2000,0,91.24,0.000002697398,0.000002697398,0.000002697398,0.99999994,0,0,0,0,0,0,0,0,0,0,0,false,false,false,0,0,1000,0.08186367,-0.000002697398,-0.000002697398,0.9966435,0,0,0,-0.01571,0,0
37.666668,2000,0,91.24,0.000002697398,0.000002697398,0.000002697398,0.99999994,0,0,0,0,0,0,0,0,0,0,0,false,false,false,0,0,1000,0.08179894,-0.0000026973983,-0.0000026973983,0.99664885,0,0,0,-0.015009999,0,0
37.675,2000,0,91.24,0.000002697398,0.000002697398,0.000002697398,0.99999994,0,0,0,0,0,0,0,0,0,0,0,false,false,false,0,0,1000,0.08173959,-0.000002697398,-0.000002697398,0.9966537,0,0,0,-0.014409999,0,0
37.683334,2000,0,91.24,0.000002697398,0.000002697398,0.000002697398,0.99999994,0,0,0,0,0,0,0,0,0,0,0,false,false,false,0,0,1000,0.08168025,-0.0000026973983,-0.0000026973983,0.99665856,0,0,0,-0.013809999,0,0
37.691666,2000,0,91.24,0.000002697398,0.000002697398,0.000002697398,0.99999994,0,0,0,0,0,0,0,0,0,0,0,false,false,false,0,0,1000,0.08162629,-0.0000026973978,-0.0000026973978,0.99666286,0,0,0,-0.01321,0,0
37.7,2000,0,91.24,0.000002697398,0.000002697398,0.000002697398,0.99999994,0,0,0,0,0,0,0,0,0,0,0,false,false,false,0,0,1000,0.081572354,-0.000002697398,-0.000002697398,0.9966674,0,0,0,-0.01261,0,0
37.708332,2000,0,91.24,0.000002697398,0.000002697398,0.000002697398,0.99999994,0,0,0,0,0,0,0,0,0,0,0,false,false,false,0,0,1000,0.0815238,-0.000002697398,-0.000002697398,0.9966713,0,0,0,-0.01211,0,0
37.716667,2000,0,91.24,0.000002697398,0.000002697398,0.000002697398,0.99999994,0,0,0,0,0,0,0,0,0,0,0,false,false,false,0,0,1000,0.08147524,-0.000002697398,-0.000002697398,0.9966753,0,0,0,-0.011609999,0,0
37.725,2000,0,91.24,0.000002697398,0.000002697398,0.000002697398,0.99999994,0,0,0,0,0,0,0,0,0,0,0,false,false,false,0,0,1000,0.08142668,-0.0000026973978,-0.0000026973978,0.9966792,0,0,0,-0.011109999,0,0
37.733334,2000,0,91.24,0.000002697398,0.000002697398,0.000002697398,0.99999994,0,0,0,0,0,0,0,0,0,0,0,false,false,false,0,0,1000,0.08138353,-0.0000026973978,-0.0000026973978,0.9966827,0,0,0,-0.010609999,0,0
37.741665,2000,0,91.24,0.000002697398,0.000002697398,0.000002697398,0.99999994,0,0,0,0,0,0,0,0,0,0,0,false,false,false,0,0,1000,0.08134037,-0.000002697398,-0.000002697398,0.99668634,0,0,0,-0.010109999,0,0
37.75,2000,0,91.24,0.000002697398,0.000002697398,0.000002697398,0.99999994,0,0,0,0,0,0,0,0,0,0,0,false,false,false,0,0,1000,0.081302606,-0.0000026973978,-0.0000026973978,0.9966893,0,0,0,-0.009709999,0,0
37.758335,2000,0,91.24,0.000002697398,0.000002697398,0.000002697398,0.99999994,0,0,0,0,0,0,0,0,0,0,0,false,false,false,0,0,1000,0.081264846,-0.000002697398,-0.000002697398,0.9966925,0,0,0,-0.00931,0,0
37.766666,2000,0,91.24,0.000002697398,0.000002697398,0.000002697398,0.99999994,0,0,0,0,0,0,0,0,0,0,0,false,false,false,0,0,1000,0.08122709,-0.000002697398,-0.000002697398,0.9966956,0,0,0,-0.008909999,0,0
37.775,2000,0,91.24,0.000002697398,0.000002697398,0.000002697398,0.99999994,0,0,0,0,0,0,0,0,0,0,0,false,false,false,0,0,1000,0.08118931,-0.0000026973978,-0.0000026973978,0.99669856,0,0,0,-0.008509999,0,0
37.783333,2000,0,91.24,0.000002697398,0.000002697398,0.000002697398,0.99999994,0,0,0,0,0,0,0,0,0,0,0,false,false,false,0,0,1000,0.08115695,-0.0000026973978,-0.0000026973978,0.9967012,0,0,0,-0.00811,0,0
37.791668,2000,0,91.24,0.000002697398,0.000002697398,0.000002697398,0.99999994,0,0,0,0,0,0,0,0,0,0,0,false,false,false,0,0,1000,0.08112458,-0.000002697398,-0.000002697398,0.9967039,0,0,0,-0.00771,0,0
37.8,2000,0,91.24,0.000002697398,0.000002697398,0.000002697398,0.99999994,0,0,0,0,0,0,0,0,0,0,0,false,false,false,0,0,1000,0.081092216,-0.000002697398,-0.000002697398,0.99670655,0,0,0,-0.00741,0,0
37.808334,2000,0,91.24,0.000002697398,0.000002697398,0.000002697398,0.99999994,0,0,0,0,0,0,0,0,0,0,0,false,false,false,0,0,1000,0.08106524,-0.000002697398,-0.000002697398,0.99670875,0,0,0,-0.00711,0,0
37.816666,2000,0,91.24,0.000002697398,0.000002697398,0.000002697398,0.99999994,0,0,0,0,0,0,0,0,0,0,0,false,false,false,0,0,1000,0.08103827,-0.000002697398,-0.000002697398,0.99671096,0,0,0,-0.0068099997,0,0
37.825,2000,0,91.24,0.000002697398,0.000002697398,0.000002697398,0.99999994,0,0,0,0,0,0,0,0,0,0,0,false,false,false,0,0,1000,0.0810113,-0.0000026973983,-0.0000026973983,0.99671316,0,0,0,-0.0065099997,0,0
37.833332,2000,0,91.24,0.000002697398,0.000002697398,0.000002697398,0.99999994,0,0,0,0,0,0,0,0,0,0,0,false,false,false,0,0,1000,0.08098432,-0.000002697398,-0.000002697398,0.9967153,0,0,0,-0.00621,0,0
37.841667,2000,0,91.24,0.000002697398,0.000002697398,0.000002697398,0.99999994,0,0,0,0,0,0,0,0,0,0,0,false,false,false,0,0,1000,0.080957346,-0.000002697398,-0.000002697398,0.9967175,0,0,0,-0.00591,0,0
37.85,2000,0,91.24,0.000002697398,0.000002697398,0.000002697398,0.99999994,0,0,0,0,0,0,0,0,0,0,0,false,false,false,0,0,1000,0.08093576,-0.000002697398,-0.000002697398,0.99671924,0,0,0,-0.00561,0,0
37.858334,2000,0,91.24,0.000002697398,0.000002697398,0.000002697398,0.99999994,0,0,0,0,0,0,0,0,0,0,0,false,false,false,0,0,1000,0.080914184,-0.000002697398,-0.000002697398,0.996721,0,0,0,-0.00531,0,0
37.866665,2000,0,91.24,0.000002697398,0.000002697398,0.000002697398,0.99999994,0,0,0,0,0,0,0,0,0,0,0,false,false,false,0,0,1000,0.08089261,-0.000002697398,-0.000002697398,0.99672276,0,0,0,-0.00501,0,0
37.875,2000,0,91.24,0.000002697398,0.000002697398,0.000002697398,0.99999994,0,0,0,0,0,0,0,0,0,0,0,false,false,false,0,0,1000,0.080871016,-0.0000026973978,-0.0000026973978,0.9967244,0,0,0,-0.00481,0,0
37.883335,2000,0,91.24,0.000002697398,0.000002697398,0.000002697398,0.99999994,0,0,0,0,0,0,0,0,0,0,0,false,false,false,0,0,1000,0.08084945,-0.000002697398,-0.000002697398,0.9967263,0,0,0,-0.00461,0,0
37.891666,2000,0,91.24,0.000002697398,0.000002697398,0.000002697398,0.99999994,0,0,0,0,0,0,0,0,0,0,0,false,false,false,0,0,1000,0.08083326,-0.000002697398,-0.000002697398,0.9967276,0,0,0,-0.00441,0,0
37.9,2000,0,91.24,0.000002697398,0.000002697398,0.000002697398,0.99999994,0,0,0,0,0,0,0,0,0,0,0,false,false,false,0,0,1000,0.08081708,-0.000002697398,-0.000002697398,0.9967289,0,0,0,-0.00421,0,0
37.908333,2000,0,91.24,0.000002697398,0.000002697398,0.000002697398,0.99999994,0,0,0,0,0,0,0,0,0,0,0,false,false,false,0,0,1000,0.08080089,-0.000002697398,-0.000002697398,0.9967302,0,0,0,-0.00401,0,0
37.916668,2000,0,91.24,0.000002697398,0.000002697398,0.000002697398,0.99999994,0,0,0,0,0,0,0,0,0,0,0,false,false,false,0,0,1000,0.08078471,-0.000002697398,-0.000002697398,0.9967315,0,0,0,-0.00381,0,0
37.925,2000,0,91.24,0.000002697398,0.000002697398,0.000002697398,0.99999994,0,0,0,0,0,0,0,0,0,0,0,false,false,false,0,0,1000,0.080768526,-0.000002697398,-0.000002697398,0.99673283,0,0,0,-0.00361,0,0
37.933334,2000,0,91.24,0.000002697398,0.000002697398,0.000002697398,0.99999994,0,0,0,0,0,0,0,0,0,0,0,false,false,false,0,0,1000,0.08075234,-0.000002697398,-0.000002697398,0.99673414,0,0,0,-0.00341,0,0
37.941666,2000,0,91.24,0.000002697398,0.000002697398,0.000002697398,0.99999994,0,0,0,0,0,0,0,0,0,0,0,false,false,false,0,0,1000,0.08073616,-0.000002697398,-0.000002697398,0.99673545,0,0,0,-0.00321,0,0
37.95,2000,0,91.24,0.000002697398,0.000002697398,0.000002697398,0.99999994,0,0,0,0,0,0,0,0,0,0,0,false,false,false,0,0,1000,0.08072536,-0.0000026973978,-0.0000026973978,0.9967362,0,0,0,-0.00301,0,0
37.958332,2000,0,91.24,0.000002697398,0.000002697398,0.000002697398,0.99999994,0,0,0,0,0,0,0,0,0,0,0,false,false,false,0,0,1000,0.080714576,-0.000002697398,-0.000002697398,0.9967372,0,0,0,-0.00281,0,0
37.966667,2000,0,91.24,0.000002697398,0.000002697398,0.000002697398,0.99999994,0,0,0,0,0,0,0,0,0,0,0,false,false,false,0,0,1000,0.08070379,-0.000002697398,-0.000002697398,0.9967381,0,0,0,-0.00261,0,0
37.975,2000,0,91.24,0.000002697398,0.000002697398,0.000002697398,0.99999994,0,0,0,0,0,0,0,0,0,0,0,false,false,false,0,0,1000,0.08069301,-0.0000026973983,-0.0000026973983,0.996739,0,0,0,-0.00251,0,0
37.983334,2000,0,91.24,0.000002697398,0.000002697398,0.000002697398,0.99999994,0,0,0,0,0,0,0,0,0,0,0,false,false,false,0,0,1000,0.08068222,-0.0000026973983,-0.0000026973983,0.99673986,0,0,0,-0.00241,0,0
37.991665,2000,0,91.24,0.000002697398,0.000002697398,0.000002697398,0.99999994,0,0,0,0,0,0,0,0,0,0,0,false,false,false,0,0,1000,0.08067142,-0.000002697398,-0.000002697398,0.9967407,0,0,0,-0.0023100001,0,0
38,2000,0,91.24,0.000002697398,0.000002697398,0.000002697398,0.99999994,0,0,0,0,0,0,0,0,0,0,0,false,false,false,0,0,1000,0.080660634,-0.0000026973983,-0.0000026973983,0.9967416,0,0,0,-0.00221,0,0
38.008335,2000,0,91.24,0.000002697398,0.000002697398,0.000002697398,0.99999994,0,0,0,0,0,0,0,0,0,0,0,false,false,false,0,0,1000,0.08064984,-0.000002697398,-0.000002697398,0.9967424,0,0,0,-0.00211,0,0
38.016666,2000,0,91.24,0.000002697398,0.000002697398,0.000002697398,0.99999994,0,0,0,0,0,0,0,0,0,0,0,false,false,false,0,0,1000,0.08063905,-0.000002697398,-0.000002697398,0.9967433,0,0,0,-0.00201,0,0
38.025,2000,0,91.24,0.000002697398,0.000002697398,0.000002697398,0.99999994,0,0,0,0,0,0,0,0,0,0,0,false,false,false,0,0,1000,0.080633655,-0.000002697398,-0.000002697398,0.99674374,0,0,0,-0.0019099999,0,0
38.033333,2000,0,91.24,0.000002697398,0.000002697398,0.000002697398,0.99999994,0,0,0,0,0,0,0,0,0,0,0,false,false,false,0,0,1000,0.08062825,-0.0000026973978,-0.0000026973978,0.9967441,0,0,0,-0.0018099999,0,0
38.041668,2000,0,91.24,0.000002697398,0.000002697398,0.000002697398,0.99999994,0,0,0,0,0,0,0,0,0,0,0,false,false,false,0,0,1000,0.08062287,-0.000002697398,-0.000002697398,0.99674463,0,0,0,-0.0017099999,0,0
38.05,2000,0,91.24,0.000002697398,0.000002697398,0.000002697398,0.99999994,0,0,0,0,0,0,0,0,0,0,0,false,false,false,0,0,1000,0.08061747,-0.000002697398,-0.000002697398,0.99674505,0,0,0,-0.0016099999,0,0
38.058334,2000,0,91.24,0.000002697398,0.000002697398,0.000002697398,0.99999994,0,0,0,0,0,0,0,0,0,0,0,false,false,false,0,0,1000,0.08061208,-0.000002697398,-0.000002697398,0.99674547,0,0,0,-0.00151,0,0
38.066666,2000,0,91.24,0.000002697398,0.000002697398,0.000002697398,0.99999994,0,0,0,0,0,0,0,0,0,0,0,false,false,false,0,0,1000,0.080606684,-0.000002697398,-0.000002697398,0.99674594,0,0,0,-0.0014099999,0,0
38.075,2000,0,91.24,0.000002697398,0.000002697398,0.000002697398,0.99999994,0,0,0,0,0,0,0,0,0,0,0,false,false,false,0,0,1000,0.08060129,-0.000002697398,-0.000002697398,0.99674636,0,0,0,-0.00131,0,0
38.083332,2000,0,91.24,0.000002697398,0.000002697398,0.000002697398,0.99999994,0,0,0,0,0,0,0,0,0,0,0,false,false,false,0,0,1000,0.080595896,-0.000002697398,-0.000002697398,0.9967468,0,0,0,-0.0012099999,0,0
38.091667,2000,0,91.24,0.000002697398,0.000002697398,0.000002697398,0.99999994,0,0,0,0,0,0,0,0,0,0,0,false,false,false,0,0,1000,0.08059049,-0.0000026973978,-0.0000026973978,0.99674714,0,0,0,-0.00111,0,0
38.1,2000,0,91.24,0.000002697398,0.000002697398,0.000002697398,0.99999994,0,0,0,0,0,0,0,0,0,0,0,false,false,false,0,0,1000,0.0805851,-0.000002697398,-0.000002697398,0.9967477,0,0,0,-0.0010099999,0,0
38.108334,2000,0,91.24,0.000002697398,0.000002697398,0.000002697398,0.99999994,0,0,0,0,0,0,0,0,0,0,0,false,false,false,0,0,1000,0.08057971,-0.0000026973983,-0.0000026973983,0.99674815,0,0,0,-0.00091,0,0
38.116665,2000,0,91.24,0.000002697398,0.000002697398,0.000002697398,0.99999994,0,0,0,0,0,0,0,0,0,0,0,false,false,false,0,0,1000,0.08057431,-0.000002697398,-0.000002697398,0.99674857,0,0,0,-0.00081,0,0
38.125,2000,0,91.24,0.000002697398,0.000002697398,0.000002697398,0.99999994,0,0,0,0,0,0,0,0,0,0,0,false,false,false,0,0,1000,0.08056892,-0.000002697398,-0.000002697398,0.996749,0,0,0,-0.00071,0,0
38.133335,2000,0,91.24,0.000002697398,0.000002697398,0.000002697398,0.99999994,0,0,0,0,0,0,0,0,0,0,0,false,false,false,0,0,1000,0.08056353,-0.0000026973983,-0.0000026973983,0.99674946,0,0,0,-0.00061,0,0
38.141666,2000,0,91.24,0.000002697398,0.000002697398,0.000002697398,0.99999994,0,0,0,0,0,0,0,0,0,0,0,false,false,false,0,0,1000,0.08056353,-0.0000026973983,-0.0000026973983,0.99674946,0,0,0,-0.00051,0,0
38.15,2000,0,91.24,0.000002697398,0.000002697398,0.000002697398,0.99999994,0,0,0,0,0,0,0,0,0,0,0,false,false,false,0,0,1000,0.08056353,-0.0000026973983,-0.0000026973983,0.99674946,0,0,0,-0.00040999998,0,0
38.158333,2000,0,91.24,0.000002697398,0.000002697398,0.000002697398,0.99999994,0,0,0,0,0,0,0,0,0,0,0,false,false,false,0,0,1000,0.08056353,-0.0000026973983,-0.0000026973983,0.99674946,0,0,0,-0.00030999997,0,0
38.166668,2000,0,91.24,0.000002697398,0.000002697398,0.000002697398,0.99999994,0,0,0,0,0,0,0,0,0,0,0,false,false,false,0,0,1000,0.08056353,-0.0000026973983,-0.0000026973983,0.99674946,0,0,0,-0.00021,0,0
