time,ball_loc_x,ball_loc_y,ball_loc_z,ball_rot_x,ball_rot_y,ball_rot_z,ball_rot_w,ball_vel_x,ball_vel_y,ball_vel_z,ball_ang_x,ball_ang_y,ball_ang_z,player0_throttle,player0_steer,player0_pitch,player0_yaw,player0_roll,player0_jump,player0_boost,player0_handbrake,player0_loc_x,player0_loc_y,player0_loc_z,player0_rot_x,player0_rot_y,player0_rot_z,player0_rot_w,player0_vel_x,player0_vel_y,player0_vel_z,player0_ang_x,player0_ang_y,player0_ang_z
29.466667,2000,0,91.24,0.000002697398,0.000002697398,0.000002697398,0.99999994,0,0,0,0,0,0,0,0,0,1,0,false,false,false,0,0,1000,0.000002697398,0.000002697398,0.9386498,-0.34487173,0,0,0,0,0,5.50001
29.475,2000,0,91.24,0.000002697398,0.000002697398,0.000002697398,0.99999994,0,0,0,0,0,0,0,0,0,-1,0,false,false,false,0,0,1000,0.000002697398,0.000002697398,0.9306156,-0.36599785,0,0,0,0,0,5.42401
29.483334,2000,0,91.24,0.000002697398,0.000002697398,0.000002697398,0.99999994,0,0,0,0,0,0,0,0,0,-1,0,false,false,false,0,0,1000,0.000002697398,0.000002697398,0.92222905,-0.38664383,0,0,0,0,0,5.3481097
29.491667,2000,0,91.24,0.000002697398,0.000002697398,0.000002697398,0.99999994,0,0,0,0,0,0,0,0,0,-1,0,false,false,false,0,0,1000,0.000002697398,0.000002697398,0.9135129,-0.40680966,0,0,0,0,0,5.2722096
29.5,2000,0,91.24,0.000002697398,0.000002697398,0.000002697398,0.99999994,0,0,0,0,0,0,0,0,0,-1,0,false,false,false,0,0,1000,0.0000026973983,0.0000026973983,0.90449226,-0.42648995,0,0,0,0,0,5.19631
29.508333,2000,0,91.24,0.000002697398,0.000002697398,0.000002697398,0.99999994,0,0,0,0,0,0,0,0,0,-1,0,false,false,false,0,0,1000,0.000002697398,0.000002697398,0.89518726,-0.44569007,0,0,0,0,0,5.12041
29.516666,2000,0,91.24,0.000002697398,0.000002697398,0.000002697398,0.99999994,0,0,0,0,0,0,0,0,0,-1,0,false,false,false,0,0,1000,0.000002697398,0.000002697398,0.88562304,-0.4644047,0,0,0,0,0,5.04451
29.525,2000,0,91.24,0.000002697398,0.000002697398,0.000002697398,0.99999994,0,0,0,0,0,0,0,0,0,-1,0,false,false,false,0,0,1000,0.000002697398,0.000002697398,0.8758192,-0.4826392,0,0,0,0,0,4.96861
29.533333,2000,0,91.24,0.000002697398,0.000002697398,0.000002697398,0.99999994,0,0,0,0,0,0,0,0,0,-1,0,false,false,false,0,0,1000,0.000002697398,0.000002697398,0.865798,-0.5003935,0,0,0,0,0,4.8927097
29.541666,2000,0,91.24,0.000002697398,0.000002697398,0.000002697398,0.99999994,0,0,0,0,0,0,0,0,0,-1,0,false,false,false,0,0,1000,0.0000026973983,0.0000026973983,0.8555817,-0.5176678,0,0,0,0,0,4.8168097
29.55,2000,0,91.24,0.000002697398,0.000002697398,0.000002697398,0.99999994,0,0,0,0,0,0,0,0,0,-1,0,false,false,false,0,0,1000,0.000002697398,0.000002697398,0.84518915,-0.53446716,0,0,0,0,0,4.74091
29.558332,2000,0,91.24,0.000002697398,0.000002697398,0.000002697398,0.99999994,0,0,0,0,0,0,0,0,0,-1,0,false,false,false,0,0,1000,0.0000026973978,0.0000026973978,0.8346424,-0.55079186,0,0,0,0,0,4.66501
29.566668,2000,0,91.24,0.000002697398,0.000002697398,0.000002697398,0.99999994,0,0,0,0,0,0,0,0,0,-1,0,false,false,false,0,0,1000,0.000002697398,0.000002697398,0.8239604,-0.56664723,0,0,0,0,0,4.58911
29.575,2000,0,91.24,0.000002697398,0.000002697398,0.000002697398,0.99999994,0,0,0,0,0,0,0,0,0,-1,0,false,false,false,0,0,1000,0.000002697398,0.000002697398,0.813161,-0.5820387,0,0,0,0,0,4.51321
29.583334,2000,0,91.24,0.000002697398,0.000002697398,0.000002697398,0.99999994,0,0,0,0,0,0,0,0,0,-1,0,false,false,false,0,0,1000,0.000002697398,0.000002697398,0.8022623,-0.5969715,0,0,0,0,0,4.4373097
29.591667,2000,0,91.24,0.000002697398,0.000002697398,0.000002697398,0.99999994,0,0,0,0,0,0,0,0,0,-1,0,false,false,false,0,0,1000,0.000002697398,0.000002697398,0.79128206,-0.6114512,0,0,0,0,0,4.36141
29.6,2000,0,91.24,0.000002697398,0.000002697398,0.000002697398,0.99999994,0,0,0,0,0,0,0,0,0,-1,0,false,false,false,0,0,1000,0.000002697398,0.000002697398,0.78023756,-0.62548316,0,0,0,0,0,4.28551
29.608334,2000,0,91.24,0.000002697398,0.000002697398,0.000002697398,0.99999994,0,0,0,0,0,0,0,0,0,-1,0,false,false,false,0,0,1000,0.000002697398,0.000002697398,0.76914626,-0.63907266,0,0,0,0,0,4.20961
29.616667,2000,0,91.24,0.000002697398,0.000002697398,0.000002697398,0.99999994,0,0,0,0,0,0,0,0,0,-1,0,false,false,false,0,0,1000,0.000002697398,0.000002697398,0.7580251,-0.65222526,0,0,0,0,0,4.13371
29.625,2000,0,91.24,0.000002697398,0.000002697398,0.000002697398,0.99999994,0,0,0,0,0,0,0,0,0,-1,0,false,false,false,0,0,1000,0.000002697398,0.000002697398,0.74689114,-0.6649462,0,0,0,0,0,4.05781
29.633333,2000,0,91.24,0.000002697398,0.000002697398,0.000002697398,0.99999994,0,0,0,0,0,0,0,0,0,-1,0,false,false,false,0,0,1000,0.0000026973983,0.0000026973983,0.7357562,-0.67724645,0,0,0,0,0,3.98191
29.641666,2000,0,91.24,0.000002697398,0.000002697398,0.000002697398,0.99999994,0,0,0,0,0,0,0,0,0,-1,0,false,false,false,0,0,1000,0.000002697398,0.000002697398,0.72463655,-0.68913114,0,0,0,0,0,3.90601
29.65,2000,0,91.24,0.000002697398,0.000002697398,0.000002697398,0.99999994,0,0,0,0,0,0,0,0,0,-1,0,false,false,false,0,0,1000,0.0000026973983,0.0000026973983,0.7135483,-0.700606,0,0,0,0,0,3.8301098
29.658333,2000,0,91.24,0.000002697398,0.000002697398,0.000002697398,0.99999994,0,0,0,0,0,0,0,0,0,-1,0,false,false,false,0,0,1000,-0.000002697398,-0.000002697398,-0.70249957,0.71168405,0,0,0,0,0,3.75421
29.666666,2000,0,91.24,0.000002697398,0.000002697398,0.000002697398,0.99999994,0,0,0,0,0,0,0,0,0,-1,0,false,false,false,0,0,1000,-0.000002697398,-0.000002697398,-0.6915103,0.72236645,0,0,0,0,0,3.67831
29.675,2000,0,91.24,0.000002697398,0.000002697398,0.000002697398,0.99999994,0,0,0,0,0,0,0,0,0,-1,0,false,false,false,0,0,1000,-0.000002697398,-0.000002697398,-0.6805912,0.7326632,0,0,0,0,0,3.6024098
29.683332,2000,0,91.24,0.000002697398,0.000002697398,0.000002697398,0.99999994,0,0,0,0,0,0,0,0,0,-1,0,false,false,false,0,0,1000,-0.000002697398,-0.000002697398,-0.669753,0.7425838,0,0,0,0,0,3.52651
29.691668,2000,0,91.24,0.000002697398,0.000002697398,0.000002697398,0.99999994,0,0,0,0,0,0,0,0,0,-1,0,false,false,false,0,0,1000,-0.000002697398,-0.000002697398,-0.65900654,0.7521371,0,0,0,0,0,3.45061
29.7,2000,0,91.24,0.000002697398,0.000002697398,0.000002697398,0.99999994,0,0,0,0,0,0,0,0,0,-1,0,false,false,false,0,0,1000,-0.000002697398,-0.000002697398,-0.64836794,0.761327,0,0,0,0,0,3.3747098
29.708334,2000,0,91.24,0.000002697398,0.000002697398,0.000002697398,0.99999994,0,0,0,0,0,0,0,0,0,-1,0,false,false,false,0,0,1000,-0.0000026973978,-0.0000026973978,-0.6378426,0.7701666,0,0,0,0,0,3.29881
29.716667,2000,0,91.24,0.000002697398,0.000002697398,0.000002697398,0.99999994,0,0,0,0,0,0,0,0,0,-1,0,false,false,false,0,0,1000,-0.000002697398,-0.000002697398,-0.62744147,0.77866364,0,0,0,0,0,3.22291
29.725,2000,0,91.24,0.000002697398,0.000002697398,0.000002697398,0.99999994,0,0,0,0,0,0,0,0,0,-1,0,false,false,false,0,0,1000,-0.000002697398,-0.000002697398,-0.6171751,0.7868257,0,0,0,0,0,3.1470098
29.733334,2000,0,91.24,0.000002697398,0.000002697398,0.000002697398,0.99999994,0,0,0,0,0,0,0,0,0,-1,0,false,false,false,0,0,1000,-0.000002697398,-0.000002697398,-0.6070544,0.79466015,0,0,0,0,0,3.07111
29.741667,2000,0,91.24,0.000002697398,0.000002697398,0.000002697398,0.99999994,0,0,0,0,0,0,0,0,0,-1,0,false,false,false,0,0,1000,-0.000002697398,-0.000002697398,-0.5970902,0.80217403,0,0,0,0,0,2.99521
29.75,2000,0,91.24,0.000002697398,0.000002697398,0.000002697398,0.99999994,0,0,0,0,0,0,0,0,0,-1,0,false,false,false,0,0,1000,-0.0000026973978,-0.0000026973978,-0.5872878,0.809378,0,0,0,0,0,2.9193099
29.758333,2000,0,91.24,0.000002697398,0.000002697398,0.000002697398,0.99999994,0,0,0,0,0,0,0,0,0,-1,0,false,false,false,0,0,1000,-0.000002697398,-0.000002697398,-0.57765806,0.81627876,0,0,0,0,0,2.84341
29.766666,2000,0,91.24,0.000002697398,0.000002697398,0.000002697398,0.99999994,0,0,0,0,0,0,0,0,0,-1,0,false,false,false,0,0,1000,-0.000002697398,-0.000002697398,-0.56820637,0.822886,0,0,0,0,0,2.76751
29.775,2000,0,91.24,0.000002697398,0.000002697398,0.000002697398,0.99999994,0,0,0,0,0,0,0,0,0,-1,0,false,false,false,0,0,1000,-0.000002697398,-0.000002697398,-0.55894345,0.8292057,0,0,0,0,0,2.6916099
29.783333,2000,0,91.24,0.000002697398,0.000002697398,0.000002697398,0.99999994,0,0,0,0,0,0,0,0,0,-1,0,false,false,false,0,0,1000,-0.0000026973978,-0.0000026973978,-0.5498747,0.8352469,0,0,0,0,0,2.61571
29.791666,2000,0,91.24,0.000002697398,0.000002697398,0.000002697398,0.99999994,0,0,0,0,0,0,0,0,0,-1,0,false,false,false,0,0,1000,-0.000002697398,-0.000002697398,-0.5410057,0.84101886,0,0,0,0,0,2.53981
29.8,2000,0,91.24,0.000002697398,0.000002697398,0.000002697398,0.99999994,0,0,0,0,0,0,0,0,0,-1,0,false,false,false,0,0,1000,-0.000002697398,-0.000002697398,-0.5323416,0.84652954,0,0,0,0,0,2.4639099
29.808332,2000,0,91.24,0.000002697398,0.000002697398,0.000002697398,0.99999994,0,0,0,0,0,0,0,0,0,-1,0,false,false,false,0,0,1000,-0.000002697398,-0.000002697398,-0.52389336,0.85178375,0,0,0,0,0,2.38801
29.816668,2000,0,91.24,0.000002697398,0.000002697398,0.000002697398,0.99999994,0,0,0,0,0,0,0,0,0,-1,0,false,false,false,0,0,1000,-0.0000026973983,-0.0000026973983,-0.5156609,0.85679275,0,0,0,0,0,2.31211
29.825,2000,0,91.24,0.000002697398,0.000002697398,0.000002697398,0.99999994,0,0,0,0,0,0,0,0,0,-1,0,false,false,false,0,0,1000,-0.000002697398,-0.000002697398,-0.5076549,0.8615604,0,0,0,0,0,2.2362099
29.833334,2000,0,91.24,0.000002697398,0.000002697398,0.000002697398,0.99999994,0,0,0,0,0,0,0,0,0,-1,0,false,false,false,0,0,1000,-0.000002697398,-0.000002697398,-0.49988103,0.866094,0,0,0,0,0,2.16031
29.841667,2000,0,91.24,0.000002697398,0.000002697398,0.000002697398,0.99999994,0,0,0,0,0,0,0,0,0,-1,0,false,false,false,0,0,1000,-0.000002697398,-0.000002697398,-0.49233904,0.8704034,0,0,0,0,0,2.08441
29.85,2000,0,91.24,0.000002697398,0.000002697398,0.000002697398,0.99999994,0,0,0,0,0,0,0,0,0,-1,0,false,false,false,0,0,1000,-0.0000026973978,-0.0000026973978,-0.48503983,0.8744919,0,0,0,0,0,2.0085099
29.858334,2000,0,91.24,0.000002697398,0.000002697398,0.000002697398,0.99999994,0,0,0,0,0,0,0,0,0,-1,0,false,false,false,0,0,1000,-0.000002697398,-0.000002697398,-0.4779835,0.87836874,0,0,0,0,0,1.9326099
29.866667,2000,0,91.24,0.000002697398,0.000002697398,0.000002697398,0.99999994,0,0,0,0,0,0,0,0,0,-1,0,false,false,false,0,0,1000,-0.0000026973983,-0.0000026973983,-0.4711752,0.8820396,0,0,0,0,0,1.85671
29.875,2000,0,91.24,0.000002697398,0.000002697398,0.000002697398,0.99999994,0,0,0,0,0,0,0,0,0,-1,0,false,false,false,0,0,1000,-0.000002697398,-0.000002697398,-0.4646151,0.88551265,0,0,0,0,0,1.78081
29.883333,2000,0,91.24,0.000002697398,0.000002697398,0.000002697398,0.99999994,0,0,0,0,0,0,0,0,0,-1,0,false,false,false,0,0,1000,-0.0000026973978,-0.0000026973978,-0.4583139,0.8887902,0,0,0,0,0,1.7049099
29.891666,2000,0,91.24,0.000002697398,0.000002697398,0.000002697398,0.99999994,0,0,0,0,0,0,0,0,0,-1,0,false,false,false,0,0,1000,-0.000002697398,-0.000002697398,-0.45227176,0.8918801,0,0,0,0,0,1.62901
29.9,2000,0,91.24,0.000002697398,0.000002697398,0.000002697398,0.99999994,0,0,0,0,0,0,0,0,0,-1,0,false,false,false,0,0,1000,-0.000002697398,-0.000002697398,-0.4464885,0.8947893,0,0,0,0,0,1.55311
29.908333,2000,0,91.24,0.000002697398,0.000002697398,0.000002697398,0.99999994,0,0,0,0,0,0,0,0,0,-1,0,false,false,false,0,0,1000,-0.0000026973978,-0.0000026973978,-0.44097495,0.89751923,0,0,0,0,0,1.4772099
29.916666,2000,0,91.24,0.000002697398,0.000002697398,0.000002697398,0.99999994,0,0,0,0,0,0,0,0,0,-1,0,false,false,false,0,0,1000,-0.0000026973978,-0.0000026973978,-0.43572584,0.90007925,0,0,0,0,0,1.40131
29.925,2000,0,91.24,0.000002697398,0.000002697398,0.000002697398,0.99999994,0,0,0,0,0,0,0,0,0,-1,0,false,false,false,0,0,1000,-0.000002697398,-0.000002697398,-0.43074644,0.9024729,0,0,0,0,0,1.32541
29.933332,2000,0,91.24,0.000002697398,0.000002697398,0.000002697398,0.99999994,0,0,0,0,0,0,0,0,0,-1,0,false,false,false,0,0,1000,-0.000002697398,-0.000002697398,-0.42604214,0.90470326,0,0,0,0,0,1.2495099
29.941668,2000,0,91.24,0.000002697398,0.000002697398,0.000002697398,0.99999994,0,0,0,0,0,0,0,0,0,-1,0,false,false,false,0,0,1000,-0.000002697398,-0.000002697398,-0.421613,0.9067758,0,0,0,0,0,1.17361
29.95,2000,0,91.24,0.000002697398,0.000002697398,0.000002697398,0.99999994,0,0,0,0,0,0,0,0,0,-1,0,false,false,false,0,0,1000,-0.000002697398,-0.000002697398,-0.417459,0.9086957,0,0,0,0,0,1.09771
29.958334,2000,0,91.24,0.000002697398,0.000002697398,0.000002697398,0.99999994,0,0,0,0,0,0,0,0,0,-1,0,false,false,false,0,0,1000,-0.000002697398,-0.000002697398,-0.41358554,0.9104652,0,0,0,0,0,1.0218099
29.966667,2000,0,91.24,0.000002697398,0.000002697398,0.000002697398,0.99999994,0,0,0,0,0,0,0,0,0,-1,0,false,false,false,0,0,1000,-0.000002697398,-0.000002697398,-0.40999258,0.9120888,0,0,0,0,0,0.94591
29.975,2000,0,91.24,0.000002697398,0.000002697398,0.000002697398,0.99999994,0,0,0,0,0,0,0,0,0,-1,0,false,false,false,0,0,1000,-0.000002697398,-0.000002697398,-0.40668556,0.91356814,0,0,0,0,0,0.87001
29.983334,2000,0,91.24,0.000002697398,0.000002697398,0.000002697398,0.99999994,0,0,0,0,0,0,0,0,0,-1,0,false,false,false,0,0,1000,-0.000002697398,-0.000002697398,-0.40365905,0.9149094,0,0,0,0,0,0.79411
29.991667,2000,0,91.24,0.000002697398,0.000002697398,0.000002697398,0.99999994,0,0,0,0,0,0,0,0,0,-1,0,false,false,false,0,0,1000,-0.000002697398,-0.000002697398,-0.40091848,0.9161137,0,0,0,0,0,0.71821
30,2000,0,91.24,0.000002697398,0.000002697398,0.000002697398,0.99999994,0,0,0,0,0,0,0,0,0,-1,0,false,false,false,0,0,1000,-0.0000026973983,-0.0000026973983,-0.39846388,0.917184,0,0,0,0,0,0.64231
30.008333,2000,0,91.24,0.000002697398,0.000002697398,0.000002697398,0.99999994,0,0,0,0,0,0,0,0,0,-1,0,false,false,false,0,0,1000,-0.000002697398,-0.000002697398,-0.39630055,0.91812074,0,0,0,0,0,0.56641
30.016666,2000,0,91.24,0.000002697398,0.000002697398,0.000002697398,0.99999994,0,0,0,0,0,0,0,0,0,-1,0,false,false,false,0,0,1000,-0.000002697398,-0.000002697398,-0.39442316,0.91892886,0,0,0,0,0,0.49051
30.025,2000,0,91.24,0.000002697398,0.000002697398,0.000002697398,0.99999994,0,0,0,0,0,0,0,0,0,-1,0,false,false,false,0,0,1000,-0.000002697398,-0.000002697398,-0.39283708,0.919608,0,0,0,0,0,0.41461
30.033333,2000,0,91.24,0.000002697398,0.000002697398,0.000002697398,0.99999994,0,0,0,0,0,0,0,0,0,-1,0,false,false,false,0,0,1000,-0.000002697398,-0.000002697398,-0.39153695,0.9201623,0,0,0,0,0,0.33871
30.041666,2000,0,91.24,0.000002697398,0.000002697398,0.000002697398,0.99999994,0,0,0,0,0,0,0,0,0,-1,0,false,false,false,0,0,1000,-0.000002697398,-0.000002697398,-0.3905281,0.92059094,0,0,0,0,0,0.26281002
30.05,2000,0,91.24,0.000002697398,0.000002697398,0.000002697398,0.99999994,0,0,0,0,0,0,0,0,0,-1,0,false,false,false,0,0,1000,-0.000002697398,-0.000002697398,-0.3898106,0.920895,0,0,0,0,0,0.18690999
30.058332,2000,0,91.24,0.000002697398,0.000002697398,0.000002697398,0.99999994,0,0,0,0,0,0,0,0,0,-1,0,false,false,false,0,0,1000,-0.000002697398,-0.000002697398,-0.38938436,0.9210753,0,0,0,0,0,0.11100999
30.066668,2000,0,91.24,0.000002697398,0.000002697398,0.000002697398,0.99999994,0,0,0,0,0,0,0,0,0,-1,0,false,false,false,0,0,1000,-0.0000026973983,-0.0000026973983,-0.38924953,0.9211323,0,0,0,0,0,0.035109997
