time,ball_loc_x,ball_loc_y,ball_loc_z,ball_rot_x,ball_rot_y,ball_rot_z,ball_rot_w,ball_vel_x,ball_vel_y,ball_vel_z,ball_ang_x,ball_ang_y,ball_ang_z,player0_throttle,player0_steer,player0_pitch,player0_yaw,player0_roll,player0_jump,player0_boost,player0_handbrake,player0_loc_x,player0_loc_y,player0_loc_z,player0_rot_x,player0_rot_y,player0_rot_z,player0_rot_w,player0_vel_x,player0_vel_y,player0_vel_z,player0_ang_x,player0_ang_y,player0_ang_z
24.466667,2000,0,91.24,0.000002697398,0.000002697398,0.000002697398,0.99999994,0,0,0,0,0,0,0,0,0,1,0,false,false,false,0,0,1000,0.000002697398,0.000002697398,0.93038416,-0.36658588,0,0,0,0,0,5.50001
24.475,2000,0,91.24,0.000002697398,0.000002697398,0.000002697398,0.99999994,0,0,0,0,0,0,0,0,0,0,0,false,false,false,0,0,1000,0.000002697398,0.000002697398,0.92188257,-0.38746923,0,0,0,0,0,5.41211
24.483334,2000,0,91.24,0.000002697398,0.000002697398,0.000002697398,0.99999994,0,0,0,0,0,0,0,0,0,0,0,false,false,false,0,0,1000,0.000002697398,0.000002697398,0.91305816,-0.40782925,0,0,0,0,0,5.3256097
24.491667,2000,0,91.24,0.000002697398,0.000002697398,0.000002697398,0.99999994,0,0,0,0,0,0,0,0,0,0,0,false,false,false,0,0,1000,0.0000026973983,0.0000026973983,0.9039368,-0.427666,0,0,0,0,0,5.24051
24.5,2000,0,91.24,0.000002697398,0.000002697398,0.000002697398,0.99999994,0,0,0,0,0,0,0,0,0,0,0,false,false,false,0,0,1000,0.000002697398,0.000002697398,0.89453876,-0.44699022,0,0,0,0,0,5.1567097
24.508333,2000,0,91.24,0.000002697398,0.000002697398,0.000002697398,0.99999994,0,0,0,0,0,0,0,0,0,0,0,false,false,false,0,0,1000,0.0000026973983,0.0000026973983,0.88488895,-0.46580198,0,0,0,0,0,5.07431
24.516666,2000,0,91.24,0.000002697398,0.000002697398,0.000002697398,0.99999994,0,0,0,0,0,0,0,0,0,0,0,false,false,false,0,0,1000,0.000002697398,0.000002697398,0.87500596,-0.484112,0,0,0,0,0,4.99321
24.525,2000,0,91.24,0.000002697398,0.000002697398,0.000002697398,0.99999994,0,0,0,0,0,0,0,0,0,0,0,false,false,false,0,0,1000,0.0000026973983,0.0000026973983,0.8649107,-0.5019257,0,0,0,0,0,4.9134097
24.533333,2000,0,91.24,0.000002697398,0.000002697398,0.000002697398,0.99999994,0,0,0,0,0,0,0,0,0,0,0,false,false,false,0,0,1000,0.000002697398,0.000002697398,0.8546233,-0.51924837,0,0,0,0,0,4.83481
24.541666,2000,0,91.24,0.000002697398,0.000002697398,0.000002697398,0.99999994,0,0,0,0,0,0,0,0,0,0,0,false,false,false,0,0,1000,0.000002697398,0.000002697398,0.84416354,-0.5360856,0,0,0,0,0,4.7575097
24.55,2000,0,91.24,0.000002697398,0.000002697398,0.000002697398,0.99999994,0,0,0,0,0,0,0,0,0,0,0,false,false,false,0,0,1000,0.0000026973983,0.0000026973983,0.83354723,-0.55244815,0,0,0,0,0,4.68141
24.558332,2000,0,91.24,0.000002697398,0.000002697398,0.000002697398,0.99999994,0,0,0,0,0,0,0,0,0,0,0,false,false,false,0,0,1000,0.000002697398,0.000002697398,0.82278913,-0.5683466,0,0,0,0,0,4.60661
24.566668,2000,0,91.24,0.000002697398,0.000002697398,0.000002697398,0.99999994,0,0,0,0,0,0,0,0,0,0,0,false,false,false,0,0,1000,0.000002697398,0.000002697398,0.81190705,-0.5837866,0,0,0,0,0,4.53301
24.575,2000,0,91.24,0.000002697398,0.000002697398,0.000002697398,0.99999994,0,0,0,0,0,0,0,0,0,0,0,false,false,false,0,0,1000,0.0000026973978,0.0000026973978,0.8009184,-0.5987733,0,0,0,0,0,4.46051
24.583334,2000,0,91.24,0.000002697398,0.000002697398,0.000002697398,0.99999994,0,0,0,0,0,0,0,0,0,0,0,false,false,false,0,0,1000,0.000002697398,0.000002697398,0.7898361,-0.61331785,0,0,0,0,0,4.3892097
24.591667,2000,0,91.24,0.000002697398,0.000002697398,0.000002697398,0.99999994,0,0,0,0,0,0,0,0,0,0,0,false,false,false,0,0,1000,0.000002697398,0.000002697398,0.7786723,-0.6274307,0,0,0,0,0,4.31901
24.6,2000,0,91.24,0.000002697398,0.000002697398,0.000002697398,0.99999994,0,0,0,0,0,0,0,0,0,0,0,false,false,false,0,0,1000,0.000002697398,0.000002697398,0.7674383,-0.6411227,0,0,0,0,0,4.24991
24.608334,2000,0,91.24,0.000002697398,0.000002697398,0.000002697398,0.99999994,0,0,0,0,0,0,0,0,0,0,0,false,false,false,0,0,1000,0.0000026973983,0.0000026973983,0.75614905,-0.6543994,0,0,0,0,0,4.1820097
24.616667,2000,0,91.24,0.000002697398,0.000002697398,0.000002697398,0.99999994,0,0,0,0,0,0,0,0,0,0,0,false,false,false,0,0,1000,0.000002697398,0.000002697398,0.7448194,-0.66726595,0,0,0,0,0,4.11511
24.625,2000,0,91.24,0.000002697398,0.000002697398,0.000002697398,0.99999994,0,0,0,0,0,0,0,0,0,0,0,false,false,false,0,0,1000,0.000002697398,0.000002697398,0.7334541,-0.6797388,0,0,0,0,0,4.0493097
24.633333,2000,0,91.24,0.000002697398,0.000002697398,0.000002697398,0.99999994,0,0,0,0,0,0,0,0,0,0,0,false,false,false,0,0,1000,0.000002697398,0.000002697398,0.7220668,-0.6918232,0,0,0,0,0,3.9846098
24.641666,2000,0,91.24,0.000002697398,0.000002697398,0.000002697398,0.99999994,0,0,0,0,0,0,0,0,0,0,0,false,false,false,0,0,1000,0.000002697398,0.000002697398,0.71067077,-0.7035246,0,0,0,0,0,3.92091
24.65,2000,0,91.24,0.000002697398,0.000002697398,0.000002697398,0.99999994,0,0,0,0,0,0,0,0,0,0,0,false,false,false,0,0,1000,-0.0000026973983,-0.0000026973983,-0.6992681,0.7148595,0,0,0,0,0,3.8582098
24.658333,2000,0,91.24,0.000002697398,0.000002697398,0.000002697398,0.99999994,0,0,0,0,0,0,0,0,0,0,0,false,false,false,0,0,1000,-0.000002697398,-0.000002697398,-0.6878742,0.72582984,0,0,0,0,0,3.79651
24.666666,2000,0,91.24,0.000002697398,0.000002697398,0.000002697398,0.99999994,0,0,0,0,0,0,0,0,0,0,0,false,false,false,0,0,1000,-0.000002697398,-0.000002697398,-0.67649114,0.7364507,0,0,0,0,0,3.7358098
24.675,2000,0,91.24,0.000002697398,0.000002697398,0.000002697398,0.99999994,0,0,0,0,0,0,0,0,0,0,0,false,false,false,0,0,1000,-0.000002697398,-0.000002697398,-0.6651296,0.7467278,0,0,0,0,0,3.67611
24.683332,2000,0,91.24,0.000002697398,0.000002697398,0.000002697398,0.99999994,0,0,0,0,0,0,0,0,0,0,0,false,false,false,0,0,1000,-0.000002697398,-0.000002697398,-0.6538005,0.75666684,0,0,0,0,0,3.6173098
24.691668,2000,0,91.24,0.000002697398,0.000002697398,0.000002697398,0.99999994,0,0,0,0,0,0,0,0,0,0,0,false,false,false,0,0,1000,-0.000002697398,-0.000002697398,-0.64250916,0.7662779,0,0,0,0,0,3.55951
24.7,2000,0,91.24,0.000002697398,0.000002697398,0.000002697398,0.99999994,0,0,0,0,0,0,0,0,0,0,0,false,false,false,0,0,1000,-0.000002697398,-0.000002697398,-0.63125557,0.7755748,0,0,0,0,0,3.50261
24.708334,2000,0,91.24,0.000002697398,0.000002697398,0.000002697398,0.99999994,0,0,0,0,0,0,0,0,0,0,0,false,false,false,0,0,1000,-0.0000026973978,-0.0000026973978,-0.6200505,0.78456175,0,0,0,0,0,3.44661
24.716667,2000,0,91.24,0.000002697398,0.000002697398,0.000002697398,0.99999994,0,0,0,0,0,0,0,0,0,0,0,false,false,false,0,0,1000,-0.000002697398,-0.000002697398,-0.6088995,0.7932473,0,0,0,0,0,3.39151
24.725,2000,0,91.24,0.000002697398,0.000002697398,0.000002697398,0.99999994,0,0,0,0,0,0,0,0,0,0,0,false,false,false,0,0,1000,-0.000002697398,-0.000002697398,-0.5978077,0.80163944,0,0,0,0,0,3.3373098
24.733334,2000,0,91.24,0.000002697398,0.000002697398,0.000002697398,0.99999994,0,0,0,0,0,0,0,0,0,0,0,false,false,false,0,0,1000,-0.0000026973983,-0.0000026973983,-0.5867808,0.8097458,0,0,0,0,0,3.28391
24.741667,2000,0,91.24,0.000002697398,0.000002697398,0.000002697398,0.99999994,0,0,0,0,0,0,0,0,0,0,0,false,false,false,0,0,1000,-0.000002697398,-0.000002697398,-0.57582384,0.8175737,0,0,0,0,0,3.23141
24.75,2000,0,91.24,0.000002697398,0.000002697398,0.000002697398,0.99999994,0,0,0,0,0,0,0,0,0,0,0,false,false,false,0,0,1000,-0.000002697398,-0.000002697398,-0.5649425,0.82513016,0,0,0,0,0,3.17971
24.758333,2000,0,91.24,0.000002697398,0.000002697398,0.000002697398,0.99999994,0,0,0,0,0,0,0,0,0,0,0,false,false,false,0,0,1000,-0.000002697398,-0.000002697398,-0.5541367,0.8324256,0,0,0,0,0,3.1289098
24.766666,2000,0,91.24,0.000002697398,0.000002697398,0.000002697398,0.99999994,0,0,0,0,0,0,0,0,0,0,0,false,false,false,0,0,1000,-0.0000026973983,-0.0000026973983,-0.54341185,0.8394662,0,0,0,0,0,3.0789099
24.775,2000,0,91.24,0.000002697398,0.000002697398,0.000002697398,0.99999994,0,0,0,0,0,0,0,0,0,0,0,false,false,false,0,0,1000,-0.000002697398,-0.000002697398,-0.5327732,0.846258,0,0,0,0,0,3.02971
24.783333,2000,0,91.24,0.000002697398,0.000002697398,0.000002697398,0.99999994,0,0,0,0,0,0,0,0,0,0,0,false,false,false,0,0,1000,-0.000002697398,-0.000002697398,-0.52222097,0.85281014,0,0,0,0,0,2.98121
24.791666,2000,0,91.24,0.000002697398,0.000002697398,0.000002697398,0.99999994,0,0,0,0,0,0,0,0,0,0,0,false,false,false,0,0,1000,-0.000002697398,-0.000002697398,-0.51176035,0.8591281,0,0,0,0,0,2.9335098
24.8,2000,0,91.24,0.000002697398,0.000002697398,0.000002697398,0.99999994,0,0,0,0,0,0,0,0,0,0,0,false,false,false,0,0,1000,-0.0000026973978,-0.0000026973978,-0.50139153,0.8652203,0,0,0,0,0,2.88661
24.808332,2000,0,91.24,0.000002697398,0.000002697398,0.000002697398,0.99999994,0,0,0,0,0,0,0,0,0,0,0,false,false,false,0,0,1000,-0.000002697398,-0.000002697398,-0.49111444,0.871095,0,0,0,0,0,2.84041
24.816668,2000,0,91.24,0.000002697398,0.000002697398,0.000002697398,0.99999994,0,0,0,0,0,0,0,0,0,0,0,false,false,false,0,0,1000,-0.000002697398,-0.000002697398,-0.48093444,0.8767565,0,0,0,0,0,2.7950099
24.825,2000,0,91.24,0.000002697398,0.000002697398,0.000002697398,0.99999994,0,0,0,0,0,0,0,0,0,0,0,false,false,false,0,0,1000,-0.000002697398,-0.000002697398,-0.47085688,0.88220954,0,0,0,0,0,2.75031
24.833334,2000,0,91.24,0.000002697398,0.000002697398,0.000002697398,0.99999994,0,0,0,0,0,0,0,0,0,0,0,false,false,false,0,0,1000,-0.000002697398,-0.000002697398,-0.4608765,0.8874642,0,0,0,0,0,2.70631
24.841667,2000,0,91.24,0.000002697398,0.000002697398,0.000002697398,0.99999994,0,0,0,0,0,0,0,0,0,0,0,false,false,false,0,0,1000,-0.000002697398,-0.000002697398,-0.4509986,0.8925246,0,0,0,0,0,2.66301
24.85,2000,0,91.24,0.000002697398,0.000002697398,0.000002697398,0.99999994,0,0,0,0,0,0,0,0,0,0,0,false,false,false,0,0,1000,-0.0000026973978,-0.0000026973978,-0.4412285,0.8973946,0,0,0,0,0,2.62041
24.858334,2000,0,91.24,0.000002697398,0.000002697398,0.000002697398,0.99999994,0,0,0,0,0,0,0,0,0,0,0,false,false,false,0,0,1000,-0.0000026973983,-0.0000026973983,-0.43156108,0.9020837,0,0,0,0,0,2.57851
24.866667,2000,0,91.24,0.000002697398,0.000002697398,0.000002697398,0.99999994,0,0,0,0,0,0,0,0,0,0,0,false,false,false,0,0,1000,-0.0000026973983,-0.0000026973983,-0.42200148,0.9065951,0,0,0,0,0,2.53731
24.875,2000,0,91.24,0.000002697398,0.000002697398,0.000002697398,0.99999994,0,0,0,0,0,0,0,0,0,0,0,false,false,false,0,0,1000,-0.000002697398,-0.000002697398,-0.41254976,0.910935,0,0,0,0,0,2.49671
24.883333,2000,0,91.24,0.000002697398,0.000002697398,0.000002697398,0.99999994,0,0,0,0,0,0,0,0,0,0,0,false,false,false,0,0,1000,-0.000002697398,-0.000002697398,-0.40320048,0.9151116,0,0,0,0,0,2.45681
24.891666,2000,0,91.24,0.000002697398,0.000002697398,0.000002697398,0.99999994,0,0,0,0,0,0,0,0,0,0,0,false,false,false,0,0,1000,-0.000002697398,-0.000002697398,-0.3939646,0.91912556,0,0,0,0,0,2.41751
24.9,2000,0,91.24,0.000002697398,0.000002697398,0.000002697398,0.99999994,0,0,0,0,0,0,0,0,0,0,0,false,false,false,0,0,1000,-0.000002697398,-0.000002697398,-0.38483655,0.92298466,0,0,0,0,0,2.37881
24.908333,2000,0,91.24,0.000002697398,0.000002697398,0.000002697398,0.99999994,0,0,0,0,0,0,0,0,0,0,0,false,false,false,0,0,1000,-0.0000026973978,-0.0000026973978,-0.37581638,0.926694,0,0,0,0,0,2.34071
24.916666,2000,0,91.24,0.000002697398,0.000002697398,0.000002697398,0.99999994,0,0,0,0,0,0,0,0,0,0,0,false,false,false,0,0,1000,-0.000002697398,-0.000002697398,-0.36690417,0.9302587,0,0,0,0,0,2.30331
24.925,2000,0,91.24,0.000002697398,0.000002697398,0.000002697398,0.99999994,0,0,0,0,0,0,0,0,0,0,0,false,false,false,0,0,1000,-0.0000026973983,-0.0000026973983,-0.35810524,0.9336812,0,0,0,0,0,2.26651
24.933332,2000,0,91.24,0.000002697398,0.000002697398,0.000002697398,0.99999994,0,0,0,0,0,0,0,0,0,0,0,false,false,false,0,0,1000,-0.0000026973978,-0.0000026973978,-0.34941417,0.9369682,0,0,0,0,0,2.23021
24.941668,2000,0,91.24,0.000002697398,0.000002697398,0.000002697398,0.99999994,0,0,0,0,0,0,0,0,0,0,0,false,false,false,0,0,1000,-0.000002697398,-0.000002697398,-0.34083104,0.9401245,0,0,0,0,0,2.19451
24.95,2000,0,91.24,0.000002697398,0.000002697398,0.000002697398,0.99999994,0,0,0,0,0,0,0,0,0,0,0,false,false,false,0,0,1000,-0.000002697398,-0.000002697398,-0.33235577,0.94315404,0,0,0,0,0,2.15941
24.958334,2000,0,91.24,0.000002697398,0.000002697398,0.000002697398,0.99999994,0,0,0,0,0,0,0,0,0,0,0,false,false,false,0,0,1000,-0.0000026973983,-0.0000026973983,-0.32399383,0.94605917,0,0,0,0,0,2.1249099
24.966667,2000,0,91.24,0.000002697398,0.000002697398,0.000002697398,0.99999994,0,0,0,0,0,0,0,0,0,0,0,false,false,false,0,0,1000,-0.000002697398,-0.000002697398,-0.31573975,0.94884574,0,0,0,0,0,2.09091
24.975,2000,0,91.24,0.000002697398,0.000002697398,0.000002697398,0.99999994,0,0,0,0,0,0,0,0,0,0,0,false,false,false,0,0,1000,-0.0000026973983,-0.0000026973983,-0.30759358,0.9515178,0,0,0,0,0,2.05741
24.983334,2000,0,91.24,0.000002697398,0.000002697398,0.000002697398,0.99999994,0,0,0,0,0,0,0,0,0,0,0,false,false,false,0,0,1000,-0.0000026973978,-0.0000026973978,-0.29955524,0.9540788,0,0,0,0,0,2.02451
24.991667,2000,0,91.24,0.000002697398,0.000002697398,0.000002697398,0.99999994,0,0,0,0,0,0,0,0,0,0,0,false,false,false,0,0,1000,-0.000002697398,-0.000002697398,-0.29162487,0.9565327,0,0,0,0,0,1.99211
25,2000,0,91.24,0.000002697398,0.000002697398,0.000002697398,0.99999994,0,0,0,0,0,0,0,0,0,0,0,false,false,false,0,0,1000,-0.0000026973978,-0.0000026973978,-0.2838024,0.95888263,0,0,0,0,0,1.96021
25.008333,2000,0,91.24,0.000002697398,0.000002697398,0.000002697398,0.99999994,0,0,0,0,0,0,0,0,0,0,0,false,false,false,0,0,1000,-0.000002697398,-0.000002697398,-0.27608782,0.96113235,0,0,0,0,0,1.92881
25.016666,2000,0,91.24,0.000002697398,0.000002697398,0.000002697398,0.99999994,0,0,0,0,0,0,0,0,0,0,0,false,false,false,0,0,1000,-0.000002697398,-0.000002697398,-0.26847574,0.9632864,0,0,0,0,0,1.89791
25.025,2000,0,91.24,0.000002697398,0.000002697398,0.000002697398,0.99999994,0,0,0,0,0,0,0,0,0,0,0,false,false,false,0,0,1000,-0.0000026973983,-0.0000026973983,-0.2609716,0.96534646,0,0,0,0,0,1.86751
25.033333,2000,0,91.24,0.000002697398,0.000002697398,0.000002697398,0.99999994,0,0,0,0,0,0,0,0,0,0,0,false,false,false,0,0,1000,-0.0000026973978,-0.0000026973978,-0.25356984,0.9673169,0,0,0,0,0,1.83761
25.041666,2000,0,91.24,0.000002697398,0.000002697398,0.000002697398,0.99999994,0,0,0,0,0,0,0,0,0,0,0,false,false,false,0,0,1000,-0.000002697398,-0.000002697398,-0.24627607,0.96919966,0,0,0,0,0,1.80821
25.05,2000,0,91.24,0.000002697398,0.000002697398,0.000002697398,0.99999994,0,0,0,0,0,0,0,0,0,0,0,false,false,false,0,0,1000,-0.000002697398,-0.000002697398,-0.23908481,0.97099864,0,0,0,0,0,1.77931
25.058332,2000,0,91.24,0.000002697398,0.000002697398,0.000002697398,0.99999994,0,0,0,0,0,0,0,0,0,0,0,false,false,false,0,0,1000,-0.000002697398,-0.000002697398,-0.231996,0.9727167,0,0,0,0,0,1.75081
25.066668,2000,0,91.24,0.000002697398,0.000002697398,0.000002697398,0.99999994,0,0,0,0,0,0,0,0,0,0,0,false,false,false,0,0,1000,-0.000002697398,-0.000002697398,-0.2250097,0.9743565,0,0,0,0,0,1.7228099
25.075,2000,0,91.24,0.000002697398,0.000002697398,0.000002697398,0.99999994,0,0,0,0,0,0,0,0,0,0,0,false,false,false,0,0,1000,-0.000002697398,-0.000002697398,-0.21812055,0.97592175,0,0,0,0,0,1.69521
25.083334,2000,0,91.24,0.000002697398,0.000002697398,0.000002697398,0.99999994,0,0,0,0,0,0,0,0,0,0,0,false,false,false,0,0,1000,-0.000002697398,-0.000002697398,-0.21133384,0.9774139,0,0,0,0,0,1.66811
25.091667,2000,0,91.24,0.000002697398,0.000002697398,0.000002697398,0.99999994,0,0,0,0,0,0,0,0,0,0,0,false,false,false,0,0,1000,-0.000002697398,-0.000002697398,-0.2046443,0.97883636,0,0,0,0,0,1.64141
25.1,2000,0,91.24,0.000002697398,0.000002697398,0.000002697398,0.99999994,0,0,0,0,0,0,0,0,0,0,0,false,false,false,0,0,1000,-0.0000026973978,-0.0000026973978,-0.1980518,0.9801914,0,0,0,0,0,1.6151099
25.108334,2000,0,91.24,0.000002697398,0.000002697398,0.000002697398,0.99999994,0,0,0,0,0,0,0,0,0,0,0,false,false,false,0,0,1000,-0.000002697398,-0.000002697398,-0.19155644,0.98148155,0,0,0,0,0,1.5893099
25.116667,2000,0,91.24,0.000002697398,0.000002697398,0.000002697398,0.99999994,0,0,0,0,0,0,0,0,0,0,0,false,false,false,0,0,1000,-0.0000026973983,-0.0000026973983,-0.18515822,0.9827087,0,0,0,0,0,1.56391
25.125,2000,0,91.24,0.000002697398,0.000002697398,0.000002697398,0.99999994,0,0,0,0,0,0,0,0,0,0,0,false,false,false,0,0,1000,-0.000002697398,-0.000002697398,-0.17885165,0.983876,0,0,0,0,0,1.53891
25.133333,2000,0,91.24,0.000002697398,0.000002697398,0.000002697398,0.99999994,0,0,0,0,0,0,0,0,0,0,0,false,false,false,0,0,1000,-0.000002697398,-0.000002697398,-0.17264225,0.9849845,0,0,0,0,0,1.51431
25.141666,2000,0,91.24,0.000002697398,0.000002697398,0.000002697398,0.99999994,0,0,0,0,0,0,0,0,0,0,0,false,false,false,0,0,1000,-0.000002697398,-0.000002697398,-0.1665245,0.98603725,0,0,0,0,0,1.4901099
25.15,2000,0,91.24,0.000002697398,0.000002697398,0.000002697398,0.99999994,0,0,0,0,0,0,0,0,0,0,0,false,false,false,0,0,1000,-0.0000026973978,-0.0000026973978,-0.1604985,0.98703593,0,0,0,0,0,1.46621
25.158333,2000,0,91.24,0.000002697398,0.000002697398,0.000002697398,0.99999994,0,0,0,0,0,0,0,0,0,0,0,false,false,false,0,0,1000,-0.000002697398,-0.000002697398,-0.15456419,0.9879827,0,0,0,0,0,1.4427099
25.166666,2000,0,91.24,0.000002697398,0.000002697398,0.000002697398,0.99999994,0,0,0,0,0,0,0,0,0,0,0,false,false,false,0,0,1000,-0.000002697398,-0.000002697398,-0.1487162,0.98887986,0,0,0,0,0,1.41961
25.175,2000,0,91.24,0.000002697398,0.000002697398,0.000002697398,0.99999994,0,0,0,0,0,0,0,0,0,0,0,false,false,false,0,0,1000,-0.0000026973983,-0.0000026973983,-0.14295995,0.98972845,0,0,0,0,0,1.39691
25.183332,2000,0,91.24,0.000002697398,0.000002697398,0.000002697398,0.99999994,0,0,0,0,0,0,0,0,0,0,0,false,false,false,0,0,1000,-0.000002697398,-0.000002697398,-0.13728997,0.99053085,0,0,0,0,0,1.3745099
25.191668,2000,0,91.24,0.000002697398,0.000002697398,0.000002697398,0.99999994,0,0,0,0,0,0,0,0,0,0,0,false,false,false,0,0,1000,-0.000002697398,-0.000002697398,-0.13170636,0.9912887,0,0,0,0,0,1.35251
25.2,2000,0,91.24,0.000002697398,0.000002697398,0.000002697398,0.99999994,0,0,0,0,0,0,0,0,0,0,0,false,false,false,0,0,1000,-0.000002697398,-0.000002697398,-0.12620902,0.9920036,0,0,0,0,0,1.33081
25.208334,2000,0,91.24,0.000002697398,0.000002697398,0.000002697398,0.99999994,0,0,0,0,0,0,0,0,0,0,0,false,false,false,0,0,1000,-0.000002697398,-0.000002697398,-0.12079265,0.9926777,0,0,0,0,0,1.30951
25.216667,2000,0,91.24,0.000002697398,0.000002697398,0.000002697398,0.99999994,0,0,0,0,0,0,0,0,0,0,0,false,false,false,0,0,1000,-0.0000026973983,-0.0000026973983,-0.11546256,0.9933118,0,0,0,0,0,1.28851
25.225,2000,0,91.24,0.000002697398,0.000002697398,0.000002697398,0.99999994,0,0,0,0,0,0,0,0,0,0,0,false,false,false,0,0,1000,-0.000002697398,-0.000002697398,-0.11021341,0.99390787,0,0,0,0,0,1.26791
25.233334,2000,0,91.24,0.000002697398,0.000002697398,0.000002697398,0.99999994,0,0,0,0,0,0,0,0,0,0,0,false,false,false,0,0,1000,-0.000002697398,-0.000002697398,-0.10504519,0.9944674,0,0,0,0,0,1.24761
25.241667,2000,0,91.24,0.000002697398,0.000002697398,0.000002697398,0.99999994,0,0,0,0,0,0,0,0,0,0,0,false,false,false,0,0,1000,-0.000002697398,-0.000002697398,-0.09995786,0.9949916,0,0,0,0,0,1.22761
25.25,2000,0,91.24,0.000002697398,0.000002697398,0.000002697398,0.99999994,0,0,0,0,0,0,0,0,0,0,0,false,false,false,0,0,1000,-0.0000026973983,-0.0000026973983,-0.0949461,0.9954824,0,0,0,0,0,1.20791
25.258333,2000,0,91.24,0.000002697398,0.000002697398,0.000002697398,0.99999994,0,0,0,0,0,0,0,0,0,0,0,false,false,false,0,0,1000,-0.0000026973983,-0.0000026973983,-0.09001522,0.9959404,0,0,0,0,0,1.18861
25.266666,2000,0,91.24,0.000002697398,0.000002697398,0.000002697398,0.99999994,0,0,0,0,0,0,0,0,0,0,0,false,false,false,0,0,1000,-0.0000026973983,-0.0000026973983,-0.0851599,0.9963673,0,0,0,0,0,1.16961
25.275,2000,0,91.24,0.000002697398,0.000002697398,0.000002697398,0.99999994,0,0,0,0,0,0,0,0,0,0,0,false,false,false,0,0,1000,-0.000002697398,-0.000002697398,-0.08038006,0.99676424,0,0,0,0,0,1.15091
25.283333,2000,0,91.24,0.000002697398,0.000002697398,0.000002697398,0.99999994,0,0,0,0,0,0,0,0,0,0,0,false,false,false,0,0,1000,-0.000002697398,-0.000002697398,-0.07567579,0.9971324,0,0,0,0,0,1.13251
25.291666,2000,0,91.24,0.000002697398,0.000002697398,0.000002697398,0.99999994,0,0,0,0,0,0,0,0,0,0,0,false,false,false,0,0,1000,-0.0000026973983,-0.0000026973983,-0.07104702,0.99747294,0,0,0,0,0,1.11441
25.3,2000,0,91.24,0.000002697398,0.000002697398,0.000002697398,0.99999994,0,0,0,0,0,0,0,0,0,0,0,false,false,false,0,0,1000,-0.0000026973983,-0.0000026973983,-0.06648842,0.9977872,0,0,0,0,0,1.09661
25.308332,2000,0,91.24,0.000002697398,0.000002697398,0.000002697398,0.99999994,0,0,0,0,0,0,0,0,0,0,0,false,false,false,0,0,1000,-0.000002697398,-0.000002697398,-0.061999947,0.9980761,0,0,0,0,0,1.07901
25.316668,2000,0,91.24,0.000002697398,0.000002697398,0.000002697398,0.99999994,0,0,0,0,0,0,0,0,0,0,0,false,false,false,0,0,1000,-0.0000026973983,-0.0000026973983,-0.05758157,0.9983408,0,0,0,0,0,1.06171
25.325,2000,0,91.24,0.000002697398,0.000002697398,0.000002697398,0.99999994,0,0,0,0,0,0,0,0,0,0,0,false,false,false,0,0,1000,-0.0000026973978,-0.0000026973978,-0.053233355,0.99858195,0,0,0,0,0,1.04471
25.333334,2000,0,91.24,0.000002697398,0.000002697398,0.000002697398,0.99999994,0,0,0,0,0,0,0,0,0,0,0,false,false,false,0,0,1000,-0.0000026973983,-0.0000026973983,-0.04895525,0.99880093,0,0,0,0,0,1.02801
25.341667,2000,0,91.24,0.000002697398,0.000002697398,0.000002697398,0.99999994,0,0,0,0,0,0,0,0,0,0,0,false,false,false,0,0,1000,-0.000002697398,-0.000002697398,-0.044747304,0.9989983,0,0,0,0,0,1.01151
25.35,2000,0,91.24,0.000002697398,0.000002697398,0.000002697398,0.99999994,0,0,0,0,0,0,0,0,0,0,0,false,false,false,0,0,1000,-0.0000026973983,-0.0000026973983,-0.040604103,0.9991753,0,0,0,0,0,0.99531
25.358334,2000,0,91.24,0.000002697398,0.000002697398,0.000002697398,0.99999994,0,0,0,0,0,0,0,0,0,0,0,false,false,false,0,0,1000,-0.000002697398,-0.000002697398,-0.036525592,0.99933267,0,0,0,0,0,0.97941
25.366667,2000,0,91.24,0.000002697398,0.000002697398,0.000002697398,0.99999994,0,0,0,0,0,0,0,0,0,0,0,false,false,false,0,0,1000,-0.000002697398,-0.000002697398,-0.032511864,0.9994713,0,0,0,0,0,0.96371
25.375,2000,0,91.24,0.000002697398,0.000002697398,0.000002697398,0.99999994,0,0,0,0,0,0,0,0,0,0,0,false,false,false,0,0,1000,-0.000002697398,-0.000002697398,-0.028562875,0.99959195,0,0,0,0,0,0.94831
25.383333,2000,0,91.24,0.000002697398,0.000002697398,0.000002697398,0.99999994,0,0,0,0,0,0,0,0,0,0,0,false,false,false,0,0,1000,-0.000002697398,-0.000002697398,-0.024678579,0.99969536,0,0,0,0,0,0.93311
25.391666,2000,0,91.24,0.000002697398,0.000002697398,0.000002697398,0.99999994,0,0,0,0,0,0,0,0,0,0,0,false,false,false,0,0,1000,-0.0000026973978,-0.0000026973978,-0.020853667,0.9997824,0,0,0,0,0,0.91811
25.4,2000,0,91.24,0.000002697398,0.000002697398,0.000002697398,0.99999994,0,0,0,0,0,0,0,0,0,0,0,false,false,false,0,0,1000,-0.0000026973983,-0.0000026973983,-0.017088102,0.99985397,0,0,0,0,0,0.90341
25.408333,2000,0,91.24,0.000002697398,0.000002697398,0.000002697398,0.99999994,0,0,0,0,0,0,0,0,0,0,0,false,false,false,0,0,1000,-0.000002697398,-0.000002697398,-0.013381834,0.9999104,0,0,0,0,0,0.88891
25.416666,2000,0,91.24,0.000002697398,0.000002697398,0.000002697398,0.99999994,0,0,0,0,0,0,0,0,0,0,0,false,false,false,0,0,1000,-0.000002697398,-0.000002697398,-0.009734952,0.99995255,0,0,0,0,0,0.87470996
25.425,2000,0,91.24,0.000002697398,0.000002697398,0.000002697398,0.99999994,0,0,0,0,0,0,0,0,0,0,0,false,false,false,0,0,1000,-0.000002697398,-0.000002697398,-0.006147412,0.99998105,0,0,0,0,0,0.86070997
25.433332,2000,0,91.24,0.000002697398,0.000002697398,0.000002697398,0.99999994,0,0,0,0,0,0,0,0,0,0,0,false,false,false,0,0,1000,-0.0000026973983,-0.0000026973983,-0.0026191736,0.99999654,0,0,0,0,0,0.84691
25.441668,2000,0,91.24,0.000002697398,0.000002697398,0.000002697398,0.99999994,0,0,0,0,0,0,0,0,0,0,0,false,false,false,0,0,1000,-0.000002697398,-0.000002697398,0.0008550752,0.9999996,0,0,0,0,0,0.83331
25.45,2000,0,91.24,0.000002697398,0.000002697398,0.000002697398,0.99999994,0,0,0,0,0,0,0,0,0,0,0,false,false,false,0,0,1000,-0.000002697398,-0.000002697398,0.004269981,0.9999908,0,0,0,0,0,0.81991
25.458334,2000,0,91.24,0.000002697398,0.000002697398,0.000002697398,0.99999994,0,0,0,0,0,0,0,0,0,0,0,false,false,false,0,0,1000,-0.0000026973983,-0.0000026973983,0.0076309396,0.99997085,0,0,0,0,0,0.80681
25.466667,2000,0,91.24,0.000002697398,0.000002697398,0.000002697398,0.99999994,0,0,0,0,0,0,0,0,0,0,0,false,false,false,0,0,1000,-0.0000026973983,-0.0000026973983,0.01093795,0.99994016,0,0,0,0,0,0.79390997
25.475,2000,0,91.24,0.000002697398,0.000002697398,0.000002697398,0.99999994,0,0,0,0,0,0,0,0,0,0,0,false,false,false,0,0,1000,-0.0000026973983,-0.0000026973983,0.014191097,0.99989927,0,0,0,0,0,0.78121
25.483334,2000,0,91.24,0.000002697398,0.000002697398,0.000002697398,0.99999994,0,0,0,0,0,0,0,0,0,0,0,false,false,false,0,0,1000,-0.0000026973983,-0.0000026973983,0.017395606,0.99984866,0,0,0,0,0,0.76871
25.491667,2000,0,91.24,0.000002697398,0.000002697398,0.000002697398,0.99999994,0,0,0,0,0,0,0,0,0,0,0,false,false,false,0,0,1000,-0.0000026973978,-0.0000026973978,0.020546163,0.99978876,0,0,0,0,0,0.75641
25.5,2000,0,91.24,0.000002697398,0.000002697398,0.000002697398,0.99999994,0,0,0,0,0,0,0,0,0,0,0,false,false,false,0,0,1000,-0.0000026973983,-0.0000026973983,0.023648174,0.99972034,0,0,0,0,0,0.74431
25.508333,2000,0,91.24,0.000002697398,0.000002697398,0.000002697398,0.99999994,0,0,0,0,0,0,0,0,0,0,0,false,false,false,0,0,1000,-0.000002697398,-0.000002697398,0.026701627,0.9996434,0,0,0,0,0,0.73241
25.516666,2000,0,91.24,0.000002697398,0.000002697398,0.000002697398,0.99999994,0,0,0,0,0,0,0,0,0,0,0,false,false,false,0,0,1000,-0.0000026973983,-0.0000026973983,0.029701136,0.9995588,0,0,0,0,0,0.72071
25.525,2000,0,91.24,0.000002697398,0.000002697398,0.000002697398,0.99999994,0,0,0,0,0,0,0,0,0,0,0,false,false,false,0,0,1000,-0.000002697398,-0.000002697398,0.032652088,0.9994667,0,0,0,0,0,0.70911
25.533333,2000,0,91.24,0.000002697398,0.000002697398,0.000002697398,0.99999994,0,0,0,0,0,0,0,0,0,0,0,false,false,false,0,0,1000,-0.000002697398,-0.000002697398,0.035559967,0.9993675,0,0,0,0,0,0.69771
25.541666,2000,0,91.24,0.000002697398,0.000002697398,0.000002697398,0.99999994,0,0,0,0,0,0,0,0,0,0,0,false,false,false,0,0,1000,-0.0000026973983,-0.0000026973983,0.038419213,0.9992617,0,0,0,0,0,0.68650997
25.55,2000,0,91.24,0.000002697398,0.000002697398,0.000002697398,0.99999994,0,0,0,0,0,0,0,0,0,0,0,false,false,false,0,0,1000,-0.000002697398,-0.000002697398,0.041229896,0.9991496,0,0,0,0,0,0.67551
25.558332,2000,0,91.24,0.000002697398,0.000002697398,0.000002697398,0.99999994,0,0,0,0,0,0,0,0,0,0,0,false,false,false,0,0,1000,-0.000002697398,-0.000002697398,0.04399743,0.9990316,0,0,0,0,0,0.66471
25.566668,2000,0,91.24,0.000002697398,0.000002697398,0.000002697398,0.99999994,0,0,0,0,0,0,0,0,0,0,0,false,false,false,0,0,1000,-0.0000026973983,-0.0000026973983,0.046721805,0.9989079,0,0,0,0,0,0.65401
25.575,2000,0,91.24,0.000002697398,0.000002697398,0.000002697398,0.99999994,0,0,0,0,0,0,0,0,0,0,0,false,false,false,0,0,1000,-0.000002697398,-0.000002697398,0.049397618,0.9987791,0,0,0,0,0,0.64351
25.583334,2000,0,91.24,0.000002697398,0.000002697398,0.000002697398,0.99999994,0,0,0,0,0,0,0,0,0,0,0,false,false,false,0,0,1000,-0.0000026973978,-0.0000026973978,0.052030277,0.99864537,0,0,0,0,0,0.63321
25.591667,2000,0,91.24,0.000002697398,0.000002697398,0.000002697398,0.99999994,0,0,0,0,0,0,0,0,0,0,0,false,false,false,0,0,1000,-0.0000026973983,-0.0000026973983,0.05462518,0.9985069,0,0,0,0,0,0.62301
25.6,2000,0,91.24,0.000002697398,0.000002697398,0.000002697398,0.99999994,0,0,0,0,0,0,0,0,0,0,0,false,false,false,0,0,1000,-0.0000026973978,-0.0000026973978,0.057176992,0.9983639,0,0,0,0,0,0.61301
25.608334,2000,0,91.24,0.000002697398,0.000002697398,0.000002697398,0.99999994,0,0,0,0,0,0,0,0,0,0,0,false,false,false,0,0,1000,-0.000002697398,-0.000002697398,0.05968558,0.99821717,0,0,0,0,0,0.60321
25.616667,2000,0,91.24,0.000002697398,0.000002697398,0.000002697398,0.99999994,0,0,0,0,0,0,0,0,0,0,0,false,false,false,0,0,1000,-0.000002697398,-0.000002697398,0.062156398,0.99806637,0,0,0,0,0,0.59351
25.625,2000,0,91.24,0.000002697398,0.000002697398,0.000002697398,0.99999994,0,0,0,0,0,0,0,0,0,0,0,false,false,false,0,0,1000,-0.000002697398,-0.000002697398,0.064584054,0.9979122,0,0,0,0,0,0.58401
25.633333,2000,0,91.24,0.000002697398,0.000002697398,0.000002697398,0.99999994,0,0,0,0,0,0,0,0,0,0,0,false,false,false,0,0,1000,-0.0000026973978,-0.0000026973978,0.06697394,0.9977546,0,0,0,0,0,0.57461
25.641666,2000,0,91.24,0.000002697398,0.000002697398,0.000002697398,0.99999994,0,0,0,0,0,0,0,0,0,0,0,false,false,false,0,0,1000,-0.000002697398,-0.000002697398,0.06932608,0.997594,0,0,0,0,0,0.56541
25.65,2000,0,91.24,0.000002697398,0.000002697398,0.000002697398,0.99999994,0,0,0,0,0,0,0,0,0,0,0,false,false,false,0,0,1000,-0.000002697398,-0.000002697398,0.07164045,0.99743044,0,0,0,0,0,0.55631
25.658333,2000,0,91.24,0.000002697398,0.000002697398,0.000002697398,0.99999994,0,0,0,0,0,0,0,0,0,0,0,false,false,false,0,0,1000,-0.000002697398,-0.000002697398,0.073917046,0.9972643,0,0,0,0,0,0.54741
25.666666,2000,0,91.24,0.000002697398,0.000002697398,0.000002697398,0.99999994,0,0,0,0,0,0,0,0,0,0,0,false,false,false,0,0,1000,-0.000002697398,-0.000002697398,0.07615589,0.9970959,0,0,0,0,0,0.53861
25.675,2000,0,91.24,0.000002697398,0.000002697398,0.000002697398,0.99999994,0,0,0,0,0,0,0,0,0,0,0,false,false,false,0,0,1000,-0.000002697398,-0.000002697398,0.07835705,0.9969253,0,0,0,0,0,0.53001
25.683332,2000,0,91.24,0.000002697398,0.000002697398,0.000002697398,0.99999994,0,0,0,0,0,0,0,0,0,0,0,false,false,false,0,0,1000,-0.0000026973978,-0.0000026973978,0.080525756,0.9967524,0,0,0,0,0,0.52151
25.691668,2000,0,91.24,0.000002697398,0.000002697398,0.000002697398,0.99999994,0,0,0,0,0,0,0,0,0,0,0,false,false,false,0,0,1000,-0.000002697398,-0.000002697398,0.082656704,0.99657804,0,0,0,0,0,0.51311
25.7,2000,0,91.24,0.000002697398,0.000002697398,0.000002697398,0.99999994,0,0,0,0,0,0,0,0,0,0,0,false,false,false,0,0,1000,-0.0000026973983,-0.0000026973983,0.08475529,0.9964018,0,0,0,0,0,0.50491
25.708334,2000,0,91.24,0.000002697398,0.000002697398,0.000002697398,0.99999994,0,0,0,0,0,0,0,0,0,0,0,false,false,false,0,0,1000,-0.0000026973983,-0.0000026973983,0.0868161,0.99622434,0,0,0,0,0,0.49681
25.716667,2000,0,91.24,0.000002697398,0.000002697398,0.000002697398,0.99999994,0,0,0,0,0,0,0,0,0,0,0,false,false,false,0,0,1000,-0.000002697398,-0.000002697398,0.08884454,0.9960455,0,0,0,0,0,0.48881
25.725,2000,0,91.24,0.000002697398,0.000002697398,0.000002697398,0.99999994,0,0,0,0,0,0,0,0,0,0,0,false,false,false,0,0,1000,-0.000002697398,-0.000002697398,0.09084061,0.9958654,0,0,0,0,0,0.48091
25.733334,2000,0,91.24,0.000002697398,0.000002697398,0.000002697398,0.99999994,0,0,0,0,0,0,0,0,0,0,0,false,false,false,0,0,1000,-0.000002697398,-0.000002697398,0.09280432,0.9956843,0,0,0,0,0,0.47321
25.741667,2000,0,91.24,0.000002697398,0.000002697398,0.000002697398,0.99999994,0,0,0,0,0,0,0,0,0,0,0,false,false,false,0,0,1000,-0.000002697398,-0.000002697398,0.09473565,0.9955024,0,0,0,0,0,0.46561
25.75,2000,0,91.24,0.000002697398,0.000002697398,0.000002697398,0.99999994,0,0,0,0,0,0,0,0,0,0,0,false,false,false,0,0,1000,-0.0000026973983,-0.0000026973983,0.09663463,0.9953199,0,0,0,0,0,0.45811
25.758333,2000,0,91.24,0.000002697398,0.000002697398,0.000002697398,0.99999994,0,0,0,0,0,0,0,0,0,0,0,false,false,false,0,0,1000,-0.000002697398,-0.000002697398,0.098506615,0.9951363,0,0,0,0,0,0.45071
25.766666,2000,0,91.24,0.000002697398,0.000002697398,0.000002697398,0.99999994,0,0,0,0,0,0,0,0,0,0,0,false,false,false,0,0,1000,-0.0000026973983,-0.0000026973983,0.100346334,0.99495256,0,0,0,0,0,0.44351
25.775,2000,0,91.24,0.000002697398,0.000002697398,0.000002697398,0.99999994,0,0,0,0,0,0,0,0,0,0,0,false,false,false,0,0,1000,-0.0000026973983,-0.0000026973983,0.10215359,0.9947686,0,0,0,0,0,0.43641
25.783333,2000,0,91.24,0.000002697398,0.000002697398,0.000002697398,0.99999994,0,0,0,0,0,0,0,0,0,0,0,false,false,false,0,0,1000,-0.000002697398,-0.000002697398,0.10393386,0.99458414,0,0,0,0,0,0.42941
25.791666,2000,0,91.24,0.000002697398,0.000002697398,0.000002697398,0.99999994,0,0,0,0,0,0,0,0,0,0,0,false,false,false,0,0,1000,-0.000002697398,-0.000002697398,0.10568718,0.99439937,0,0,0,0,0,0.42251
25.8,2000,0,91.24,0.000002697398,0.000002697398,0.000002697398,0.99999994,0,0,0,0,0,0,0,0,0,0,0,false,false,false,0,0,1000,-0.0000026973983,-0.0000026973983,0.10740812,0.994215,0,0,0,0,0,0.41571
25.808332,2000,0,91.24,0.000002697398,0.000002697398,0.000002697398,0.99999994,0,0,0,0,0,0,0,0,0,0,0,false,false,false,0,0,1000,-0.000002697398,-0.000002697398,0.10910208,0.9940305,0,0,0,0,0,0.40901
25.816668,2000,0,91.24,0.000002697398,0.000002697398,0.000002697398,0.99999994,0,0,0,0,0,0,0,0,0,0,0,false,false,false,0,0,1000,-0.000002697398,-0.000002697398,0.11076907,0.9938461,0,0,0,0,0,0.40241
25.825,2000,0,91.24,0.000002697398,0.000002697398,0.000002697398,0.99999994,0,0,0,0,0,0,0,0,0,0,0,false,false,false,0,0,1000,-0.000002697398,-0.000002697398,0.11240909,0.99366194,0,0,0,0,0,0.39591
25.833334,2000,0,91.24,0.000002697398,0.000002697398,0.000002697398,0.99999994,0,0,0,0,0,0,0,0,0,0,0,false,false,false,0,0,1000,-0.0000026973978,-0.0000026973978,0.11402212,0.99347806,0,0,0,0,0,0.38951
25.841667,2000,0,91.24,0.000002697398,0.000002697398,0.000002697398,0.99999994,0,0,0,0,0,0,0,0,0,0,0,false,false,false,0,0,1000,-0.000002697398,-0.000002697398,0.11560821,0.99329484,0,0,0,0,0,0.38321
25.85,2000,0,91.24,0.000002697398,0.000002697398,0.000002697398,0.99999994,0,0,0,0,0,0,0,0,0,0,0,false,false,false,0,0,1000,-0.000002697398,-0.000002697398,0.1171673,0.99311215,0,0,0,0,0,0.37701002
25.858334,2000,0,91.24,0.000002697398,0.000002697398,0.000002697398,0.99999994,0,0,0,0,0,0,0,0,0,0,0,false,false,false,0,0,1000,-0.000002697398,-0.000002697398,0.11870482,0.9929295,0,0,0,0,0,0.37091002
25.866667,2000,0,91.24,0.000002697398,0.000002697398,0.000002697398,0.99999994,0,0,0,0,0,0,0,0,0,0,0,false,false,false,0,0,1000,-0.000002697398,-0.000002697398,0.120215364,0.9927478,0,0,0,0,0,0.36491
25.875,2000,0,91.24,0.000002697398,0.000002697398,0.000002697398,0.99999994,0,0,0,0,0,0,0,0,0,0,0,false,false,false,0,0,1000,-0.000002697398,-0.000002697398,0.12169901,0.992567,0,0,0,0,0,0.35901
25.883333,2000,0,91.24,0.000002697398,0.000002697398,0.000002697398,0.99999994,0,0,0,0,0,0,0,0,0,0,0,false,false,false,0,0,1000,-0.0000026973983,-0.0000026973983,0.12316101,0.9923867,0,0,0,0,0,0.35321
25.891666,2000,0,91.24,0.000002697398,0.000002697398,0.000002697398,0.99999994,0,0,0,0,0,0,0,0,0,0,0,false,false,false,0,0,1000,-0.0000026973978,-0.0000026973978,0.12459601,0.9922074,0,0,0,0,0,0.34751
25.9,2000,0,91.24,0.000002697398,0.000002697398,0.000002697398,0.99999994,0,0,0,0,0,0,0,0,0,0,0,false,false,false,0,0,1000,-0.0000026973978,-0.0000026973978,0.12600943,0.9920289,0,0,0,0,0,0.34191
25.908333,2000,0,91.24,0.000002697398,0.000002697398,0.000002697398,0.99999994,0,0,0,0,0,0,0,0,0,0,0,false,false,false,0,0,1000,-0.0000026973983,-0.0000026973983,0.12740132,0.9918512,0,0,0,0,0,0.33641002
25.916666,2000,0,91.24,0.000002697398,0.000002697398,0.000002697398,0.99999994,0,0,0,0,0,0,0,0,0,0,0,false,false,false,0,0,1000,-0.000002697398,-0.000002697398,0.12877159,0.99167424,0,0,0,0,0,0.33101
25.925,2000,0,91.24,0.000002697398,0.000002697398,0.000002697398,0.99999994,0,0,0,0,0,0,0,0,0,0,0,false,false,false,0,0,1000,-0.000002697398,-0.000002697398,0.1301149,0.9914989,0,0,0,0,0,0.32571
25.933332,2000,0,91.24,0.000002697398,0.000002697398,0.000002697398,0.99999994,0,0,0,0,0,0,0,0,0,0,0,false,false,false,0,0,1000,-0.0000026973978,-0.0000026973978,0.1314366,0.9913244,0,0,0,0,0,0.32051
25.941668,2000,0,91.24,0.000002697398,0.000002697398,0.000002697398,0.99999994,0,0,0,0,0,0,0,0,0,0,0,false,false,false,0,0,1000,-0.000002697398,-0.000002697398,0.13273676,0.9911513,0,0,0,0,0,0.31531
25.95,2000,0,91.24,0.000002697398,0.000002697398,0.000002697398,0.99999994,0,0,0,0,0,0,0,0,0,0,0,false,false,false,0,0,1000,-0.000002697398,-0.000002697398,0.13402072,0.9909785,0,0,0,0,0,0.31021002
25.958334,2000,0,91.24,0.000002697398,0.000002697398,0.000002697398,0.99999994,0,0,0,0,0,0,0,0,0,0,0,false,false,false,0,0,1000,-0.000002697398,-0.000002697398,0.13528311,0.99080694,0,0,0,0,0,0.30521
25.966667,2000,0,91.24,0.000002697398,0.000002697398,0.000002697398,0.99999994,0,0,0,0,0,0,0,0,0,0,0,false,false,false,0,0,1000,-0.000002697398,-0.000002697398,0.1365239,0.9906367,0,0,0,0,0,0.30031002
25.975,2000,0,91.24,0.000002697398,0.000002697398,0.000002697398,0.99999994,0,0,0,0,0,0,0,0,0,0,0,false,false,false,0,0,1000,-0.0000026973983,-0.0000026973983,0.13774315,0.99046797,0,0,0,0,0,0.29551
25.983334,2000,0,91.24,0.000002697398,0.000002697398,0.000002697398,0.99999994,0,0,0,0,0,0,0,0,0,0,0,false,false,false,0,0,1000,-0.0000026973983,-0.0000026973983,0.1389408,0.99030066,0,0,0,0,0,0.29071
25.991667,2000,0,91.24,0.000002697398,0.000002697398,0.000002697398,0.99999994,0,0,0,0,0,0,0,0,0,0,0,false,false,false,0,0,1000,-0.000002697398,-0.000002697398,0.14012223,0.9901342,0,0,0,0,0,0.28601
26,2000,0,91.24,0.000002697398,0.000002697398,0.000002697398,0.99999994,0,0,0,0,0,0,0,0,0,0,0,false,false,false,0,0,1000,-0.000002697398,-0.000002697398,0.14128213,0.9899693,0,0,0,0,0,0.28141
26.008333,2000,0,91.24,0.000002697398,0.000002697398,0.000002697398,0.99999994,0,0,0,0,0,0,0,0,0,0,0,false,false,false,0,0,1000,-0.000002697398,-0.000002697398,0.14242582,0.9898054,0,0,0,0,0,0.27691
26.016666,2000,0,91.24,0.000002697398,0.000002697398,0.000002697398,0.99999994,0,0,0,0,0,0,0,0,0,0,0,false,false,false,0,0,1000,-0.000002697398,-0.000002697398,0.14354794,0.9896433,0,0,0,0,0,0.27241
26.025,2000,0,91.24,0.000002697398,0.000002697398,0.000002697398,0.99999994,0,0,0,0,0,0,0,0,0,0,0,false,false,false,0,0,1000,-0.0000026973978,-0.0000026973978,0.14465393,0.98948216,0,0,0,0,0,0.26801002
26.033333,2000,0,91.24,0.000002697398,0.000002697398,0.000002697398,0.99999994,0,0,0,0,0,0,0,0,0,0,0,false,false,false,0,0,1000,-0.000002697398,-0.000002697398,0.1457437,0.9893223,0,0,0,0,0,0.26371
26.041666,2000,0,91.24,0.000002697398,0.000002697398,0.000002697398,0.99999994,0,0,0,0,0,0,0,0,0,0,0,false,false,false,0,0,1000,-0.000002697398,-0.000002697398,0.14681187,0.98916435,0,0,0,0,0,0.25941
26.05,2000,0,91.24,0.000002697398,0.000002697398,0.000002697398,0.99999994,0,0,0,0,0,0,0,0,0,0,0,false,false,false,0,0,1000,-0.0000026973983,-0.0000026973983,0.14786386,0.9890077,0,0,0,0,0,0.25521
26.058332,2000,0,91.24,0.000002697398,0.000002697398,0.000002697398,0.99999994,0,0,0,0,0,0,0,0,0,0,0,false,false,false,0,0,1000,-0.000002697398,-0.000002697398,0.14889966,0.98885226,0,0,0,0,0,0.25111002
26.066668,2000,0,91.24,0.000002697398,0.000002697398,0.000002697398,0.99999994,0,0,0,0,0,0,0,0,0,0,0,false,false,false,0,0,1000,-0.000002697398,-0.000002697398,0.14991927,0.9886982,0,0,0,0,0,0.24701
26.075,2000,0,91.24,0.000002697398,0.000002697398,0.000002697398,0.99999994,0,0,0,0,0,0,0,0,0,0,0,false,false,false,0,0,1000,-0.0000026973983,-0.0000026973983,0.15092272,0.98854554,0,0,0,0,0,0.24301
26.083334,2000,0,91.24,0.000002697398,0.000002697398,0.000002697398,0.99999994,0,0,0,0,0,0,0,0,0,0,0,false,false,false,0,0,1000,-0.000002697398,-0.000002697398,0.15190995,0.98839426,0,0,0,0,0,0.23911
26.091667,2000,0,91.24,0.000002697398,0.000002697398,0.000002697398,0.99999994,0,0,0,0,0,0,0,0,0,0,0,false,false,false,0,0,1000,-0.0000026973983,-0.0000026973983,0.15288103,0.9882446,0,0,0,0,0,0.23520999
26.1,2000,0,91.24,0.000002697398,0.000002697398,0.000002697398,0.99999994,0,0,0,0,0,0,0,0,0,0,0,false,false,false,0,0,1000,-0.000002697398,-0.000002697398,0.1538359,0.98809636,0,0,0,0,0,0.23141
26.108334,2000,0,91.24,0.000002697398,0.000002697398,0.000002697398,0.99999994,0,0,0,0,0,0,0,0,0,0,0,false,false,false,0,0,1000,-0.0000026973983,-0.0000026973983,0.1547746,0.9879498,0,0,0,0,0,0.22771
26.116667,2000,0,91.24,0.000002697398,0.000002697398,0.000002697398,0.99999994,0,0,0,0,0,0,0,0,0,0,0,false,false,false,0,0,1000,-0.0000026973983,-0.0000026973983,0.15569712,0.98780483,0,0,0,0,0,0.22400999
26.125,2000,0,91.24,0.000002697398,0.000002697398,0.000002697398,0.99999994,0,0,0,0,0,0,0,0,0,0,0,false,false,false,0,0,1000,-0.0000026973983,-0.0000026973983,0.15660344,0.98766154,0,0,0,0,0,0.22040999
26.133333,2000,0,91.24,0.000002697398,0.000002697398,0.000002697398,0.99999994,0,0,0,0,0,0,0,0,0,0,0,false,false,false,0,0,1000,-0.0000026973983,-0.0000026973983,0.15749358,0.98752,0,0,0,0,0,0.21680999
26.141666,2000,0,91.24,0.000002697398,0.000002697398,0.000002697398,0.99999994,0,0,0,0,0,0,0,0,0,0,0,false,false,false,0,0,1000,-0.000002697398,-0.000002697398,0.15837292,0.9873793,0,0,0,0,0,0.21330999
26.15,2000,0,91.24,0.000002697398,0.000002697398,0.000002697398,0.99999994,0,0,0,0,0,0,0,0,0,0,0,false,false,false,0,0,1000,-0.000002697398,-0.000002697398,0.15923609,0.9872405,0,0,0,0,0,0.20990999
26.158333,2000,0,91.24,0.000002697398,0.000002697398,0.000002697398,0.99999994,0,0,0,0,0,0,0,0,0,0,0,false,false,false,0,0,1000,-0.0000026973983,-0.0000026973983,0.16008309,0.9871035,0,0,0,0,0,0.20650999
26.166666,2000,0,91.24,0.000002697398,0.000002697398,0.000002697398,0.99999994,0,0,0,0,0,0,0,0,0,0,0,false,false,false,0,0,1000,-0.000002697398,-0.000002697398,0.16091926,0.9869675,0,0,0,0,0,0.20321
26.175,2000,0,91.24,0.000002697398,0.000002697398,0.000002697398,0.99999994,0,0,0,0,0,0,0,0,0,0,0,false,false,false,0,0,1000,-0.0000026973983,-0.0000026973983,0.16173929,0.9868335,0,0,0,0,0,0.19991
26.183332,2000,0,91.24,0.000002697398,0.000002697398,0.000002697398,0.99999994,0,0,0,0,0,0,0,0,0,0,0,false,false,false,0,0,1000,-0.0000026973983,-0.0000026973983,0.16254851,0.98670053,0,0,0,0,0,0.19670999
26.191668,2000,0,91.24,0.000002697398,0.000002697398,0.000002697398,0.99999994,0,0,0,0,0,0,0,0,0,0,0,false,false,false,0,0,1000,-0.000002697398,-0.000002697398,0.16334692,0.9865686,0,0,0,0,0,0.19351
26.2,2000,0,91.24,0.000002697398,0.000002697398,0.000002697398,0.99999994,0,0,0,0,0,0,0,0,0,0,0,false,false,false,0,0,1000,-0.000002697398,-0.000002697398,0.16412917,0.9864388,0,0,0,0,0,0.19040999
26.208334,2000,0,91.24,0.000002697398,0.000002697398,0.000002697398,0.99999994,0,0,0,0,0,0,0,0,0,0,0,false,false,false,0,0,1000,-0.000002697398,-0.000002697398,0.16490062,0.9863101,0,0,0,0,0,0.18731
26.216667,2000,0,91.24,0.000002697398,0.000002697398,0.000002697398,0.99999994,0,0,0,0,0,0,0,0,0,0,0,false,false,false,0,0,1000,-0.0000026973978,-0.0000026973978,0.16565588,0.98618346,0,0,0,0,0,0.18430999
26.225,2000,0,91.24,0.000002697398,0.000002697398,0.000002697398,0.99999994,0,0,0,0,0,0,0,0,0,0,0,false,false,false,0,0,1000,-0.0000026973983,-0.0000026973983,0.16640048,0.98605824,0,0,0,0,0,0.18131
26.233334,2000,0,91.24,0.000002697398,0.000002697398,0.000002697398,0.99999994,0,0,0,0,0,0,0,0,0,0,0,false,false,false,0,0,1000,-0.0000026973983,-0.0000026973983,0.16713417,0.98593414,0,0,0,0,0,0.17841
26.241667,2000,0,91.24,0.000002697398,0.000002697398,0.000002697398,0.99999994,0,0,0,0,0,0,0,0,0,0,0,false,false,false,0,0,1000,-0.000002697398,-0.000002697398,0.16785705,0.9858113,0,0,0,0,0,0.17550999
26.25,2000,0,91.24,0.000002697398,0.000002697398,0.000002697398,0.99999994,0,0,0,0,0,0,0,0,0,0,0,false,false,false,0,0,1000,-0.0000026973983,-0.0000026973983,0.16856378,0.9856907,0,0,0,0,0,0.17271
26.258333,2000,0,91.24,0.000002697398,0.000002697398,0.000002697398,0.99999994,0,0,0,0,0,0,0,0,0,0,0,false,false,false,0,0,1000,-0.000002697398,-0.000002697398,0.1692597,0.98557144,0,0,0,0,0,0.16991
26.266666,2000,0,91.24,0.000002697398,0.000002697398,0.000002697398,0.99999994,0,0,0,0,0,0,0,0,0,0,0,false,false,false,0,0,1000,-0.0000026973983,-0.0000026973983,0.16994485,0.98545355,0,0,0,0,0,0.16711
26.275,2000,0,91.24,0.000002697398,0.000002697398,0.000002697398,0.99999994,0,0,0,0,0,0,0,0,0,0,0,false,false,false,0,0,1000,-0.0000026973983,-0.0000026973983,0.1706192,0.985337,0,0,0,0,0,0.16441
26.283333,2000,0,91.24,0.000002697398,0.000002697398,0.000002697398,0.99999994,0,0,0,0,0,0,0,0,0,0,0,false,false,false,0,0,1000,-0.000002697398,-0.000002697398,0.17128275,0.98522186,0,0,0,0,0,0.16171
26.291666,2000,0,91.24,0.000002697398,0.000002697398,0.000002697398,0.99999994,0,0,0,0,0,0,0,0,0,0,0,false,false,false,0,0,1000,-0.000002697398,-0.000002697398,0.17193553,0.98510814,0,0,0,0,0,0.15911
26.3,2000,0,91.24,0.000002697398,0.000002697398,0.000002697398,0.99999994,0,0,0,0,0,0,0,0,0,0,0,false,false,false,0,0,1000,-0.000002697398,-0.000002697398,0.1725775,0.9849959,0,0,0,0,0,0.15651
26.308332,2000,0,91.24,0.000002697398,0.000002697398,0.000002697398,0.99999994,0,0,0,0,0,0,0,0,0,0,0,false,false,false,0,0,1000,-0.000002697398,-0.000002697398,0.1732087,0.9848851,0,0,0,0,0,0.15401
26.316668,2000,0,91.24,0.000002697398,0.000002697398,0.000002697398,0.99999994,0,0,0,0,0,0,0,0,0,0,0,false,false,false,0,0,1000,-0.000002697398,-0.000002697398,0.1738291,0.9847758,0,0,0,0,0,0.15151
26.325,2000,0,91.24,0.000002697398,0.000002697398,0.000002697398,0.99999994,0,0,0,0,0,0,0,0,0,0,0,false,false,false,0,0,1000,-0.000002697398,-0.000002697398,0.1744387,0.98466796,0,0,0,0,0,0.14900999
26.333334,2000,0,91.24,0.000002697398,0.000002697398,0.000002697398,0.99999994,0,0,0,0,0,0,0,0,0,0,0,false,false,false,0,0,1000,-0.0000026973983,-0.0000026973983,0.17504294,0.9845608,0,0,0,0,0,0.14660999
26.341667,2000,0,91.24,0.000002697398,0.000002697398,0.000002697398,0.99999994,0,0,0,0,0,0,0,0,0,0,0,false,false,false,0,0,1000,-0.000002697398,-0.000002697398,0.17563635,0.98445505,0,0,0,0,0,0.14421
26.35,2000,0,91.24,0.000002697398,0.000002697398,0.000002697398,0.99999994,0,0,0,0,0,0,0,0,0,0,0,false,false,false,0,0,1000,-0.000002697398,-0.000002697398,0.17621899,0.9843509,0,0,0,0,0,0.14191
26.358334,2000,0,91.24,0.000002697398,0.000002697398,0.000002697398,0.99999994,0,0,0,0,0,0,0,0,0,0,0,false,false,false,0,0,1000,-0.000002697398,-0.000002697398,0.17679083,0.9842484,0,0,0,0,0,0.13960999
26.366667,2000,0,91.24,0.000002697398,0.000002697398,0.000002697398,0.99999994,0,0,0,0,0,0,0,0,0,0,0,false,false,false,0,0,1000,-0.000002697398,-0.000002697398,0.17735189,0.9841474,0,0,0,0,0,0.13731
26.375,2000,0,91.24,0.000002697398,0.000002697398,0.000002697398,0.99999994,0,0,0,0,0,0,0,0,0,0,0,false,false,false,0,0,1000,-0.0000026973978,-0.0000026973978,0.17790754,0.98404706,0,0,0,0,0,0.13510999
26.383333,2000,0,91.24,0.000002697398,0.000002697398,0.000002697398,0.99999994,0,0,0,0,0,0,0,0,0,0,0,false,false,false,0,0,1000,-0.000002697398,-0.000002697398,0.17845243,0.98394847,0,0,0,0,0,0.13291
26.391666,2000,0,91.24,0.000002697398,0.000002697398,0.000002697398,0.99999994,0,0,0,0,0,0,0,0,0,0,0,false,false,false,0,0,1000,-0.0000026973983,-0.0000026973983,0.17898653,0.9838515,0,0,0,0,0,0.13070999
26.4,2000,0,91.24,0.000002697398,0.000002697398,0.000002697398,0.99999994,0,0,0,0,0,0,0,0,0,0,0,false,false,false,0,0,1000,-0.0000026973983,-0.0000026973983,0.17951523,0.9837552,0,0,0,0,0,0.12861
26.408333,2000,0,91.24,0.000002697398,0.000002697398,0.000002697398,0.99999994,0,0,0,0,0,0,0,0,0,0,0,false,false,false,0,0,1000,-0.0000026973983,-0.0000026973983,0.18003313,0.9836605,0,0,0,0,0,0.12651
26.416666,2000,0,91.24,0.000002697398,0.000002697398,0.000002697398,0.99999994,0,0,0,0,0,0,0,0,0,0,0,false,false,false,0,0,1000,-0.0000026973978,-0.0000026973978,0.1805456,0.98356646,0,0,0,0,0,0.124409996
26.425,2000,0,91.24,0.000002697398,0.000002697398,0.000002697398,0.99999994,0,0,0,0,0,0,0,0,0,0,0,false,false,false,0,0,1000,-0.000002697398,-0.000002697398,0.18104734,0.9834743,0,0,0,0,0,0.12240999
26.433332,2000,0,91.24,0.000002697398,0.000002697398,0.000002697398,0.99999994,0,0,0,0,0,0,0,0,0,0,0,false,false,false,0,0,1000,-0.000002697398,-0.000002697398,0.18153825,0.98338383,0,0,0,0,0,0.120409995
26.441668,2000,0,91.24,0.000002697398,0.000002697398,0.000002697398,0.99999994,0,0,0,0,0,0,0,0,0,0,0,false,false,false,0,0,1000,-0.000002697398,-0.000002697398,0.1820238,0.98329407,0,0,0,0,0,0.11841
26.45,2000,0,91.24,0.000002697398,0.000002697398,0.000002697398,0.99999994,0,0,0,0,0,0,0,0,0,0,0,false,false,false,0,0,1000,-0.0000026973978,-0.0000026973978,0.18249851,0.983206,0,0,0,0,0,0.11651
26.458334,2000,0,91.24,0.000002697398,0.000002697398,0.000002697398,0.99999994,0,0,0,0,0,0,0,0,0,0,0,false,false,false,0,0,1000,-0.000002697398,-0.000002697398,0.18296789,0.98311883,0,0,0,0,0,0.114609994
