time,ball_loc_x,ball_loc_y,ball_loc_z,ball_rot_x,ball_rot_y,ball_rot_z,ball_rot_w,ball_vel_x,ball_vel_y,ball_vel_z,ball_ang_x,ball_ang_y,ball_ang_z,player0_throttle,player0_steer,player0_pitch,player0_yaw,player0_roll,player0_jump,player0_boost,player0_handbrake,player0_loc_x,player0_loc_y,player0_loc_z,player0_rot_x,player0_rot_y,player0_rot_z,player0_rot_w,player0_vel_x,player0_vel_y,player0_vel_z,player0_ang_x,player0_ang_y,player0_ang_z
19.966667,2000,0,91.24,0.000002697398,0.000002697398,0.000002697398,0.99999994,0,0,0,0,0,0,0,0,0,0,0,false,false,false,0,0.14999999,17.01,-0.00336905,0.0033798397,0.7071014,0.7070959,0,0,8.321,-0.00051,0,0
19.975,2000,0,91.24,0.000002697398,0.000002697398,0.000002697398,0.99999994,0,0,0,0,0,0,1,0,0,0,0,false,true,false,0,0.22,17.01,-0.00336905,0.0033798397,0.7071014,0.7070959,0,21.521,8.271,0.00021,0,0
19.983334,2000,0,91.24,0.000002697398,0.000002697398,0.000002697398,0.99999994,0,0,0,0,0,0,1,0,0,0,0,false,true,false,0,0.47,17.01,-0.00336905,0.0033798397,0.7071014,0.7070959,0,42.861,8.231,0.00061,0,0
19.991667,2000,0,91.24,0.000002697398,0.000002697398,0.000002697398,0.99999994,0,0,0,0,0,0,1,0,0,0,0,false,true,false,0,0.9,17.01,-0.00336905,0.0033798397,0.7071014,0.7070959,0,64.011,8.211,0.00081,0,0
20,2000,0,91.24,0.000002697398,0.000002697398,0.000002697398,0.99999994,0,0,0,0,0,0,1,0,0,0,0,false,true,false,0,1.5,17.01,-0.00336905,0.0033798397,0.7071014,0.7070959,0,84.980995,8.191,0.00091,0,0
20.008333,2000,0,91.24,0.000002697398,0.000002697398,0.000002697398,0.99999994,0,0,0,0,0,0,1,0,0,0,0,false,true,false,0,2.28,17.01,-0.0033636556,0.00337984,0.70710146,0.707096,0,105.770996,8.181,0.0010099999,0,0
20.016666,2000,0,91.24,0.000002697398,0.000002697398,0.000002697398,0.99999994,0,0,0,0,0,0,1,0,0,0,0,false,true,false,0,3.23,17.01,-0.0033582605,0.003374445,0.7071015,0.7070959,0,126.391,8.1710005,0.0010099999,0,0
20.025,2000,0,91.24,0.000002697398,0.000002697398,0.000002697398,0.99999994,0,0,0,0,0,0,1,0,0,0,0,false,true,false,0,4.35,17.01,-0.0033528658,0.00336905,0.7071016,0.7070959,0,146.83101,8.1710005,0.0010099999,0,0
20.033333,2000,0,91.24,0.000002697398,0.000002697398,0.000002697398,0.99999994,0,0,0,0,0,0,1,0,0,0,0,false,true,false,0,5.64,17.01,-0.003347471,0.0033636554,0.7071016,0.7070959,0,167.091,8.1710005,0.00091,0,0
20.041666,2000,0,91.24,0.000002697398,0.000002697398,0.000002697398,0.99999994,0,0,0,0,0,0,1,0,0,0,0,false,true,false,0,7.1,17.01,-0.0033420762,0.0033636554,0.70710164,0.7070959,0,187.181,8.1710005,0.00071,0,0
20.05,2000,0,91.24,0.000002697398,0.000002697398,0.000002697398,0.99999994,0,0,0,0,0,0,1,0,0,0,0,false,true,false,0,8.73,17.01,-0.0033420762,0.0033636554,0.70710164,0.7070959,0,207.101,8.1710005,0.00051,-0.00010999999,0
20.058332,2000,0,91.24,0.000002697398,0.000002697398,0.000002697398,0.99999994,0,0,0,0,0,0,1,0,0,0,0,false,true,false,0,10.5199995,17.01,-0.0033420762,0.0033636554,0.70710164,0.7070959,0,226.851,8.1710005,0.00040999998,-0.00021,0
20.066668,2000,0,91.24,0.000002697398,0.000002697398,0.000002697398,0.99999994,0,0,0,0,0,0,1,0,0,0,0,false,true,false,0,12.48,17.01,-0.0033420762,0.0033636554,0.70710164,0.7070959,0,246.431,8.1710005,0.00030999997,-0.00021,0
20.075,2000,0,91.24,0.000002697398,0.000002697398,0.000002697398,0.99999994,0,0,0,0,0,0,1,0,0,0,0,false,true,false,0,14.599999,17.01,-0.0033420762,0.0033636554,0.70710164,0.7070959,0,265.841,8.1710005,0.00030999997,-0.00021,0
20.083334,2000,0,91.24,0.000002697398,0.000002697398,0.000002697398,0.99999994,0,0,0,0,0,0,1,0,0,0,0,false,true,false,0,16.88,17.01,-0.0033420762,0.0033636554,0.70710164,0.7070959,0,285.081,8.1710005,0.00021,-0.00021,0
20.091667,2000,0,91.24,0.000002697398,0.000002697398,0.000002697398,0.99999994,0,0,0,0,0,0,1,0,0,0,0,false,true,false,0,19.32,17.01,-0.0033420762,0.0033636554,0.70710164,0.7070959,0,304.161,8.1710005,0.00021,-0.00021,0
20.1,2000,0,91.24,0.000002697398,0.000002697398,0.000002697398,0.99999994,0,0,0,0,0,0,1,0,0,0,0,false,true,false,0,21.92,17.01,-0.0033420762,0.0033636554,0.70710164,0.7070959,0,323.081,8.1710005,0.00021,-0.00021,0
20.108334,2000,0,91.24,0.000002697398,0.000002697398,0.000002697398,0.99999994,0,0,0,0,0,0,1,0,0,0,0,false,true,false,0,24.68,17.01,-0.0033420762,0.0033636554,0.70710164,0.7070959,0,341.831,8.1710005,0.00010999999,-0.00021,0
20.116667,2000,0,91.24,0.000002697398,0.000002697398,0.000002697398,0.99999994,0,0,0,0,0,0,1,0,0,0,0,false,true,false,0,27.599998,17.01,-0.0033420762,0.0033636554,0.70710164,0.7070959,0,360.421,8.1710005,0.00010999999,-0.00021,0
20.125,2000,0,91.24,0.000002697398,0.000002697398,0.000002697398,0.99999994,0,0,0,0,0,0,1,0,0,0,0,false,true,false,0,30.67,17.01,-0.0033420762,0.0033636554,0.70710164,0.7070959,0,378.851,8.1710005,0.00010999999,-0.00021,0
20.133333,2000,0,91.24,0.000002697398,0.000002697398,0.000002697398,0.99999994,0,0,0,0,0,0,1,0,0,0,0,false,true,false,0,33.899998,17.01,-0.0033420762,0.0033636554,0.70710164,0.7070959,0,397.121,8.1710005,0,-0.00021,0
20.141666,2000,0,91.24,0.000002697398,0.000002697398,0.000002697398,0.99999994,0,0,0,0,0,0,1,0,0,0,0,false,true,false,0,37.28,17.01,-0.0033420762,0.0033636554,0.70710164,0.7070959,0,415.241,8.1710005,0,-0.00021,0
20.15,2000,0,91.24,0.000002697398,0.000002697398,0.000002697398,0.99999994,0,0,0,0,0,0,1,0,0,0,0,false,true,false,0,40.809998,17.01,-0.0033420762,0.0033636554,0.70710164,0.7070959,0,433.201,8.1710005,0,-0.00021,0
20.158333,2000,0,91.24,0.000002697398,0.000002697398,0.000002697398,0.99999994,0,0,0,0,0,0,1,0,0,0,0,false,true,false,0,44.489998,17.01,-0.0033420762,0.0033636554,0.70710164,0.7070959,0,451.011,8.1710005,0,-0.00021,0
20.166666,2000,0,91.24,0.000002697398,0.000002697398,0.000002697398,0.99999994,0,0,0,0,0,0,1,0,0,0,0,false,true,false,0,48.32,17.01,-0.0033420762,0.0033636554,0.70710164,0.7070959,0,468.671,8.1710005,0,-0.00021,0
20.175,2000,0,91.24,0.000002697398,0.000002697398,0.000002697398,0.99999994,0,0,0,0,0,0,1,0,0,0,0,false,true,false,0,52.289997,17.01,-0.0033420762,0.0033636554,0.70710164,0.7070959,0,486.181,8.1710005,0,-0.00021,0
20.183332,2000,0,91.24,0.000002697398,0.000002697398,0.000002697398,0.99999994,0,0,0,0,0,0,1,0,0,0,0,false,true,false,0,56.41,17.01,-0.0033420762,0.0033636554,0.70710164,0.7070959,0,503.531,8.1710005,0,-0.00021,0
20.191668,2000,0,91.24,0.000002697398,0.000002697398,0.000002697398,0.99999994,0,0,0,0,0,0,1,0,0,0,0,false,true,false,0,60.67,17.01,-0.0033420762,0.0033636554,0.70710164,0.7070959,0,520.74097,8.1710005,0,-0.00021,0
20.2,2000,0,91.24,0.000002697398,0.000002697398,0.000002697398,0.99999994,0,0,0,0,0,0,1,0,0,0,0,false,true,false,0,65.08,17.01,-0.0033420762,0.0033636554,0.70710164,0.7070959,0,537.80096,8.1710005,0,-0.00021,0
20.208334,2000,0,91.24,0.000002697398,0.000002697398,0.000002697398,0.99999994,0,0,0,0,0,0,1,0,0,0,0,false,true,false,0,69.63,17.01,-0.0033420762,0.0033636554,0.70710164,0.7070959,0,554.71094,8.1710005,0,-0.00021,0
20.216667,2000,0,91.24,0.000002697398,0.000002697398,0.000002697398,0.99999994,0,0,0,0,0,0,1,0,0,0,0,false,true,false,0,74.32,17.01,-0.0033420762,0.0033636554,0.70710164,0.7070959,0,571.48096,8.1710005,0,-0.00021,0
20.225,2000,0,91.24,0.000002697398,0.000002697398,0.000002697398,0.99999994,0,0,0,0,0,0,1,0,0,0,0,false,true,false,0,79.15,17.01,-0.0033420762,0.0033636554,0.70710164,0.7070959,0,588.10095,8.1710005,0,-0.00021,0
20.233334,2000,0,91.24,0.000002697398,0.000002697398,0.000002697398,0.99999994,0,0,0,0,0,0,1,0,0,0,0,false,true,false,0,84.119995,17.01,-0.0033420762,0.0033636554,0.70710164,0.7070959,0,604.58093,8.1710005,0,-0.00021,0
20.25,2000,0,91.24,0.000002697398,0.000002697398,0.000002697398,0.99999994,0,0,0,0,0,0,1,0,0,0,0,false,true,false,0,94.47,17.01,-0.0033420762,0.0033636554,0.70710164,0.7070959,0,637.121,8.1710005,-0.00010999999,-0.00021,0
20.258333,2000,0,91.24,0.000002697398,0.000002697398,0.000002697398,0.99999994,0,0,0,0,0,0,1,0,0,0,0,false,true,false,0,99.85,17.01,-0.0033420762,0.0033636554,0.70710164,0.7070959,0,653.18097,8.1710005,-0.00010999999,-0.00021,0
20.266666,2000,0,91.24,0.000002697398,0.000002697398,0.000002697398,0.99999994,0,0,0,0,0,0,1,0,0,0,0,false,true,false,0,105.36,17.01,-0.0033420762,0.0033636554,0.70710164,0.7070959,0,669.10095,8.1710005,-0.00021,-0.00021,0
20.275,2000,0,91.24,0.000002697398,0.000002697398,0.000002697398,0.99999994,0,0,0,0,0,0,1,0,0,0,0,false,true,false,0,111,17.01,-0.0033420762,0.0033636554,0.70710164,0.7070959,0,684.891,8.1710005,-0.00021,-0.00021,0
20.283333,2000,0,91.24,0.000002697398,0.000002697398,0.000002697398,0.99999994,0,0,0,0,0,0,1,0,0,0,0,false,true,false,0,116.78,17.01,-0.0033420762,0.0033636554,0.70710164,0.7070959,0,700.54095,8.1710005,-0.00021,-0.00021,0
20.291666,2000,0,91.24,0.000002697398,0.000002697398,0.000002697398,0.99999994,0,0,0,0,0,0,1,0,0,0,0,false,true,false,0,122.689995,17.01,-0.0033420762,0.0033636554,0.70710164,0.7070959,0,716.061,8.1710005,-0.00021,-0.00021,0
20.3,2000,0,91.24,0.000002697398,0.000002697398,0.000002697398,0.99999994,0,0,0,0,0,0,1,0,0,0,0,false,true,false,0,128.73,17.01,-0.0033420762,0.0033636554,0.70710164,0.7070959,0,731.441,8.1710005,-0.00030999997,-0.00021,0
20.308332,2000,0,91.24,0.000002697398,0.000002697398,0.000002697398,0.99999994,0,0,0,0,0,0,1,0,0,0,0,false,true,false,0,134.89,17.01,-0.0033420762,0.0033636554,0.70710164,0.7070959,0,746.691,8.1710005,-0.00030999997,-0.00021,0
20.316668,2000,0,91.24,0.000002697398,0.000002697398,0.000002697398,0.99999994,0,0,0,0,0,0,1,0,0,0,0,false,true,false,0,141.18,17.01,-0.0033420762,0.0033636554,0.70710164,0.7070959,0,761.811,8.1710005,-0.00030999997,-0.00021,0
20.325,2000,0,91.24,0.000002697398,0.000002697398,0.000002697398,0.99999994,0,0,0,0,0,0,1,0,0,0,0,false,true,false,0,147.59999,17.01,-0.0033420762,0.0033636554,0.70710164,0.7070959,0,776.80096,8.1710005,-0.00030999997,-0.00021,0
20.333334,2000,0,91.24,0.000002697398,0.000002697398,0.000002697398,0.99999994,0,0,0,0,0,0,1,0,0,0,0,false,true,false,0,154.14,17.01,-0.0033420762,0.0033636554,0.70710164,0.7070959,0,791.66095,8.1710005,-0.00040999998,-0.00021,0
20.341667,2000,0,91.24,0.000002697398,0.000002697398,0.000002697398,0.99999994,0,0,0,0,0,0,1,0,0,0,0,false,true,false,0,160.81,17.01,-0.0033420762,0.0033636554,0.70710164,0.7070959,0,806.40094,8.1710005,-0.00040999998,-0.00021,0
20.35,2000,0,91.24,0.000002697398,0.000002697398,0.000002697398,0.99999994,0,0,0,0,0,0,1,0,0,0,0,false,true,false,0,167.59999,17.01,-0.0033420762,0.0033636554,0.70710164,0.7070959,0,821.011,8.1710005,-0.00040999998,-0.00021,0
20.358334,2000,0,91.24,0.000002697398,0.000002697398,0.000002697398,0.99999994,0,0,0,0,0,0,1,0,0,0,0,false,true,false,0,174.51,17.01,-0.0033420762,0.0033636554,0.70710164,0.7070959,0,835.501,8.1710005,-0.00040999998,-0.00021,0
20.366667,2000,0,91.24,0.000002697398,0.000002697398,0.000002697398,0.99999994,0,0,0,0,0,0,1,0,0,0,0,false,true,false,0,181.54,17.01,-0.0033420762,0.0033636554,0.70710164,0.7070959,0,849.86096,8.1710005,-0.00051,-0.00021,0
20.375,2000,0,91.24,0.000002697398,0.000002697398,0.000002697398,0.99999994,0,0,0,0,0,0,1,0,0,0,0,false,true,false,0,188.69,17.01,-0.0033420762,0.0033636554,0.70710164,0.7070959,0,864.10095,8.1710005,-0.00051,-0.00021,0
20.383333,2000,0,91.24,0.000002697398,0.000002697398,0.000002697398,0.99999994,0,0,0,0,0,0,1,0,0,0,0,false,true,false,0,195.95999,17.01,-0.0033420762,0.0033636554,0.70710164,0.7070959,0,878.22095,8.1710005,-0.00051,-0.00021,0
20.391666,2000,0,91.24,0.000002697398,0.000002697398,0.000002697398,0.99999994,0,0,0,0,0,0,1,0,0,0,0,false,true,false,0,203.34999,17.01,-0.0033420762,0.0033636554,0.70710164,0.7070959,0,892.21094,8.1710005,-0.00051,-0.00021,0
20.4,2000,0,91.24,0.000002697398,0.000002697398,0.000002697398,0.99999994,0,0,0,0,0,0,1,0,0,0,0,false,true,false,0,210.84999,17.01,-0.0033420762,0.0033636554,0.70710164,0.7070959,0,906.08093,8.1710005,-0.00061,-0.00021,0
20.408333,2000,0,91.24,0.000002697398,0.000002697398,0.000002697398,0.99999994,0,0,0,0,0,0,1,0,0,0,0,false,true,false,0,218.47,17.01,-0.0033420762,0.0033636554,0.70710164,0.7070959,0,919.84094,8.1710005,-0.00061,-0.00021,0
20.416666,2000,0,91.24,0.000002697398,0.000002697398,0.000002697398,0.99999994,0,0,0,0,0,0,1,0,0,0,0,false,true,false,0,226.2,17.01,-0.0033420762,0.0033636554,0.70710164,0.7070959,0,933.48096,8.1710005,-0.00061,-0.00021,0
20.425,2000,0,91.24,0.000002697398,0.000002697398,0.000002697398,0.99999994,0,0,0,0,0,0,1,0,0,0,0,false,true,false,0,234.04999,17.01,-0.0033420762,0.0033636554,0.70710164,0.7070959,0,947.001,8.1710005,-0.00061,-0.00021,0
20.433332,2000,0,91.24,0.000002697398,0.000002697398,0.000002697398,0.99999994,0,0,0,0,0,0,1,0,0,0,0,false,true,false,0,242.01,17.01,-0.0033420762,0.0033636554,0.70710164,0.7070959,0,960.41095,8.1710005,-0.00071,-0.00021,0
20.441668,2000,0,91.24,0.000002697398,0.000002697398,0.000002697398,0.99999994,0,0,0,0,0,0,1,0,0,0,0,false,true,false,0,250.08,17.01,-0.0033420762,0.0033636554,0.70710164,0.7070959,0,973.7009,8.1710005,-0.00071,-0.00021,0
20.45,2000,0,91.24,0.000002697398,0.000002697398,0.000002697398,0.99999994,0,0,0,0,0,0,1,0,0,0,0,false,true,false,0,258.25998,17.01,-0.0033420762,0.0033636554,0.70710164,0.7070959,0,986.881,8.1710005,-0.00071,-0.00021,0
20.458334,2000,0,91.24,0.000002697398,0.000002697398,0.000002697398,0.99999994,0,0,0,0,0,0,1,0,0,0,0,false,true,false,0,266.55,17.01,-0.0033420762,0.0033636554,0.70710164,0.7070959,0,999.941,8.1710005,-0.00071,-0.00021,0
20.466667,2000,0,91.24,0.000002697398,0.000002697398,0.000002697398,0.99999994,0,0,0,0,0,0,1,0,0,0,0,false,true,false,0,274.94998,17.01,-0.0033420762,0.0033636554,0.70710164,0.7070959,0,1012.8909,8.1710005,-0.00071,-0.00021,0
20.475,2000,0,91.24,0.000002697398,0.000002697398,0.000002697398,0.99999994,0,0,0,0,0,0,1,0,0,0,0,false,true,false,0,283.46,17.01,-0.0033420762,0.0033636554,0.70710164,0.7070959,0,1025.731,8.1710005,-0.00081,-0.00021,0
20.483334,2000,0,91.24,0.000002697398,0.000002697398,0.000002697398,0.99999994,0,0,0,0,0,0,1,0,0,0,0,false,true,false,0,292.08,17.01,-0.003347471,0.0033636554,0.7071016,0.7070959,0,1038.4609,8.1710005,-0.00081,-0.00021,0
20.491667,2000,0,91.24,0.000002697398,0.000002697398,0.000002697398,0.99999994,0,0,0,0,0,0,1,0,0,0,0,false,true,false,0,300.8,17.01,-0.0033528658,0.0033636554,0.7071016,0.7070959,0,1051.0809,8.1710005,-0.00081,-0.00021,0
20.5,2000,0,91.24,0.000002697398,0.000002697398,0.000002697398,0.99999994,0,0,0,0,0,0,1,0,0,0,0,false,true,false,0,309.63,17.01,-0.0033582605,0.0033636554,0.7071016,0.7070959,0,1063.591,8.1710005,-0.00081,-0.00021,0
20.508333,2000,0,91.24,0.000002697398,0.000002697398,0.000002697398,0.99999994,0,0,0,0,0,0,1,0,0,0,0,false,true,false,0,318.56,17.01,-0.0033636554,0.0033636554,0.7071015,0.7070959,0,1076.001,8.1710005,-0.00071,-0.00010999999,0
20.516666,2000,0,91.24,0.000002697398,0.000002697398,0.000002697398,0.99999994,0,0,0,0,0,0,1,0,0,0,0,false,true,false,0,327.6,17.01,-0.0033636554,0.0033636554,0.7071015,0.7070959,0,1088.3009,8.1710005,-0.00061,0,0
20.525,2000,0,91.24,0.000002697398,0.000002697398,0.000002697398,0.99999994,0,0,0,0,0,0,1,0,0,0,0,false,true,false,0,336.74,17.01,-0.0033636554,0.0033636554,0.7071015,0.7070959,0,1100.491,8.1710005,-0.00061,0,0
20.533333,2000,0,91.24,0.000002697398,0.000002697398,0.000002697398,0.99999994,0,0,0,0,0,0,1,0,0,0,0,false,true,false,0,345.97998,17.01,-0.0033636554,0.0033636554,0.7071015,0.7070959,0,1112.5809,8.1710005,-0.00061,0,0
20.541666,2000,0,91.24,0.000002697398,0.000002697398,0.000002697398,0.99999994,0,0,0,0,0,0,1,0,0,0,0,false,true,false,0,355.31998,17.01,-0.0033636554,0.0033636554,0.7071015,0.7070959,0,1124.5709,8.1710005,-0.00061,0,0
20.55,2000,0,91.24,0.000002697398,0.000002697398,0.000002697398,0.99999994,0,0,0,0,0,0,1,0,0,0,0,false,true,false,0,364.75998,17.01,-0.0033636554,0.0033636554,0.7071015,0.7070959,0,1136.4509,8.1710005,-0.00061,0,0
20.558332,2000,0,91.24,0.000002697398,0.000002697398,0.000002697398,0.99999994,0,0,0,0,0,0,1,0,0,0,0,false,true,false,0,374.3,17.01,-0.0033636554,0.0033636554,0.7071015,0.7070959,0,1148.231,8.1710005,-0.00061,0,0
20.566668,2000,0,91.24,0.000002697398,0.000002697398,0.000002697398,0.99999994,0,0,0,0,0,0,1,0,0,0,0,false,true,false,0,383.94,17.01,-0.0033636554,0.0033636554,0.7071015,0.7070959,0,1159.911,8.1710005,-0.00061,0,0
20.575,2000,0,91.24,0.000002697398,0.000002697398,0.000002697398,0.99999994,0,0,0,0,0,0,1,0,0,0,0,false,true,false,0,393.66998,17.01,-0.0033636554,0.0033636554,0.7071015,0.7070959,0,1171.491,8.1710005,-0.00061,0,0
20.583334,2000,0,91.24,0.000002697398,0.000002697398,0.000002697398,0.99999994,0,0,0,0,0,0,1,0,0,0,0,false,true,false,0,403.5,17.01,-0.0033636554,0.0033636554,0.7071015,0.7070959,0,1182.971,8.1710005,-0.00061,0,0
20.591667,2000,0,91.24,0.000002697398,0.000002697398,0.000002697398,0.99999994,0,0,0,0,0,0,1,0,0,0,0,false,true,false,0,413.43,17.01,-0.0033636554,0.0033636554,0.7071015,0.7070959,0,1194.351,8.1710005,-0.00061,0,0
20.6,2000,0,91.24,0.000002697398,0.000002697398,0.000002697398,0.99999994,0,0,0,0,0,0,1,0,0,0,0,false,true,false,0,423.44998,17.01,-0.0033636554,0.0033636554,0.7071015,0.7070959,0,1205.641,8.1710005,-0.00061,0,0
20.608334,2000,0,91.24,0.000002697398,0.000002697398,0.000002697398,0.99999994,0,0,0,0,0,0,1,0,0,0,0,false,true,false,0,433.56998,17.01,-0.0033636554,0.0033636554,0.7071015,0.7070959,0,1216.8309,8.1710005,-0.00061,0,0
20.616667,2000,0,91.24,0.000002697398,0.000002697398,0.000002697398,0.99999994,0,0,0,0,0,0,1,0,0,0,0,false,true,false,0,443.78,17.01,-0.0033636554,0.0033636554,0.7071015,0.7070959,0,1227.9209,8.1710005,-0.00061,0,0
20.625,2000,0,91.24,0.000002697398,0.000002697398,0.000002697398,0.99999994,0,0,0,0,0,0,1,0,0,0,0,false,true,false,0,454.08,17.01,-0.0033636554,0.0033636554,0.7071015,0.7070959,0,1238.9209,8.1710005,-0.00061,0,0
20.633333,2000,0,91.24,0.000002697398,0.000002697398,0.000002697398,0.99999994,0,0,0,0,0,0,1,0,0,0,0,false,true,false,0,464.47,17.01,-0.0033636554,0.0033636554,0.7071015,0.7070959,0,1249.8209,8.1710005,-0.00061,0,0
20.641666,2000,0,91.24,0.000002697398,0.000002697398,0.000002697398,0.99999994,0,0,0,0,0,0,1,0,0,0,0,false,true,false,0,474.94998,17.01,-0.0033636554,0.0033636554,0.7071015,0.7070959,0,1260.631,8.1710005,-0.00071,0,0
20.65,2000,0,91.24,0.000002697398,0.000002697398,0.000002697398,0.99999994,0,0,0,0,0,0,1,0,0,0,0,false,true,false,0,485.52,17.01,-0.0033636554,0.0033636554,0.7071015,0.7070959,0,1271.351,8.1710005,-0.00071,0,0
20.658333,2000,0,91.24,0.000002697398,0.000002697398,0.000002697398,0.99999994,0,0,0,0,0,0,1,0,0,0,0,false,true,false,0,496.18,17.01,-0.0033636554,0.0033636554,0.7071015,0.7070959,0,1281.981,8.1710005,-0.00071,0,0
20.666666,2000,0,91.24,0.000002697398,0.000002697398,0.000002697398,0.99999994,0,0,0,0,0,0,1,0,0,0,0,false,true,false,0,506.93,17.01,-0.0033636554,0.0033636554,0.7071015,0.7070959,0,1292.511,8.1710005,-0.00071,0,0
20.675,2000,0,91.24,0.000002697398,0.000002697398,0.000002697398,0.99999994,0,0,0,0,0,0,1,0,0,0,0,false,true,false,0,517.76996,17.01,-0.0033636554,0.0033636554,0.7071015,0.7070959,0,1302.9509,8.1710005,-0.00071,0,0
20.683332,2000,0,91.24,0.000002697398,0.000002697398,0.000002697398,0.99999994,0,0,0,0,0,0,1,0,0,0,0,false,true,false,0,528.7,17.01,-0.0033636554,0.0033636554,0.7071015,0.7070959,0,1313.3009,8.1710005,-0.00071,0,0
20.691668,2000,0,91.24,0.000002697398,0.000002697398,0.000002697398,0.99999994,0,0,0,0,0,0,1,0,0,0,0,false,true,false,0,539.70996,17.01,-0.0033636554,0.0033636554,0.7071015,0.7070959,0,1323.5709,8.1710005,-0.00081,0,0
20.7,2000,0,91.24,0.000002697398,0.000002697398,0.000002697398,0.99999994,0,0,0,0,0,0,1,0,0,0,0,false,true,false,0,550.81,17.01,-0.0033636554,0.0033636554,0.7071015,0.7070959,0,1333.751,8.1710005,-0.00081,0,0
20.708334,2000,0,91.24,0.000002697398,0.000002697398,0.000002697398,0.99999994,0,0,0,0,0,0,1,0,0,0,0,false,true,false,0,561.99,17.01,-0.0033636554,0.0033636554,0.7071015,0.7070959,0,1343.841,8.1710005,-0.00081,0,0
20.716667,2000,0,91.24,0.000002697398,0.000002697398,0.000002697398,0.99999994,0,0,0,0,0,0,1,0,0,0,0,false,true,false,0,573.26,17.01,-0.0033636554,0.0033636554,0.7071015,0.7070959,0,1353.841,8.1710005,-0.00081,0,0
20.725,2000,0,91.24,0.000002697398,0.000002697398,0.000002697398,0.99999994,0,0,0,0,0,0,1,0,0,0,0,false,true,false,0,584.61,17.01,-0.0033636554,0.0033636554,0.7071015,0.7070959,0,1363.761,8.1710005,-0.00081,0,0
20.733334,2000,0,91.24,0.000002697398,0.000002697398,0.000002697398,0.99999994,0,0,0,0,0,0,1,0,0,0,0,false,true,false,0,596.04,17.01,-0.0033636554,0.0033636554,0.7071015,0.7070959,0,1373.591,8.1710005,-0.00081,0,0
20.741667,2000,0,91.24,0.000002697398,0.000002697398,0.000002697398,0.99999994,0,0,0,0,0,0,1,0,0,0,0,false,true,false,0,607.56,17.01,-0.0033636554,0.0033636554,0.7071015,0.7070959,0,1383.341,8.1710005,-0.00091,0,0
20.75,2000,0,91.24,0.000002697398,0.000002697398,0.000002697398,0.99999994,0,0,0,0,0,0,1,0,0,0,0,false,true,false,0,619.16,17.01,-0.0033636554,0.00336905,0.7071015,0.7070959,0,1393.011,8.1710005,-0.00091,0,0
20.758333,2000,0,91.24,0.000002697398,0.000002697398,0.000002697398,0.99999994,0,0,0,0,0,0,1,0,0,0,0,false,true,false,0,630.83997,17.01,-0.0033636554,0.003374445,0.70710146,0.7070959,0,1402.4409,8.1710005,-0.00091,0,0
20.766666,2000,0,91.24,0.000002697398,0.000002697398,0.000002697398,0.99999994,0,0,0,0,0,0,1,0,0,0,0,false,true,false,0,642.6,17.01,-0.0033636556,0.00337984,0.70710146,0.707096,0,1410.7009,8.1710005,-0.00091,0,0
20.775,2000,0,91.24,0.000002697398,0.000002697398,0.000002697398,0.99999994,0,0,0,0,0,0,1,0,0,0,0,false,true,false,0,654.42,17.01,-0.0033636554,0.0033852346,0.7071014,0.7070959,0,1418.9609,8.1710005,-0.00091,0,0
20.783333,2000,0,91.24,0.000002697398,0.000002697398,0.000002697398,0.99999994,0,0,0,0,0,0,1,0,0,0,0,false,true,false,0,666.31,17.01,-0.0033636554,0.0033906293,0.7071014,0.7070959,0,1427.221,8.1710005,-0.00091,-0.00010999999,0
20.791666,2000,0,91.24,0.000002697398,0.000002697398,0.000002697398,0.99999994,0,0,0,0,0,0,1,0,0,0,0,false,true,false,0,678.26996,17.01,-0.00336905,0.0033906293,0.7071014,0.7070959,0,1435.481,8.1710005,-0.00081,-0.00021,0
20.8,2000,0,91.24,0.000002697398,0.000002697398,0.000002697398,0.99999994,0,0,0,0,0,0,1,0,0,0,0,false,true,false,0,690.3,17.01,-0.003374445,0.0033906293,0.70710135,0.7070959,0,1443.741,8.1710005,-0.00071,-0.00021,0
20.808332,2000,0,91.24,0.000002697398,0.000002697398,0.000002697398,0.99999994,0,0,0,0,0,0,1,0,0,0,0,false,true,false,0,702.39996,17.01,-0.003374445,0.0033906293,0.70710135,0.7070959,0,1452.001,8.1710005,-0.00061,-0.00021,0
20.816668,2000,0,91.24,0.000002697398,0.000002697398,0.000002697398,0.99999994,0,0,0,0,0,0,1,0,0,0,0,false,true,false,0,714.57,17.01,-0.003374445,0.0033906293,0.70710135,0.7070959,0,1460.261,8.1710005,-0.00051,-0.00021,0
20.825,2000,0,91.24,0.000002697398,0.000002697398,0.000002697398,0.99999994,0,0,0,0,0,0,1,0,0,0,0,false,true,false,0,726.81,17.01,-0.003374445,0.0033906293,0.70710135,0.7070959,0,1468.521,8.1710005,-0.00051,-0.00021,0
20.833334,2000,0,91.24,0.000002697398,0.000002697398,0.000002697398,0.99999994,0,0,0,0,0,0,1,0,0,0,0,false,true,false,0,739.12,17.01,-0.003374445,0.0033906293,0.70710135,0.7070959,0,1476.7809,8.1710005,-0.00051,-0.00021,0
20.841667,2000,0,91.24,0.000002697398,0.000002697398,0.000002697398,0.99999994,0,0,0,0,0,0,1,0,0,0,0,false,true,false,0,751.5,17.01,-0.003374445,0.0033906293,0.70710135,0.7070959,0,1485.0409,8.1710005,-0.00051,-0.00021,0
20.85,2000,0,91.24,0.000002697398,0.000002697398,0.000002697398,0.99999994,0,0,0,0,0,0,1,0,0,0,0,false,true,false,0,763.94,17.01,-0.003374445,0.0033906293,0.70710135,0.7070959,0,1493.3009,8.1710005,-0.00051,-0.00021,0
20.858334,2000,0,91.24,0.000002697398,0.000002697398,0.000002697398,0.99999994,0,0,0,0,0,0,1,0,0,0,0,false,true,false,0,776.45,17.01,-0.003374445,0.0033906293,0.70710135,0.7070959,0,1501.5609,8.1710005,-0.00051,-0.00021,0
20.866667,2000,0,91.24,0.000002697398,0.000002697398,0.000002697398,0.99999994,0,0,0,0,0,0,1,0,0,0,0,false,true,false,0,789.02997,17.01,-0.003374445,0.0033906293,0.70710135,0.7070959,0,1509.8209,8.1710005,-0.00051,-0.00021,0
20.875,2000,0,91.24,0.000002697398,0.000002697398,0.000002697398,0.99999994,0,0,0,0,0,0,1,0,0,0,0,false,true,false,0,801.68,17.01,-0.003374445,0.0033906293,0.70710135,0.7070959,0,1518.0809,8.1710005,-0.00051,-0.00021,0
20.883333,2000,0,91.24,0.000002697398,0.000002697398,0.000002697398,0.99999994,0,0,0,0,0,0,1,0,0,0,0,false,true,false,0,814.39996,17.01,-0.003374445,0.0033906293,0.70710135,0.7070959,0,1526.341,8.1710005,-0.00051,-0.00021,0
20.891666,2000,0,91.24,0.000002697398,0.000002697398,0.000002697398,0.99999994,0,0,0,0,0,0,1,0,0,0,0,false,true,false,0,827.19,17.01,-0.003374445,0.0033906293,0.70710135,0.7070959,0,1534.601,8.1710005,-0.00051,-0.00021,0
20.9,2000,0,91.24,0.000002697398,0.000002697398,0.000002697398,0.99999994,0,0,0,0,0,0,1,0,0,0,0,false,true,false,0,840.05,17.01,-0.003374445,0.0033906293,0.70710135,0.7070959,0,1542.861,8.1710005,-0.00051,-0.00021,0
20.908333,2000,0,91.24,0.000002697398,0.000002697398,0.000002697398,0.99999994,0,0,0,0,0,0,1,0,0,0,0,false,true,false,0,852.98,17.01,-0.003374445,0.0033906293,0.70710135,0.7070959,0,1551.121,8.1710005,-0.00051,-0.00021,0
20.916666,2000,0,91.24,0.000002697398,0.000002697398,0.000002697398,0.99999994,0,0,0,0,0,0,1,0,0,0,0,false,true,false,0,865.97,17.01,-0.003374445,0.0033906293,0.70710135,0.7070959,0,1559.381,8.1710005,-0.00051,-0.00021,0
20.925,2000,0,91.24,0.000002697398,0.000002697398,0.000002697398,0.99999994,0,0,0,0,0,0,1,0,0,0,0,false,true,false,0,879.02997,17.01,-0.003374445,0.0033906293,0.70710135,0.7070959,0,1567.641,8.1710005,-0.00051,-0.00021,0
20.933332,2000,0,91.24,0.000002697398,0.000002697398,0.000002697398,0.99999994,0,0,0,0,0,0,1,0,0,0,0,false,true,false,0,892.16,17.01,-0.003374445,0.0033906293,0.70710135,0.7070959,0,1575.901,8.1710005,-0.00051,-0.00021,0
20.941668,2000,0,91.24,0.000002697398,0.000002697398,0.000002697398,0.99999994,0,0,0,0,0,0,1,0,0,0,0,false,true,false,0,905.36,17.01,-0.003374445,0.0033906293,0.70710135,0.7070959,0,1584.1609,8.1710005,-0.00051,-0.00021,0
20.95,2000,0,91.24,0.000002697398,0.000002697398,0.000002697398,0.99999994,0,0,0,0,0,0,1,0,0,0,0,false,true,false,0,918.63,17.01,-0.003374445,0.0033906293,0.70710135,0.7070959,0,1592.4209,8.1710005,-0.00051,-0.00021,0
20.958334,2000,0,91.24,0.000002697398,0.000002697398,0.000002697398,0.99999994,0,0,0,0,0,0,1,0,0,0,0,false,true,false,0,931.97,17.01,-0.003374445,0.0033906293,0.70710135,0.7070959,0,1600.6809,8.1710005,-0.00051,-0.00021,0
20.966667,2000,0,91.24,0.000002697398,0.000002697398,0.000002697398,0.99999994,0,0,0,0,0,0,1,0,0,0,0,false,true,false,0,945.38,17.01,-0.003374445,0.0033906293,0.70710135,0.7070959,0,1608.9409,8.1710005,-0.00051,-0.00021,0
20.975,2000,0,91.24,0.000002697398,0.000002697398,0.000002697398,0.99999994,0,0,0,0,0,0,1,0,0,0,0,false,true,false,0,958.86,17.01,-0.003374445,0.0033906293,0.70710135,0.7070959,0,1617.2009,8.1710005,-0.00051,-0.00021,0
20.983334,2000,0,91.24,0.000002697398,0.000002697398,0.000002697398,0.99999994,0,0,0,0,0,0,1,0,0,0,0,false,true,false,0,972.41,17.01,-0.003374445,0.0033906293,0.70710135,0.7070959,0,1625.4609,8.1710005,-0.00051,-0.00021,0
20.991667,2000,0,91.24,0.000002697398,0.000002697398,0.000002697398,0.99999994,0,0,0,0,0,0,1,0,0,0,0,false,true,false,0,986.01996,17.01,-0.003374445,0.0033906293,0.70710135,0.7070959,0,1633.721,8.1710005,-0.00051,-0.00021,0
21,2000,0,91.24,0.000002697398,0.000002697398,0.000002697398,0.99999994,0,0,0,0,0,0,1,0,0,0,0,false,true,false,0,999.69995,17.01,-0.003374445,0.0033906293,0.70710135,0.7070959,0,1641.981,8.1710005,-0.00051,-0.00021,0
21.008333,2000,0,91.24,0.000002697398,0.000002697398,0.000002697398,0.99999994,0,0,0,0,0,0,1,0,0,0,0,false,true,false,0,1013.44995,17.01,-0.003374445,0.0033906293,0.70710135,0.7070959,0,1650.241,8.1710005,-0.00051,-0.00021,0
21.016666,2000,0,91.24,0.000002697398,0.000002697398,0.000002697398,0.99999994,0,0,0,0,0,0,1,0,0,0,0,false,true,false,0,1027.27,17.01,-0.003374445,0.0033906293,0.70710135,0.7070959,0,1658.501,8.1710005,-0.00051,-0.00021,0
21.025,2000,0,91.24,0.000002697398,0.000002697398,0.000002697398,0.99999994,0,0,0,0,0,0,1,0,0,0,0,false,true,false,0,1041.16,17.01,-0.003374445,0.0033906293,0.70710135,0.7070959,0,1666.761,8.1710005,-0.00051,-0.00021,0
21.033333,2000,0,91.24,0.000002697398,0.000002697398,0.000002697398,0.99999994,0,0,0,0,0,0,1,0,0,0,0,false,true,false,0,1055.12,17.01,-0.003374445,0.0033906293,0.70710135,0.7070959,0,1675.021,8.1710005,-0.00051,-0.00021,0
21.041666,2000,0,91.24,0.000002697398,0.000002697398,0.000002697398,0.99999994,0,0,0,0,0,0,1,0,0,0,0,false,true,false,0,1069.15,17.01,-0.003374445,0.0033906293,0.70710135,0.7070959,0,1683.2809,8.1710005,-0.00051,-0.00021,0
21.05,2000,0,91.24,0.000002697398,0.000002697398,0.000002697398,0.99999994,0,0,0,0,0,0,1,0,0,0,0,false,true,false,0,1083.25,17.01,-0.003374445,0.0033906293,0.70710135,0.7070959,0,1691.5409,8.1710005,-0.00051,-0.00021,0
21.058332,2000,0,91.24,0.000002697398,0.000002697398,0.000002697398,0.99999994,0,0,0,0,0,0,1,0,0,0,0,false,true,false,0,1097.41,17.01,-0.003374445,0.0033906293,0.70710135,0.7070959,0,1699.8009,8.1710005,-0.00051,-0.00021,0
21.066668,2000,0,91.24,0.000002697398,0.000002697398,0.000002697398,0.99999994,0,0,0,0,0,0,1,0,0,0,0,false,true,false,0,1111.64,17.01,-0.003374445,0.0033906293,0.70710135,0.7070959,0,1708.0609,8.1710005,-0.00051,-0.00021,0
21.075,2000,0,91.24,0.000002697398,0.000002697398,0.000002697398,0.99999994,0,0,0,0,0,0,1,0,0,0,0,false,true,false,0,1125.94,17.01,-0.003374445,0.0033906293,0.70710135,0.7070959,0,1716.3209,8.1710005,-0.00051,-0.00021,0
21.083334,2000,0,91.24,0.000002697398,0.000002697398,0.000002697398,0.99999994,0,0,0,0,0,0,1,0,0,0,0,false,true,false,0,1140.3099,17.01,-0.003374445,0.0033906293,0.70710135,0.7070959,0,1724.5809,8.1710005,-0.00051,-0.00021,0
21.091667,2000,0,91.24,0.000002697398,0.000002697398,0.000002697398,0.99999994,0,0,0,0,0,0,1,0,0,0,0,false,true,false,0,1154.75,17.01,-0.003374445,0.0033906293,0.70710135,0.7070959,0,1732.841,8.1710005,-0.00051,-0.00021,0
21.1,2000,0,91.24,0.000002697398,0.000002697398,0.000002697398,0.99999994,0,0,0,0,0,0,1,0,0,0,0,false,true,false,0,1169.26,17.01,-0.003374445,0.0033906293,0.70710135,0.7070959,0,1741.101,8.1710005,-0.00051,-0.00021,0
21.108334,2000,0,91.24,0.000002697398,0.000002697398,0.000002697398,0.99999994,0,0,0,0,0,0,1,0,0,0,0,false,true,false,0,1183.84,17.01,-0.003374445,0.0033906293,0.70710135,0.7070959,0,1749.361,8.1710005,-0.00051,-0.00021,0
21.116667,2000,0,91.24,0.000002697398,0.000002697398,0.000002697398,0.99999994,0,0,0,0,0,0,1,0,0,0,0,false,true,false,0,1198.49,17.01,-0.003374445,0.0033906293,0.70710135,0.7070959,0,1757.621,8.1710005,-0.00051,-0.00021,0
21.125,2000,0,91.24,0.000002697398,0.000002697398,0.000002697398,0.99999994,0,0,0,0,0,0,1,0,0,0,0,false,true,false,0,1213.21,17.01,-0.003374445,0.0033906293,0.70710135,0.7070959,0,1765.881,8.1710005,-0.00051,-0.00021,0
21.133333,2000,0,91.24,0.000002697398,0.000002697398,0.000002697398,0.99999994,0,0,0,0,0,0,1,0,0,0,0,false,true,false,0,1227.99,17.01,-0.003374445,0.0033906293,0.70710135,0.7070959,0,1774.141,8.1710005,-0.00051,-0.00021,0
21.141666,2000,0,91.24,0.000002697398,0.000002697398,0.000002697398,0.99999994,0,0,0,0,0,0,1,0,0,0,0,false,true,false,0,1242.84,17.01,-0.003374445,0.0033906293,0.70710135,0.7070959,0,1782.4009,8.1710005,-0.00051,-0.00021,0
21.15,2000,0,91.24,0.000002697398,0.000002697398,0.000002697398,0.99999994,0,0,0,0,0,0,1,0,0,0,0,false,true,false,0,1257.76,17.01,-0.003374445,0.0033906293,0.70710135,0.7070959,0,1790.6609,8.1710005,-0.00051,-0.00021,0
21.158333,2000,0,91.24,0.000002697398,0.000002697398,0.000002697398,0.99999994,0,0,0,0,0,0,1,0,0,0,0,false,true,false,0,1272.75,17.01,-0.003374445,0.0033906293,0.70710135,0.7070959,0,1798.9209,8.1710005,-0.00051,-0.00021,0
21.166666,2000,0,91.24,0.000002697398,0.000002697398,0.000002697398,0.99999994,0,0,0,0,0,0,1,0,0,0,0,false,true,false,0,1287.8099,17.01,-0.003374445,0.0033906293,0.70710135,0.7070959,0,1807.1809,8.1710005,-0.00051,-0.00021,0
21.175,2000,0,91.24,0.000002697398,0.000002697398,0.000002697398,0.99999994,0,0,0,0,0,0,1,0,0,0,0,false,true,false,0,1302.94,17.01,-0.003374445,0.0033906293,0.70710135,0.7070959,0,1815.4409,8.1710005,-0.00051,-0.00021,0
21.183332,2000,0,91.24,0.000002697398,0.000002697398,0.000002697398,0.99999994,0,0,0,0,0,0,1,0,0,0,0,false,true,false,0,1318.14,17.01,-0.003374445,0.0033906293,0.70710135,0.7070959,0,1823.7009,8.1710005,-0.00051,-0.00021,0
21.191668,2000,0,91.24,0.000002697398,0.000002697398,0.000002697398,0.99999994,0,0,0,0,0,0,1,0,0,0,0,false,true,false,0,1333.4099,17.01,-0.003374445,0.0033906293,0.70710135,0.7070959,0,1831.9609,8.1710005,-0.00051,-0.00021,0
21.2,2000,0,91.24,0.000002697398,0.000002697398,0.000002697398,0.99999994,0,0,0,0,0,0,1,0,0,0,0,false,true,false,0,1348.75,17.01,-0.003374445,0.0033906293,0.70710135,0.7070959,0,1840.221,8.1710005,-0.00051,-0.00021,0
21.208334,2000,0,91.24,0.000002697398,0.000002697398,0.000002697398,0.99999994,0,0,0,0,0,0,1,0,0,0,0,false,true,false,0,1364.15,17.01,-0.003374445,0.0033906293,0.70710135,0.7070959,0,1848.481,8.1710005,-0.00051,-0.00021,0
21.216667,2000,0,91.24,0.000002697398,0.000002697398,0.000002697398,0.99999994,0,0,0,0,0,0,1,0,0,0,0,false,true,false,0,1379.62,17.01,-0.003374445,0.0033906293,0.70710135,0.7070959,0,1856.741,8.1710005,-0.00051,-0.00021,0
21.225,2000,0,91.24,0.000002697398,0.000002697398,0.000002697398,0.99999994,0,0,0,0,0,0,1,0,0,0,0,false,true,false,0,1395.1599,17.01,-0.003374445,0.0033906293,0.70710135,0.7070959,0,1865.001,8.1710005,-0.00051,-0.00021,0
21.233334,2000,0,91.24,0.000002697398,0.000002697398,0.000002697398,0.99999994,0,0,0,0,0,0,1,0,0,0,0,false,true,false,0,1410.77,17.01,-0.003374445,0.0033906293,0.70710135,0.7070959,0,1873.261,8.1710005,-0.00051,-0.00021,0
21.241667,2000,0,91.24,0.000002697398,0.000002697398,0.000002697398,0.99999994,0,0,0,0,0,0,1,0,0,0,0,false,true,false,0,1426.45,17.01,-0.003374445,0.0033906293,0.70710135,0.7070959,0,1881.5209,8.1710005,-0.00051,-0.00021,0
21.25,2000,0,91.24,0.000002697398,0.000002697398,0.000002697398,0.99999994,0,0,0,0,0,0,1,0,0,0,0,false,true,false,0,1442.2,17.01,-0.003374445,0.0033906293,0.70710135,0.7070959,0,1889.7809,8.1710005,-0.00051,-0.00021,0
21.258333,2000,0,91.24,0.000002697398,0.000002697398,0.000002697398,0.99999994,0,0,0,0,0,0,1,0,0,0,0,false,true,false,0,1458.02,17.01,-0.003374445,0.0033906293,0.70710135,0.7070959,0,1898.0409,8.1710005,-0.00051,-0.00021,0
21.266666,2000,0,91.24,0.000002697398,0.000002697398,0.000002697398,0.99999994,0,0,0,0,0,0,1,0,0,0,0,false,true,false,0,1473.9099,17.01,-0.003374445,0.0033906293,0.70710135,0.7070959,0,1906.3009,8.1710005,-0.00051,-0.00021,0
21.275,2000,0,91.24,0.000002697398,0.000002697398,0.000002697398,0.99999994,0,0,0,0,0,0,1,0,0,0,0,false,true,false,0,1489.86,17.01,-0.003374445,0.0033906293,0.70710135,0.7070959,0,1914.5609,8.1710005,-0.00051,-0.00021,0
21.283333,2000,0,91.24,0.000002697398,0.000002697398,0.000002697398,0.99999994,0,0,0,0,0,0,1,0,0,0,0,false,true,false,0,1505.88,17.01,-0.003374445,0.0033906293,0.70710135,0.7070959,0,1922.8209,8.1710005,-0.00051,-0.00021,0
21.291666,2000,0,91.24,0.000002697398,0.000002697398,0.000002697398,0.99999994,0,0,0,0,0,0,1,0,0,0,0,false,true,false,0,1521.97,17.01,-0.003374445,0.0033906293,0.70710135,0.7070959,0,1931.0809,8.1710005,-0.00051,-0.00021,0
21.3,2000,0,91.24,0.000002697398,0.000002697398,0.000002697398,0.99999994,0,0,0,0,0,0,1,0,0,0,0,false,true,false,0,1538.13,17.01,-0.003374445,0.0033906293,0.70710135,0.7070959,0,1939.341,8.1710005,-0.00051,-0.00021,0
21.308332,2000,0,91.24,0.000002697398,0.000002697398,0.000002697398,0.99999994,0,0,0,0,0,0,1,0,0,0,0,false,true,false,0,1554.36,17.01,-0.003374445,0.0033906293,0.70710135,0.7070959,0,1947.601,8.1710005,-0.00051,-0.00021,0
21.316668,2000,0,91.24,0.000002697398,0.000002697398,0.000002697398,0.99999994,0,0,0,0,0,0,1,0,0,0,0,false,true,false,0,1570.6599,17.01,-0.003374445,0.0033906293,0.70710135,0.7070959,0,1955.861,8.1710005,-0.00051,-0.00021,0
21.325,2000,0,91.24,0.000002697398,0.000002697398,0.000002697398,0.99999994,0,0,0,0,0,0,1,0,0,0,0,false,true,false,0,1587.0299,17.01,-0.003374445,0.0033906293,0.70710135,0.7070959,0,1964.121,8.1710005,-0.00051,-0.00021,0
21.333334,2000,0,91.24,0.000002697398,0.000002697398,0.000002697398,0.99999994,0,0,0,0,0,0,1,0,0,0,0,false,true,false,0,1603.47,17.01,-0.003374445,0.0033906293,0.70710135,0.7070959,0,1972.381,8.1710005,-0.00051,-0.00021,0
21.341667,2000,0,91.24,0.000002697398,0.000002697398,0.000002697398,0.99999994,0,0,0,0,0,0,1,0,0,0,0,false,true,false,0,1619.98,17.01,-0.003374445,0.0033906293,0.70710135,0.7070959,0,1980.641,8.1710005,-0.00051,-0.00021,0
21.35,2000,0,91.24,0.000002697398,0.000002697398,0.000002697398,0.99999994,0,0,0,0,0,0,1,0,0,0,0,false,true,false,0,1636.5499,17.01,-0.003374445,0.0033906293,0.70710135,0.7070959,0,1988.9009,8.1710005,-0.00051,-0.00021,0
21.358334,2000,0,91.24,0.000002697398,0.000002697398,0.000002697398,0.99999994,0,0,0,0,0,0,1,0,0,0,0,false,true,false,0,1653.19,17.01,-0.003374445,0.0033906293,0.70710135,0.7070959,0,1997.1609,8.1710005,-0.00051,-0.00021,0
21.366667,2000,0,91.24,0.000002697398,0.000002697398,0.000002697398,0.99999994,0,0,0,0,0,0,1,0,0,0,0,false,true,false,0,1669.8999,17.01,-0.003374445,0.0033906293,0.70710135,0.7070959,0,2005.4209,8.1710005,-0.00051,-0.00021,0
21.375,2000,0,91.24,0.000002697398,0.000002697398,0.000002697398,0.99999994,0,0,0,0,0,0,1,0,0,0,0,false,true,false,0,1686.6799,17.01,-0.003374445,0.0033906293,0.70710135,0.7070959,0,2013.6809,8.1710005,-0.00051,-0.00021,0
21.383333,2000,0,91.24,0.000002697398,0.000002697398,0.000002697398,0.99999994,0,0,0,0,0,0,1,0,0,0,0,false,true,false,0,1703.5299,17.01,-0.003374445,0.0033906293,0.70710135,0.7070959,0,2021.9409,8.1710005,-0.00051,-0.00021,0
21.391666,2000,0,91.24,0.000002697398,0.000002697398,0.000002697398,0.99999994,0,0,0,0,0,0,1,0,0,0,0,false,true,false,0,1720.45,17.01,-0.003374445,0.0033906293,0.70710135,0.7070959,0,2030.2009,8.1710005,-0.00051,-0.00021,0
21.4,2000,0,91.24,0.000002697398,0.000002697398,0.000002697398,0.99999994,0,0,0,0,0,0,1,0,0,0,0,false,true,false,0,1737.44,17.01,-0.003374445,0.0033906293,0.70710135,0.7070959,0,2038.4609,8.1710005,-0.00051,-0.00021,0
21.408333,2000,0,91.24,0.000002697398,0.000002697398,0.000002697398,0.99999994,0,0,0,0,0,0,1,0,0,0,0,false,true,false,0,1754.5,17.01,-0.003374445,0.0033906293,0.70710135,0.7070959,0,2046.721,8.1710005,-0.00051,-0.00021,0
21.416666,2000,0,91.24,0.000002697398,0.000002697398,0.000002697398,0.99999994,0,0,0,0,0,0,1,0,0,0,0,false,true,false,0,1771.63,17.01,-0.003374445,0.0033906293,0.70710135,0.7070959,0,2054.981,8.1710005,-0.00051,-0.00021,0
21.425,2000,0,91.24,0.000002697398,0.000002697398,0.000002697398,0.99999994,0,0,0,0,0,0,1,0,0,0,0,false,true,false,0,1788.82,17.01,-0.003374445,0.0033906293,0.70710135,0.7070959,0,2063.241,8.1710005,-0.00051,-0.00021,0
21.433332,2000,0,91.24,0.000002697398,0.000002697398,0.000002697398,0.99999994,0,0,0,0,0,0,1,0,0,0,0,false,true,false,0,1806.08,17.01,-0.003374445,0.0033906293,0.70710135,0.7070959,0,2071.501,8.1710005,-0.00051,-0.00021,0
21.441668,2000,0,91.24,0.000002697398,0.000002697398,0.000002697398,0.99999994,0,0,0,0,0,0,1,0,0,0,0,false,true,false,0,1823.4099,17.01,-0.003374445,0.0033906293,0.70710135,0.7070959,0,2079.761,8.1710005,-0.00051,-0.00021,0
21.45,2000,0,91.24,0.000002697398,0.000002697398,0.000002697398,0.99999994,0,0,0,0,0,0,1,0,0,0,0,false,true,false,0,1840.8099,17.01,-0.003374445,0.0033906293,0.70710135,0.7070959,0,2088.021,8.1710005,-0.00051,-0.00021,0
21.458334,2000,0,91.24,0.000002697398,0.000002697398,0.000002697398,0.99999994,0,0,0,0,0,0,1,0,0,0,0,false,true,false,0,1858.2799,17.01,-0.003374445,0.0033906293,0.70710135,0.7070959,0,2096.281,8.1710005,-0.00051,-0.00021,0
21.466667,2000,0,91.24,0.000002697398,0.000002697398,0.000002697398,0.99999994,0,0,0,0,0,0,1,0,0,0,0,false,true,false,0,1875.82,17.01,-0.003374445,0.0033906293,0.70710135,0.7070959,0,2104.541,8.1710005,-0.00051,-0.00021,0
21.475,2000,0,91.24,0.000002697398,0.000002697398,0.000002697398,0.99999994,0,0,0,0,0,0,1,0,0,0,0,false,true,false,0,1893.4299,17.01,-0.003374445,0.0033906293,0.70710135,0.7070959,0,2112.801,8.1710005,-0.00051,-0.00021,0
21.483334,2000,0,91.24,0.000002697398,0.000002697398,0.000002697398,0.99999994,0,0,0,0,0,0,1,0,0,0,0,false,true,false,0,1911.11,17.01,-0.003374445,0.0033906293,0.70710135,0.7070959,0,2121.061,8.1710005,-0.00051,-0.00021,0
21.491667,2000,0,91.24,0.000002697398,0.000002697398,0.000002697398,0.99999994,0,0,0,0,0,0,1,0,0,0,0,false,true,false,0,1928.85,17.01,-0.003374445,0.0033906293,0.70710135,0.7070959,0,2129.321,8.1710005,-0.00051,-0.00021,0
21.5,2000,0,91.24,0.000002697398,0.000002697398,0.000002697398,0.99999994,0,0,0,0,0,0,1,0,0,0,0,false,true,false,0,1946.6599,17.01,-0.003374445,0.0033906293,0.70710135,0.7070959,0,2137.5808,8.1710005,-0.00051,-0.00021,0
21.508333,2000,0,91.24,0.000002697398,0.000002697398,0.000002697398,0.99999994,0,0,0,0,0,0,1,0,0,0,0,false,true,false,0,1964.5399,17.01,-0.003374445,0.0033906293,0.70710135,0.7070959,0,2145.8408,8.1710005,-0.00051,-0.00021,0
21.516666,2000,0,91.24,0.000002697398,0.000002697398,0.000002697398,0.99999994,0,0,0,0,0,0,1,0,0,0,0,false,true,false,0,1982.49,17.01,-0.003374445,0.0033906293,0.70710135,0.7070959,0,2154.1008,8.1710005,-0.00051,-0.00021,0
21.525,2000,0,91.24,0.000002697398,0.000002697398,0.000002697398,0.99999994,0,0,0,0,0,0,1,0,0,0,0,false,true,false,0,2000.51,17.01,-0.003374445,0.0033906293,0.70710135,0.7070959,0,2162.3608,8.1710005,-0.00051,-0.00021,0
21.533333,2000,0,91.24,0.000002697398,0.000002697398,0.000002697398,0.99999994,0,0,0,0,0,0,1,0,0,0,0,false,true,false,0,2018.6,17.01,-0.003374445,0.0033906293,0.70710135,0.7070959,0,2170.6208,8.1710005,-0.00051,-0.00021,0
21.541666,2000,0,91.24,0.000002697398,0.000002697398,0.000002697398,0.99999994,0,0,0,0,0,0,1,0,0,0,0,false,true,false,0,2036.76,17.01,-0.003374445,0.0033906293,0.70710135,0.7070959,0,2178.8809,8.1710005,-0.00051,-0.00021,0
21.55,2000,0,91.24,0.000002697398,0.000002697398,0.000002697398,0.99999994,0,0,0,0,0,0,1,0,0,0,0,false,true,false,0,2054.99,17.01,-0.003374445,0.0033906293,0.70710135,0.7070959,0,2187.1409,8.1710005,-0.00051,-0.00021,0
21.558332,2000,0,91.24,0.000002697398,0.000002697398,0.000002697398,0.99999994,0,0,0,0,0,0,1,0,0,0,0,false,true,false,0,2073.29,17.01,-0.003374445,0.0033906293,0.70710135,0.7070959,0,2195.401,8.1710005,-0.00051,-0.00021,0
21.566668,2000,0,91.24,0.000002697398,0.000002697398,0.000002697398,0.99999994,0,0,0,0,0,0,1,0,0,0,0,false,true,false,0,2091.65,17.01,-0.003374445,0.0033906293,0.70710135,0.7070959,0,2203.661,8.1710005,-0.00051,-0.00021,0
21.575,2000,0,91.24,0.000002697398,0.000002697398,0.000002697398,0.99999994,0,0,0,0,0,0,1,0,0,0,0,false,true,false,0,2110.0798,17.01,-0.003374445,0.0033906293,0.70710135,0.7070959,0,2211.921,8.1710005,-0.00051,-0.00021,0
21.583334,2000,0,91.24,0.000002697398,0.000002697398,0.000002697398,0.99999994,0,0,0,0,0,0,1,0,0,0,0,false,true,false,0,2128.5798,17.01,-0.003374445,0.0033906293,0.70710135,0.7070959,0,2220.181,8.1710005,-0.00051,-0.00021,0
21.591667,2000,0,91.24,0.000002697398,0.000002697398,0.000002697398,0.99999994,0,0,0,0,0,0,1,0,0,0,0,false,true,false,0,2147.15,17.01,-0.003374445,0.0033906293,0.70710135,0.7070959,0,2228.441,8.1710005,-0.00051,-0.00021,0
21.6,2000,0,91.24,0.000002697398,0.000002697398,0.000002697398,0.99999994,0,0,0,0,0,0,1,0,0,0,0,false,true,false,0,2165.79,17.01,-0.003374445,0.0033906293,0.70710135,0.7070959,0,2236.701,8.1710005,-0.00051,-0.00021,0
21.608334,2000,0,91.24,0.000002697398,0.000002697398,0.000002697398,0.99999994,0,0,0,0,0,0,1,0,0,0,0,false,true,false,0,2184.5,17.01,-0.003374445,0.0033906293,0.70710135,0.7070959,0,2244.961,8.1710005,-0.00051,-0.00021,0
21.616667,2000,0,91.24,0.000002697398,0.000002697398,0.000002697398,0.99999994,0,0,0,0,0,0,1,0,0,0,0,false,true,false,0,2203.28,17.01,-0.003374445,0.0033906293,0.70710135,0.7070959,0,2253.221,8.1710005,-0.00051,-0.00021,0
21.625,2000,0,91.24,0.000002697398,0.000002697398,0.000002697398,0.99999994,0,0,0,0,0,0,1,0,0,0,0,false,true,false,0,2222.13,17.01,-0.003374445,0.0033906293,0.70710135,0.7070959,0,2261.481,8.1710005,-0.00051,-0.00021,0
21.633333,2000,0,91.24,0.000002697398,0.000002697398,0.000002697398,0.99999994,0,0,0,0,0,0,1,0,0,0,0,false,true,false,0,2241.04,17.01,-0.003374445,0.0033906293,0.70710135,0.7070959,0,2269.741,8.1710005,-0.00051,-0.00021,0
21.641666,2000,0,91.24,0.000002697398,0.000002697398,0.000002697398,0.99999994,0,0,0,0,0,0,1,0,0,0,0,false,true,false,0,2260.02,17.01,-0.003374445,0.0033906293,0.70710135,0.7070959,0,2278.001,8.1710005,-0.00051,-0.00021,0
21.65,2000,0,91.24,0.000002697398,0.000002697398,0.000002697398,0.99999994,0,0,0,0,0,0,1,0,0,0,0,false,true,false,0,2279.07,17.01,-0.003374445,0.0033906293,0.70710135,0.7070959,0,2286.261,8.1710005,-0.00051,-0.00021,0
21.658333,2000,0,91.24,0.000002697398,0.000002697398,0.000002697398,0.99999994,0,0,0,0,0,0,1,0,0,0,0,false,true,false,0,2298.19,17.01,-0.003374445,0.0033906293,0.70710135,0.7070959,0,2294.521,8.1710005,-0.00051,-0.00021,0
21.666666,2000,0,91.24,0.000002697398,0.000002697398,0.000002697398,0.99999994,0,0,0,0,0,0,1,0,0,0,0,false,true,false,0,2317.38,17.01,-0.003374445,0.0033906293,0.70710135,0.7070959,0,2299.981,8.161,-0.00051,-0.00021,0
