time,ball_loc_x,ball_loc_y,ball_loc_z,ball_rot_x,ball_rot_y,ball_rot_z,ball_rot_w,ball_vel_x,ball_vel_y,ball_vel_z,ball_ang_x,ball_ang_y,ball_ang_z,player0_throttle,player0_steer,player0_pitch,player0_yaw,player0_roll,player0_jump,player0_boost,player0_handbrake,player0_loc_x,player0_loc_y,player0_loc_z,player0_rot_x,player0_rot_y,player0_rot_z,player0_rot_w,player0_vel_x,player0_vel_y,player0_vel_z,player0_ang_x,player0_ang_y,player0_ang_z
11.308333,2000,0,91.24,0.000002697398,0.000002697398,0.000002697398,0.99999994,0,0,0,0,0,0,1,0,0,0,0,false,true,false,0,-8.34,16.99,-0.0033582605,0.0033798397,0.7070959,0.70710146,0,2299.981,8.331,-0.00071,-0.00010999999,0
11.316667,2000,0,91.24,0.000002697398,0.000002697398,0.000002697398,0.99999994,0,0,0,0,0,0,1,0,0,0,0,false,false,false,0,10.9,16.99,-0.0033582605,0.0033798397,0.7070959,0.70710146,0,2299.981,8.331,-0.00071,-0.00010999999,0
11.325,2000,0,91.24,0.000002697398,0.000002697398,0.000002697398,0.99999994,0,0,0,0,0,0,0,0,0,0,0,false,false,false,0,30.07,16.99,-0.0033582605,0.0033798397,0.7070959,0.70710146,0,2299.981,8.411,-0.00071,-0.00010999999,0
11.333333,2000,0,91.24,0.000002697398,0.000002697398,0.000002697398,0.99999994,0,0,0,0,0,0,0,0,0,0,0,false,false,false,0,49.239998,16.99,-0.0033582605,0.0033798397,0.7070959,0.70710146,0,2295.6008,8.461,-0.0010099999,-0.00010999999,0
11.341666,2000,0,91.24,0.000002697398,0.000002697398,0.000002697398,0.99999994,0,0,0,0,0,0,0,0,0,0,0,false,false,false,0,68.369995,16.99,-0.0033636556,0.00337984,0.707096,0.70710146,0,2291.221,8.491,-0.00111,-0.00010999999,0
11.35,2000,0,91.24,0.000002697398,0.000002697398,0.000002697398,0.99999994,0,0,0,0,0,0,0,0,0,0,0,false,false,false,0,87.46,16.99,-0.00336905,0.0033852346,0.7070959,0.7071014,0,2286.8408,8.511001,-0.00111,-0.00010999999,0
11.358334,2000,0,91.24,0.000002697398,0.000002697398,0.000002697398,0.99999994,0,0,0,0,0,0,0,0,0,0,0,false,false,false,0,106.52,16.99,-0.003374445,0.0033906293,0.7070959,0.70710135,0,2282.461,8.521,-0.0010099999,-0.00010999999,0
11.366667,2000,0,91.24,0.000002697398,0.000002697398,0.000002697398,0.99999994,0,0,0,0,0,0,0,0,0,0,0,false,false,false,0,125.54,16.99,-0.00337984,0.0033906295,0.707096,0.70710135,0,2278.0808,8.531,-0.00091,-0.00010999999,0
11.375,2000,0,91.24,0.000002697398,0.000002697398,0.000002697398,0.99999994,0,0,0,0,0,0,0,0,0,0,0,false,false,false,0,144.52,16.99,-0.0033852346,0.0033906293,0.7070959,0.7071013,0,2273.701,8.531,-0.00081,-0.00010999999,0
11.383333,2000,0,91.24,0.000002697398,0.000002697398,0.000002697398,0.99999994,0,0,0,0,0,0,0,0,0,0,0,false,false,false,0,163.47,16.99,-0.0033852346,0.0033906293,0.7070959,0.7071013,0,2269.321,8.531,-0.00071,0,0
11.391666,2000,0,91.24,0.000002697398,0.000002697398,0.000002697398,0.99999994,0,0,0,0,0,0,0,0,0,0,0,false,false,false,0,182.37999,16.99,-0.0033852346,0.0033906293,0.7070959,0.7071013,0,2264.941,8.531,-0.00071,0,0
11.4,2000,0,91.24,0.000002697398,0.000002697398,0.000002697398,0.99999994,0,0,0,0,0,0,0,0,0,0,0,false,false,false,0,201.25,16.99,-0.0033852346,0.0033906293,0.7070959,0.7071013,0,2260.561,8.531,-0.00071,0,0
11.408334,2000,0,91.24,0.000002697398,0.000002697398,0.000002697398,0.99999994,0,0,0,0,0,0,0,0,0,0,0,false,false,false,0,220.09,16.99,-0.0033852346,0.0033906293,0.7070959,0.7071013,0,2256.181,8.531,-0.00071,0,0
11.416667,2000,0,91.24,0.000002697398,0.000002697398,0.000002697398,0.99999994,0,0,0,0,0,0,0,0,0,0,0,false,false,false,0,238.89,16.99,-0.0033852346,0.0033906293,0.7070959,0.7071013,0,2251.801,8.531,-0.00071,0,0
11.425,2000,0,91.24,0.000002697398,0.000002697398,0.000002697398,0.99999994,0,0,0,0,0,0,0,0,0,0,0,false,false,false,0,257.66,16.99,-0.0033852346,0.0033906293,0.7070959,0.7071013,0,2247.421,8.531,-0.00071,0,0
11.433333,2000,0,91.24,0.000002697398,0.000002697398,0.000002697398,0.99999994,0,0,0,0,0,0,0,0,0,0,0,false,false,false,0,276.38998,16.99,-0.0033852346,0.0033906293,0.7070959,0.7071013,0,2243.041,8.531,-0.00071,0,0
11.441667,2000,0,91.24,0.000002697398,0.000002697398,0.000002697398,0.99999994,0,0,0,0,0,0,0,0,0,0,0,false,false,false,0,295.08,16.99,-0.0033852346,0.0033906293,0.7070959,0.7071013,0,2238.661,8.531,-0.00071,0,0
11.45,2000,0,91.24,0.000002697398,0.000002697398,0.000002697398,0.99999994,0,0,0,0,0,0,0,0,0,0,0,false,false,false,0,313.74,16.99,-0.0033852346,0.0033906293,0.7070959,0.7071013,0,2234.281,8.531,-0.00071,0,0
11.458333,2000,0,91.24,0.000002697398,0.000002697398,0.000002697398,0.99999994,0,0,0,0,0,0,0,0,0,0,0,false,false,false,0,332.36,16.99,-0.0033852346,0.0033906293,0.7070959,0.7071013,0,2229.901,8.531,-0.00071,0,0
11.466666,2000,0,91.24,0.000002697398,0.000002697398,0.000002697398,0.99999994,0,0,0,0,0,0,0,0,0,0,0,false,false,false,0,350.94,16.99,-0.0033852346,0.0033906293,0.7070959,0.7071013,0,2225.521,8.531,-0.00071,0,0
11.475,2000,0,91.24,0.000002697398,0.000002697398,0.000002697398,0.99999994,0,0,0,0,0,0,0,0,0,0,0,false,false,false,0,369.49,16.99,-0.0033852346,0.0033906293,0.7070959,0.7071013,0,2221.1409,8.531,-0.00071,0,0
11.483334,2000,0,91.24,0.000002697398,0.000002697398,0.000002697398,0.99999994,0,0,0,0,0,0,0,0,0,0,0,false,false,false,0,388,16.99,-0.0033852346,0.0033906293,0.7070959,0.7071013,0,2216.761,8.531,-0.00071,0,0
11.491667,2000,0,91.24,0.000002697398,0.000002697398,0.000002697398,0.99999994,0,0,0,0,0,0,0,0,0,0,0,false,false,false,0,406.47,16.99,-0.0033852346,0.0033906293,0.7070959,0.7071013,0,2212.3809,8.531,-0.00071,0,0
11.5,2000,0,91.24,0.000002697398,0.000002697398,0.000002697398,0.99999994,0,0,0,0,0,0,0,0,0,0,0,false,false,false,0,424.91,16.99,-0.0033852346,0.0033906293,0.7070959,0.7071013,0,2208.001,8.531,-0.00071,0,0
11.508333,2000,0,91.24,0.000002697398,0.000002697398,0.000002697398,0.99999994,0,0,0,0,0,0,0,0,0,0,0,false,false,false,0,443.31,16.99,-0.0033852346,0.0033906293,0.7070959,0.7071013,0,2203.6208,8.531,-0.00071,0,0
11.516666,2000,0,91.24,0.000002697398,0.000002697398,0.000002697398,0.99999994,0,0,0,0,0,0,0,0,0,0,0,false,false,false,0,461.66998,16.99,-0.0033852346,0.0033906293,0.7070959,0.7071013,0,2199.241,8.531,-0.00071,0,0
11.525,2000,0,91.24,0.000002697398,0.000002697398,0.000002697398,0.99999994,0,0,0,0,0,0,0,0,0,0,0,false,false,false,0,480,16.99,-0.0033852346,0.0033906293,0.7070959,0.7071013,0,2194.8608,8.531,-0.00071,0,0
11.533334,2000,0,91.24,0.000002697398,0.000002697398,0.000002697398,0.99999994,0,0,0,0,0,0,0,0,0,0,0,false,false,false,0,498.28998,16.99,-0.0033852346,0.0033906293,0.7070959,0.7071013,0,2190.481,8.531,-0.00071,0,0
11.541667,2000,0,91.24,0.000002697398,0.000002697398,0.000002697398,0.99999994,0,0,0,0,0,0,0,0,0,0,0,false,false,false,0,516.54,16.99,-0.0033852346,0.0033906293,0.7070959,0.7071013,0,2186.1008,8.531,-0.00071,0,0
11.55,2000,0,91.24,0.000002697398,0.000002697398,0.000002697398,0.99999994,0,0,0,0,0,0,0,0,0,0,0,false,false,false,0,534.76,16.99,-0.0033852346,0.0033906293,0.7070959,0.7071013,0,2181.721,8.531,-0.00071,0,0
11.558333,2000,0,91.24,0.000002697398,0.000002697398,0.000002697398,0.99999994,0,0,0,0,0,0,0,0,0,0,0,false,false,false,0,552.94,16.99,-0.0033852346,0.0033906293,0.7070959,0.7071013,0,2177.3408,8.531,-0.00071,0,0
11.566667,2000,0,91.24,0.000002697398,0.000002697398,0.000002697398,0.99999994,0,0,0,0,0,0,0,0,0,0,0,false,false,false,0,571.08,16.99,-0.0033852346,0.0033906293,0.7070959,0.7071013,0,2172.961,8.531,-0.00071,0,0
11.575,2000,0,91.24,0.000002697398,0.000002697398,0.000002697398,0.99999994,0,0,0,0,0,0,0,0,0,0,0,false,false,false,0,589.19,16.99,-0.0033852346,0.0033906293,0.7070959,0.7071013,0,2168.5808,8.531,-0.00071,0,0
11.583333,2000,0,91.24,0.000002697398,0.000002697398,0.000002697398,0.99999994,0,0,0,0,0,0,0,0,0,0,0,false,false,false,0,607.26,16.99,-0.0033852346,0.0033906293,0.7070959,0.7071013,0,2164.201,8.531,-0.00071,0,0
11.591666,2000,0,91.24,0.000002697398,0.000002697398,0.000002697398,0.99999994,0,0,0,0,0,0,0,0,0,0,0,false,false,false,0,625.3,16.99,-0.0033852346,0.0033906293,0.7070959,0.7071013,0,2159.821,8.531,-0.00071,0,0
11.6,2000,0,91.24,0.000002697398,0.000002697398,0.000002697398,0.99999994,0,0,0,0,0,0,0,0,0,0,0,false,false,false,0,643.3,16.99,-0.0033852346,0.0033906293,0.7070959,0.7071013,0,2155.441,8.531,-0.00071,0,0
11.608334,2000,0,91.24,0.000002697398,0.000002697398,0.000002697398,0.99999994,0,0,0,0,0,0,0,0,0,0,0,false,false,false,0,661.26,16.99,-0.0033852346,0.0033906293,0.7070959,0.7071013,0,2151.061,8.531,-0.00071,0,0
11.616667,2000,0,91.24,0.000002697398,0.000002697398,0.000002697398,0.99999994,0,0,0,0,0,0,0,0,0,0,0,false,false,false,0,679.19,16.99,-0.0033852346,0.0033906293,0.7070959,0.7071013,0,2146.681,8.531,-0.00071,0,0
11.625,2000,0,91.24,0.000002697398,0.000002697398,0.000002697398,0.99999994,0,0,0,0,0,0,0,0,0,0,0,false,false,false,0,697.07996,16.99,-0.0033852346,0.0033906293,0.7070959,0.7071013,0,2142.301,8.531,-0.00071,0,0
11.633333,2000,0,91.24,0.000002697398,0.000002697398,0.000002697398,0.99999994,0,0,0,0,0,0,0,0,0,0,0,false,false,false,0,714.93,16.99,-0.0033852346,0.0033906293,0.7070959,0.7071013,0,2137.921,8.531,-0.00071,0,0
11.641666,2000,0,91.24,0.000002697398,0.000002697398,0.000002697398,0.99999994,0,0,0,0,0,0,0,0,0,0,0,false,false,false,0,732.75,16.99,-0.0033852346,0.0033906293,0.7070959,0.7071013,0,2133.541,8.531,-0.00071,0,0
11.65,2000,0,91.24,0.000002697398,0.000002697398,0.000002697398,0.99999994,0,0,0,0,0,0,0,0,0,0,0,false,false,false,0,750.52997,16.99,-0.0033852346,0.0033906293,0.7070959,0.7071013,0,2129.161,8.531,-0.00071,0,0
11.658334,2000,0,91.24,0.000002697398,0.000002697398,0.000002697398,0.99999994,0,0,0,0,0,0,0,0,0,0,0,false,false,false,0,768.26996,16.99,-0.0033852346,0.0033906293,0.7070959,0.7071013,0,2124.781,8.531,-0.00071,0,0
11.666667,2000,0,91.24,0.000002697398,0.000002697398,0.000002697398,0.99999994,0,0,0,0,0,0,0,0,0,0,0,false,false,false,0,785.98,16.99,-0.0033852346,0.0033906293,0.7070959,0.7071013,0,2120.401,8.531,-0.00071,0,0
11.675,2000,0,91.24,0.000002697398,0.000002697398,0.000002697398,0.99999994,0,0,0,0,0,0,0,0,0,0,0,false,false,false,0,803.64996,16.99,-0.0033852346,0.0033906293,0.7070959,0.7071013,0,2116.021,8.531,-0.00071,0,0
11.683333,2000,0,91.24,0.000002697398,0.000002697398,0.000002697398,0.99999994,0,0,0,0,0,0,0,0,0,0,0,false,false,false,0,821.27997,16.99,-0.0033852346,0.0033906293,0.7070959,0.7071013,0,2111.6409,8.531,-0.00071,0,0
11.691667,2000,0,91.24,0.000002697398,0.000002697398,0.000002697398,0.99999994,0,0,0,0,0,0,0,0,0,0,0,false,false,false,0,838.88,16.99,-0.0033852346,0.0033906293,0.7070959,0.7071013,0,2107.261,8.531,-0.00071,0,0
11.7,2000,0,91.24,0.000002697398,0.000002697398,0.000002697398,0.99999994,0,0,0,0,0,0,0,0,0,0,0,false,false,false,0,856.44,16.99,-0.0033852346,0.0033906293,0.7070959,0.7071013,0,2102.8809,8.531,-0.00071,0,0
11.708333,2000,0,91.24,0.000002697398,0.000002697398,0.000002697398,0.99999994,0,0,0,0,0,0,0,0,0,0,0,false,false,false,0,873.95996,16.99,-0.0033852346,0.0033906293,0.7070959,0.7071013,0,2098.501,8.531,-0.00071,0,0
11.716666,2000,0,91.24,0.000002697398,0.000002697398,0.000002697398,0.99999994,0,0,0,0,0,0,0,0,0,0,0,false,false,false,0,891.44995,16.99,-0.0033852346,0.0033906293,0.7070959,0.7071013,0,2094.1208,8.531,-0.00071,0,0
11.725,2000,0,91.24,0.000002697398,0.000002697398,0.000002697398,0.99999994,0,0,0,0,0,0,0,0,0,0,0,false,false,false,0,908.89996,16.99,-0.0033852346,0.0033906293,0.7070959,0.7071013,0,2089.741,8.531,-0.00071,0,0
11.733334,2000,0,91.24,0.000002697398,0.000002697398,0.000002697398,0.99999994,0,0,0,0,0,0,0,0,0,0,0,false,false,false,0,926.31,16.99,-0.0033852346,0.0033906293,0.7070959,0.7071013,0,2085.3608,8.531,-0.00071,0,0
11.741667,2000,0,91.24,0.000002697398,0.000002697398,0.000002697398,0.99999994,0,0,0,0,0,0,0,0,0,0,0,false,false,false,0,943.69,16.99,-0.0033852346,0.0033906293,0.7070959,0.7071013,0,2080.981,8.531,-0.00071,0,0
11.75,2000,0,91.24,0.000002697398,0.000002697398,0.000002697398,0.99999994,0,0,0,0,0,0,0,0,0,0,0,false,false,false,0,961.02997,16.99,-0.0033852346,0.0033906293,0.7070959,0.7071013,0,2076.6008,8.531,-0.00071,0,0
11.758333,2000,0,91.24,0.000002697398,0.000002697398,0.000002697398,0.99999994,0,0,0,0,0,0,0,0,0,0,0,false,false,false,0,978.32996,16.99,-0.0033852346,0.0033906293,0.7070959,0.7071013,0,2072.221,8.531,-0.00071,0,0
11.766666,2000,0,91.24,0.000002697398,0.000002697398,0.000002697398,0.99999994,0,0,0,0,0,0,0,0,0,0,0,false,false,false,0,995.6,16.99,-0.0033852346,0.0033906293,0.7070959,0.7071013,0,2067.8408,8.531,-0.00071,0,0
11.775,2000,0,91.24,0.000002697398,0.000002697398,0.000002697398,0.99999994,0,0,0,0,0,0,0,0,0,0,0,false,false,false,0,1012.82996,16.99,-0.0033852346,0.0033906293,0.7070959,0.7071013,0,2063.461,8.531,-0.00071,0,0
11.783334,2000,0,91.24,0.000002697398,0.000002697398,0.000002697398,0.99999994,0,0,0,0,0,0,0,0,0,0,0,false,false,false,0,1030.03,16.99,-0.0033852346,0.0033906293,0.7070959,0.7071013,0,2059.0808,8.531,-0.00071,0,0
11.791667,2000,0,91.24,0.000002697398,0.000002697398,0.000002697398,0.99999994,0,0,0,0,0,0,0,0,0,0,0,false,false,false,0,1047.19,16.99,-0.0033852346,0.0033906293,0.7070959,0.7071013,0,2054.701,8.531,-0.00071,0,0
11.8,2000,0,91.24,0.000002697398,0.000002697398,0.000002697398,0.99999994,0,0,0,0,0,0,0,0,0,0,0,false,false,false,0,1064.3099,16.99,-0.0033852346,0.0033906293,0.7070959,0.7071013,0,2050.321,8.531,-0.00071,0,0
11.808333,2000,0,91.24,0.000002697398,0.000002697398,0.000002697398,0.99999994,0,0,0,0,0,0,0,0,0,0,0,false,false,false,0,1081.4,16.99,-0.0033852346,0.0033906293,0.7070959,0.7071013,0,2045.9409,8.531,-0.00071,0,0
11.816667,2000,0,91.24,0.000002697398,0.000002697398,0.000002697398,0.99999994,0,0,0,0,0,0,0,0,0,0,0,false,false,false,0,1098.45,16.99,-0.0033852346,0.0033906293,0.7070959,0.7071013,0,2041.5609,8.531,-0.00071,0,0
11.825,2000,0,91.24,0.000002697398,0.000002697398,0.000002697398,0.99999994,0,0,0,0,0,0,0,0,0,0,0,false,false,false,0,1115.46,16.99,-0.0033852346,0.0033906293,0.7070959,0.7071013,0,2037.1809,8.531,-0.00071,0,0
11.833333,2000,0,91.24,0.000002697398,0.000002697398,0.000002697398,0.99999994,0,0,0,0,0,0,0,0,0,0,0,false,false,false,0,1132.44,16.99,-0.0033852346,0.0033906293,0.7070959,0.7071013,0,2032.8009,8.531,-0.00071,0,0
11.841666,2000,0,91.24,0.000002697398,0.000002697398,0.000002697398,0.99999994,0,0,0,0,0,0,0,0,0,0,0,false,false,false,0,1149.38,16.99,-0.0033852346,0.0033906293,0.7070959,0.7071013,0,2028.4209,8.531,-0.00071,0,0
11.85,2000,0,91.24,0.000002697398,0.000002697398,0.000002697398,0.99999994,0,0,0,0,0,0,0,0,0,0,0,false,false,false,0,1166.28,16.99,-0.0033852346,0.0033906293,0.7070959,0.7071013,0,2024.0409,8.531,-0.00071,0,0
11.858334,2000,0,91.24,0.000002697398,0.000002697398,0.000002697398,0.99999994,0,0,0,0,0,0,0,0,0,0,0,false,false,false,0,1183.15,16.99,-0.0033852346,0.0033906293,0.7070959,0.7071013,0,2019.6609,8.531,-0.00071,0,0
11.866667,2000,0,91.24,0.000002697398,0.000002697398,0.000002697398,0.99999994,0,0,0,0,0,0,0,0,0,0,0,false,false,false,0,1199.98,16.99,-0.0033852346,0.0033906293,0.7070959,0.7071013,0,2015.2809,8.531,-0.00071,0,0
11.875,2000,0,91.24,0.000002697398,0.000002697398,0.000002697398,0.99999994,0,0,0,0,0,0,0,0,0,0,0,false,false,false,0,1216.77,16.99,-0.0033852346,0.0033906293,0.7070959,0.7071013,0,2010.9009,8.531,-0.00071,0,0
11.883333,2000,0,91.24,0.000002697398,0.000002697398,0.000002697398,0.99999994,0,0,0,0,0,0,0,0,0,0,0,false,false,false,0,1233.53,16.99,-0.0033852346,0.0033906293,0.7070959,0.7071013,0,2006.5209,8.531,-0.00071,0,0
11.891666,2000,0,91.24,0.000002697398,0.000002697398,0.000002697398,0.99999994,0,0,0,0,0,0,0,0,0,0,0,false,false,false,0,1250.25,16.99,-0.0033852346,0.0033906293,0.7070959,0.7071013,0,2002.141,8.531,-0.00071,0,0
11.9,2000,0,91.24,0.000002697398,0.000002697398,0.000002697398,0.99999994,0,0,0,0,0,0,0,0,0,0,0,false,false,false,0,1266.9299,16.99,-0.0033852346,0.0033906293,0.7070959,0.7071013,0,1997.761,8.531,-0.00071,0,0
11.908334,2000,0,91.24,0.000002697398,0.000002697398,0.000002697398,0.99999994,0,0,0,0,0,0,0,0,0,0,0,false,false,false,0,1283.58,16.99,-0.0033852346,0.0033906293,0.7070959,0.7071013,0,1993.381,8.531,-0.00071,0,0
11.916667,2000,0,91.24,0.000002697398,0.000002697398,0.000002697398,0.99999994,0,0,0,0,0,0,0,0,0,0,0,false,false,false,0,1300.19,16.99,-0.0033852346,0.0033906293,0.7070959,0.7071013,0,1989.001,8.531,-0.00071,0,0
11.925,2000,0,91.24,0.000002697398,0.000002697398,0.000002697398,0.99999994,0,0,0,0,0,0,0,0,0,0,0,false,false,false,0,1316.76,16.99,-0.0033852346,0.0033906293,0.7070959,0.7071013,0,1984.621,8.531,-0.00071,0,0
11.933333,2000,0,91.24,0.000002697398,0.000002697398,0.000002697398,0.99999994,0,0,0,0,0,0,0,0,0,0,0,false,false,false,0,1333.2999,16.99,-0.0033852346,0.0033906293,0.7070959,0.7071013,0,1980.241,8.531,-0.00071,0,0
11.941667,2000,0,91.24,0.000002697398,0.000002697398,0.000002697398,0.99999994,0,0,0,0,0,0,0,0,0,0,0,false,false,false,0,1349.7999,16.99,-0.0033852346,0.0033906293,0.7070959,0.7071013,0,1975.861,8.531,-0.00071,0,0
11.95,2000,0,91.24,0.000002697398,0.000002697398,0.000002697398,0.99999994,0,0,0,0,0,0,0,0,0,0,0,false,false,false,0,1366.27,16.99,-0.0033852346,0.0033906293,0.7070959,0.7071013,0,1971.481,8.531,-0.00071,0,0
11.958333,2000,0,91.24,0.000002697398,0.000002697398,0.000002697398,0.99999994,0,0,0,0,0,0,0,0,0,0,0,false,false,false,0,1382.7,16.99,-0.0033852346,0.0033906293,0.7070959,0.7071013,0,1967.101,8.531,-0.00071,0,0
11.966666,2000,0,91.24,0.000002697398,0.000002697398,0.000002697398,0.99999994,0,0,0,0,0,0,0,0,0,0,0,false,false,false,0,1399.09,16.99,-0.0033852346,0.0033906293,0.7070959,0.7071013,0,1962.721,8.531,-0.00071,0,0
11.975,2000,0,91.24,0.000002697398,0.000002697398,0.000002697398,0.99999994,0,0,0,0,0,0,0,0,0,0,0,false,false,false,0,1415.45,16.99,-0.0033852346,0.0033906293,0.7070959,0.7071013,0,1958.341,8.531,-0.00071,0,0
11.983334,2000,0,91.24,0.000002697398,0.000002697398,0.000002697398,0.99999994,0,0,0,0,0,0,0,0,0,0,0,false,false,false,0,1431.77,16.99,-0.0033852346,0.0033906293,0.7070959,0.7071013,0,1953.9609,8.531,-0.00071,0,0
11.991667,2000,0,91.24,0.000002697398,0.000002697398,0.000002697398,0.99999994,0,0,0,0,0,0,0,0,0,0,0,false,false,false,0,1448.0499,16.99,-0.0033852346,0.0033906293,0.7070959,0.7071013,0,1949.5809,8.531,-0.00071,0,0
12,2000,0,91.24,0.000002697398,0.000002697398,0.000002697398,0.99999994,0,0,0,0,0,0,0,0,0,0,0,false,false,false,0,1464.2999,16.99,-0.0033852346,0.0033906293,0.7070959,0.7071013,0,1945.2009,8.531,-0.00071,0,0
12.008333,2000,0,91.24,0.000002697398,0.000002697398,0.000002697398,0.99999994,0,0,0,0,0,0,0,0,0,0,0,false,false,false,0,1480.51,16.99,-0.0033852346,0.0033906293,0.7070959,0.7071013,0,1940.8209,8.531,-0.00071,0,0
12.016666,2000,0,91.24,0.000002697398,0.000002697398,0.000002697398,0.99999994,0,0,0,0,0,0,0,0,0,0,0,false,false,false,0,1496.6799,16.99,-0.0033852346,0.0033906293,0.7070959,0.7071013,0,1936.4409,8.531,-0.00071,0,0
12.025,2000,0,91.24,0.000002697398,0.000002697398,0.000002697398,0.99999994,0,0,0,0,0,0,0,0,0,0,0,false,false,false,0,1512.82,16.99,-0.0033852346,0.0033906293,0.7070959,0.7071013,0,1932.0609,8.531,-0.00071,0,0
12.033334,2000,0,91.24,0.000002697398,0.000002697398,0.000002697398,0.99999994,0,0,0,0,0,0,0,0,0,0,0,false,false,false,0,1528.9199,16.99,-0.0033852346,0.0033906293,0.7070959,0.7071013,0,1927.6809,8.531,-0.00071,0,0
12.041667,2000,0,91.24,0.000002697398,0.000002697398,0.000002697398,0.99999994,0,0,0,0,0,0,0,0,0,0,0,false,false,false,0,1544.98,16.99,-0.0033852346,0.0033906293,0.7070959,0.7071013,0,1923.3009,8.531,-0.00071,0,0
12.05,2000,0,91.24,0.000002697398,0.000002697398,0.000002697398,0.99999994,0,0,0,0,0,0,0,0,0,0,0,false,false,false,0,1561.01,16.99,-0.0033852346,0.0033906293,0.7070959,0.7071013,0,1918.9209,8.531,-0.00071,0,0
12.058333,2000,0,91.24,0.000002697398,0.000002697398,0.000002697398,0.99999994,0,0,0,0,0,0,0,0,0,0,0,false,false,false,0,1577,16.99,-0.0033852346,0.0033906293,0.7070959,0.7071013,0,1914.5409,8.531,-0.00071,0,0
12.066667,2000,0,91.24,0.000002697398,0.000002697398,0.000002697398,0.99999994,0,0,0,0,0,0,0,0,0,0,0,false,false,false,0,1592.95,16.99,-0.0033852346,0.0033906293,0.7070959,0.7071013,0,1910.1609,8.531,-0.00071,0,0
12.075,2000,0,91.24,0.000002697398,0.000002697398,0.000002697398,0.99999994,0,0,0,0,0,0,0,0,0,0,0,false,false,false,0,1608.87,16.99,-0.0033852346,0.0033906293,0.7070959,0.7071013,0,1905.7809,8.531,-0.00071,0,0
12.083333,2000,0,91.24,0.000002697398,0.000002697398,0.000002697398,0.99999994,0,0,0,0,0,0,0,0,0,0,0,false,false,false,0,1624.75,16.99,-0.0033852346,0.0033906293,0.7070959,0.7071013,0,1901.4009,8.531,-0.00071,0,0
12.091666,2000,0,91.24,0.000002697398,0.000002697398,0.000002697398,0.99999994,0,0,0,0,0,0,0,0,0,0,0,false,false,false,0,1640.59,16.99,-0.0033852346,0.0033906293,0.7070959,0.7071013,0,1897.0209,8.531,-0.00071,0,0
12.1,2000,0,91.24,0.000002697398,0.000002697398,0.000002697398,0.99999994,0,0,0,0,0,0,0,0,0,0,0,false,false,false,0,1656.3999,16.99,-0.0033852346,0.0033906293,0.7070959,0.7071013,0,1892.641,8.531,-0.00071,0,0
12.108334,2000,0,91.24,0.000002697398,0.000002697398,0.000002697398,0.99999994,0,0,0,0,0,0,0,0,0,0,0,false,false,false,0,1672.1699,16.99,-0.0033852346,0.0033906293,0.7070959,0.7071013,0,1888.261,8.531,-0.00071,0,0
12.116667,2000,0,91.24,0.000002697398,0.000002697398,0.000002697398,0.99999994,0,0,0,0,0,0,0,0,0,0,0,false,false,false,0,1687.9099,16.99,-0.0033852346,0.0033906293,0.7070959,0.7071013,0,1883.881,8.531,-0.00071,0,0
12.125,2000,0,91.24,0.000002697398,0.000002697398,0.000002697398,0.99999994,0,0,0,0,0,0,0,0,0,0,0,false,false,false,0,1703.61,16.99,-0.0033852346,0.0033906293,0.7070959,0.7071013,0,1879.501,8.531,-0.00071,0,0
12.133333,2000,0,91.24,0.000002697398,0.000002697398,0.000002697398,0.99999994,0,0,0,0,0,0,0,0,0,0,0,false,false,false,0,1719.27,16.99,-0.0033852346,0.0033906293,0.7070959,0.7071013,0,1875.121,8.531,-0.00071,0,0
12.141666,2000,0,91.24,0.000002697398,0.000002697398,0.000002697398,0.99999994,0,0,0,0,0,0,0,0,0,0,0,false,false,false,0,1734.8999,16.99,-0.0033852346,0.0033906293,0.7070959,0.7071013,0,1870.741,8.531,-0.00071,0,0
12.15,2000,0,91.24,0.000002697398,0.000002697398,0.000002697398,0.99999994,0,0,0,0,0,0,0,0,0,0,0,false,false,false,0,1750.49,16.99,-0.0033852346,0.0033906293,0.7070959,0.7071013,0,1866.361,8.531,-0.00071,0,0
12.158334,2000,0,91.24,0.000002697398,0.000002697398,0.000002697398,0.99999994,0,0,0,0,0,0,0,0,0,0,0,false,false,false,0,1766.0399,16.99,-0.0033852346,0.0033906293,0.7070959,0.7071013,0,1861.981,8.531,-0.00071,0,0
12.166667,2000,0,91.24,0.000002697398,0.000002697398,0.000002697398,0.99999994,0,0,0,0,0,0,0,0,0,0,0,false,false,false,0,1781.5599,16.99,-0.0033852346,0.0033906293,0.7070959,0.7071013,0,1857.601,8.531,-0.00071,0,0
12.175,2000,0,91.24,0.000002697398,0.000002697398,0.000002697398,0.99999994,0,0,0,0,0,0,0,0,0,0,0,false,false,false,0,1797.0399,16.99,-0.0033852346,0.0033906293,0.7070959,0.7071013,0,1853.221,8.531,-0.00071,0,0
12.183333,2000,0,91.24,0.000002697398,0.000002697398,0.000002697398,0.99999994,0,0,0,0,0,0,0,0,0,0,0,false,false,false,0,1812.48,16.99,-0.0033852346,0.0033906293,0.7070959,0.7071013,0,1848.841,8.531,-0.00071,0,0
12.191667,2000,0,91.24,0.000002697398,0.000002697398,0.000002697398,0.99999994,0,0,0,0,0,0,0,0,0,0,0,false,false,false,0,1827.89,16.99,-0.0033852346,0.0033906293,0.7070959,0.7071013,0,1844.4609,8.531,-0.00071,0,0
12.2,2000,0,91.24,0.000002697398,0.000002697398,0.000002697398,0.99999994,0,0,0,0,0,0,0,0,0,0,0,false,false,false,0,1843.26,16.99,-0.0033852346,0.0033906293,0.7070959,0.7071013,0,1840.0809,8.531,-0.00071,0,0
12.208333,2000,0,91.24,0.000002697398,0.000002697398,0.000002697398,0.99999994,0,0,0,0,0,0,0,0,0,0,0,false,false,false,0,1858.59,16.99,-0.0033852346,0.0033906293,0.7070959,0.7071013,0,1835.7009,8.531,-0.00071,0,0
12.216666,2000,0,91.24,0.000002697398,0.000002697398,0.000002697398,0.99999994,0,0,0,0,0,0,0,0,0,0,0,false,false,false,0,1873.89,16.99,-0.0033852346,0.0033906293,0.7070959,0.7071013,0,1831.3209,8.531,-0.00071,0,0
12.225,2000,0,91.24,0.000002697398,0.000002697398,0.000002697398,0.99999994,0,0,0,0,0,0,0,0,0,0,0,false,false,false,0,1889.1499,16.99,-0.0033852346,0.0033906293,0.7070959,0.7071013,0,1826.9409,8.531,-0.00071,0,0
12.233334,2000,0,91.24,0.000002697398,0.000002697398,0.000002697398,0.99999994,0,0,0,0,0,0,0,0,0,0,0,false,false,false,0,1904.37,16.99,-0.0033852346,0.0033906293,0.7070959,0.7071013,0,1822.5609,8.531,-0.00071,0,0
12.241667,2000,0,91.24,0.000002697398,0.000002697398,0.000002697398,0.99999994,0,0,0,0,0,0,0,0,0,0,0,false,false,false,0,1919.5599,16.99,-0.0033852346,0.0033906293,0.7070959,0.7071013,0,1818.1809,8.531,-0.00071,0,0
12.25,2000,0,91.24,0.000002697398,0.000002697398,0.000002697398,0.99999994,0,0,0,0,0,0,0,0,0,0,0,false,false,false,0,1934.71,16.99,-0.0033852346,0.0033906293,0.7070959,0.7071013,0,1813.8009,8.531,-0.00071,0,0
12.258333,2000,0,91.24,0.000002697398,0.000002697398,0.000002697398,0.99999994,0,0,0,0,0,0,0,0,0,0,0,false,false,false,0,1949.83,16.99,-0.0033852346,0.0033906293,0.7070959,0.7071013,0,1809.4209,8.531,-0.00071,0,0
12.266666,2000,0,91.24,0.000002697398,0.000002697398,0.000002697398,0.99999994,0,0,0,0,0,0,0,0,0,0,0,false,false,false,0,1964.9099,16.99,-0.0033852346,0.0033906293,0.7070959,0.7071013,0,1805.0409,8.531,-0.00071,0,0
12.275,2000,0,91.24,0.000002697398,0.000002697398,0.000002697398,0.99999994,0,0,0,0,0,0,0,0,0,0,0,false,false,false,0,1979.95,16.99,-0.0033852346,0.0033906293,0.7070959,0.7071013,0,1800.6609,8.531,-0.00071,0,0
12.283334,2000,0,91.24,0.000002697398,0.000002697398,0.000002697398,0.99999994,0,0,0,0,0,0,0,0,0,0,0,false,false,false,0,1994.96,16.99,-0.0033852346,0.0033906293,0.7070959,0.7071013,0,1796.2809,8.531,-0.00071,0,0
12.291667,2000,0,91.24,0.000002697398,0.000002697398,0.000002697398,0.99999994,0,0,0,0,0,0,0,0,0,0,0,false,false,false,0,2009.9299,16.99,-0.0033852346,0.0033906293,0.7070959,0.7071013,0,1791.9009,8.531,-0.00071,0,0
12.3,2000,0,91.24,0.000002697398,0.000002697398,0.000002697398,0.99999994,0,0,0,0,0,0,0,0,0,0,0,false,false,false,0,2024.86,16.99,-0.0033852346,0.0033906293,0.7070959,0.7071013,0,1787.521,8.531,-0.00071,0,0
12.308333,2000,0,91.24,0.000002697398,0.000002697398,0.000002697398,0.99999994,0,0,0,0,0,0,0,0,0,0,0,false,false,false,0,2039.76,16.99,-0.0033852346,0.0033906293,0.7070959,0.7071013,0,1783.141,8.531,-0.00071,0,0
12.316667,2000,0,91.24,0.000002697398,0.000002697398,0.000002697398,0.99999994,0,0,0,0,0,0,0,0,0,0,0,false,false,false,0,2054.6199,16.99,-0.0033852346,0.0033906293,0.7070959,0.7071013,0,1778.761,8.531,-0.00071,0,0
12.325,2000,0,91.24,0.000002697398,0.000002697398,0.000002697398,0.99999994,0,0,0,0,0,0,0,0,0,0,0,false,false,false,0,2069.44,16.99,-0.0033852346,0.0033906293,0.7070959,0.7071013,0,1774.381,8.531,-0.00071,0,0
12.333333,2000,0,91.24,0.000002697398,0.000002697398,0.000002697398,0.99999994,0,0,0,0,0,0,0,0,0,0,0,false,false,false,0,2084.23,16.99,-0.0033852346,0.0033906293,0.7070959,0.7071013,0,1770.001,8.531,-0.00071,0,0
12.341666,2000,0,91.24,0.000002697398,0.000002697398,0.000002697398,0.99999994,0,0,0,0,0,0,0,0,0,0,0,false,false,false,0,2098.98,16.99,-0.0033852346,0.0033906293,0.7070959,0.7071013,0,1765.621,8.531,-0.00071,0,0
12.35,2000,0,91.24,0.000002697398,0.000002697398,0.000002697398,0.99999994,0,0,0,0,0,0,0,0,0,0,0,false,false,false,0,2113.69,16.99,-0.0033852346,0.0033906293,0.7070959,0.7071013,0,1761.241,8.531,-0.00071,0,0
12.358334,2000,0,91.24,0.000002697398,0.000002697398,0.000002697398,0.99999994,0,0,0,0,0,0,0,0,0,0,0,false,false,false,0,2128.3699,16.99,-0.0033852346,0.0033906293,0.7070959,0.7071013,0,1756.861,8.531,-0.00071,0,0
12.366667,2000,0,91.24,0.000002697398,0.000002697398,0.000002697398,0.99999994,0,0,0,0,0,0,0,0,0,0,0,false,false,false,0,2143.01,16.99,-0.0033852346,0.0033906293,0.7070959,0.7071013,0,1752.481,8.531,-0.00071,0,0
12.375,2000,0,91.24,0.000002697398,0.000002697398,0.000002697398,0.99999994,0,0,0,0,0,0,0,0,0,0,0,false,false,false,0,2157.6099,16.99,-0.0033852346,0.0033906293,0.7070959,0.7071013,0,1748.101,8.531,-0.00071,0,0
12.383333,2000,0,91.24,0.000002697398,0.000002697398,0.000002697398,0.99999994,0,0,0,0,0,0,0,0,0,0,0,false,false,false,0,2172.18,16.99,-0.0033852346,0.0033906293,0.7070959,0.7071013,0,1743.721,8.531,-0.00071,0,0
12.391666,2000,0,91.24,0.000002697398,0.000002697398,0.000002697398,0.99999994,0,0,0,0,0,0,0,0,0,0,0,false,false,false,0,2186.71,16.99,-0.0033852346,0.0033906293,0.7070959,0.7071013,0,1739.341,8.531,-0.00071,0,0
12.4,2000,0,91.24,0.000002697398,0.000002697398,0.000002697398,0.99999994,0,0,0,0,0,0,0,0,0,0,0,false,false,false,0,2201.2,16.99,-0.0033852346,0.0033906293,0.7070959,0.7071013,0,1734.9609,8.531,-0.00071,0,0
12.408334,2000,0,91.24,0.000002697398,0.000002697398,0.000002697398,0.99999994,0,0,0,0,0,0,0,0,0,0,0,false,false,false,0,2215.66,16.99,-0.0033852346,0.0033906293,0.7070959,0.7071013,0,1730.5809,8.531,-0.00071,0,0
12.416667,2000,0,91.24,0.000002697398,0.000002697398,0.000002697398,0.99999994,0,0,0,0,0,0,0,0,0,0,0,false,false,false,0,2230.0798,16.99,-0.0033852346,0.0033906293,0.7070959,0.7071013,0,1726.2009,8.531,-0.00071,0,0
12.425,2000,0,91.24,0.000002697398,0.000002697398,0.000002697398,0.99999994,0,0,0,0,0,0,0,0,0,0,0,false,false,false,0,2244.46,16.99,-0.0033852346,0.0033906293,0.7070959,0.7071013,0,1721.8209,8.531,-0.00071,0,0
12.433333,2000,0,91.24,0.000002697398,0.000002697398,0.000002697398,0.99999994,0,0,0,0,0,0,0,0,0,0,0,false,false,false,0,2258.81,16.99,-0.0033852346,0.0033906293,0.7070959,0.7071013,0,1717.4409,8.531,-0.00071,0,0
12.441667,2000,0,91.24,0.000002697398,0.000002697398,0.000002697398,0.99999994,0,0,0,0,0,0,0,0,0,0,0,false,false,false,0,2273.1199,16.99,-0.0033852346,0.0033906293,0.7070959,0.7071013,0,1713.0609,8.531,-0.00071,0,0
12.45,2000,0,91.24,0.000002697398,0.000002697398,0.000002697398,0.99999994,0,0,0,0,0,0,0,0,0,0,0,false,false,false,0,2287.4,16.99,-0.0033852346,0.0033906293,0.7070959,0.7071013,0,1708.6809,8.531,-0.00071,0,0
12.458333,2000,0,91.24,0.000002697398,0.000002697398,0.000002697398,0.99999994,0,0,0,0,0,0,0,0,0,0,0,false,false,false,0,2301.64,16.99,-0.0033852346,0.0033906293,0.7070959,0.7071013,0,1704.3009,8.531,-0.00071,0,0
12.466666,2000,0,91.24,0.000002697398,0.000002697398,0.000002697398,0.99999994,0,0,0,0,0,0,0,0,0,0,0,false,false,false,0,2315.8398,16.99,-0.0033852346,0.0033906293,0.7070959,0.7071013,0,1699.9209,8.531,-0.00071,0,0
12.475,2000,0,91.24,0.000002697398,0.000002697398,0.000002697398,0.99999994,0,0,0,0,0,0,0,0,0,0,0,false,false,false,0,2330.01,16.99,-0.0033852346,0.0033906293,0.7070959,0.7071013,0,1695.5409,8.531,-0.00071,0,0
12.483334,2000,0,91.24,0.000002697398,0.000002697398,0.000002697398,0.99999994,0,0,0,0,0,0,0,0,0,0,0,false,false,false,0,2344.14,16.99,-0.0033852346,0.0033906293,0.7070959,0.7071013,0,1691.1609,8.531,-0.00071,0,0
12.491667,2000,0,91.24,0.000002697398,0.000002697398,0.000002697398,0.99999994,0,0,0,0,0,0,0,0,0,0,0,false,false,false,0,2358.23,16.99,-0.0033852346,0.0033906293,0.7070959,0.7071013,0,1686.7809,8.531,-0.00071,0,0
12.5,2000,0,91.24,0.000002697398,0.000002697398,0.000002697398,0.99999994,0,0,0,0,0,0,0,0,0,0,0,false,false,false,0,2372.29,16.99,-0.0033852346,0.0033906293,0.7070959,0.7071013,0,1682.4009,8.531,-0.00071,0,0
12.508333,2000,0,91.24,0.000002697398,0.000002697398,0.000002697398,0.99999994,0,0,0,0,0,0,0,0,0,0,0,false,false,false,0,2386.31,16.99,-0.0033852346,0.0033906293,0.7070959,0.7071013,0,1678.021,8.531,-0.00071,0,0
12.516666,2000,0,91.24,0.000002697398,0.000002697398,0.000002697398,0.99999994,0,0,0,0,0,0,0,0,0,0,0,false,false,false,0,2400.29,16.99,-0.0033852346,0.0033906293,0.7070959,0.7071013,0,1673.641,8.531,-0.00071,0,0
12.525,2000,0,91.24,0.000002697398,0.000002697398,0.000002697398,0.99999994,0,0,0,0,0,0,0,0,0,0,0,false,false,false,0,2414.24,16.99,-0.0033852346,0.0033906293,0.7070959,0.7071013,0,1669.261,8.531,-0.00071,0,0
12.533334,2000,0,91.24,0.000002697398,0.000002697398,0.000002697398,0.99999994,0,0,0,0,0,0,0,0,0,0,0,false,false,false,0,2428.15,16.99,-0.0033852346,0.0033906293,0.7070959,0.7071013,0,1664.881,8.531,-0.00071,0,0
12.541667,2000,0,91.24,0.000002697398,0.000002697398,0.000002697398,0.99999994,0,0,0,0,0,0,0,0,0,0,0,false,false,false,0,2442.02,16.99,-0.0033852346,0.0033906293,0.7070959,0.7071013,0,1660.501,8.531,-0.00071,0,0
12.55,2000,0,91.24,0.000002697398,0.000002697398,0.000002697398,0.99999994,0,0,0,0,0,0,0,0,0,0,0,false,false,false,0,2455.8599,16.99,-0.0033852346,0.0033906293,0.7070959,0.7071013,0,1656.121,8.531,-0.00071,0,0
12.558333,2000,0,91.24,0.000002697398,0.000002697398,0.000002697398,0.99999994,0,0,0,0,0,0,0,0,0,0,0,false,false,false,0,2469.66,16.99,-0.0033852346,0.0033906293,0.7070959,0.7071013,0,1651.741,8.531,-0.00071,0,0
12.566667,2000,0,91.24,0.000002697398,0.000002697398,0.000002697398,0.99999994,0,0,0,0,0,0,0,0,0,0,0,false,false,false,0,2483.42,16.99,-0.0033852346,0.0033906293,0.7070959,0.7071013,0,1647.361,8.531,-0.00071,0,0
12.575,2000,0,91.24,0.000002697398,0.000002697398,0.000002697398,0.99999994,0,0,0,0,0,0,0,0,0,0,0,false,false,false,0,2497.15,16.99,-0.0033852346,0.0033906293,0.7070959,0.7071013,0,1642.981,8.531,-0.00071,0,0
12.583333,2000,0,91.24,0.000002697398,0.000002697398,0.000002697398,0.99999994,0,0,0,0,0,0,0,0,0,0,0,false,false,false,0,2510.8398,16.99,-0.0033852346,0.0033906293,0.7070959,0.7071013,0,1638.601,8.531,-0.00071,0,0
12.591666,2000,0,91.24,0.000002697398,0.000002697398,0.000002697398,0.99999994,0,0,0,0,0,0,0,0,0,0,0,false,false,false,0,2524.49,16.99,-0.0033852346,0.0033906293,0.7070959,0.7071013,0,1634.221,8.531,-0.00071,0,0
12.6,2000,0,91.24,0.000002697398,0.000002697398,0.000002697398,0.99999994,0,0,0,0,0,0,0,0,0,0,0,false,false,false,0,2538.1099,16.99,-0.0033852346,0.0033906293,0.7070959,0.7071013,0,1629.841,8.531,-0.00071,0,0
12.608334,2000,0,91.24,0.000002697398,0.000002697398,0.000002697398,0.99999994,0,0,0,0,0,0,0,0,0,0,0,false,false,false,0,2551.69,16.99,-0.0033852346,0.0033906293,0.7070959,0.7071013,0,1625.4609,8.531,-0.00071,0,0
12.616667,2000,0,91.24,0.000002697398,0.000002697398,0.000002697398,0.99999994,0,0,0,0,0,0,0,0,0,0,0,false,false,false,0,2565.24,16.99,-0.0033852346,0.0033906293,0.7070959,0.7071013,0,1621.0809,8.531,-0.00071,0,0
12.625,2000,0,91.24,0.000002697398,0.000002697398,0.000002697398,0.99999994,0,0,0,0,0,0,0,0,0,0,0,false,false,false,0,2578.75,16.99,-0.0033852346,0.0033906293,0.7070959,0.7071013,0,1616.7009,8.531,-0.00071,0,0
12.633333,2000,0,91.24,0.000002697398,0.000002697398,0.000002697398,0.99999994,0,0,0,0,0,0,0,0,0,0,0,false,false,false,0,2592.22,16.99,-0.0033852346,0.0033906293,0.7070959,0.7071013,0,1612.3209,8.531,-0.00071,0,0
12.641666,2000,0,91.24,0.000002697398,0.000002697398,0.000002697398,0.99999994,0,0,0,0,0,0,0,0,0,0,0,false,false,false,0,2605.66,16.99,-0.0033852346,0.0033906293,0.7070959,0.7071013,0,1607.9409,8.531,-0.00071,0,0
12.65,2000,0,91.24,0.000002697398,0.000002697398,0.000002697398,0.99999994,0,0,0,0,0,0,0,0,0,0,0,false,false,false,0,2619.06,16.99,-0.0033852346,0.0033906293,0.7070959,0.7071013,0,1603.5609,8.531,-0.00071,0,0
12.658334,2000,0,91.24,0.000002697398,0.000002697398,0.000002697398,0.99999994,0,0,0,0,0,0,0,0,0,0,0,false,false,false,0,2632.42,16.99,-0.0033852346,0.0033906293,0.7070959,0.7071013,0,1599.1809,8.531,-0.00071,0,0
12.666667,2000,0,91.24,0.000002697398,0.000002697398,0.000002697398,0.99999994,0,0,0,0,0,0,0,0,0,0,0,false,false,false,0,2645.75,16.99,-0.0033852346,0.0033906293,0.7070959,0.7071013,0,1594.8009,8.531,-0.00071,0,0
12.675,2000,0,91.24,0.000002697398,0.000002697398,0.000002697398,0.99999994,0,0,0,0,0,0,0,0,0,0,0,false,false,false,0,2659.04,16.99,-0.0033852346,0.0033906293,0.7070959,0.7071013,0,1590.4209,8.531,-0.00071,0,0
12.683333,2000,0,91.24,0.000002697398,0.000002697398,0.000002697398,0.99999994,0,0,0,0,0,0,0,0,0,0,0,false,false,false,0,2672.29,16.99,-0.0033852346,0.0033906293,0.7070959,0.7071013,0,1586.0409,8.531,-0.00071,0,0
12.691667,2000,0,91.24,0.000002697398,0.000002697398,0.000002697398,0.99999994,0,0,0,0,0,0,0,0,0,0,0,false,false,false,0,2685.51,16.99,-0.0033852346,0.0033906293,0.7070959,0.7071013,0,1581.6609,8.531,-0.00071,0,0
12.7,2000,0,91.24,0.000002697398,0.000002697398,0.000002697398,0.99999994,0,0,0,0,0,0,0,0,0,0,0,false,false,false,0,2698.69,16.99,-0.0033852346,0.0033906293,0.7070959,0.7071013,0,1577.2809,8.531,-0.00071,0,0
12.708333,2000,0,91.24,0.000002697398,0.000002697398,0.000002697398,0.99999994,0,0,0,0,0,0,0,0,0,0,0,false,false,false,0,2711.8298,16.99,-0.0033852346,0.0033906293,0.7070959,0.7071013,0,1572.901,8.531,-0.00071,0,0
12.716666,2000,0,91.24,0.000002697398,0.000002697398,0.000002697398,0.99999994,0,0,0,0,0,0,0,0,0,0,0,false,false,false,0,2724.94,16.99,-0.0033852346,0.0033906293,0.7070959,0.7071013,0,1568.521,8.531,-0.00071,0,0
12.725,2000,0,91.24,0.000002697398,0.000002697398,0.000002697398,0.99999994,0,0,0,0,0,0,0,0,0,0,0,false,false,false,0,2738.01,16.99,-0.0033852346,0.0033906293,0.7070959,0.7071013,0,1564.141,8.531,-0.00071,0,0
12.733334,2000,0,91.24,0.000002697398,0.000002697398,0.000002697398,0.99999994,0,0,0,0,0,0,0,0,0,0,0,false,false,false,0,2751.04,16.99,-0.0033852346,0.0033906293,0.7070959,0.7071013,0,1559.761,8.531,-0.00071,0,0
12.741667,2000,0,91.24,0.000002697398,0.000002697398,0.000002697398,0.99999994,0,0,0,0,0,0,0,0,0,0,0,false,false,false,0,2764.04,16.99,-0.0033852346,0.0033906293,0.7070959,0.7071013,0,1555.381,8.531,-0.00071,0,0
12.75,2000,0,91.24,0.000002697398,0.000002697398,0.000002697398,0.99999994,0,0,0,0,0,0,0,0,0,0,0,false,false,false,0,2777,16.99,-0.0033852346,0.0033906293,0.7070959,0.7071013,0,1551.001,8.531,-0.00071,0,0
12.758333,2000,0,91.24,0.000002697398,0.000002697398,0.000002697398,0.99999994,0,0,0,0,0,0,0,0,0,0,0,false,false,false,0,2789.92,16.99,-0.0033852346,0.0033906293,0.7070959,0.7071013,0,1546.621,8.531,-0.00071,0,0
12.766666,2000,0,91.24,0.000002697398,0.000002697398,0.000002697398,0.99999994,0,0,0,0,0,0,0,0,0,0,0,false,false,false,0,2802.81,16.99,-0.0033852346,0.0033906293,0.7070959,0.7071013,0,1542.241,8.531,-0.00071,0,0
12.775,2000,0,91.24,0.000002697398,0.000002697398,0.000002697398,0.99999994,0,0,0,0,0,0,0,0,0,0,0,false,false,false,0,2815.66,16.99,-0.0033852346,0.0033906293,0.7070959,0.7071013,0,1537.861,8.531,-0.00071,0,0
12.783334,2000,0,91.24,0.000002697398,0.000002697398,0.000002697398,0.99999994,0,0,0,0,0,0,0,0,0,0,0,false,false,false,0,2828.48,16.99,-0.0033852346,0.0033906293,0.7070959,0.7071013,0,1533.481,8.531,-0.00071,0,0
12.791667,2000,0,91.24,0.000002697398,0.000002697398,0.000002697398,0.99999994,0,0,0,0,0,0,0,0,0,0,0,false,false,false,0,2841.26,16.99,-0.0033852346,0.0033906293,0.7070959,0.7071013,0,1529.101,8.531,-0.00071,0,0
12.8,2000,0,91.24,0.000002697398,0.000002697398,0.000002697398,0.99999994,0,0,0,0,0,0,0,0,0,0,0,false,false,false,0,2854,16.99,-0.0033852346,0.0033906293,0.7070959,0.7071013,0,1524.721,8.531,-0.00071,0,0
12.808333,2000,0,91.24,0.000002697398,0.000002697398,0.000002697398,0.99999994,0,0,0,0,0,0,0,0,0,0,0,false,false,false,0,2866.71,16.99,-0.0033852346,0.0033906293,0.7070959,0.7071013,0,1520.341,8.531,-0.00071,0,0
12.816667,2000,0,91.24,0.000002697398,0.000002697398,0.000002697398,0.99999994,0,0,0,0,0,0,0,0,0,0,0,false,false,false,0,2879.38,16.99,-0.0033852346,0.0033906293,0.7070959,0.7071013,0,1515.9609,8.531,-0.00071,0,0
12.825,2000,0,91.24,0.000002697398,0.000002697398,0.000002697398,0.99999994,0,0,0,0,0,0,0,0,0,0,0,false,false,false,0,2892.01,16.99,-0.0033852346,0.0033906293,0.7070959,0.7071013,0,1511.5809,8.531,-0.00071,0,0
12.833333,2000,0,91.24,0.000002697398,0.000002697398,0.000002697398,0.99999994,0,0,0,0,0,0,0,0,0,0,0,false,false,false,0,2904.6099,16.99,-0.0033852346,0.0033906293,0.7070959,0.7071013,0,1507.2009,8.531,-0.00071,0,0
12.841666,2000,0,91.24,0.000002697398,0.000002697398,0.000002697398,0.99999994,0,0,0,0,0,0,0,0,0,0,0,false,false,false,0,2917.17,16.99,-0.0033852346,0.0033906293,0.7070959,0.7071013,0,1502.8209,8.531,-0.00071,0,0
12.85,2000,0,91.24,0.000002697398,0.000002697398,0.000002697398,0.99999994,0,0,0,0,0,0,0,0,0,0,0,false,false,false,0,2929.69,16.99,-0.0033852346,0.0033906293,0.7070959,0.7071013,0,1498.4409,8.531,-0.00071,0,0
12.858334,2000,0,91.24,0.000002697398,0.000002697398,0.000002697398,0.99999994,0,0,0,0,0,0,0,0,0,0,0,false,false,false,0,2942.18,16.99,-0.0033852346,0.0033906293,0.7070959,0.7071013,0,1494.0609,8.531,-0.00071,0,0
12.866667,2000,0,91.24,0.000002697398,0.000002697398,0.000002697398,0.99999994,0,0,0,0,0,0,0,0,0,0,0,false,false,false,0,2954.63,16.99,-0.0033852346,0.0033906293,0.7070959,0.7071013,0,1489.6809,8.531,-0.00071,0,0
12.875,2000,0,91.24,0.000002697398,0.000002697398,0.000002697398,0.99999994,0,0,0,0,0,0,0,0,0,0,0,false,false,false,0,2967.04,16.99,-0.0033852346,0.0033906293,0.7070959,0.7071013,0,1485.3009,8.531,-0.00071,0,0
12.883333,2000,0,91.24,0.000002697398,0.000002697398,0.000002697398,0.99999994,0,0,0,0,0,0,0,0,0,0,0,false,false,false,0,2979.42,16.99,-0.0033852346,0.0033906293,0.7070959,0.7071013,0,1480.9209,8.531,-0.00071,0,0
12.891666,2000,0,91.24,0.000002697398,0.000002697398,0.000002697398,0.99999994,0,0,0,0,0,0,0,0,0,0,0,false,false,false,0,2991.76,16.99,-0.0033852346,0.0033906293,0.7070959,0.7071013,0,1476.5409,8.531,-0.00071,0,0
12.9,2000,0,91.24,0.000002697398,0.000002697398,0.000002697398,0.99999994,0,0,0,0,0,0,0,0,0,0,0,false,false,false,0,3004.0598,16.99,-0.0033852346,0.0033906293,0.7070959,0.7071013,0,1472.1609,8.531,-0.00071,0,0
12.908334,2000,0,91.24,0.000002697398,0.000002697398,0.000002697398,0.99999994,0,0,0,0,0,0,0,0,0,0,0,false,false,false,0,3016.3298,16.99,-0.0033852346,0.0033906293,0.7070959,0.7071013,0,1467.7809,8.531,-0.00071,0,0
12.916667,2000,0,91.24,0.000002697398,0.000002697398,0.000002697398,0.99999994,0,0,0,0,0,0,0,0,0,0,0,false,false,false,0,3028.5598,16.99,-0.0033852346,0.0033906293,0.7070959,0.7071013,0,1463.401,8.531,-0.00071,0,0
12.925,2000,0,91.24,0.000002697398,0.000002697398,0.000002697398,0.99999994,0,0,0,0,0,0,0,0,0,0,0,false,false,false,0,3040.75,16.99,-0.0033852346,0.0033906293,0.7070959,0.7071013,0,1459.021,8.531,-0.00071,0,0
12.933333,2000,0,91.24,0.000002697398,0.000002697398,0.000002697398,0.99999994,0,0,0,0,0,0,0,0,0,0,0,false,false,false,0,3052.91,16.99,-0.0033852346,0.0033906293,0.7070959,0.7071013,0,1454.641,8.531,-0.00071,0,0
12.941667,2000,0,91.24,0.000002697398,0.000002697398,0.000002697398,0.99999994,0,0,0,0,0,0,0,0,0,0,0,false,false,false,0,3065.03,16.99,-0.0033852346,0.0033906293,0.7070959,0.7071013,0,1450.261,8.531,-0.00071,0,0
12.95,2000,0,91.24,0.000002697398,0.000002697398,0.000002697398,0.99999994,0,0,0,0,0,0,0,0,0,0,0,false,false,false,0,3077.1199,16.99,-0.0033852346,0.0033906293,0.7070959,0.7071013,0,1445.881,8.531,-0.00071,0,0
12.958333,2000,0,91.24,0.000002697398,0.000002697398,0.000002697398,0.99999994,0,0,0,0,0,0,0,0,0,0,0,false,false,false,0,3089.17,16.99,-0.0033852346,0.0033906293,0.7070959,0.7071013,0,1441.501,8.531,-0.00071,0,0
12.966666,2000,0,91.24,0.000002697398,0.000002697398,0.000002697398,0.99999994,0,0,0,0,0,0,0,0,0,0,0,false,false,false,0,3101.18,16.99,-0.0033852346,0.0033906293,0.7070959,0.7071013,0,1437.121,8.531,-0.00071,0,0
12.975,2000,0,91.24,0.000002697398,0.000002697398,0.000002697398,0.99999994,0,0,0,0,0,0,0,0,0,0,0,false,false,false,0,3113.16,16.99,-0.0033852346,0.0033906293,0.7070959,0.7071013,0,1432.741,8.531,-0.00071,0,0
12.983334,2000,0,91.24,0.000002697398,0.000002697398,0.000002697398,0.99999994,0,0,0,0,0,0,0,0,0,0,0,false,false,false,0,3125.0999,16.99,-0.0033852346,0.0033906293,0.7070959,0.7071013,0,1428.361,8.531,-0.00071,0,0
12.991667,2000,0,91.24,0.000002697398,0.000002697398,0.000002697398,0.99999994,0,0,0,0,0,0,0,0,0,0,0,false,false,false,0,3137,16.99,-0.0033852346,0.0033906293,0.7070959,0.7071013,0,1423.981,8.531,-0.00071,0,0
13,2000,0,91.24,0.000002697398,0.000002697398,0.000002697398,0.99999994,0,0,0,0,0,0,0,0,0,0,0,false,false,false,0,3148.8699,16.99,-0.0033852346,0.0033906293,0.7070959,0.7071013,0,1419.601,8.531,-0.00071,0,0
13.008333,2000,0,91.24,0.000002697398,0.000002697398,0.000002697398,0.99999994,0,0,0,0,0,0,0,0,0,0,0,false,false,false,0,3160.7,16.99,-0.0033852346,0.0033906293,0.7070959,0.7071013,0,1415.221,8.531,-0.00071,0,0
13.016666,2000,0,91.24,0.000002697398,0.000002697398,0.000002697398,0.99999994,0,0,0,0,0,0,0,0,0,0,0,false,false,false,0,3172.49,16.99,-0.0033852346,0.0033906293,0.7070959,0.7071013,0,1410.841,8.531,-0.00071,0,0
13.025,2000,0,91.24,0.000002697398,0.000002697398,0.000002697398,0.99999994,0,0,0,0,0,0,0,0,0,0,0,false,false,false,0,3184.25,16.99,-0.0033852346,0.0033906293,0.7070959,0.7071013,0,1406.4609,8.531,-0.00071,0,0
13.033334,2000,0,91.24,0.000002697398,0.000002697398,0.000002697398,0.99999994,0,0,0,0,0,0,0,0,0,0,0,false,false,false,0,3195.97,16.99,-0.0033852346,0.0033906293,0.7070959,0.7071013,0,1402.0809,8.531,-0.00071,0,0
13.041667,2000,0,91.24,0.000002697398,0.000002697398,0.000002697398,0.99999994,0,0,0,0,0,0,0,0,0,0,0,false,false,false,0,3207.65,16.99,-0.0033852346,0.0033906293,0.7070959,0.7071013,0,1397.7009,8.531,-0.00071,0,0
13.05,2000,0,91.24,0.000002697398,0.000002697398,0.000002697398,0.99999994,0,0,0,0,0,0,0,0,0,0,0,false,false,false,0,3219.3,16.99,-0.0033852346,0.0033906293,0.7070959,0.7071013,0,1393.3209,8.531,-0.00071,0,0
13.058333,2000,0,91.24,0.000002697398,0.000002697398,0.000002697398,0.99999994,0,0,0,0,0,0,0,0,0,0,0,false,false,false,0,3230.91,16.99,-0.0033852346,0.0033906293,0.7070959,0.7071013,0,1388.9409,8.531,-0.00071,0,0
13.066667,2000,0,91.24,0.000002697398,0.000002697398,0.000002697398,0.99999994,0,0,0,0,0,0,0,0,0,0,0,false,false,false,0,3242.48,16.99,-0.0033852346,0.0033906293,0.7070959,0.7071013,0,1384.5609,8.531,-0.00071,0,0
13.075,2000,0,91.24,0.000002697398,0.000002697398,0.000002697398,0.99999994,0,0,0,0,0,0,0,0,0,0,0,false,false,false,0,3254.02,16.99,-0.0033852346,0.0033906293,0.7070959,0.7071013,0,1380.1809,8.531,-0.00071,0,0
13.083333,2000,0,91.24,0.000002697398,0.000002697398,0.000002697398,0.99999994,0,0,0,0,0,0,0,0,0,0,0,false,false,false,0,3265.52,16.99,-0.0033852346,0.0033906293,0.7070959,0.7071013,0,1375.8009,8.531,-0.00071,0,0
13.091666,2000,0,91.24,0.000002697398,0.000002697398,0.000002697398,0.99999994,0,0,0,0,0,0,0,0,0,0,0,false,false,false,0,3276.99,16.99,-0.0033852346,0.0033906293,0.7070959,0.7071013,0,1371.4209,8.531,-0.00071,0,0
13.1,2000,0,91.24,0.000002697398,0.000002697398,0.000002697398,0.99999994,0,0,0,0,0,0,0,0,0,0,0,false,false,false,0,3288.42,16.99,-0.0033852346,0.0033906293,0.7070959,0.7071013,0,1367.0409,8.531,-0.00071,0,0
13.108334,2000,0,91.24,0.000002697398,0.000002697398,0.000002697398,0.99999994,0,0,0,0,0,0,0,0,0,0,0,false,false,false,0,3299.8098,16.99,-0.0033852346,0.0033906293,0.7070959,0.7071013,0,1362.6609,8.531,-0.00071,0,0
13.116667,2000,0,91.24,0.000002697398,0.000002697398,0.000002697398,0.99999994,0,0,0,0,0,0,0,0,0,0,0,false,false,false,0,3311.17,16.99,-0.0033852346,0.0033906293,0.7070959,0.7071013,0,1358.281,8.531,-0.00071,0,0
13.125,2000,0,91.24,0.000002697398,0.000002697398,0.000002697398,0.99999994,0,0,0,0,0,0,0,0,0,0,0,false,false,false,0,3322.49,16.99,-0.0033852346,0.0033906293,0.7070959,0.7071013,0,1353.901,8.531,-0.00071,0,0
13.133333,2000,0,91.24,0.000002697398,0.000002697398,0.000002697398,0.99999994,0,0,0,0,0,0,0,0,0,0,0,false,false,false,0,3333.77,16.99,-0.0033852346,0.0033906293,0.7070959,0.7071013,0,1349.521,8.531,-0.00071,0,0
13.141666,2000,0,91.24,0.000002697398,0.000002697398,0.000002697398,0.99999994,0,0,0,0,0,0,0,0,0,0,0,false,false,false,0,3345.02,16.99,-0.0033852346,0.0033906293,0.7070959,0.7071013,0,1345.141,8.531,-0.00071,0,0
13.15,2000,0,91.24,0.000002697398,0.000002697398,0.000002697398,0.99999994,0,0,0,0,0,0,0,0,0,0,0,false,false,false,0,3356.23,16.99,-0.0033852346,0.0033906293,0.7070959,0.7071013,0,1340.761,8.531,-0.00071,0,0
13.158334,2000,0,91.24,0.000002697398,0.000002697398,0.000002697398,0.99999994,0,0,0,0,0,0,0,0,0,0,0,false,false,false,0,3367.4,16.99,-0.0033852346,0.0033906293,0.7070959,0.7071013,0,1336.381,8.531,-0.00071,0,0
13.166667,2000,0,91.24,0.000002697398,0.000002697398,0.000002697398,0.99999994,0,0,0,0,0,0,0,0,0,0,0,false,false,false,0,3378.54,16.99,-0.0033852346,0.0033906293,0.7070959,0.7071013,0,1332.001,8.531,-0.00071,0,0
13.175,2000,0,91.24,0.000002697398,0.000002697398,0.000002697398,0.99999994,0,0,0,0,0,0,0,0,0,0,0,false,false,false,0,3389.64,16.99,-0.0033852346,0.0033906293,0.7070959,0.7071013,0,1327.621,8.531,-0.00071,0,0
13.183333,2000,0,91.24,0.000002697398,0.000002697398,0.000002697398,0.99999994,0,0,0,0,0,0,0,0,0,0,0,false,false,false,0,3400.7,16.99,-0.0033852346,0.0033906293,0.7070959,0.7071013,0,1323.241,8.531,-0.00071,0,0
13.191667,2000,0,91.24,0.000002697398,0.000002697398,0.000002697398,0.99999994,0,0,0,0,0,0,0,0,0,0,0,false,false,false,0,3411.73,16.99,-0.0033852346,0.0033906293,0.7070959,0.7071013,0,1318.861,8.531,-0.00071,0,0
13.2,2000,0,91.24,0.000002697398,0.000002697398,0.000002697398,0.99999994,0,0,0,0,0,0,0,0,0,0,0,false,false,false,0,3422.72,16.99,-0.0033852346,0.0033906293,0.7070959,0.7071013,0,1314.481,8.531,-0.00071,0,0
13.208333,2000,0,91.24,0.000002697398,0.000002697398,0.000002697398,0.99999994,0,0,0,0,0,0,0,0,0,0,0,false,false,false,0,3433.67,16.99,-0.0033852346,0.0033906293,0.7070959,0.7071013,0,1310.101,8.531,-0.00071,0,0
13.216666,2000,0,91.24,0.000002697398,0.000002697398,0.000002697398,0.99999994,0,0,0,0,0,0,0,0,0,0,0,false,false,false,0,3444.5898,16.99,-0.0033852346,0.0033906293,0.7070959,0.7071013,0,1305.721,8.531,-0.00071,0,0
13.225,2000,0,91.24,0.000002697398,0.000002697398,0.000002697398,0.99999994,0,0,0,0,0,0,0,0,0,0,0,false,false,false,0,3455.47,16.99,-0.0033852346,0.0033906293,0.7070959,0.7071013,0,1301.341,8.531,-0.00071,0,0
13.233334,2000,0,91.24,0.000002697398,0.000002697398,0.000002697398,0.99999994,0,0,0,0,0,0,0,0,0,0,0,false,false,false,0,3466.3098,16.99,-0.0033852346,0.0033906293,0.7070959,0.7071013,0,1296.9609,8.531,-0.00071,0,0
13.241667,2000,0,91.24,0.000002697398,0.000002697398,0.000002697398,0.99999994,0,0,0,0,0,0,0,0,0,0,0,false,false,false,0,3477.1199,16.99,-0.0033852346,0.0033906293,0.7070959,0.7071013,0,1292.5809,8.531,-0.00071,0,0
13.25,2000,0,91.24,0.000002697398,0.000002697398,0.000002697398,0.99999994,0,0,0,0,0,0,0,0,0,0,0,false,false,false,0,3487.89,16.99,-0.0033852346,0.0033906293,0.7070959,0.7071013,0,1288.2009,8.531,-0.00071,0,0
13.258333,2000,0,91.24,0.000002697398,0.000002697398,0.000002697398,0.99999994,0,0,0,0,0,0,0,0,0,0,0,false,false,false,0,3498.6199,16.99,-0.0033852346,0.0033906293,0.7070959,0.7071013,0,1283.8209,8.531,-0.00071,0,0
13.266666,2000,0,91.24,0.000002697398,0.000002697398,0.000002697398,0.99999994,0,0,0,0,0,0,0,0,0,0,0,false,false,false,0,3509.3198,16.99,-0.0033852346,0.0033906293,0.7070959,0.7071013,0,1279.4409,8.531,-0.00071,0,0
13.275,2000,0,91.24,0.000002697398,0.000002697398,0.000002697398,0.99999994,0,0,0,0,0,0,0,0,0,0,0,false,false,false,0,3519.98,16.99,-0.0033852346,0.0033906293,0.7070959,0.7071013,0,1275.0609,8.531,-0.00071,0,0
13.283334,2000,0,91.24,0.000002697398,0.000002697398,0.000002697398,0.99999994,0,0,0,0,0,0,0,0,0,0,0,false,false,false,0,3530.6099,16.99,-0.0033852346,0.0033906293,0.7070959,0.7071013,0,1270.6809,8.531,-0.00071,0,0
13.291667,2000,0,91.24,0.000002697398,0.000002697398,0.000002697398,0.99999994,0,0,0,0,0,0,0,0,0,0,0,false,false,false,0,3541.2,16.99,-0.0033852346,0.0033906293,0.7070959,0.7071013,0,1266.3009,8.531,-0.00071,0,0
13.3,2000,0,91.24,0.000002697398,0.000002697398,0.000002697398,0.99999994,0,0,0,0,0,0,0,0,0,0,0,false,false,false,0,3551.75,16.99,-0.0033852346,0.0033906293,0.7070959,0.7071013,0,1261.9209,8.531,-0.00071,0,0
13.308333,2000,0,91.24,0.000002697398,0.000002697398,0.000002697398,0.99999994,0,0,0,0,0,0,0,0,0,0,0,false,false,false,0,3562.27,16.99,-0.0033852346,0.0033906293,0.7070959,0.7071013,0,1257.5409,8.531,-0.00071,0,0
13.316667,2000,0,91.24,0.000002697398,0.000002697398,0.000002697398,0.99999994,0,0,0,0,0,0,0,0,0,0,0,false,false,false,0,3572.75,16.99,-0.0033852346,0.0033906293,0.7070959,0.7071013,0,1253.1609,8.531,-0.00071,0,0
13.325,2000,0,91.24,0.000002697398,0.000002697398,0.000002697398,0.99999994,0,0,0,0,0,0,0,0,0,0,0,false,false,false,0,3583.19,16.99,-0.0033852346,0.0033906293,0.7070959,0.7071013,0,1248.781,8.531,-0.00071,0,0
13.333333,2000,0,91.24,0.000002697398,0.000002697398,0.000002697398,0.99999994,0,0,0,0,0,0,0,0,0,0,0,false,false,false,0,3593.5999,16.99,-0.0033852346,0.0033906293,0.7070959,0.7071013,0,1244.401,8.531,-0.00071,0,0
13.341666,2000,0,91.24,0.000002697398,0.000002697398,0.000002697398,0.99999994,0,0,0,0,0,0,0,0,0,0,0,false,false,false,0,3603.97,16.99,-0.0033852346,0.0033906293,0.7070959,0.7071013,0,1240.021,8.531,-0.00071,0,0
13.35,2000,0,91.24,0.000002697398,0.000002697398,0.000002697398,0.99999994,0,0,0,0,0,0,0,0,0,0,0,false,false,false,0,3614.2998,16.99,-0.0033852346,0.0033906293,0.7070959,0.7071013,0,1235.641,8.531,-0.00071,0,0
13.358334,2000,0,91.24,0.000002697398,0.000002697398,0.000002697398,0.99999994,0,0,0,0,0,0,0,0,0,0,0,false,false,false,0,3624.5999,16.99,-0.0033852346,0.0033906293,0.7070959,0.7071013,0,1231.261,8.531,-0.00071,0,0
13.366667,2000,0,91.24,0.000002697398,0.000002697398,0.000002697398,0.99999994,0,0,0,0,0,0,0,0,0,0,0,false,false,false,0,3634.8599,16.99,-0.0033852346,0.0033906293,0.7070959,0.7071013,0,1226.881,8.531,-0.00071,0,0
13.375,2000,0,91.24,0.000002697398,0.000002697398,0.000002697398,0.99999994,0,0,0,0,0,0,0,0,0,0,0,false,false,false,0,3645.0798,16.99,-0.0033852346,0.0033906293,0.7070959,0.7071013,0,1222.501,8.531,-0.00071,0,0
13.383333,2000,0,91.24,0.000002697398,0.000002697398,0.000002697398,0.99999994,0,0,0,0,0,0,0,0,0,0,0,false,false,false,0,3655.27,16.99,-0.0033852346,0.0033906293,0.7070959,0.7071013,0,1218.121,8.531,-0.00071,0,0
13.391666,2000,0,91.24,0.000002697398,0.000002697398,0.000002697398,0.99999994,0,0,0,0,0,0,0,0,0,0,0,false,false,false,0,3665.42,16.99,-0.0033852346,0.0033906293,0.7070959,0.7071013,0,1213.741,8.531,-0.00071,0,0
13.4,2000,0,91.24,0.000002697398,0.000002697398,0.000002697398,0.99999994,0,0,0,0,0,0,0,0,0,0,0,false,false,false,0,3675.53,16.99,-0.0033852346,0.0033906293,0.7070959,0.7071013,0,1209.361,8.531,-0.00071,0,0
13.408334,2000,0,91.24,0.000002697398,0.000002697398,0.000002697398,0.99999994,0,0,0,0,0,0,0,0,0,0,0,false,false,false,0,3685.6099,16.99,-0.0033852346,0.0033906293,0.7070959,0.7071013,0,1204.981,8.531,-0.00071,0,0
13.416667,2000,0,91.24,0.000002697398,0.000002697398,0.000002697398,0.99999994,0,0,0,0,0,0,0,0,0,0,0,false,false,false,0,3695.65,16.99,-0.0033852346,0.0033906293,0.7070959,0.7071013,0,1200.601,8.531,-0.00071,0,0
13.425,2000,0,91.24,0.000002697398,0.000002697398,0.000002697398,0.99999994,0,0,0,0,0,0,0,0,0,0,0,false,false,false,0,3705.65,16.99,-0.0033852346,0.0033906293,0.7070959,0.7071013,0,1196.221,8.531,-0.00071,0,0
13.433333,2000,0,91.24,0.000002697398,0.000002697398,0.000002697398,0.99999994,0,0,0,0,0,0,0,0,0,0,0,false,false,false,0,3715.6199,16.99,-0.0033852346,0.0033906293,0.7070959,0.7071013,0,1191.841,8.531,-0.00071,0,0
13.441667,2000,0,91.24,0.000002697398,0.000002697398,0.000002697398,0.99999994,0,0,0,0,0,0,0,0,0,0,0,false,false,false,0,3725.5498,16.99,-0.0033852346,0.0033906293,0.7070959,0.7071013,0,1187.4609,8.531,-0.00071,0,0
13.45,2000,0,91.24,0.000002697398,0.000002697398,0.000002697398,0.99999994,0,0,0,0,0,0,0,0,0,0,0,false,false,false,0,3735.45,16.99,-0.0033852346,0.0033906293,0.7070959,0.7071013,0,1183.0809,8.531,-0.00071,0,0
13.458333,2000,0,91.24,0.000002697398,0.000002697398,0.000002697398,0.99999994,0,0,0,0,0,0,0,0,0,0,0,false,false,false,0,3745.3098,16.99,-0.0033852346,0.0033906293,0.7070959,0.7071013,0,1178.7009,8.531,-0.00071,0,0
13.466666,2000,0,91.24,0.000002697398,0.000002697398,0.000002697398,0.99999994,0,0,0,0,0,0,0,0,0,0,0,false,false,false,0,3755.13,16.99,-0.0033852346,0.0033906293,0.7070959,0.7071013,0,1174.3209,8.531,-0.00071,0,0
13.475,2000,0,91.24,0.000002697398,0.000002697398,0.000002697398,0.99999994,0,0,0,0,0,0,0,0,0,0,0,false,false,false,0,3764.92,16.99,-0.0033852346,0.0033906293,0.7070959,0.7071013,0,1169.9409,8.531,-0.00071,0,0
13.483334,2000,0,91.24,0.000002697398,0.000002697398,0.000002697398,0.99999994,0,0,0,0,0,0,0,0,0,0,0,false,false,false,0,3774.67,16.99,-0.0033852346,0.0033906293,0.7070959,0.7071013,0,1165.5609,8.531,-0.00071,0,0
13.491667,2000,0,91.24,0.000002697398,0.000002697398,0.000002697398,0.99999994,0,0,0,0,0,0,0,0,0,0,0,false,false,false,0,3784.38,16.99,-0.0033852346,0.0033906293,0.7070959,0.7071013,0,1161.1809,8.531,-0.00071,0,0
13.5,2000,0,91.24,0.000002697398,0.000002697398,0.000002697398,0.99999994,0,0,0,0,0,0,0,0,0,0,0,false,false,false,0,3794.0598,16.99,-0.0033852346,0.0033906293,0.7070959,0.7071013,0,1156.8009,8.531,-0.00071,0,0
13.508333,2000,0,91.24,0.000002697398,0.000002697398,0.000002697398,0.99999994,0,0,0,0,0,0,0,0,0,0,0,false,false,false,0,3803.7,16.99,-0.0033852346,0.0033906293,0.7070959,0.7071013,0,1152.4209,8.531,-0.00071,0,0
13.516666,2000,0,91.24,0.000002697398,0.000002697398,0.000002697398,0.99999994,0,0,0,0,0,0,0,0,0,0,0,false,false,false,0,3813.2998,16.99,-0.0033852346,0.0033906293,0.7070959,0.7071013,0,1148.0409,8.531,-0.00071,0,0
13.525,2000,0,91.24,0.000002697398,0.000002697398,0.000002697398,0.99999994,0,0,0,0,0,0,0,0,0,0,0,false,false,false,0,3822.8699,16.99,-0.0033852346,0.0033906293,0.7070959,0.7071013,0,1143.661,8.531,-0.00071,0,0
13.533334,2000,0,91.24,0.000002697398,0.000002697398,0.000002697398,0.99999994,0,0,0,0,0,0,0,0,0,0,0,false,false,false,0,3832.4,16.99,-0.0033852346,0.0033906293,0.7070959,0.7071013,0,1139.281,8.531,-0.00071,0,0
13.541667,2000,0,91.24,0.000002697398,0.000002697398,0.000002697398,0.99999994,0,0,0,0,0,0,0,0,0,0,0,false,false,false,0,3841.89,16.99,-0.0033852346,0.0033906293,0.7070959,0.7071013,0,1134.901,8.531,-0.00071,0,0
13.55,2000,0,91.24,0.000002697398,0.000002697398,0.000002697398,0.99999994,0,0,0,0,0,0,0,0,0,0,0,false,false,false,0,3851.3499,16.99,-0.0033852346,0.0033906293,0.7070959,0.7071013,0,1130.521,8.531,-0.00071,0,0
13.558333,2000,0,91.24,0.000002697398,0.000002697398,0.000002697398,0.99999994,0,0,0,0,0,0,0,0,0,0,0,false,false,false,0,3860.77,16.99,-0.0033852346,0.0033906293,0.7070959,0.7071013,0,1126.141,8.531,-0.00071,0,0
13.566667,2000,0,91.24,0.000002697398,0.000002697398,0.000002697398,0.99999994,0,0,0,0,0,0,0,0,0,0,0,false,false,false,0,3870.15,16.99,-0.0033852346,0.0033906293,0.7070959,0.7071013,0,1121.761,8.531,-0.00071,0,0
13.575,2000,0,91.24,0.000002697398,0.000002697398,0.000002697398,0.99999994,0,0,0,0,0,0,0,0,0,0,0,false,false,false,0,3879.5,16.99,-0.0033852346,0.0033906293,0.7070959,0.7071013,0,1117.381,8.531,-0.00071,0,0
13.583333,2000,0,91.24,0.000002697398,0.000002697398,0.000002697398,0.99999994,0,0,0,0,0,0,0,0,0,0,0,false,false,false,0,3888.8098,16.99,-0.0033852346,0.0033906293,0.7070959,0.7071013,0,1113.001,8.531,-0.00071,0,0
13.591666,2000,0,91.24,0.000002697398,0.000002697398,0.000002697398,0.99999994,0,0,0,0,0,0,0,0,0,0,0,false,false,false,0,3898.0798,16.99,-0.0033852346,0.0033906293,0.7070959,0.7071013,0,1108.621,8.531,-0.00071,0,0
13.6,2000,0,91.24,0.000002697398,0.000002697398,0.000002697398,0.99999994,0,0,0,0,0,0,0,0,0,0,0,false,false,false,0,3907.3198,16.99,-0.0033852346,0.0033906293,0.7070959,0.7071013,0,1104.241,8.531,-0.00071,0,0
13.608334,2000,0,91.24,0.000002697398,0.000002697398,0.000002697398,0.99999994,0,0,0,0,0,0,0,0,0,0,0,false,false,false,0,3916.52,16.99,-0.0033852346,0.0033906293,0.7070959,0.7071013,0,1099.861,8.531,-0.00071,0,0
13.616667,2000,0,91.24,0.000002697398,0.000002697398,0.000002697398,0.99999994,0,0,0,0,0,0,0,0,0,0,0,false,false,false,0,3925.69,16.99,-0.0033852346,0.0033906293,0.7070959,0.7071013,0,1095.481,8.531,-0.00071,0,0
13.625,2000,0,91.24,0.000002697398,0.000002697398,0.000002697398,0.99999994,0,0,0,0,0,0,0,0,0,0,0,false,false,false,0,3934.8198,16.99,-0.0033852346,0.0033906293,0.7070959,0.7071013,0,1091.101,8.531,-0.00071,0,0
13.633333,2000,0,91.24,0.000002697398,0.000002697398,0.000002697398,0.99999994,0,0,0,0,0,0,0,0,0,0,0,false,false,false,0,3943.91,16.99,-0.0033852346,0.0033906293,0.7070959,0.7071013,0,1086.721,8.531,-0.00071,0,0
13.641666,2000,0,91.24,0.000002697398,0.000002697398,0.000002697398,0.99999994,0,0,0,0,0,0,0,0,0,0,0,false,false,false,0,3952.97,16.99,-0.0033852346,0.0033906293,0.7070959,0.7071013,0,1082.341,8.531,-0.00071,0,0
