time,ball_loc_x,ball_loc_y,ball_loc_z,ball_rot_x,ball_rot_y,ball_rot_z,ball_rot_w,ball_vel_x,ball_vel_y,ball_vel_z,ball_ang_x,ball_ang_y,ball_ang_z,player0_throttle,player0_steer,player0_pitch,player0_yaw,player0_roll,player0_jump,player0_boost,player0_handbrake,player0_loc_x,player0_loc_y,player0_loc_z,player0_rot_x,player0_rot_y,player0_rot_z,player0_rot_w,player0_vel_x,player0_vel_y,player0_vel_z,player0_ang_x,player0_ang_y,player0_ang_z
10.833333,2000,0,91.24,0.000002697398,0.000002697398,0.000002697398,0.99999994,0,0,0,0,0,0,0,0,0,0,0,false,false,false,0,0.14999999,17.01,-0.00336905,0.0033798397,0.7071014,0.7070959,0,0.011,8.321,-0.00051,0,0
10.841666,2000,0,91.24,0.000002697398,0.000002697398,0.000002697398,0.99999994,0,0,0,0,0,0,0,0,0,0,0,true,false,false,0,0.17,19.539999,-0.00336905,0.0033798397,0.7071014,0.7070959,0,-0.751,304.001,-0.00071,0,0
10.85,2000,0,91.24,0.000002697398,0.000002697398,0.000002697398,0.99999994,0,0,0,0,0,0,0,0,0,0,0,true,false,false,0,0.16,22.109999,-0.00336905,0.0033798397,0.7071014,0.7070959,0,0.181,308.021,-0.00061,0,0
10.858334,2000,0,91.24,0.000002697398,0.000002697398,0.000002697398,0.99999994,0,0,0,0,0,0,0,0,0,0,0,true,false,false,0,0.16,24.71,-0.00336905,0.0033798397,0.7071014,0.7070959,0,-0.050999995,312.041,-0.00061,0,0
10.866667,2000,0,91.24,0.000002697398,0.000002697398,0.000002697398,0.99999994,0,0,0,0,0,0,0,0,0,0,0,true,false,false,0,0.16,27.34,-0.00336905,0.0033798397,0.7071014,0.7070959,0,0,316.061,-0.00061,0,0
10.875,2000,0,91.24,0.000002697398,0.000002697398,0.000002697398,0.99999994,0,0,0,0,0,0,0,0,0,0,0,true,false,false,0,0.16,30.01,-0.00336905,0.0033798397,0.7071014,0.7070959,0,0,320.081,-0.00061,0,0
10.883333,2000,0,91.24,0.000002697398,0.000002697398,0.000002697398,0.99999994,0,0,0,0,0,0,0,0,0,0,0,true,false,false,0,0.16,32.71,-0.00336905,0.0033798397,0.7071014,0.7070959,0,0.111,324.101,-0.00061,0,0
10.891666,2000,0,91.24,0.000002697398,0.000002697398,0.000002697398,0.99999994,0,0,0,0,0,0,0,0,0,0,0,true,false,false,0,0.16,35.469997,-0.00336905,0.0033798397,0.7071014,0.7070959,0,0.221,330.831,-0.00051,0,0
10.9,2000,0,91.24,0.000002697398,0.000002697398,0.000002697398,0.99999994,0,0,0,0,0,0,0,0,0,0,0,true,false,false,0,0.16,38.28,-0.00336905,0.0033798397,0.7071014,0.7070959,0,0.33099997,337.561,-0.00040999998,0,0
10.908334,2000,0,91.24,0.000002697398,0.000002697398,0.000002697398,0.99999994,0,0,0,0,0,0,0,0,0,0,0,true,false,false,0,0.16,41.149998,-0.00336905,0.0033798397,0.7071014,0.7070959,0,0.44099998,344.291,-0.00040999998,0,0
10.916667,2000,0,91.24,0.000002697398,0.000002697398,0.000002697398,0.99999994,0,0,0,0,0,0,0,0,0,0,0,true,false,false,0,0.16,44.079998,-0.00336905,0.0033798397,0.7071014,0.7070959,0,0.551,351.021,-0.00040999998,0,0
10.925,2000,0,91.24,0.000002697398,0.000002697398,0.000002697398,0.99999994,0,0,0,0,0,0,0,0,0,0,0,true,false,false,0,0.17,47.059998,-0.00336905,0.0033798397,0.7071014,0.7070959,0,0.66099995,357.751,-0.00040999998,0,0
10.933333,2000,0,91.24,0.000002697398,0.000002697398,0.000002697398,0.99999994,0,0,0,0,0,0,0,0,0,0,0,true,false,false,0,0.17999999,50.1,-0.00336905,0.0033798397,0.7071014,0.7070959,0,0.77099997,364.481,-0.00040999998,0,0
10.941667,2000,0,91.24,0.000002697398,0.000002697398,0.000002697398,0.99999994,0,0,0,0,0,0,0,0,0,0,0,true,false,false,0,0.19,53.19,-0.00336905,0.0033798397,0.7071014,0.7070959,0,0.881,371.211,-0.00040999998,0,0
10.95,2000,0,91.24,0.000002697398,0.000002697398,0.000002697398,0.99999994,0,0,0,0,0,0,0,0,0,0,0,true,false,false,0,0.19999999,56.34,-0.00336905,0.0033798397,0.7071014,0.7070959,0,0.99099994,377.941,-0.00040999998,0,0
10.958333,2000,0,91.24,0.000002697398,0.000002697398,0.000002697398,0.99999994,0,0,0,0,0,0,0,0,0,0,0,true,false,false,0,0.21,59.55,-0.00336905,0.0033798397,0.7071014,0.7070959,0,1.1010001,384.671,-0.00040999998,0,0
10.966666,2000,0,91.24,0.000002697398,0.000002697398,0.000002697398,0.99999994,0,0,0,0,0,0,0,0,0,0,0,true,false,false,0,0.22,62.809998,-0.00336905,0.0033798397,0.7071014,0.7070959,0,1.211,391.401,-0.00040999998,0,0
10.975,2000,0,91.24,0.000002697398,0.000002697398,0.000002697398,0.99999994,0,0,0,0,0,0,0,0,0,0,0,true,false,false,0,0.22999999,66.13,-0.00336905,0.0033798397,0.7071014,0.7070959,0,1.321,398.131,-0.00040999998,0,0
10.983334,2000,0,91.24,0.000002697398,0.000002697398,0.000002697398,0.99999994,0,0,0,0,0,0,0,0,0,0,0,true,false,false,0,0.24,69.5,-0.00336905,0.0033798397,0.7071014,0.7070959,0,1.431,404.861,-0.00040999998,0,0
10.991667,2000,0,91.24,0.000002697398,0.000002697398,0.000002697398,0.99999994,0,0,0,0,0,0,0,0,0,0,0,true,false,false,0,0.25,72.93,-0.00336905,0.0033798397,0.7071014,0.7070959,0,1.541,411.591,-0.00040999998,0,0
11,2000,0,91.24,0.000002697398,0.000002697398,0.000002697398,0.99999994,0,0,0,0,0,0,0,0,0,0,0,true,false,false,0,0.26,76.42,-0.00336905,0.0033798397,0.7071014,0.7070959,0,1.651,418.32098,-0.00040999998,0,0
11.008333,2000,0,91.24,0.000002697398,0.000002697398,0.000002697398,0.99999994,0,0,0,0,0,0,0,0,0,0,0,true,false,false,0,0.26999998,79.96,-0.00336905,0.0033798397,0.7071014,0.7070959,0,1.761,425.051,-0.00040999998,0,0
11.016666,2000,0,91.24,0.000002697398,0.000002697398,0.000002697398,0.99999994,0,0,0,0,0,0,0,0,0,0,0,true,false,false,0,0.29,83.56,-0.00336905,0.0033798397,0.7071014,0.7070959,0,1.871,431.781,-0.00040999998,0,0
11.025,2000,0,91.24,0.000002697398,0.000002697398,0.000002697398,0.99999994,0,0,0,0,0,0,0,0,0,0,0,true,false,false,0,0.31,87.21,-0.00336905,0.0033798397,0.7071014,0.7070959,0,1.981,438.511,-0.00040999998,0,0
11.033334,2000,0,91.24,0.000002697398,0.000002697398,0.000002697398,0.99999994,0,0,0,0,0,0,0,0,0,0,0,true,false,false,0,0.32999998,90.92,-0.00336905,0.0033798397,0.7071014,0.7070959,0,2.0909998,445.241,-0.00040999998,0,0
11.041667,2000,0,91.24,0.000002697398,0.000002697398,0.000002697398,0.99999994,0,0,0,0,0,0,0,0,0,0,0,true,false,false,0,0.35,94.59,-0.00336905,0.0033798397,0.7071014,0.7070959,0,2.0909998,439.82098,-0.00040999998,0,0
11.05,2000,0,91.24,0.000002697398,0.000002697398,0.000002697398,0.99999994,0,0,0,0,0,0,0,0,0,0,0,true,false,false,0,0.37,98.21,-0.00336905,0.0033798397,0.7071014,0.7070959,0,2.0909998,434.401,-0.00040999998,0,0
11.058333,2000,0,91.24,0.000002697398,0.000002697398,0.000002697398,0.99999994,0,0,0,0,0,0,0,0,0,0,0,true,false,false,0,0.39,101.78,-0.00336905,0.0033798397,0.7071014,0.7070959,0,2.0909998,428.981,-0.00040999998,0,0
11.066667,2000,0,91.24,0.000002697398,0.000002697398,0.000002697398,0.99999994,0,0,0,0,0,0,0,0,0,0,0,true,false,false,0,0.41,105.31,-0.00336905,0.0033798397,0.7071014,0.7070959,0,2.0909998,423.561,-0.00040999998,0,0
11.075,2000,0,91.24,0.000002697398,0.000002697398,0.000002697398,0.99999994,0,0,0,0,0,0,0,0,0,0,0,true,false,false,0,0.42999998,108.79,-0.00336905,0.0033798397,0.7071014,0.7070959,0,2.0909998,418.141,-0.00040999998,0,0
11.083333,2000,0,91.24,0.000002697398,0.000002697398,0.000002697398,0.99999994,0,0,0,0,0,0,0,0,0,0,0,true,false,false,0,0.45,112.229996,-0.00336905,0.0033798397,0.7071014,0.7070959,0,2.0909998,412.721,-0.00040999998,0,0
11.091666,2000,0,91.24,0.000002697398,0.000002697398,0.000002697398,0.99999994,0,0,0,0,0,0,0,0,0,0,0,true,false,false,0,0.47,115.619995,-0.00336905,0.0033798397,0.7071014,0.7070959,0,2.0909998,407.301,-0.00040999998,0,0
11.1,2000,0,91.24,0.000002697398,0.000002697398,0.000002697398,0.99999994,0,0,0,0,0,0,0,0,0,0,0,true,false,false,0,0.48999998,118.96999,-0.00336905,0.0033798397,0.7071014,0.7070959,0,2.0909998,401.881,-0.00040999998,0,0
11.108334,2000,0,91.24,0.000002697398,0.000002697398,0.000002697398,0.99999994,0,0,0,0,0,0,0,0,0,0,0,true,false,false,0,0.51,122.27,-0.00336905,0.0033798397,0.7071014,0.7070959,0,2.0909998,396.461,-0.00040999998,0,0
11.116667,2000,0,91.24,0.000002697398,0.000002697398,0.000002697398,0.99999994,0,0,0,0,0,0,0,0,0,0,0,true,false,false,0,0.53,125.53,-0.00336905,0.0033798397,0.7071014,0.7070959,0,2.0909998,391.041,-0.00040999998,0,0
11.125,2000,0,91.24,0.000002697398,0.000002697398,0.000002697398,0.99999994,0,0,0,0,0,0,0,0,0,0,0,true,false,false,0,0.55,128.73999,-0.00336905,0.0033798397,0.7071014,0.7070959,0,2.0909998,385.621,-0.00040999998,0,0
11.133333,2000,0,91.24,0.000002697398,0.000002697398,0.000002697398,0.99999994,0,0,0,0,0,0,0,0,0,0,0,true,false,false,0,0.57,131.91,-0.00336905,0.0033798397,0.7071014,0.7070959,0,2.0909998,380.201,-0.00040999998,0,0
11.141666,2000,0,91.24,0.000002697398,0.000002697398,0.000002697398,0.99999994,0,0,0,0,0,0,0,0,0,0,0,true,false,false,0,0.59,135.03,-0.00336905,0.0033798397,0.7071014,0.7070959,0,2.0909998,374.781,-0.00040999998,0,0
11.15,2000,0,91.24,0.000002697398,0.000002697398,0.000002697398,0.99999994,0,0,0,0,0,0,0,0,0,0,0,true,false,false,0,0.61,138.11,-0.00336905,0.0033798397,0.7071014,0.7070959,0,2.0909998,369.361,-0.00040999998,0,0
11.158334,2000,0,91.24,0.000002697398,0.000002697398,0.000002697398,0.99999994,0,0,0,0,0,0,0,0,0,0,0,true,false,false,0,0.63,141.14,-0.00336905,0.0033798397,0.7071014,0.7070959,0,2.0909998,363.941,-0.00040999998,0,0
11.166667,2000,0,91.24,0.000002697398,0.000002697398,0.000002697398,0.99999994,0,0,0,0,0,0,0,0,0,0,0,true,false,false,0,0.65,144.12999,-0.00336905,0.0033798397,0.7071014,0.7070959,0,2.0909998,358.521,-0.00040999998,0,0
11.175,2000,0,91.24,0.000002697398,0.000002697398,0.000002697398,0.99999994,0,0,0,0,0,0,0,0,0,0,0,true,false,false,0,0.66999996,147.06999,-0.00336905,0.0033798397,0.7071014,0.7070959,0,2.0909998,353.101,-0.00040999998,0,0
11.183333,2000,0,91.24,0.000002697398,0.000002697398,0.000002697398,0.99999994,0,0,0,0,0,0,0,0,0,0,0,true,false,false,0,0.69,149.97,-0.00336905,0.0033798397,0.7071014,0.7070959,0,2.0909998,347.681,-0.00040999998,0,0
11.191667,2000,0,91.24,0.000002697398,0.000002697398,0.000002697398,0.99999994,0,0,0,0,0,0,0,0,0,0,0,true,false,false,0,0.71,152.81999,-0.00336905,0.0033798397,0.7071014,0.7070959,0,2.0909998,342.261,-0.00040999998,0,0
11.2,2000,0,91.24,0.000002697398,0.000002697398,0.000002697398,0.99999994,0,0,0,0,0,0,0,0,0,0,0,true,false,false,0,0.72999996,155.62999,-0.00336905,0.0033798397,0.7071014,0.7070959,0,2.0909998,336.841,-0.00040999998,0,0
11.208333,2000,0,91.24,0.000002697398,0.000002697398,0.000002697398,0.99999994,0,0,0,0,0,0,0,0,0,0,0,true,false,false,0,0.75,158.39,-0.00336905,0.0033798397,0.7071014,0.7070959,0,2.0909998,331.421,-0.00040999998,0,0
11.216666,2000,0,91.24,0.000002697398,0.000002697398,0.000002697398,0.99999994,0,0,0,0,0,0,0,0,0,0,0,true,false,false,0,0.77,161.11,-0.00336905,0.0033798397,0.7071014,0.7070959,0,2.0909998,326.001,-0.00040999998,0,0
11.225,2000,0,91.24,0.000002697398,0.000002697398,0.000002697398,0.99999994,0,0,0,0,0,0,0,0,0,0,0,true,false,false,0,0.78999996,163.78,-0.00336905,0.0033798397,0.7071014,0.7070959,0,2.0909998,320.581,-0.00040999998,0,0
11.233334,2000,0,91.24,0.000002697398,0.000002697398,0.000002697398,0.99999994,0,0,0,0,0,0,0,0,0,0,0,true,false,false,0,0.81,166.41,-0.00336905,0.0033798397,0.7071014,0.7070959,0,2.0909998,315.161,-0.00040999998,0,0
11.241667,2000,0,91.24,0.000002697398,0.000002697398,0.000002697398,0.99999994,0,0,0,0,0,0,0,0,0,0,0,true,false,false,0,0.83,168.98999,-0.00336905,0.0033798397,0.7071014,0.7070959,0,2.0909998,309.741,-0.00040999998,0,0
11.25,2000,0,91.24,0.000002697398,0.000002697398,0.000002697398,0.99999994,0,0,0,0,0,0,0,0,0,0,0,true,false,false,0,0.84999996,171.53,-0.00336905,0.0033798397,0.7071014,0.7070959,0,2.0909998,304.321,-0.00040999998,0,0
11.258333,2000,0,91.24,0.000002697398,0.000002697398,0.000002697398,0.99999994,0,0,0,0,0,0,0,0,0,0,0,true,false,false,0,0.87,174.01999,-0.00336905,0.0033798397,0.7071014,0.7070959,0,2.0909998,298.901,-0.00040999998,0,0
11.266666,2000,0,91.24,0.000002697398,0.000002697398,0.000002697398,0.99999994,0,0,0,0,0,0,0,0,0,0,0,true,false,false,0,0.89,176.47,-0.00336905,0.0033798397,0.7071014,0.7070959,0,2.0909998,293.481,-0.00040999998,0,0
11.275,2000,0,91.24,0.000002697398,0.000002697398,0.000002697398,0.99999994,0,0,0,0,0,0,0,0,0,0,0,true,false,false,0,0.90999997,178.87,-0.00336905,0.0033798397,0.7071014,0.7070959,0,2.0909998,288.061,-0.00040999998,0,0
11.283334,2000,0,91.24,0.000002697398,0.000002697398,0.000002697398,0.99999994,0,0,0,0,0,0,0,0,0,0,0,true,false,false,0,0.93,181.23,-0.00336905,0.0033798397,0.7071014,0.7070959,0,2.0909998,282.641,-0.00040999998,0,0
11.291667,2000,0,91.24,0.000002697398,0.000002697398,0.000002697398,0.99999994,0,0,0,0,0,0,0,0,0,0,0,true,false,false,0,0.95,183.54,-0.00336905,0.0033798397,0.7071014,0.7070959,0,2.0909998,277.221,-0.00040999998,0,0
11.3,2000,0,91.24,0.000002697398,0.000002697398,0.000002697398,0.99999994,0,0,0,0,0,0,0,0,0,0,0,true,false,false,0,0.96999997,185.81,-0.00336905,0.0033798397,0.7071014,0.7070959,0,2.0909998,271.801,-0.00040999998,0,0
11.308333,2000,0,91.24,0.000002697398,0.000002697398,0.000002697398,0.99999994,0,0,0,0,0,0,0,0,0,0,0,true,false,false,0,0.98999995,188.03,-0.00336905,0.0033798397,0.7071014,0.7070959,0,2.0909998,266.381,-0.00040999998,0,0
11.316667,2000,0,91.24,0.000002697398,0.000002697398,0.000002697398,0.99999994,0,0,0,0,0,0,0,0,0,0,0,true,false,false,0,1.01,190.2,-0.00336905,0.0033798397,0.7071014,0.7070959,0,2.0909998,260.961,-0.00040999998,0,0
11.325,2000,0,91.24,0.000002697398,0.000002697398,0.000002697398,0.99999994,0,0,0,0,0,0,0,0,0,0,0,true,false,false,0,1.03,192.33,-0.00336905,0.0033798397,0.7071014,0.7070959,0,2.0909998,255.541,-0.00040999998,0,0
11.333333,2000,0,91.24,0.000002697398,0.000002697398,0.000002697398,0.99999994,0,0,0,0,0,0,0,0,0,0,0,true,false,false,0,1.05,194.40999,-0.00336905,0.0033798397,0.7071014,0.7070959,0,2.0909998,250.121,-0.00040999998,0,0
11.341666,2000,0,91.24,0.000002697398,0.000002697398,0.000002697398,0.99999994,0,0,0,0,0,0,0,0,0,0,0,true,false,false,0,1.0699999,196.45,-0.00336905,0.0033798397,0.7071014,0.7070959,0,2.0909998,244.701,-0.00040999998,0,0
11.35,2000,0,91.24,0.000002697398,0.000002697398,0.000002697398,0.99999994,0,0,0,0,0,0,0,0,0,0,0,true,false,false,0,1.09,198.44,-0.00336905,0.0033798397,0.7071014,0.7070959,0,2.0909998,239.281,-0.00040999998,0,0
11.358334,2000,0,91.24,0.000002697398,0.000002697398,0.000002697398,0.99999994,0,0,0,0,0,0,0,0,0,0,0,true,false,false,0,1.11,200.39,-0.00336905,0.0033798397,0.7071014,0.7070959,0,2.0909998,233.86101,-0.00040999998,0,0
11.366667,2000,0,91.24,0.000002697398,0.000002697398,0.000002697398,0.99999994,0,0,0,0,0,0,0,0,0,0,0,true,false,false,0,1.13,202.29,-0.00336905,0.0033798397,0.7071014,0.7070959,0,2.0909998,228.44101,-0.00040999998,0,0
11.375,2000,0,91.24,0.000002697398,0.000002697398,0.000002697398,0.99999994,0,0,0,0,0,0,0,0,0,0,0,true,false,false,0,1.15,204.15,-0.00336905,0.0033798397,0.7071014,0.7070959,0,2.0909998,223.021,-0.00040999998,0,0
11.383333,2000,0,91.24,0.000002697398,0.000002697398,0.000002697398,0.99999994,0,0,0,0,0,0,0,0,0,0,0,true,false,false,0,1.17,205.95999,-0.00336905,0.0033798397,0.7071014,0.7070959,0,2.0909998,217.601,-0.00040999998,0,0
11.391666,2000,0,91.24,0.000002697398,0.000002697398,0.000002697398,0.99999994,0,0,0,0,0,0,0,0,0,0,0,true,false,false,0,1.1899999,207.73,-0.00336905,0.0033798397,0.7071014,0.7070959,0,2.0909998,212.181,-0.00040999998,0,0
11.4,2000,0,91.24,0.000002697398,0.000002697398,0.000002697398,0.99999994,0,0,0,0,0,0,0,0,0,0,0,true,false,false,0,1.2099999,209.45,-0.00336905,0.0033798397,0.7071014,0.7070959,0,2.0909998,206.761,-0.00040999998,0,0
11.408334,2000,0,91.24,0.000002697398,0.000002697398,0.000002697398,0.99999994,0,0,0,0,0,0,0,0,0,0,0,true,false,false,0,1.23,211.12999,-0.00336905,0.0033798397,0.7071014,0.7070959,0,2.0909998,201.341,-0.00040999998,0,0
11.416667,2000,0,91.24,0.000002697398,0.000002697398,0.000002697398,0.99999994,0,0,0,0,0,0,0,0,0,0,0,true,false,false,0,1.25,212.76,-0.00336905,0.0033798397,0.7071014,0.7070959,0,2.0909998,195.921,-0.00040999998,0,0
11.425,2000,0,91.24,0.000002697398,0.000002697398,0.000002697398,0.99999994,0,0,0,0,0,0,0,0,0,0,0,true,false,false,0,1.27,214.34999,-0.00336905,0.0033798397,0.7071014,0.7070959,0,2.0909998,190.501,-0.00040999998,0,0
11.433333,2000,0,91.24,0.000002697398,0.000002697398,0.000002697398,0.99999994,0,0,0,0,0,0,0,0,0,0,0,true,false,false,0,1.29,215.89,-0.00336905,0.0033798397,0.7071014,0.7070959,0,2.0909998,185.08101,-0.00040999998,0,0
11.441667,2000,0,91.24,0.000002697398,0.000002697398,0.000002697398,0.99999994,0,0,0,0,0,0,0,0,0,0,0,true,false,false,0,1.31,217.39,-0.00336905,0.0033798397,0.7071014,0.7070959,0,2.0909998,179.661,-0.00040999998,0,0
11.45,2000,0,91.24,0.000002697398,0.000002697398,0.000002697398,0.99999994,0,0,0,0,0,0,0,0,0,0,0,true,false,false,0,1.3299999,218.84,-0.00336905,0.0033798397,0.7071014,0.7070959,0,2.0909998,174.241,-0.00040999998,0,0
11.458333,2000,0,91.24,0.000002697398,0.000002697398,0.000002697398,0.99999994,0,0,0,0,0,0,0,0,0,0,0,true,false,false,0,1.35,220.25,-0.00336905,0.0033798397,0.7071014,0.7070959,0,2.0909998,168.821,-0.00040999998,0,0
11.466666,2000,0,91.24,0.000002697398,0.000002697398,0.000002697398,0.99999994,0,0,0,0,0,0,0,0,0,0,0,true,false,false,0,1.37,221.61,-0.00336905,0.0033798397,0.7071014,0.7070959,0,2.0909998,163.401,-0.00040999998,0,0
11.475,2000,0,91.24,0.000002697398,0.000002697398,0.000002697398,0.99999994,0,0,0,0,0,0,0,0,0,0,0,true,false,false,0,1.39,222.93,-0.00336905,0.0033798397,0.7071014,0.7070959,0,2.0909998,157.981,-0.00040999998,0,0
11.483334,2000,0,91.24,0.000002697398,0.000002697398,0.000002697398,0.99999994,0,0,0,0,0,0,0,0,0,0,0,true,false,false,0,1.41,224.2,-0.00336905,0.0033798397,0.7071014,0.7070959,0,2.0909998,152.561,-0.00040999998,0,0
11.491667,2000,0,91.24,0.000002697398,0.000002697398,0.000002697398,0.99999994,0,0,0,0,0,0,0,0,0,0,0,true,false,false,0,1.43,225.43,-0.00336905,0.0033798397,0.7071014,0.7070959,0,2.0909998,147.141,-0.00040999998,0,0
11.5,2000,0,91.24,0.000002697398,0.000002697398,0.000002697398,0.99999994,0,0,0,0,0,0,0,0,0,0,0,true,false,false,0,1.4499999,226.61,-0.00336905,0.0033798397,0.7071014,0.7070959,0,2.0909998,141.72101,-0.00040999998,0,0
11.508333,2000,0,91.24,0.000002697398,0.000002697398,0.000002697398,0.99999994,0,0,0,0,0,0,0,0,0,0,0,true,false,false,0,1.4699999,227.75,-0.00336905,0.0033798397,0.7071014,0.7070959,0,2.0909998,136.30101,-0.00040999998,0,0
11.516666,2000,0,91.24,0.000002697398,0.000002697398,0.000002697398,0.99999994,0,0,0,0,0,0,0,0,0,0,0,true,false,false,0,1.49,228.84,-0.00336905,0.0033798397,0.7071014,0.7070959,0,2.0909998,130.881,-0.00040999998,0,0
11.525,2000,0,91.24,0.000002697398,0.000002697398,0.000002697398,0.99999994,0,0,0,0,0,0,0,0,0,0,0,true,false,false,0,1.51,229.89,-0.00336905,0.0033798397,0.7071014,0.7070959,0,2.0909998,125.461,-0.00040999998,0,0
11.533334,2000,0,91.24,0.000002697398,0.000002697398,0.000002697398,0.99999994,0,0,0,0,0,0,0,0,0,0,0,true,false,false,0,1.53,230.89,-0.00336905,0.0033798397,0.7071014,0.7070959,0,2.0909998,120.041,-0.00040999998,0,0
11.541667,2000,0,91.24,0.000002697398,0.000002697398,0.000002697398,0.99999994,0,0,0,0,0,0,0,0,0,0,0,true,false,false,0,1.55,231.84999,-0.00336905,0.0033798397,0.7071014,0.7070959,0,2.0909998,114.620995,-0.00040999998,0,0
11.55,2000,0,91.24,0.000002697398,0.000002697398,0.000002697398,0.99999994,0,0,0,0,0,0,0,0,0,0,0,true,false,false,0,1.5699999,232.76,-0.00336905,0.0033798397,0.7071014,0.7070959,0,2.0909998,109.201,-0.00040999998,0,0
11.558333,2000,0,91.24,0.000002697398,0.000002697398,0.000002697398,0.99999994,0,0,0,0,0,0,0,0,0,0,0,true,false,false,0,1.5899999,233.62,-0.00336905,0.0033798397,0.7071014,0.7070959,0,2.0909998,103.781,-0.00040999998,0,0
11.566667,2000,0,91.24,0.000002697398,0.000002697398,0.000002697398,0.99999994,0,0,0,0,0,0,0,0,0,0,0,true,false,false,0,1.61,234.43999,-0.00336905,0.0033798397,0.7071014,0.7070959,0,2.0909998,98.361,-0.00040999998,0,0
11.575,2000,0,91.24,0.000002697398,0.000002697398,0.000002697398,0.99999994,0,0,0,0,0,0,0,0,0,0,0,true,false,false,0,1.63,235.20999,-0.00336905,0.0033798397,0.7071014,0.7070959,0,2.0909998,92.940994,-0.00040999998,0,0
11.583333,2000,0,91.24,0.000002697398,0.000002697398,0.000002697398,0.99999994,0,0,0,0,0,0,0,0,0,0,0,true,false,false,0,1.65,235.93999,-0.00336905,0.0033798397,0.7071014,0.7070959,0,2.0909998,87.520996,-0.00040999998,0,0
11.591666,2000,0,91.24,0.000002697398,0.000002697398,0.000002697398,0.99999994,0,0,0,0,0,0,0,0,0,0,0,true,false,false,0,1.67,236.62,-0.00336905,0.0033798397,0.7071014,0.7070959,0,2.0909998,82.101,-0.00040999998,0,0
11.6,2000,0,91.24,0.000002697398,0.000002697398,0.000002697398,0.99999994,0,0,0,0,0,0,0,0,0,0,0,true,false,false,0,1.6899999,237.26,-0.00336905,0.0033798397,0.7071014,0.7070959,0,2.0909998,76.681,-0.00040999998,0,0
11.608334,2000,0,91.24,0.000002697398,0.000002697398,0.000002697398,0.99999994,0,0,0,0,0,0,0,0,0,0,0,true,false,false,0,1.7099999,237.84999,-0.00336905,0.0033798397,0.7071014,0.7070959,0,2.0909998,71.261,-0.00040999998,0,0
11.616667,2000,0,91.24,0.000002697398,0.000002697398,0.000002697398,0.99999994,0,0,0,0,0,0,0,0,0,0,0,true,false,false,0,1.73,238.4,-0.00336905,0.0033798397,0.7071014,0.7070959,0,2.0909998,65.840996,-0.00040999998,0,0
11.625,2000,0,91.24,0.000002697398,0.000002697398,0.000002697398,0.99999994,0,0,0,0,0,0,0,0,0,0,0,true,false,false,0,1.75,238.9,-0.00336905,0.0033798397,0.7071014,0.7070959,0,2.0909998,60.420998,-0.00040999998,0,0
11.633333,2000,0,91.24,0.000002697398,0.000002697398,0.000002697398,0.99999994,0,0,0,0,0,0,0,0,0,0,0,true,false,false,0,1.77,239.36,-0.00336905,0.0033798397,0.7071014,0.7070959,0,2.0909998,55.001,-0.00040999998,0,0
11.641666,2000,0,91.24,0.000002697398,0.000002697398,0.000002697398,0.99999994,0,0,0,0,0,0,0,0,0,0,0,true,false,false,0,1.79,239.76999,-0.00336905,0.0033798397,0.7071014,0.7070959,0,2.0909998,49.580997,-0.00040999998,0,0
11.65,2000,0,91.24,0.000002697398,0.000002697398,0.000002697398,0.99999994,0,0,0,0,0,0,0,0,0,0,0,true,false,false,0,1.81,240.14,-0.00336905,0.0033798397,0.7071014,0.7070959,0,2.0909998,44.161,-0.00040999998,0,0
11.658334,2000,0,91.24,0.000002697398,0.000002697398,0.000002697398,0.99999994,0,0,0,0,0,0,0,0,0,0,0,true,false,false,0,1.8299999,240.45999,-0.00336905,0.0033798397,0.7071014,0.7070959,0,2.0909998,38.740997,-0.00040999998,0,0
11.666667,2000,0,91.24,0.000002697398,0.000002697398,0.000002697398,0.99999994,0,0,0,0,0,0,0,0,0,0,0,true,false,false,0,1.8499999,240.73999,-0.00336905,0.0033798397,0.7071014,0.7070959,0,2.0909998,33.321,-0.00040999998,0,0
11.675,2000,0,91.24,0.000002697398,0.000002697398,0.000002697398,0.99999994,0,0,0,0,0,0,0,0,0,0,0,true,false,false,0,1.87,240.97,-0.00336905,0.0033798397,0.7071014,0.7070959,0,2.0909998,27.901,-0.00040999998,0,0
11.683333,2000,0,91.24,0.000002697398,0.000002697398,0.000002697398,0.99999994,0,0,0,0,0,0,0,0,0,0,0,true,false,false,0,1.89,241.15999,-0.00336905,0.0033798397,0.7071014,0.7070959,0,2.0909998,22.480999,-0.00040999998,0,0
11.691667,2000,0,91.24,0.000002697398,0.000002697398,0.000002697398,0.99999994,0,0,0,0,0,0,0,0,0,0,0,true,false,false,0,1.91,241.29999,-0.00336905,0.0033798397,0.7071014,0.7070959,0,2.0909998,17.060999,-0.00040999998,0,0
11.7,2000,0,91.24,0.000002697398,0.000002697398,0.000002697398,0.99999994,0,0,0,0,0,0,0,0,0,0,0,true,false,false,0,1.93,241.4,-0.00336905,0.0033798397,0.7071014,0.7070959,0,2.0909998,11.641,-0.00040999998,0,0
11.708333,2000,0,91.24,0.000002697398,0.000002697398,0.000002697398,0.99999994,0,0,0,0,0,0,0,0,0,0,0,true,false,false,0,1.9499999,241.45,-0.00336905,0.0033798397,0.7071014,0.7070959,0,2.0909998,6.2209997,-0.00040999998,0,0
11.716666,2000,0,91.24,0.000002697398,0.000002697398,0.000002697398,0.99999994,0,0,0,0,0,0,0,0,0,0,0,true,false,false,0,1.9699999,241.45999,-0.00336905,0.0033798397,0.7071014,0.7070959,0,2.0909998,0.80099994,-0.00040999998,0,0
11.725,2000,0,91.24,0.000002697398,0.000002697398,0.000002697398,0.99999994,0,0,0,0,0,0,0,0,0,0,0,true,false,false,0,1.99,241.42,-0.00336905,0.0033798397,0.7071014,0.7070959,0,2.0909998,-4.611,-0.00040999998,0,0
11.733334,2000,0,91.24,0.000002697398,0.000002697398,0.000002697398,0.99999994,0,0,0,0,0,0,0,0,0,0,0,true,false,false,0,2.01,241.34,-0.00336905,0.0033798397,0.7071014,0.7070959,0,2.0909998,-10.021,-0.00040999998,0,0
11.741667,2000,0,91.24,0.000002697398,0.000002697398,0.000002697398,0.99999994,0,0,0,0,0,0,0,0,0,0,0,true,false,false,0,2.03,241.20999,-0.00336905,0.0033798397,0.7071014,0.7070959,0,2.0909998,-15.431,-0.00040999998,0,0
11.75,2000,0,91.24,0.000002697398,0.000002697398,0.000002697398,0.99999994,0,0,0,0,0,0,0,0,0,0,0,true,false,false,0,2.05,241.04,-0.00336905,0.0033798397,0.7071014,0.7070959,0,2.0909998,-20.841,-0.00040999998,0,0
11.758333,2000,0,91.24,0.000002697398,0.000002697398,0.000002697398,0.99999994,0,0,0,0,0,0,0,0,0,0,0,true,false,false,0,2.07,240.81999,-0.00336905,0.0033798397,0.7071014,0.7070959,0,2.0909998,-26.251,-0.00040999998,0,0
11.766666,2000,0,91.24,0.000002697398,0.000002697398,0.000002697398,0.99999994,0,0,0,0,0,0,0,0,0,0,0,true,false,false,0,2.09,240.56,-0.00336905,0.0033798397,0.7071014,0.7070959,0,2.0909998,-31.661,-0.00040999998,0,0
11.775,2000,0,91.24,0.000002697398,0.000002697398,0.000002697398,0.99999994,0,0,0,0,0,0,0,0,0,0,0,true,false,false,0,2.11,240.25,-0.00336905,0.0033798397,0.7071014,0.7070959,0,2.0909998,-37.071,-0.00040999998,0,0
11.783334,2000,0,91.24,0.000002697398,0.000002697398,0.000002697398,0.99999994,0,0,0,0,0,0,0,0,0,0,0,true,false,false,0,2.1299999,239.9,-0.00336905,0.0033798397,0.7071014,0.7070959,0,2.0909998,-42.481,-0.00040999998,0,0
11.791667,2000,0,91.24,0.000002697398,0.000002697398,0.000002697398,0.99999994,0,0,0,0,0,0,0,0,0,0,0,true,false,false,0,2.1499999,239.5,-0.00336905,0.0033798397,0.7071014,0.7070959,0,2.0909998,-47.891,-0.00040999998,0,0
11.8,2000,0,91.24,0.000002697398,0.000002697398,0.000002697398,0.99999994,0,0,0,0,0,0,0,0,0,0,0,true,false,false,0,2.1699998,239.06,-0.00336905,0.0033798397,0.7071014,0.7070959,0,2.0909998,-53.301,-0.00040999998,0,0
11.808333,2000,0,91.24,0.000002697398,0.000002697398,0.000002697398,0.99999994,0,0,0,0,0,0,0,0,0,0,0,true,false,false,0,2.19,238.56999,-0.00336905,0.0033798397,0.7071014,0.7070959,0,2.0909998,-58.711,-0.00040999998,0,0
11.816667,2000,0,91.24,0.000002697398,0.000002697398,0.000002697398,0.99999994,0,0,0,0,0,0,0,0,0,0,0,true,false,false,0,2.21,238.04,-0.00336905,0.0033798397,0.7071014,0.7070959,0,2.0909998,-64.120995,-0.00040999998,0,0
11.825,2000,0,91.24,0.000002697398,0.000002697398,0.000002697398,0.99999994,0,0,0,0,0,0,0,0,0,0,0,true,false,false,0,2.23,237.45999,-0.00336905,0.0033798397,0.7071014,0.7070959,0,2.0909998,-69.531,-0.00040999998,0,0
11.833333,2000,0,91.24,0.000002697398,0.000002697398,0.000002697398,0.99999994,0,0,0,0,0,0,0,0,0,0,0,true,false,false,0,2.25,236.84,-0.00336905,0.0033798397,0.7071014,0.7070959,0,2.0909998,-74.940994,-0.00040999998,0,0
11.841666,2000,0,91.24,0.000002697398,0.000002697398,0.000002697398,0.99999994,0,0,0,0,0,0,0,0,0,0,0,true,false,false,0,2.27,236.17,-0.00336905,0.0033798397,0.7071014,0.7070959,0,2.0909998,-80.351,-0.00040999998,0,0
11.85,2000,0,91.24,0.000002697398,0.000002697398,0.000002697398,0.99999994,0,0,0,0,0,0,0,0,0,0,0,true,false,false,0,2.29,235.45999,-0.00336905,0.0033798397,0.7071014,0.7070959,0,2.0909998,-85.760994,-0.00040999998,0,0
11.858334,2000,0,91.24,0.000002697398,0.000002697398,0.000002697398,0.99999994,0,0,0,0,0,0,0,0,0,0,0,true,false,false,0,2.31,234.7,-0.00336905,0.0033798397,0.7071014,0.7070959,0,2.0909998,-91.171,-0.00040999998,0,0
11.866667,2000,0,91.24,0.000002697398,0.000002697398,0.000002697398,0.99999994,0,0,0,0,0,0,0,0,0,0,0,true,false,false,0,2.33,233.9,-0.00336905,0.0033798397,0.7071014,0.7070959,0,2.0909998,-96.58099,-0.00040999998,0,0
11.875,2000,0,91.24,0.000002697398,0.000002697398,0.000002697398,0.99999994,0,0,0,0,0,0,0,0,0,0,0,true,false,false,0,2.35,233.04999,-0.00336905,0.0033798397,0.7071014,0.7070959,0,2.0909998,-101.991,-0.00040999998,0,0
11.883333,2000,0,91.24,0.000002697398,0.000002697398,0.000002697398,0.99999994,0,0,0,0,0,0,0,0,0,0,0,true,false,false,0,2.37,232.15,-0.00336905,0.0033798397,0.7071014,0.7070959,0,2.0909998,-107.40099,-0.00040999998,0,0
11.891666,2000,0,91.24,0.000002697398,0.000002697398,0.000002697398,0.99999994,0,0,0,0,0,0,0,0,0,0,0,true,false,false,0,2.3899999,231.20999,-0.00336905,0.0033798397,0.7071014,0.7070959,0,2.0909998,-112.811,-0.00040999998,0,0
11.9,2000,0,91.24,0.000002697398,0.000002697398,0.000002697398,0.99999994,0,0,0,0,0,0,0,0,0,0,0,true,false,false,0,2.4099998,230.22,-0.00336905,0.0033798397,0.7071014,0.7070959,0,2.0909998,-118.22099,-0.00040999998,0,0
11.908334,2000,0,91.24,0.000002697398,0.000002697398,0.000002697398,0.99999994,0,0,0,0,0,0,0,0,0,0,0,true,false,false,0,2.4299998,229.19,-0.00336905,0.0033798397,0.7071014,0.7070959,0,2.0909998,-123.631,-0.00040999998,0,0
11.916667,2000,0,91.24,0.000002697398,0.000002697398,0.000002697398,0.99999994,0,0,0,0,0,0,0,0,0,0,0,true,false,false,0,2.45,228.11,-0.00336905,0.0033798397,0.7071014,0.7070959,0,2.0909998,-129.041,-0.00040999998,0,0
11.925,2000,0,91.24,0.000002697398,0.000002697398,0.000002697398,0.99999994,0,0,0,0,0,0,0,0,0,0,0,true,false,false,0,2.47,226.98999,-0.00336905,0.0033798397,0.7071014,0.7070959,0,2.0909998,-134.451,-0.00040999998,0,0
11.933333,2000,0,91.24,0.000002697398,0.000002697398,0.000002697398,0.99999994,0,0,0,0,0,0,0,0,0,0,0,true,false,false,0,2.49,225.81999,-0.00336905,0.0033798397,0.7071014,0.7070959,0,2.0909998,-139.86101,-0.00040999998,0,0
11.941667,2000,0,91.24,0.000002697398,0.000002697398,0.000002697398,0.99999994,0,0,0,0,0,0,0,0,0,0,0,true,false,false,0,2.51,224.61,-0.00336905,0.0033798397,0.7071014,0.7070959,0,2.0909998,-145.27101,-0.00040999998,0,0
11.95,2000,0,91.24,0.000002697398,0.000002697398,0.000002697398,0.99999994,0,0,0,0,0,0,0,0,0,0,0,true,false,false,0,2.53,223.34999,-0.00336905,0.0033798397,0.7071014,0.7070959,0,2.0909998,-150.681,-0.00040999998,0,0
11.958333,2000,0,91.24,0.000002697398,0.000002697398,0.000002697398,0.99999994,0,0,0,0,0,0,0,0,0,0,0,true,false,false,0,2.55,222.04999,-0.00336905,0.0033798397,0.7071014,0.7070959,0,2.0909998,-156.091,-0.00040999998,0,0
11.966666,2000,0,91.24,0.000002697398,0.000002697398,0.000002697398,0.99999994,0,0,0,0,0,0,0,0,0,0,0,true,false,false,0,2.57,220.7,-0.00336905,0.0033798397,0.7071014,0.7070959,0,2.0909998,-161.501,-0.00040999998,0,0
11.975,2000,0,91.24,0.000002697398,0.000002697398,0.000002697398,0.99999994,0,0,0,0,0,0,0,0,0,0,0,true,false,false,0,2.59,219.31,-0.00336905,0.0033798397,0.7071014,0.7070959,0,2.0909998,-166.91101,-0.00040999998,0,0
11.983334,2000,0,91.24,0.000002697398,0.000002697398,0.000002697398,0.99999994,0,0,0,0,0,0,0,0,0,0,0,true,false,false,0,2.61,217.87,-0.00336905,0.0033798397,0.7071014,0.7070959,0,2.0909998,-172.321,-0.00040999998,0,0
11.991667,2000,0,91.24,0.000002697398,0.000002697398,0.000002697398,0.99999994,0,0,0,0,0,0,0,0,0,0,0,true,false,false,0,2.6299999,216.39,-0.00336905,0.0033798397,0.7071014,0.7070959,0,2.0909998,-177.731,-0.00040999998,0,0
12,2000,0,91.24,0.000002697398,0.000002697398,0.000002697398,0.99999994,0,0,0,0,0,0,0,0,0,0,0,true,false,false,0,2.6499999,214.86,-0.00336905,0.0033798397,0.7071014,0.7070959,0,2.0909998,-183.141,-0.00040999998,0,0
12.008333,2000,0,91.24,0.000002697398,0.000002697398,0.000002697398,0.99999994,0,0,0,0,0,0,0,0,0,0,0,true,false,false,0,2.6699998,213.29,-0.00336905,0.0033798397,0.7071014,0.7070959,0,2.0909998,-188.55101,-0.00040999998,0,0
12.016666,2000,0,91.24,0.000002697398,0.000002697398,0.000002697398,0.99999994,0,0,0,0,0,0,0,0,0,0,0,true,false,false,0,2.69,211.67,-0.00336905,0.0033798397,0.7071014,0.7070959,0,2.0909998,-193.961,-0.00040999998,0,0
12.025,2000,0,91.24,0.000002697398,0.000002697398,0.000002697398,0.99999994,0,0,0,0,0,0,0,0,0,0,0,true,false,false,0,2.71,210.01,-0.00336905,0.0033798397,0.7071014,0.7070959,0,2.0909998,-199.371,-0.00040999998,0,0
12.033334,2000,0,91.24,0.000002697398,0.000002697398,0.000002697398,0.99999994,0,0,0,0,0,0,0,0,0,0,0,true,false,false,0,2.73,208.29999,-0.00336905,0.0033798397,0.7071014,0.7070959,0,2.0909998,-204.781,-0.00040999998,0,0
12.041667,2000,0,91.24,0.000002697398,0.000002697398,0.000002697398,0.99999994,0,0,0,0,0,0,0,0,0,0,0,true,false,false,0,2.75,206.54999,-0.00336905,0.0033798397,0.7071014,0.7070959,0,2.0909998,-210.19101,-0.00040999998,0,0
12.05,2000,0,91.24,0.000002697398,0.000002697398,0.000002697398,0.99999994,0,0,0,0,0,0,0,0,0,0,0,true,false,false,0,2.77,204.75,-0.00336905,0.0033798397,0.7071014,0.7070959,0,2.0909998,-215.601,-0.00040999998,0,0
12.058333,2000,0,91.24,0.000002697398,0.000002697398,0.000002697398,0.99999994,0,0,0,0,0,0,0,0,0,0,0,true,false,false,0,2.79,202.90999,-0.00336905,0.0033798397,0.7071014,0.7070959,0,2.0909998,-221.011,-0.00040999998,0,0
12.066667,2000,0,91.24,0.000002697398,0.000002697398,0.000002697398,0.99999994,0,0,0,0,0,0,0,0,0,0,0,true,false,false,0,2.81,201.01999,-0.00336905,0.0033798397,0.7071014,0.7070959,0,2.0909998,-226.421,-0.00040999998,0,0
12.075,2000,0,91.24,0.000002697398,0.000002697398,0.000002697398,0.99999994,0,0,0,0,0,0,0,0,0,0,0,true,false,false,0,2.83,199.09,-0.00336905,0.0033798397,0.7071014,0.7070959,0,2.0909998,-231.83101,-0.00040999998,0,0
12.083333,2000,0,91.24,0.000002697398,0.000002697398,0.000002697398,0.99999994,0,0,0,0,0,0,0,0,0,0,0,true,false,false,0,2.85,197.11,-0.00336905,0.0033798397,0.7071014,0.7070959,0,2.0909998,-237.241,-0.00040999998,0,0
12.091666,2000,0,91.24,0.000002697398,0.000002697398,0.000002697398,0.99999994,0,0,0,0,0,0,0,0,0,0,0,true,false,false,0,2.87,195.09,-0.00336905,0.0033798397,0.7071014,0.7070959,0,2.0909998,-242.651,-0.00040999998,0,0
12.1,2000,0,91.24,0.000002697398,0.000002697398,0.000002697398,0.99999994,0,0,0,0,0,0,0,0,0,0,0,true,false,false,0,2.8899999,193.01999,-0.00336905,0.0033798397,0.7071014,0.7070959,0,2.0909998,-248.061,-0.00040999998,0,0
12.108334,2000,0,91.24,0.000002697398,0.000002697398,0.000002697398,0.99999994,0,0,0,0,0,0,0,0,0,0,0,true,false,false,0,2.9099998,190.90999,-0.00336905,0.0033798397,0.7071014,0.7070959,0,2.0909998,-253.47101,-0.00040999998,0,0
12.116667,2000,0,91.24,0.000002697398,0.000002697398,0.000002697398,0.99999994,0,0,0,0,0,0,0,0,0,0,0,true,false,false,0,2.9299998,188.75,-0.00336905,0.0033798397,0.7071014,0.7070959,0,2.0909998,-258.881,-0.00040999998,0,0
12.125,2000,0,91.24,0.000002697398,0.000002697398,0.000002697398,0.99999994,0,0,0,0,0,0,0,0,0,0,0,true,false,false,0,2.95,186.55,-0.00336905,0.0033798397,0.7071014,0.7070959,0,2.0909998,-264.29102,-0.00040999998,0,0
12.133333,2000,0,91.24,0.000002697398,0.000002697398,0.000002697398,0.99999994,0,0,0,0,0,0,0,0,0,0,0,true,false,false,0,2.97,184.3,-0.00336905,0.0033798397,0.7071014,0.7070959,0,2.0909998,-269.701,-0.00040999998,0,0
12.141666,2000,0,91.24,0.000002697398,0.000002697398,0.000002697398,0.99999994,0,0,0,0,0,0,0,0,0,0,0,true,false,false,0,2.99,182.01,-0.00336905,0.0033798397,0.7071014,0.7070959,0,2.0909998,-275.111,-0.00040999998,0,0
12.15,2000,0,91.24,0.000002697398,0.000002697398,0.000002697398,0.99999994,0,0,0,0,0,0,0,0,0,0,0,true,false,false,0,3.01,179.67,-0.00336905,0.0033798397,0.7071014,0.7070959,0,2.0909998,-280.521,-0.00040999998,0,0
12.158334,2000,0,91.24,0.000002697398,0.000002697398,0.000002697398,0.99999994,0,0,0,0,0,0,0,0,0,0,0,true,false,false,0,3.03,177.29,-0.00336905,0.0033798397,0.7071014,0.7070959,0,2.0909998,-285.931,-0.00040999998,0,0
12.166667,2000,0,91.24,0.000002697398,0.000002697398,0.000002697398,0.99999994,0,0,0,0,0,0,0,0,0,0,0,true,false,false,0,3.05,174.86,-0.00336905,0.0033798397,0.7071014,0.7070959,0,2.0909998,-291.341,-0.00040999998,0,0
12.175,2000,0,91.24,0.000002697398,0.000002697398,0.000002697398,0.99999994,0,0,0,0,0,0,0,0,0,0,0,true,false,false,0,3.07,172.39,-0.00336905,0.0033798397,0.7071014,0.7070959,0,2.0909998,-296.751,-0.00040999998,0,0
12.183333,2000,0,91.24,0.000002697398,0.000002697398,0.000002697398,0.99999994,0,0,0,0,0,0,0,0,0,0,0,true,false,false,0,3.09,169.87,-0.00336905,0.0033798397,0.7071014,0.7070959,0,2.0909998,-302.161,-0.00040999998,0,0
12.191667,2000,0,91.24,0.000002697398,0.000002697398,0.000002697398,0.99999994,0,0,0,0,0,0,0,0,0,0,0,true,false,false,0,3.11,167.31,-0.00336905,0.0033798397,0.7071014,0.7070959,0,2.0909998,-307.571,-0.00040999998,0,0
12.2,2000,0,91.24,0.000002697398,0.000002697398,0.000002697398,0.99999994,0,0,0,0,0,0,0,0,0,0,0,true,false,false,0,3.1299999,164.7,-0.00336905,0.0033798397,0.7071014,0.7070959,0,2.0909998,-312.981,-0.00040999998,0,0
12.208333,2000,0,91.24,0.000002697398,0.000002697398,0.000002697398,0.99999994,0,0,0,0,0,0,0,0,0,0,0,true,false,false,0,3.1499999,162.05,-0.00336905,0.0033798397,0.7071014,0.7070959,0,2.0909998,-318.391,-0.00040999998,0,0
12.216666,2000,0,91.24,0.000002697398,0.000002697398,0.000002697398,0.99999994,0,0,0,0,0,0,0,0,0,0,0,true,false,false,0,3.1699998,159.34999,-0.00336905,0.0033798397,0.7071014,0.7070959,0,2.0909998,-323.801,-0.00040999998,0,0
12.225,2000,0,91.24,0.000002697398,0.000002697398,0.000002697398,0.99999994,0,0,0,0,0,0,0,0,0,0,0,true,false,false,0,3.1899998,156.61,-0.00336905,0.0033798397,0.7071014,0.7070959,0,2.0909998,-329.211,-0.00040999998,0,0
12.233334,2000,0,91.24,0.000002697398,0.000002697398,0.000002697398,0.99999994,0,0,0,0,0,0,0,0,0,0,0,true,false,false,0,3.21,153.81999,-0.00336905,0.0033798397,0.7071014,0.7070959,0,2.0909998,-334.621,-0.00040999998,0,0
12.241667,2000,0,91.24,0.000002697398,0.000002697398,0.000002697398,0.99999994,0,0,0,0,0,0,0,0,0,0,0,true,false,false,0,3.23,150.98999,-0.00336905,0.0033798397,0.7071014,0.7070959,0,2.0909998,-340.031,-0.00040999998,0,0
12.25,2000,0,91.24,0.000002697398,0.000002697398,0.000002697398,0.99999994,0,0,0,0,0,0,0,0,0,0,0,true,false,false,0,3.25,148.11,-0.00336905,0.0033798397,0.7071014,0.7070959,0,2.0909998,-345.441,-0.00040999998,0,0
12.258333,2000,0,91.24,0.000002697398,0.000002697398,0.000002697398,0.99999994,0,0,0,0,0,0,0,0,0,0,0,true,false,false,0,3.27,145.19,-0.00336905,0.0033798397,0.7071014,0.7070959,0,2.0909998,-350.851,-0.00040999998,0,0
12.266666,2000,0,91.24,0.000002697398,0.000002697398,0.000002697398,0.99999994,0,0,0,0,0,0,0,0,0,0,0,true,false,false,0,3.29,142.22,-0.00336905,0.0033798397,0.7071014,0.7070959,0,2.0909998,-356.261,-0.00040999998,0,0
12.275,2000,0,91.24,0.000002697398,0.000002697398,0.000002697398,0.99999994,0,0,0,0,0,0,0,0,0,0,0,true,false,false,0,3.31,139.20999,-0.00336905,0.0033798397,0.7071014,0.7070959,0,2.0909998,-361.671,-0.00040999998,0,0
12.283334,2000,0,91.24,0.000002697398,0.000002697398,0.000002697398,0.99999994,0,0,0,0,0,0,0,0,0,0,0,true,false,false,0,3.33,136.15,-0.00336905,0.0033798397,0.7071014,0.7070959,0,2.0909998,-367.081,-0.00040999998,0,0
12.291667,2000,0,91.24,0.000002697398,0.000002697398,0.000002697398,0.99999994,0,0,0,0,0,0,0,0,0,0,0,true,false,false,0,3.35,133.05,-0.00336905,0.0033798397,0.7071014,0.7070959,0,2.0909998,-372.491,-0.00040999998,0,0
12.3,2000,0,91.24,0.000002697398,0.000002697398,0.000002697398,0.99999994,0,0,0,0,0,0,0,0,0,0,0,true,false,false,0,3.37,129.9,-0.00336905,0.0033798397,0.7071014,0.7070959,0,2.0909998,-377.901,-0.00040999998,0,0
12.308333,2000,0,91.24,0.000002697398,0.000002697398,0.000002697398,0.99999994,0,0,0,0,0,0,0,0,0,0,0,true,false,false,0,3.3899999,126.71,-0.00336905,0.0033798397,0.7071014,0.7070959,0,2.0909998,-383.311,-0.00040999998,0,0
12.316667,2000,0,91.24,0.000002697398,0.000002697398,0.000002697398,0.99999994,0,0,0,0,0,0,0,0,0,0,0,true,false,false,0,3.4099998,123.46999,-0.00336905,0.0033798397,0.7071014,0.7070959,0,2.0909998,-388.721,-0.00040999998,0,0
12.325,2000,0,91.24,0.000002697398,0.000002697398,0.000002697398,0.99999994,0,0,0,0,0,0,0,0,0,0,0,true,false,false,0,3.4299998,120.189995,-0.00336905,0.0033798397,0.7071014,0.7070959,0,2.0909998,-394.131,-0.00040999998,0,0
12.333333,2000,0,91.24,0.000002697398,0.000002697398,0.000002697398,0.99999994,0,0,0,0,0,0,0,0,0,0,0,true,false,false,0,3.4499998,116.86,-0.00336905,0.0033798397,0.7071014,0.7070959,0,2.0909998,-399.541,-0.00040999998,0,0
12.341666,2000,0,91.24,0.000002697398,0.000002697398,0.000002697398,0.99999994,0,0,0,0,0,0,0,0,0,0,0,true,false,false,0,3.47,113.49,-0.00336905,0.0033798397,0.7071014,0.7070959,0,2.0909998,-404.951,-0.00040999998,0,0
12.35,2000,0,91.24,0.000002697398,0.000002697398,0.000002697398,0.99999994,0,0,0,0,0,0,0,0,0,0,0,true,false,false,0,3.49,110.07,-0.00336905,0.0033798397,0.7071014,0.7070959,0,2.0909998,-410.361,-0.00040999998,0,0
12.358334,2000,0,91.24,0.000002697398,0.000002697398,0.000002697398,0.99999994,0,0,0,0,0,0,0,0,0,0,0,true,false,false,0,3.51,106.61,-0.00336905,0.0033798397,0.7071014,0.7070959,0,2.0909998,-415.771,-0.00040999998,0,0
12.366667,2000,0,91.24,0.000002697398,0.000002697398,0.000002697398,0.99999994,0,0,0,0,0,0,0,0,0,0,0,true,false,false,0,3.53,103.1,-0.00336905,0.0033798397,0.7071014,0.7070959,0,2.0909998,-421.181,-0.00040999998,0,0
12.375,2000,0,91.24,0.000002697398,0.000002697398,0.000002697398,0.99999994,0,0,0,0,0,0,0,0,0,0,0,true,false,false,0,3.55,99.549995,-0.00336905,0.0033798397,0.7071014,0.7070959,0,2.0909998,-426.591,-0.00040999998,0,0
12.383333,2000,0,91.24,0.000002697398,0.000002697398,0.000002697398,0.99999994,0,0,0,0,0,0,0,0,0,0,0,true,false,false,0,3.57,95.95,-0.00336905,0.0033798397,0.7071014,0.7070959,0,2.0909998,-432.001,-0.00040999998,0,0
12.391666,2000,0,91.24,0.000002697398,0.000002697398,0.000002697398,0.99999994,0,0,0,0,0,0,0,0,0,0,0,true,false,false,0,3.59,92.299995,-0.00336905,0.0033798397,0.7071014,0.7070959,0,2.0909998,-437.411,-0.00040999998,0,0
12.4,2000,0,91.24,0.000002697398,0.000002697398,0.000002697398,0.99999994,0,0,0,0,0,0,0,0,0,0,0,true,false,false,0,3.61,88.61,-0.00336905,0.0033798397,0.7071014,0.7070959,0,2.0909998,-442.82098,-0.00040999998,0,0
12.408334,2000,0,91.24,0.000002697398,0.000002697398,0.000002697398,0.99999994,0,0,0,0,0,0,0,0,0,0,0,true,false,false,0,3.6299999,84.869995,-0.00336905,0.0033798397,0.7071014,0.7070959,0,2.0909998,-448.231,-0.00040999998,0,0
12.416667,2000,0,91.24,0.000002697398,0.000002697398,0.000002697398,0.99999994,0,0,0,0,0,0,0,0,0,0,0,true,false,false,0,3.6499999,81.09,-0.00336905,0.0033798397,0.7071014,0.7070959,0,2.0909998,-453.641,-0.00040999998,0,0
12.425,2000,0,91.24,0.000002697398,0.000002697398,0.000002697398,0.99999994,0,0,0,0,0,0,0,0,0,0,0,true,false,false,0,3.6699998,77.259995,-0.00336905,0.0033798397,0.7071014,0.7070959,0,2.0909998,-459.051,-0.00040999998,0,0
12.433333,2000,0,91.24,0.000002697398,0.000002697398,0.000002697398,0.99999994,0,0,0,0,0,0,0,0,0,0,0,true,false,false,0,3.6899998,73.39,-0.00336905,0.0033798397,0.7071014,0.7070959,0,2.0909998,-464.461,-0.00040999998,0,0
12.441667,2000,0,91.24,0.000002697398,0.000002697398,0.000002697398,0.99999994,0,0,0,0,0,0,0,0,0,0,0,true,false,false,0,3.7099998,69.47,-0.00336905,0.0033798397,0.7071014,0.7070959,0,2.0909998,-469.871,-0.00040999998,0,0
12.45,2000,0,91.24,0.000002697398,0.000002697398,0.000002697398,0.99999994,0,0,0,0,0,0,0,0,0,0,0,true,false,false,0,3.73,65.51,-0.00336905,0.0033798397,0.7071014,0.7070959,0,2.0909998,-475.281,-0.00040999998,0,0
12.458333,2000,0,91.24,0.000002697398,0.000002697398,0.000002697398,0.99999994,0,0,0,0,0,0,0,0,0,0,0,true,false,false,0,3.75,61.5,-0.00336905,0.0033798397,0.7071014,0.7070959,0,2.0909998,-480.691,-0.00040999998,0,0
12.466666,2000,0,91.24,0.000002697398,0.000002697398,0.000002697398,0.99999994,0,0,0,0,0,0,0,0,0,0,0,true,false,false,0,3.77,57.449997,-0.00336905,0.0033798397,0.7071014,0.7070959,0,2.0909998,-486.10098,-0.00040999998,0,0
12.475,2000,0,91.24,0.000002697398,0.000002697398,0.000002697398,0.99999994,0,0,0,0,0,0,0,0,0,0,0,true,false,false,0,3.79,53.35,-0.00336905,0.0033798397,0.7071014,0.7070959,0,2.0909998,-491.511,-0.00040999998,0,0
12.483334,2000,0,91.24,0.000002697398,0.000002697398,0.000002697398,0.99999994,0,0,0,0,0,0,0,0,0,0,0,true,false,false,0,3.81,49.21,-0.00336905,0.0033798397,0.7071014,0.7070959,0,2.0909998,-496.921,-0.00040999998,0,0
12.491667,2000,0,91.24,0.000002697398,0.000002697398,0.000002697398,0.99999994,0,0,0,0,0,0,0,0,0,0,0,true,false,false,0,3.83,45.02,-0.00336905,0.0033798397,0.7071014,0.7070959,0,2.0909998,-502.331,-0.00040999998,0,0
12.5,2000,0,91.24,0.000002697398,0.000002697398,0.000002697398,0.99999994,0,0,0,0,0,0,0,0,0,0,0,true,false,false,0,3.85,40.79,-0.00336905,0.0033798397,0.7071014,0.7070959,0,2.0909998,-507.741,-0.00040999998,0,0
12.508333,2000,0,91.24,0.000002697398,0.000002697398,0.000002697398,0.99999994,0,0,0,0,0,0,0,0,0,0,0,true,false,false,0,3.87,36.51,-0.00336905,0.0033798397,0.7071014,0.7070959,0,2.0909998,-513.15094,-0.00040999998,0,0
12.516666,2000,0,91.24,0.000002697398,0.000002697398,0.000002697398,0.99999994,0,0,0,0,0,0,0,0,0,0,0,true,false,false,0,3.8899999,32.19,-0.00336905,0.0033798397,0.7071014,0.7070959,0,2.0909998,-518.561,-0.00040999998,0,0
12.525,2000,0,91.24,0.000002697398,0.000002697398,0.000002697398,0.99999994,0,0,0,0,0,0,0,0,0,0,0,true,false,false,0,3.9099998,27.82,-0.00336905,0.0033798397,0.7071014,0.7070959,0,-0.53099996,-451.671,-0.014109999,0,0
12.533334,2000,0,91.24,0.000002697398,0.000002697398,0.000002697398,0.99999994,0,0,0,0,0,0,0,0,0,0,0,true,false,false,0,3.9099998,23.99,-0.0034122085,0.0034229981,0.707101,0.7070959,0,0.561,-384.881,-0.02181,0,0
12.541667,2000,0,91.24,0.000002697398,0.000002697398,0.000002697398,0.99999994,0,0,0,0,0,0,0,0,0,0,0,true,false,false,0,3.9099998,20.71,-0.0034769461,0.0034877358,0.7071004,0.7070959,0,0.42099997,-318.361,-0.02491,0,0
12.55,2000,0,91.24,0.000002697398,0.000002697398,0.000002697398,0.99999994,0,0,0,0,0,0,0,0,0,0,0,true,false,false,0,3.9099998,17.99,-0.0035524734,0.0035632628,0.7070996,0.7070959,0,0.45099998,-254.341,-0.02441,0,0
12.558333,2000,0,91.24,0.000002697398,0.000002697398,0.000002697398,0.99999994,0,0,0,0,0,0,0,0,0,0,0,true,false,false,0,3.9099998,15.799999,-0.0036226052,0.0036333948,0.7070989,0.70709586,0,0.36099997,-114.58099,0.19961,0,0
12.566667,2000,0,91.24,0.000002697398,0.000002697398,0.000002697398,0.99999994,0,0,0,0,0,0,0,0,0,0,0,true,false,false,0,3.9099998,14.78,-0.0030345728,0.0030453624,0.7070991,0.7071013,0,-3.8209999,-37.571,0.16381,-0.00010999999,0
12.575,2000,0,91.24,0.000002697398,0.000002697398,0.000002697398,0.99999994,0,0,0,0,0,0,0,0,0,0,0,true,false,false,0,3.8799999,14.4,-0.002554436,0.0025598307,0.7071013,0.70710295,0,-1.971,3.5709999,0.08461,-0.00010999999,0
12.583333,2000,0,91.24,0.000002697398,0.000002697398,0.000002697398,0.99999994,0,0,0,0,0,0,0,0,0,0,0,true,false,false,0,3.86,14.36,-0.0023062753,0.00231167,0.7071013,0.7071046,0,-1.011,24.351,0.02051,-0.00010999999,0
12.591666,2000,0,91.24,0.000002697398,0.000002697398,0.000002697398,0.99999994,0,0,0,0,0,0,0,0,0,0,0,true,false,false,0,3.85,14.5,-0.0022469326,0.0022523273,0.7071013,0.707105,0,-0.100999996,31.671,-0.02251,0,0
12.6,2000,0,91.24,0.000002697398,0.000002697398,0.000002697398,0.99999994,0,0,0,0,0,0,0,0,0,0,0,true,false,false,0,3.85,14.7,-0.00231167,0.002317065,0.7071013,0.70710456,0,0.44099998,33.531,-0.02891,0,0
12.608334,2000,0,91.24,0.000002697398,0.000002697398,0.000002697398,0.99999994,0,0,0,0,0,0,0,0,0,0,0,true,false,false,0,3.85,14.91,-0.0023979868,0.0024033815,0.7071013,0.707104,0,0.42099997,33.871,-0.03121,0,0
12.616667,2000,0,91.24,0.000002697398,0.000002697398,0.000002697398,0.99999994,0,0,0,0,0,0,0,0,0,0,0,true,false,false,0,3.85,15.12,-0.0024896984,0.0024950933,0.7071013,0.7071034,0,0.48099998,33.211,-0.03101,0,0
12.625,2000,0,91.24,0.000002697398,0.000002697398,0.000002697398,0.99999994,0,0,0,0,0,0,0,0,0,0,0,true,false,false,0,3.85,15.33,-0.0025814099,0.0025868048,0.7071013,0.7071027,0,0.471,31.921,-0.02951,0,0
12.633333,2000,0,91.24,0.000002697398,0.000002697398,0.000002697398,0.99999994,0,0,0,0,0,0,0,0,0,0,0,true,false,false,0,3.85,15.53,-0.0026677267,0.0026731214,0.7071013,0.70710206,0,0.45099998,30.230999,-0.02731,0,0
12.641666,2000,0,91.24,0.000002697398,0.000002697398,0.000002697398,0.99999994,0,0,0,0,0,0,0,0,0,0,0,true,false,false,0,3.85,15.71,-0.0027486486,0.0027540433,0.7071013,0.70710146,0,0.42099997,28.331,-0.02481,0,0
12.65,2000,0,91.24,0.000002697398,0.000002697398,0.000002697398,0.99999994,0,0,0,0,0,0,0,0,0,0,0,true,false,false,0,3.85,15.88,-0.0028241756,0.0028295706,0.7071013,0.70710087,0,0.38099998,26.380999,-0.02231,0,0
12.658334,2000,0,91.24,0.000002697398,0.000002697398,0.000002697398,0.99999994,0,0,0,0,0,0,0,0,0,0,0,true,false,false,0,3.85,16.029999,-0.0028889133,0.0028943082,0.70710033,0.7071013,0,0.35099998,24.440998,-0.01991,0,0
12.666667,2000,0,91.24,0.000002697398,0.000002697398,0.000002697398,0.99999994,0,0,0,0,0,0,0,0,0,0,0,true,false,false,0,3.85,16.17,-0.002948256,0.002953651,0.7071013,0.70709985,0,0.311,22.591,-0.01771,0,0
12.675,2000,0,91.24,0.000002697398,0.000002697398,0.000002697398,0.99999994,0,0,0,0,0,0,0,0,0,0,0,true,false,false,0,3.85,16.289999,-0.003002204,0.003007599,0.7070994,0.7071013,0,0.281,20.831,-0.015609999,0,0
12.683333,2000,0,91.24,0.000002697398,0.000002697398,0.000002697398,0.99999994,0,0,0,0,0,0,0,0,0,0,0,true,false,false,0,3.85,16.4,-0.003050757,0.003056152,0.7071013,0.70709896,0,0.241,19.220999,-0.01371,0,0
12.691667,2000,0,91.24,0.000002697398,0.000002697398,0.000002697398,0.99999994,0,0,0,0,0,0,0,0,0,0,0,true,false,false,0,3.85,16.49,-0.003088521,0.0030939158,0.70709866,0.70710135,0,0.221,17.751,-0.01201,0,0
12.7,2000,0,91.24,0.000002697398,0.000002697398,0.000002697398,0.99999994,0,0,0,0,0,0,0,0,0,0,0,true,false,false,0,3.85,16.57,-0.0031262843,0.0031316793,0.7070959,0.70710367,0,0.191,16.441,-0.010609999,0,0
12.708333,2000,0,91.24,0.000002697398,0.000002697398,0.000002697398,0.99999994,0,0,0,0,0,0,0,0,0,0,0,true,false,false,0,3.85,16.64,-0.0031586532,0.0031640478,0.7070959,0.70710343,0,0.171,15.281,-0.00931,0,0
12.716666,2000,0,91.24,0.000002697398,0.000002697398,0.000002697398,0.99999994,0,0,0,0,0,0,0,0,0,0,0,true,false,false,0,3.85,16.699999,-0.003185627,0.003191022,0.7070959,0.70710313,0,0.151,14.261,-0.00821,0,0
12.725,2000,0,91.24,0.000002697398,0.000002697398,0.000002697398,0.99999994,0,0,0,0,0,0,0,0,0,0,0,true,false,false,0,3.85,16.75,-0.0032072063,0.0032126012,0.7070959,0.70710295,0,0.131,13.361,-0.00721,0,0
12.733334,2000,0,91.24,0.000002697398,0.000002697398,0.000002697398,0.99999994,0,0,0,0,0,0,0,0,0,0,0,true,false,false,0,3.85,16.789999,-0.0032287855,0.0032341804,0.7070959,0.7071028,0,0.111,12.581,-0.00641,0,0
12.741667,2000,0,91.24,0.000002697398,0.000002697398,0.000002697398,0.99999994,0,0,0,0,0,0,0,0,0,0,0,true,false,false,0,3.85,16.83,-0.0032449698,0.0032557594,0.7070959,0.7071026,0,0.100999996,11.9210005,-0.00561,0,0
12.75,2000,0,91.24,0.000002697398,0.000002697398,0.000002697398,0.99999994,0,0,0,0,0,0,0,0,0,0,0,true,false,false,0,3.85,16.859999,-0.0032611543,0.003271944,0.7070959,0.7071024,0,0.091,11.341001,-0.00491,0,0
12.758333,2000,0,91.24,0.000002697398,0.000002697398,0.000002697398,0.99999994,0,0,0,0,0,0,0,0,0,0,0,true,false,false,0,3.85,16.89,-0.0032773386,0.0032881282,0.7070959,0.7071023,0,0.081,10.851,-0.0043099998,0,0
12.766666,2000,0,91.24,0.000002697398,0.000002697398,0.000002697398,0.99999994,0,0,0,0,0,0,0,0,0,0,0,true,false,false,0,3.85,16.91,-0.0032881284,0.003298918,0.707096,0.70710224,0,0.071,10.411,-0.00381,0,0
12.775,2000,0,91.24,0.000002697398,0.000002697398,0.000002697398,0.99999994,0,0,0,0,0,0,0,0,0,0,0,true,false,false,0,3.85,16.93,-0.0032989178,0.0033097074,0.7070959,0.70710206,0,0.060999997,10.051001,-0.00341,0,0
12.783334,2000,0,91.24,0.000002697398,0.000002697398,0.000002697398,0.99999994,0,0,0,0,0,0,0,0,0,0,0,true,false,false,0,3.85,16.949999,-0.0033097074,0.003320497,0.7070959,0.707102,0,0.050999995,9.741,-0.00301,0,0
12.791667,2000,0,91.24,0.000002697398,0.000002697398,0.000002697398,0.99999994,0,0,0,0,0,0,0,0,0,0,0,true,false,false,0,3.85,16.96,-0.003320497,0.0033312866,0.7070959,0.7071019,0,0.050999995,9.461,-0.00271,0,0
12.8,2000,0,91.24,0.000002697398,0.000002697398,0.000002697398,0.99999994,0,0,0,0,0,0,0,0,0,0,0,true,false,false,0,3.85,16.97,-0.003325892,0.0033366815,0.7070959,0.7071018,0,0.040999997,9.241,-0.0023100001,0,0
12.808333,2000,0,91.24,0.000002697398,0.000002697398,0.000002697398,0.99999994,0,0,0,0,0,0,0,0,0,0,0,true,false,false,0,3.85,16.98,-0.0033312866,0.0033420762,0.7070959,0.7071018,0,0.031,9.061,-0.00211,0,0
12.816667,2000,0,91.24,0.000002697398,0.000002697398,0.000002697398,0.99999994,0,0,0,0,0,0,0,0,0,0,0,true,false,false,0,3.85,16.99,-0.0033366818,0.0033474711,0.707096,0.70710176,0,0.031,8.911,-0.0019099999,0,0
12.825,2000,0,91.24,0.000002697398,0.000002697398,0.000002697398,0.99999994,0,0,0,0,0,0,0,0,0,0,0,true,false,false,0,3.85,17,-0.0033420762,0.0033528658,0.7070959,0.7071017,0,0.031,8.771,-0.0017099999,0,0
12.833333,2000,0,91.24,0.000002697398,0.000002697398,0.000002697398,0.99999994,0,0,0,0,0,0,0,0,0,0,0,true,false,false,0,3.85,17.01,-0.003347471,0.0033582605,0.7070959,0.70710164,0,0.021,8.641,-0.00151,0,0
12.841666,2000,0,91.24,0.000002697398,0.000002697398,0.000002697398,0.99999994,0,0,0,0,0,0,0,0,0,0,0,true,false,false,0,3.85,17.01,-0.0033528658,0.0033636554,0.7070959,0.7071016,0,0.021,8.521,-0.00131,0,0
12.85,2000,0,91.24,0.000002697398,0.000002697398,0.000002697398,0.99999994,0,0,0,0,0,0,0,0,0,0,0,true,false,false,0,3.85,17.01,-0.0033582605,0.00336905,0.7070959,0.7071016,0,0.021,8.441,-0.00111,0,0
12.858334,2000,0,91.24,0.000002697398,0.000002697398,0.000002697398,0.99999994,0,0,0,0,0,0,0,0,0,0,0,true,false,false,0,3.85,17.01,-0.0033636554,0.003374445,0.7070959,0.70710146,0,0.011,8.391,-0.0010099999,0,0
12.866667,2000,0,91.24,0.000002697398,0.000002697398,0.000002697398,0.99999994,0,0,0,0,0,0,0,0,0,0,0,true,false,false,0,3.85,17.01,-0.00336905,0.0033798397,0.7070959,0.7071014,0,0.011,8.361,-0.00081,0,0
12.875,2000,0,91.24,0.000002697398,0.000002697398,0.000002697398,0.99999994,0,0,0,0,0,0,0,0,0,0,0,true,false,false,0,3.85,17.01,-0.00336905,0.0033798397,0.7070959,0.7071014,0,0.011,8.341001,-0.00061,0,0
12.883333,2000,0,91.24,0.000002697398,0.000002697398,0.000002697398,0.99999994,0,0,0,0,0,0,0,0,0,0,0,true,false,false,0,3.85,17.01,-0.00336905,0.0033798397,0.7070959,0.7071014,0,0.011,8.331,-0.00051,0,0
12.891666,2000,0,91.24,0.000002697398,0.000002697398,0.000002697398,0.99999994,0,0,0,0,0,0,0,0,0,0,0,true,false,false,0,3.85,17.01,-0.00336905,0.0033798397,0.7070959,0.7071014,0,0,8.321,-0.00051,0,0
