time,ball_loc_x,ball_loc_y,ball_loc_z,ball_rot_x,ball_rot_y,ball_rot_z,ball_rot_w,ball_vel_x,ball_vel_y,ball_vel_z,ball_ang_x,ball_ang_y,ball_ang_z,player0_throttle,player0_steer,player0_pitch,player0_yaw,player0_roll,player0_jump,player0_boost,player0_handbrake,player0_loc_x,player0_loc_y,player0_loc_z,player0_rot_x,player0_rot_y,player0_rot_z,player0_rot_w,player0_vel_x,player0_vel_y,player0_vel_z,player0_ang_x,player0_ang_y,player0_ang_z
92.90833,2000,0,91.24,0.000002697398,0.000002697398,0.000002697398,0.99999994,0,0,0,0,0,0,0.7007874,0,0,0,0,false,false,false,0,-4680.4,17.01,-0.0033474711,0.0033474711,0.7071125,0.7070852,-0.011,703.71094,8.321,-0.00061,0,0
92.916664,2000,0,91.24,0.000002697398,0.000002697398,0.000002697398,0.99999994,0,0,0,0,0,0,1,1,0,0,0,false,false,true,0,-4674.53,17.01,-0.0033474711,0.0033474711,0.7071125,0.7070852,-13.841001,707.22095,8.351,-0.00051,0.00351,0.37931
92.925,2000,0,91.24,0.000002697398,0.000002697398,0.000002697398,0.99999994,0,0,0,0,0,0,1,1,0,0,0,false,false,true,-0.12,-4668.64,17.01,-0.0033420762,0.0033528658,0.7082274,0.7059684,-23.890999,711.59094,8.361,-0.00051,0.00471,0.64891
92.933334,2000,0,91.24,0.000002697398,0.000002697398,0.000002697398,0.99999994,0,0,0,0,0,0,1,1,0,0,0,false,false,true,-0.32,-4662.71,17.01,-0.0033366815,0.0033582605,0.7101312,0.7040533,-33.051,716.04095,8.361,-0.00051,0.00491,0.88131
92.941666,2000,0,91.24,0.000002697398,0.000002697398,0.000002697398,0.99999994,0,0,0,0,0,0,1,1,0,0,0,false,false,true,-0.59999996,-4656.7397,17.01,-0.0033366815,0.0033636554,0.71271044,0.7014422,-41.621,720.501,8.361,-0.00051,0.00461,1.08171
92.95,2000,0,91.24,0.000002697398,0.000002697398,0.000002697398,0.99999994,0,0,0,0,0,0,1,1,0,0,0,false,false,true,-0.95,-4650.7397,17.01,-0.0033420762,0.0033636554,0.71586597,0.6982215,-49.830997,724.90094,8.361,-0.00051,0.00391,1.25501
92.958336,2000,0,91.24,0.000002697398,0.000002697398,0.000002697398,0.99999994,0,0,0,0,0,0,1,1,0,0,0,false,false,true,-1.37,-4644.6997,17.01,-0.003347471,0.0033582605,0.71950924,0.6944666,-57.850998,729.201,8.361,-0.00051,0.00311,1.40531
92.96667,2000,0,91.24,0.000002697398,0.000002697398,0.000002697398,0.99999994,0,0,0,0,0,0,1,1,0,0,0,false,false,true,-1.8499999,-4638.62,17.01,-0.0033582605,0.003347471,0.7235625,0.69024247,-65.800995,733.35095,8.361,-0.00051,0.0023100001,1.53641
92.975,2000,0,91.24,0.000002697398,0.000002697398,0.000002697398,0.99999994,0,0,0,0,0,0,1,1,0,0,0,false,false,true,-2.3999999,-4632.51,17.01,-0.0033744453,0.0033366818,0.7279652,0.68559766,-73.741,737.33093,8.361,-0.00051,0.0016099999,1.65131
92.98333,2000,0,91.24,0.000002697398,0.000002697398,0.000002697398,0.99999994,0,0,0,0,0,0,1,1,0,0,0,false,false,true,-3.01,-4626.37,17.01,-0.0033960242,0.003320497,0.7326629,0.680575,-81.711,741.10095,8.361,-0.00040999998,0.00091,1.75271
92.99167,2000,0,91.24,0.000002697398,0.000002697398,0.000002697398,0.99999994,0,0,0,0,0,0,1,1,0,0,0,false,false,true,-3.6899998,-4620.19,17.01,-0.0034176037,0.003298918,0.7376127,0.67520726,-89.741,744.65094,8.351,-0.00030999997,0.00030999997,1.84271
93,2000,0,91.24,0.000002697398,0.000002697398,0.000002697398,0.99999994,0,0,0,0,0,0,1,1,0,0,0,false,false,true,-4.44,-4613.98,17.01,-0.0034445773,0.003271944,0.74277294,0.6695264,-97.821,747.96094,8.351,-0.00030999997,-0.00010999999,1.92301
93.00833,2000,0,91.24,0.000002697398,0.000002697398,0.000002697398,0.99999994,0,0,0,0,0,0,1,1,0,0,0,false,false,true,-5.2599998,-4607.75,17.01,-0.0034715512,0.0032449698,0.74811286,0.6635544,-105.931,751.03094,8.351,-0.00030999997,-0.00040999998,1.9952099
93.01667,2000,0,91.24,0.000002697398,0.000002697398,0.000002697398,0.99999994,0,0,0,0,0,0,1,1,0,0,0,false,false,true,-6.14,-4601.4897,17.01,-0.0034985254,0.0032179959,0.753603,0.6573126,-114.041,753.85095,8.351,-0.00021,-0.00061,2.06041
93.025,2000,0,91.24,0.000002697398,0.000002697398,0.000002697398,0.99999994,0,0,0,0,0,0,1,1,0,0,0,false,false,true,-7.0899997,-4595.21,17.01,-0.0035308942,0.003185627,0.7592195,0.65081716,-122.111,756.43097,8.351,-0.00021,-0.00081,2.11961
93.03333,2000,0,91.24,0.000002697398,0.000002697398,0.000002697398,0.99999994,0,0,0,0,0,0,1,1,0,0,0,false,false,true,-8.11,-4588.9097,17.01,-0.0035632628,0.0031532582,0.7649395,0.64408445,-130.101,758.78094,8.351,-0.00010999999,-0.0010099999,2.17351
93.041664,2000,0,91.24,0.000002697398,0.000002697398,0.000002697398,0.99999994,0,0,0,0,0,0,1,1,0,0,0,false,false,true,-9.19,-4582.59,17.01,-0.0035956316,0.0031208897,0.7707411,0.63713056,-137.951,760.92096,8.351,-0.00010999999,-0.00111,2.22271
93.05,2000,0,91.24,0.000002697398,0.000002697398,0.000002697398,0.99999994,0,0,0,0,0,0,1,1,0,0,0,false,false,true,-10.34,-4576.25,17.01,-0.0036280004,0.003083126,0.7766078,0.62996626,-145.61101,762.871,8.351,0,-0.0012099999,2.2678099
93.058334,2000,0,91.24,0.000002697398,0.000002697398,0.000002697398,0.99999994,0,0,0,0,0,0,1,1,0,0,0,false,false,true,-11.55,-4569.89,17.01,-0.0036603694,0.0030453627,0.7825239,0.62260234,-153.001,764.66095,8.341001,0,-0.0012099999,2.30911
93.066666,2000,0,91.24,0.000002697398,0.000002697398,0.000002697398,0.99999994,0,0,0,0,0,0,1,1,0,0,0,false,false,true,-12.83,-4563.52,17.01,-0.003692738,0.003007599,0.78847814,0.6150442,-160.061,766.33093,8.341001,0,-0.0012099999,2.34691
93.075,2000,0,91.24,0.000002697398,0.000002697398,0.000002697398,0.99999994,0,0,0,0,0,0,1,1,0,0,0,false,false,true,-14.16,-4557.13,17.01,-0.0037251068,0.0029698352,0.79445624,0.60730255,-166.72101,767.93097,8.341001,0,-0.0012099999,2.38141
93.083336,2000,0,91.24,0.000002697398,0.000002697398,0.000002697398,0.99999994,0,0,0,0,0,0,1,1,0,0,0,false,false,true,-15.549999,-4550.73,17.01,-0.0037574756,0.0029320717,0.80044407,0.59938836,-172.901,769.511,8.341001,0,-0.0012099999,2.4128098
93.09167,2000,0,91.24,0.000002697398,0.000002697398,0.000002697398,0.99999994,0,0,0,0,0,0,1,1,0,0,0,false,false,true,-16.99,-4544.32,17.01,-0.0037898438,0.002888913,0.80642843,0.5913123,-178.521,771.131,8.341001,0,-0.0012099999,2.44131
93.1,2000,0,91.24,0.000002697398,0.000002697398,0.000002697398,0.99999994,0,0,0,0,0,0,1,1,0,0,0,false,false,true,-18.48,-4537.89,17.01,-0.003822213,0.0028457548,0.8124008,0.5830798,-183.501,772.86096,8.331,0,-0.0012099999,2.46681
93.10833,2000,0,91.24,0.000002697398,0.000002697398,0.000002697398,0.99999994,0,0,0,0,0,0,1,1,0,0,0,false,false,true,-20.01,-4531.4497,17.01,-0.0038545819,0.0028025967,0.81835276,0.5746963,-187.751,774.79095,8.331,0,-0.0012099999,2.48951
93.11667,2000,0,91.24,0.000002697398,0.000002697398,0.000002697398,0.99999994,0,0,0,0,0,0,1,1,0,0,0,false,false,true,-21.57,-4524.9897,17.01,-0.003886951,0.0027594385,0.82426924,0.56617796,-192.19101,776.58093,8.331,0,-0.00111,2.51191
93.125,2000,0,91.24,0.000002697398,0.000002697398,0.000002697398,0.99999994,0,0,0,0,0,0,1,1,0,0,0,false,false,true,-23.17,-4518.52,17.01,-0.0039193192,0.0027162798,0.83015025,0.5575192,-196.821,778.22095,8.331,0,-0.0010099999,2.5341098
93.13333,2000,0,91.24,0.000002697398,0.000002697398,0.000002697398,0.99999994,0,0,0,0,0,0,1,1,0,0,0,false,false,true,-24.81,-4512.03,17.01,-0.003951688,0.0026731214,0.8359923,0.5487203,-201.631,779.701,8.331,0,-0.00091,2.55611
93.14167,2000,0,91.24,0.000002697398,0.000002697398,0.000002697398,0.99999994,0,0,0,0,0,0,1,1,0,0,0,false,false,true,-26.49,-4505.53,17.01,-0.003984057,0.002629963,0.8417884,0.5397864,-206.61101,781.02094,8.331,0.00010999999,-0.00081,2.57791
93.15,2000,0,91.24,0.000002697398,0.000002697398,0.000002697398,0.99999994,0,0,0,0,0,0,1,1,0,0,0,false,false,true,-28.21,-4499.02,17.01,-0.004016426,0.002586805,0.8475385,0.5307124,-211.761,782.18097,8.331,0.00010999999,-0.00071,2.59951
93.15833,2000,0,91.24,0.000002697398,0.000002697398,0.000002697398,0.99999994,0,0,0,0,0,0,1,1,0,0,0,false,false,true,-29.97,-4492.5,17.01,-0.0040487945,0.0025436464,0.85323566,0.52150345,-217.061,783.17096,8.331,0.00021,-0.00061,2.62091
93.166664,2000,0,91.24,0.000002697398,0.000002697398,0.000002697398,0.99999994,0,0,0,0,0,0,1,1,0,0,0,false,false,true,-31.779999,-4485.9697,17.01,-0.0040757684,0.0024950933,0.85888016,0.51215416,-222.521,783.98096,8.331,0.00030999997,-0.00051,2.6421099
93.175,2000,0,91.24,0.000002697398,0.000002697398,0.000002697398,0.99999994,0,0,0,0,0,0,1,1,0,0,0,false,false,true,-33.63,-4479.44,17.01,-0.0041027423,0.00244654,0.86446506,0.5026701,-228.121,784.61096,8.331,0.00030999997,-0.00051,2.66311
93.183334,2000,0,91.24,0.000002697398,0.000002697398,0.000002697398,0.99999994,0,0,0,0,0,0,1,1,0,0,0,false,false,true,-35.53,-4472.9,17.01,-0.0041297157,0.0023979866,0.8699901,0.49304572,-233.86101,785.061,8.331,0.00030999997,-0.00051,2.68391
93.191666,2000,0,91.24,0.000002697398,0.000002697398,0.000002697398,0.99999994,0,0,0,0,0,0,1,1,0,0,0,false,false,true,-37.48,-4466.36,17.01,-0.0041566906,0.002349434,0.8754491,0.48328662,-239.731,785.321,8.331,0.00021,-0.00040999998,2.70451
93.2,2000,0,91.24,0.000002697398,0.000002697398,0.000002697398,0.99999994,0,0,0,0,0,0,1,1,0,0,0,false,false,true,-39.48,-4459.82,17.01,-0.0041836645,0.0023008804,0.88083863,0.47339243,-245.731,785.3909,8.331,0.00021,-0.00040999998,2.72491
93.208336,2000,0,91.24,0.000002697398,0.000002697398,0.000002697398,0.99999994,0,0,0,0,0,0,1,1,0,0,0,false,false,true,-41.53,-4453.27,17.01,-0.0042106383,0.0022523273,0.88615537,0.4633635,-251.841,785.27094,8.331,0.00021,-0.00040999998,2.74521
93.21667,2000,0,91.24,0.000002697398,0.000002697398,0.000002697398,0.99999994,0,0,0,0,0,0,1,1,0,0,0,false,false,true,-43.629997,-4446.73,17.01,-0.004237612,0.002203774,0.89139605,0.45319965,-258.061,784.951,8.331,0.00021,-0.00030999997,2.76531
93.225,2000,0,91.24,0.000002697398,0.000002697398,0.000002697398,0.99999994,0,0,0,0,0,0,1,1,0,0,0,false,false,true,-45.78,-4440.19,17.01,-0.004264586,0.002155221,0.89655775,0.44290096,-264.381,784.43097,8.331,0.00021,-0.00030999997,2.78521
93.23333,2000,0,91.24,0.000002697398,0.000002697398,0.000002697398,0.99999994,0,0,0,0,0,0,1,1,0,0,0,false,false,true,-47.98,-4433.65,17.01,-0.00429156,0.0021066677,0.90163684,0.43246743,-270.801,783.71094,8.331,0.00021,-0.00021,2.80491
93.24167,2000,0,91.24,0.000002697398,0.000002697398,0.000002697398,0.99999994,0,0,0,0,0,0,1,1,0,0,0,false,false,true,-50.239998,-4427.12,17.01,-0.0043185344,0.0020527202,0.9066302,0.42189896,-277.311,782.79095,8.331,0.00021,-0.00021,2.8245099
93.25,2000,0,91.24,0.000002697398,0.000002697398,0.000002697398,0.99999994,0,0,0,0,0,0,1,1,0,0,0,false,false,true,-52.55,-4420.6,17.01,-0.004340113,0.001998772,0.9115321,0.41120106,-283.901,781.66095,8.331,0.00021,-0.00010999999,2.84391
93.25833,2000,0,91.24,0.000002697398,0.000002697398,0.000002697398,0.99999994,0,0,0,0,0,0,1,1,0,0,0,false,false,true,-54.92,-4414.09,17.01,-0.004361692,0.0019448238,0.9163394,0.40037358,-290.561,780.321,8.331,0.00021,-0.00010999999,2.8631098
93.26667,2000,0,91.24,0.000002697398,0.000002697398,0.000002697398,0.99999994,0,0,0,0,0,0,1,1,0,0,0,false,false,true,-57.34,-4407.59,17.01,-0.0043832716,0.0018908761,0.9210515,0.3894114,-297.281,778.78094,8.331,0.00010999999,-0.00010999999,2.88221
93.275,2000,0,91.24,0.000002697398,0.000002697398,0.000002697398,0.99999994,0,0,0,0,0,0,1,1,0,0,0,false,false,true,-59.82,-4401.1,17.01,-0.0044048512,0.0018369282,0.9256605,0.37832502,-304.061,777.03094,8.331,0.00010999999,-0.00010999999,2.90111
93.28333,2000,0,91.24,0.000002697398,0.000002697398,0.000002697398,0.99999994,0,0,0,0,0,0,1,1,0,0,0,false,false,true,-62.35,-4394.62,17.01,-0.00442643,0.0017829802,0.9301655,0.3671092,-310.891,775.071,8.331,0.00010999999,-0.00010999999,2.91981
93.291664,2000,0,91.24,0.000002697398,0.000002697398,0.000002697398,0.99999994,0,0,0,0,0,0,1,1,0,0,0,false,false,true,-64.939995,-4388.1597,17.01,-0.004448009,0.0017290321,0.93456364,0.35576388,-317.771,772.90094,8.331,0.00010999999,-0.00010999999,2.93841
93.3,2000,0,91.24,0.000002697398,0.000002697398,0.000002697398,0.99999994,0,0,0,0,0,0,1,1,0,0,0,false,false,true,-67.59,-4381.7197,17.01,-0.0044695884,0.0016750842,0.9388495,0.34429455,-324.681,770.52094,8.331,0.00010999999,-0.00010999999,2.95681
93.308334,2000,0,91.24,0.000002697398,0.000002697398,0.000002697398,0.99999994,0,0,0,0,0,0,1,1,0,0,0,false,false,true,-70.299995,-4375.3,17.01,-0.0044911676,0.0016211362,0.9430202,0.33270103,-331.621,767.93097,8.331,0.00010999999,-0.00010999999,2.97511
93.316666,2000,0,91.24,0.000002697398,0.000002697398,0.000002697398,0.99999994,0,0,0,0,0,0,1,1,0,0,0,false,false,true,-73.06,-4368.9,17.01,-0.004512747,0.0015671883,0.9470727,0.32098353,-338.591,765.131,8.331,0.00010999999,-0.00010999999,2.9932098
93.325,2000,0,91.24,0.000002697398,0.000002697398,0.000002697398,0.99999994,0,0,0,0,0,0,1,1,0,0,0,false,false,true,-75.88,-4362.52,17.01,-0.004534326,0.0015078455,0.9510021,0.30914727,-345.571,762.121,8.331,0.00010999999,0,3.01121
93.333336,2000,0,91.24,0.000002697398,0.000002697398,0.000002697398,0.99999994,0,0,0,0,0,0,1,1,0,0,0,false,false,true,-78.759995,-4356.17,17.01,-0.00455051,0.0014485026,0.95480555,0.29719228,-352.561,758.90094,8.331,0.00010999999,0,3.0290098
93.34167,2000,0,91.24,0.000002697398,0.000002697398,0.000002697398,0.99999994,0,0,0,0,0,0,1,1,0,0,0,false,false,true,-81.7,-4349.85,17.01,-0.0045666946,0.0013891599,0.95848024,0.28511876,-359.551,755.48096,8.331,0.00010999999,0,3.04671
93.35,2000,0,91.24,0.000002697398,0.000002697398,0.000002697398,0.99999994,0,0,0,0,0,0,1,1,0,0,0,false,false,true,-84.7,-4343.55,17.01,-0.004582879,0.0013298172,0.962023,0.27292645,-366.541,751.85095,8.331,0.00010999999,0,3.06421
93.35833,2000,0,91.24,0.000002697398,0.000002697398,0.000002697398,0.99999994,0,0,0,0,0,0,1,1,0,0,0,false,false,true,-87.75,-4337.28,17.01,-0.0045990637,0.0012704745,0.96542937,0.2606209,-373.521,748.02094,8.331,0.00010999999,0,3.08161
93.36667,2000,0,91.24,0.000002697398,0.000002697398,0.000002697398,0.99999994,0,0,0,0,0,0,1,1,0,0,0,false,false,true,-90.86,-4331.05,17.01,-0.004615248,0.0012111317,0.9686965,0.24820201,-380.481,743.99097,8.331,0.00010999999,0,3.09881
93.375,2000,0,91.24,0.000002697398,0.000002697398,0.000002697398,0.99999994,0,0,0,0,0,0,1,1,0,0,0,false,false,true,-94.03,-4324.85,17.01,-0.004631432,0.0011517889,0.97182,0.23567526,-387.421,739.761,8.331,0.00010999999,0,3.11591
93.38333,2000,0,91.24,0.000002697398,0.000002697398,0.000002697398,0.99999994,0,0,0,0,0,0,1,1,0,0,0,false,false,true,-97.259995,-4318.69,17.01,-0.0046476168,0.0010924462,0.9747974,0.2230406,-394.331,735.33093,8.331,0.00010999999,0,3.1328099
93.39167,2000,0,91.24,0.000002697398,0.000002697398,0.000002697398,0.99999994,0,0,0,0,0,0,1,1,0,0,0,false,false,true,-100.549995,-4312.56,17.01,-0.004663801,0.0010331033,0.9776255,0.21029806,-401.211,730.71094,8.331,0.00010999999,0,3.14961
93.4,2000,0,91.24,0.000002697398,0.000002697398,0.000002697398,0.99999994,0,0,0,0,0,0,1,1,0,0,0,false,false,true,-103.89,-4306.4697,17.01,-0.0046745907,0.00097376073,0.98030066,0.19745299,-408.051,725.8909,8.331,0.00010999999,0,3.1663098
93.40833,2000,0,91.24,0.000002697398,0.000002697398,0.000002697398,0.99999994,0,0,0,0,0,0,1,1,0,0,0,false,false,true,-107.29,-4300.42,17.01,-0.0046853805,0.00090902316,0.98281986,0.1845054,-414.85098,720.8909,8.331,0.00010999999,0,3.1828098
93.416664,2000,0,91.24,0.000002697398,0.000002697398,0.000002697398,0.99999994,0,0,0,0,0,0,1,1,0,0,0,false,false,true,-110.75,-4294.4097,17.01,-0.00469617,0.0008442856,0.98518026,0.17145538,-421.60098,715.701,8.331,0.00010999999,0,3.19921
93.425,2000,0,91.24,0.000002697398,0.000002697398,0.000002697398,0.99999994,0,0,0,0,0,0,1,1,0,0,0,false,false,true,-114.259995,-4288.4497,17.01,-0.0047069597,0.000779548,0.9873782,0.15830818,-428.301,710.321,8.331,0.00010999999,0,3.21551
93.433334,2000,0,91.24,0.000002697398,0.000002697398,0.000002697398,0.99999994,0,0,0,0,0,0,1,1,0,0,0,false,false,true,-117.829994,-4282.53,17.01,-0.0047177495,0.00071481057,0.98941076,0.14506397,-434.941,704.761,8.331,0,0,3.2316098
93.441666,2000,0,91.24,0.000002697398,0.000002697398,0.000002697398,0.99999994,0,0,0,0,0,0,1,1,0,0,0,false,false,true,-121.45,-4276.6597,17.01,-0.0047285384,0.00065007294,0.99127436,0.13172793,-441.521,699.03094,8.331,0,0,3.2476099
93.45,2000,0,91.24,0.000002697398,0.000002697398,0.000002697398,0.99999994,0,0,0,0,0,0,1,1,0,0,0,false,false,true,-125.13,-4270.83,17.01,-0.004739328,0.0005853353,0.99296623,0.11830019,-448.041,693.121,8.331,0,0,3.26351
93.458336,2000,0,91.24,0.000002697398,0.000002697398,0.000002697398,0.99999994,0,0,0,0,0,0,1,1,0,0,0,false,false,true,-128.86,-4265.05,17.01,-0.004744723,0.0005205978,0.99448323,0.10478625,-454.491,687.04095,8.331,0,0.00010999999,3.27931
93.46667,2000,0,91.24,0.000002697398,0.000002697398,0.000002697398,0.99999994,0,0,0,0,0,0,1,1,0,0,0,false,false,true,-132.65,-4259.32,17.01,-0.004750117,0.00045586022,0.9958223,0.09118587,-460.861,680.79095,8.331,0,0.00010999999,3.29491
93.475,2000,0,91.24,0.000002697398,0.000002697398,0.000002697398,0.99999994,0,0,0,0,0,0,1,1,0,0,0,false,false,true,-136.48999,-4253.65,17.01,-0.0047555123,0.00039112268,0.9969804,0.077504665,-467.161,674.381,8.331,0,0.00010999999,3.31041
93.48333,2000,0,91.24,0.000002697398,0.000002697398,0.000002697398,0.99999994,0,0,0,0,0,0,1,1,0,0,0,false,false,true,-140.37999,-4248.03,17.01,-0.004760908,0.0003263852,0.9979546,0.06374787,-473.38098,667.80096,8.331,0,0.00010999999,3.32581
93.49167,2000,0,91.24,0.000002697398,0.000002697398,0.000002697398,0.99999994,0,0,0,0,0,0,1,1,0,0,0,false,false,true,-144.31999,-4242.46,17.01,-0.004766302,0.0002616476,0.998742,0.04991552,-479.521,661.061,8.331,0,0.00010999999,3.34111
93.5,2000,0,91.24,0.000002697398,0.000002697398,0.000002697398,0.99999994,0,0,0,0,0,0,1,1,0,0,0,false,false,true,-148.31999,-4236.9497,17.01,-0.0047716973,0.00019691007,0.99934006,0.03600774,-485.581,654.17096,8.331,0,0.00010999999,3.35631
93.50833,2000,0,91.24,0.000002697398,0.000002697398,0.000002697398,0.99999994,0,0,0,0,0,0,1,1,0,0,0,false,false,true,-152.37,-4231.5,17.01,-0.0047716973,0.00013217251,0.9997459,0.022029735,-491.551,647.131,8.331,0,0.00010999999,3.37141
93.51667,2000,0,91.24,0.000002697398,0.000002697398,0.000002697398,0.99999994,0,0,0,0,0,0,1,1,0,0,0,false,false,true,-156.47,-4226.11,17.01,-0.0047716973,0.00006743496,0.9999567,0.007981601,-497.441,639.941,8.331,0,0.00010999999,3.38641
93.525,2000,0,91.24,0.000002697398,0.000002697398,0.000002697398,0.99999994,0,0,0,0,0,0,1,1,0,0,0,false,false,true,-160.62,-4220.78,17.01,-0.004771697,0.000002697398,0.9999698,-0.006125833,-503.241,632.60095,8.331,0,0.00010999999,3.40131
93.53333,2000,0,91.24,0.000002697398,0.000002697398,0.000002697398,0.99999994,0,0,0,0,0,0,1,1,0,0,0,false,false,true,-164.81,-4215.51,17.01,-0.0047716964,-0.00006743494,0.99978244,-0.020298002,-508.951,625.11096,8.331,0,0.00010999999,3.41611
93.541664,2000,0,91.24,0.000002697398,0.000002697398,0.000002697398,0.99999994,0,0,0,0,0,0,1,1,0,0,0,false,false,true,-169.05,-4210.3,17.01,-0.0047716973,-0.00013756732,0.99939245,-0.034524128,-514.571,617.48096,8.331,0,0.00010999999,3.4307098
93.55,2000,0,91.24,0.000002697398,0.000002697398,0.000002697398,0.99999994,0,0,0,0,0,0,1,1,0,0,0,false,false,true,-173.34,-4205.15,17.01,-0.0047663026,-0.00020769966,0.99879694,-0.048804194,-520.09094,609.71094,8.331,0,0.00021,3.44521
93.558334,2000,0,91.24,0.000002697398,0.000002697398,0.000002697398,0.99999994,0,0,0,0,0,0,1,1,0,0,0,false,false,true,-177.67,-4200.07,17.01,-0.004760907,-0.00027783198,0.99799323,-0.06313824,-525.52094,601.80096,8.331,0,0.00021,3.45961
93.566666,2000,0,91.24,0.000002697398,0.000002697398,0.000002697398,0.99999994,0,0,0,0,0,0,1,1,0,0,0,false,false,true,-182.05,-4195.05,17.01,-0.004755513,-0.00034796435,0.9969797,-0.07751542,-530.86096,593.761,8.331,0,0.00021,3.4739099
93.575,2000,0,91.24,0.000002697398,0.000002697398,0.000002697398,0.99999994,0,0,0,0,0,0,1,1,0,0,0,false,false,true,-186.47,-4190.1,17.01,-0.0047501177,-0.0004180967,0.99575347,-0.091935754,-536.10095,585.581,8.331,0,0.00021,3.4881098
93.583336,2000,0,91.24,0.000002697398,0.000002697398,0.000002697398,0.99999994,0,0,0,0,0,0,1,1,0,0,0,false,false,true,-190.94,-4185.2197,17.01,-0.004744723,-0.00048822907,0.994312,-0.10639929,-541.251,577.27094,8.331,0,0.00021,3.50221
93.59167,2000,0,91.24,0.000002697398,0.000002697398,0.000002697398,0.99999994,0,0,0,0,0,0,1,1,0,0,0,false,false,true,-195.45,-4180.4097,17.01,-0.0047339336,-0.00055836135,0.9926538,-0.12089515,-546.30096,568.831,8.331,0,0.00021,3.5162098
93.6,2000,0,91.24,0.000002697398,0.000002697398,0.000002697398,0.99999994,0,0,0,0,0,0,1,1,0,0,0,false,false,true,-200,-4175.67,17.01,-0.0047231438,-0.0006284937,0.9907763,-0.13542338,-551.261,560.261,8.331,-0.00010999999,0.00021,3.53011
93.60833,2000,0,91.24,0.000002697398,0.000002697398,0.000002697398,0.99999994,0,0,0,0,0,0,1,1,0,0,0,false,false,true,-204.59,-4171,17.01,-0.0047123544,-0.0006986261,0.9886777,-0.14997862,-556.121,551.55096,8.331,-0.00010999999,0.00021,3.54391
93.61667,2000,0,91.24,0.000002697398,0.000002697398,0.000002697398,0.99999994,0,0,0,0,0,0,1,1,0,0,0,false,false,true,-209.22,-4166.4,17.01,-0.004701565,-0.00076875853,0.9863554,-0.16456081,-560.881,542.71094,8.331,-0.00010999999,0.00010999999,3.55751
93.625,2000,0,91.24,0.000002697398,0.000002697398,0.000002697398,0.99999994,0,0,0,0,0,0,1,1,0,0,0,false,false,true,-213.89,-4161.88,17.01,-0.004690775,-0.0008388908,0.9838075,-0.17916454,-565.55096,533.74097,8.331,-0.00021,0.00010999999,3.5710099
93.63333,2000,0,91.24,0.000002697398,0.000002697398,0.000002697398,0.99999994,0,0,0,0,0,0,1,1,0,0,0,false,false,true,-218.59999,-4157.4297,17.01,-0.0046745907,-0.00090902316,0.9810325,-0.19378453,-570.121,524.641,8.331,-0.00021,0.00010999999,3.58441
93.64167,2000,0,91.24,0.000002697398,0.000002697398,0.000002697398,0.99999994,0,0,0,0,0,0,1,1,0,0,0,false,false,true,-223.34999,-4153.06,17.01,-0.004658406,-0.0009791554,0.9780288,-0.20841525,-574.60095,515.41095,8.331,-0.00021,0.00010999999,3.59761
93.65,2000,0,91.24,0.000002697398,0.000002697398,0.000002697398,0.99999994,0,0,0,0,0,0,1,1,0,0,0,false,false,true,-228.14,-4148.76,17.01,-0.0046422225,-0.001049288,0.97479504,-0.2230514,-578.98096,506.051,8.331,-0.00030999997,0.00010999999,3.61061
93.65833,2000,0,91.24,0.000002697398,0.000002697398,0.000002697398,0.99999994,0,0,0,0,0,0,1,1,0,0,0,false,false,true,-232.95999,-4144.54,17.01,-0.0046260376,-0.0011194202,0.9713286,-0.23769295,-583.261,496.551,8.331,-0.00030999997,0.00010999999,3.62351
93.666664,2000,0,91.24,0.000002697398,0.000002697398,0.000002697398,0.99999994,0,0,0,0,0,0,1,1,0,0,0,false,false,true,-237.81999,-4140.4,17.01,-0.0046098535,-0.0011895526,0.96762973,-0.25232908,-587.381,486.911,8.331,-0.00030999997,0,3.63791
93.675,2000,0,91.24,0.000002697398,0.000002697398,0.000002697398,0.99999994,0,0,0,0,0,0,1,1,0,0,0,false,false,true,-242.70999,-4136.34,17.01,-0.0045882734,-0.0012596848,0.9636943,-0.26696515,-591.311,477.141,8.331,-0.00040999998,0,3.65451
93.683334,2000,0,91.24,0.000002697398,0.000002697398,0.000002697398,0.99999994,0,0,0,0,0,0,1,1,0,0,0,false,false,true,-247.64,-4132.36,17.01,-0.004566695,-0.0013298173,0.9595181,-0.28160673,-595.05096,467.231,8.331,-0.00040999998,0,3.6733098
93.691666,2000,0,91.24,0.000002697398,0.000002697398,0.000002697398,0.99999994,0,0,0,0,0,0,1,1,0,0,0,false,false,true,-252.59999,-4128.4697,17.01,-0.004545116,-0.0013999497,0.95509577,-0.29625908,-598.60095,457.201,8.331,-0.00040999998,0,3.6942098
93.7,2000,0,91.24,0.000002697398,0.000002697398,0.000002697398,0.99999994,0,0,0,0,0,0,1,1,0,0,0,false,false,true,-257.59,-4124.6597,17.01,-0.0045235357,-0.0014700819,0.9504233,-0.31092212,-601.96094,447.041,8.331,-0.00040999998,0,3.7172098
93.708336,2000,0,91.24,0.000002697398,0.000002697398,0.000002697398,0.99999994,0,0,0,0,0,0,1,1,0,0,0,false,false,true,-262.61,-4120.9297,17.01,-0.0045019574,-0.0015402143,0.9454932,-0.32560682,-605.131,436.761,8.331,-0.00040999998,0,3.7423098
93.71667,2000,0,91.24,0.000002697398,0.000002697398,0.000002697398,0.99999994,0,0,0,0,0,0,1,1,0,0,0,false,false,true,-267.65,-4117.29,17.01,-0.0044749836,-0.0016103467,0.9403021,-0.34030777,-608.11096,426.361,8.331,-0.00040999998,0,3.76951
93.725,2000,0,91.24,0.000002697398,0.000002697398,0.000002697398,0.99999994,0,0,0,0,0,0,1,1,0,0,0,false,false,true,-272.72,-4113.7397,17.01,-0.004448009,-0.001680479,0.9348406,-0.35503557,-610.90094,415.85098,8.331,-0.00040999998,-0.00010999999,3.79881
93.73333,2000,0,91.24,0.000002697398,0.000002697398,0.000002697398,0.99999994,0,0,0,0,0,0,1,1,0,0,0,false,false,true,-277.81,-4110.27,17.01,-0.0044210353,-0.0017506114,0.9291051,-0.36978504,-613.49097,405.231,8.331,-0.00040999998,-0.00021,3.83021
93.74167,2000,0,91.24,0.000002697398,0.000002697398,0.000002697398,0.99999994,0,0,0,0,0,0,1,1,0,0,0,false,false,true,-282.91998,-4106.89,17.01,-0.004394061,-0.0018207434,0.92308474,-0.38456678,-615.891,394.501,8.331,-0.00040999998,-0.00030999997,3.86371
93.75,2000,0,91.24,0.000002697398,0.000002697398,0.000002697398,0.99999994,0,0,0,0,0,0,1,1,0,0,0,false,false,true,-288.05,-4103.6,17.01,-0.0043670875,-0.0018908761,0.916775,-0.3993756,-618.09094,383.661,8.331,-0.00040999998,-0.00030999997,3.89921
93.75833,2000,0,91.24,0.000002697398,0.000002697398,0.000002697398,0.99999994,0,0,0,0,0,0,1,1,0,0,0,false,false,true,-293.19998,-4100.4,17.01,-0.004334719,-0.0019610086,0.9101658,-0.4142168,-620.09094,372.711,8.331,-0.00051,-0.00030999997,3.93681
93.76667,2000,0,91.24,0.000002697398,0.000002697398,0.000002697398,0.99999994,0,0,0,0,0,0,1,1,0,0,0,false,false,true,-298.37,-4097.29,17.01,-0.00430235,-0.0020311407,0.903249,-0.42909023,-621.891,361.661,8.331,-0.00051,-0.00030999997,3.9765098
93.775,2000,0,91.24,0.000002697398,0.000002697398,0.000002697398,0.99999994,0,0,0,0,0,0,1,1,0,0,0,false,false,true,-303.55,-4094.28,17.01,-0.004269981,-0.002101273,0.896016,-0.4439961,-623.49097,350.501,8.331,-0.00051,-0.00030999997,4.01831
93.78333,2000,0,91.24,0.000002697398,0.000002697398,0.000002697398,0.99999994,0,0,0,0,0,0,1,1,0,0,0,false,false,true,-308.75,-4091.3599,17.01,-0.004232218,-0.0021714056,0.88845736,-0.45893443,-624.73096,339.221,8.331,-0.00051,-0.00030999997,4.06101
93.791664,2000,0,91.24,0.000002697398,0.000002697398,0.000002697398,0.99999994,0,0,0,0,0,0,1,1,0,0,0,false,false,true,-313.96,-4088.53,17.01,-0.0041944543,-0.002241538,0.880566,-0.47389963,-625.54095,327.851,8.331,-0.00040999998,-0.00040999998,4.1048098
93.8,2000,0,91.24,0.000002697398,0.000002697398,0.000002697398,0.99999994,0,0,0,0,0,0,1,1,0,0,0,false,false,true,-319.16998,-4085.7998,17.01,-0.00415669,-0.00231167,0.8723314,-0.48889178,-625.93097,316.411,8.331,-0.00040999998,-0.00040999998,4.1497097
93.808334,2000,0,91.24,0.000002697398,0.000002697398,0.000002697398,0.99999994,0,0,0,0,0,0,1,1,0,0,0,false,false,true,-324.38998,-4083.16,17.01,-0.004118927,-0.0023818025,0.8637487,-0.5039002,-625.90094,304.911,8.331,-0.00030999997,-0.00040999998,4.19561
93.816666,2000,0,91.24,0.000002697398,0.000002697398,0.000002697398,0.99999994,0,0,0,0,0,0,1,1,0,0,0,false,false,true,-329.61,-4080.6199,17.01,-0.0040757684,-0.0024519349,0.8548066,-0.5189247,-625.451,293.371,8.331,-0.00030999997,-0.00040999998,4.24261
93.825,2000,0,91.24,0.000002697398,0.000002697398,0.000002697398,0.99999994,0,0,0,0,0,0,1,1,0,0,0,false,false,true,-334.82,-4078.17,17.01,-0.00403261,-0.0025220672,0.84549963,-0.5339546,-624.58093,281.811,8.331,-0.00021,-0.00040999998,4.2905097
93.833336,2000,0,91.24,0.000002697398,0.000002697398,0.000002697398,0.99999994,0,0,0,0,0,0,1,1,0,0,0,false,false,true,-340.02,-4075.8198,17.01,-0.0039894516,-0.0025921995,0.83581877,-0.54898465,-623.27094,270.391,8.331,-0.00010999999,-0.00040999998,4.33831
93.84167,2000,0,91.24,0.000002697398,0.000002697398,0.000002697398,0.99999994,0,0,0,0,0,0,1,1,0,0,0,false,false,true,-345.21,-4073.5698,17.01,-0.003940899,-0.002662332,0.82575846,-0.5640038,-621.53094,259.181,8.331,-0.00010999999,-0.00030999997,4.38541
93.85,2000,0,91.24,0.000002697398,0.000002697398,0.000002697398,0.99999994,0,0,0,0,0,0,1,1,0,0,0,false,false,true,-350.38998,-4071.41,17.01,-0.0038923456,-0.0027324643,0.8153165,-0.578996,-619.381,248.191,8.331,0,-0.00030999997,4.43191
93.85833,2000,0,91.24,0.000002697398,0.000002697398,0.000002697398,0.99999994,0,0,0,0,0,0,1,1,0,0,0,false,false,true,-355.55,-4069.3398,17.01,-0.0038437922,-0.0028025967,0.8044874,-0.59395045,-616.83093,237.431,8.331,0,-0.00021,4.47771
93.86667,2000,0,91.24,0.000002697398,0.000002697398,0.000002697398,0.99999994,0,0,0,0,0,0,1,1,0,0,0,false,false,true,-360.69,-4067.3599,17.01,-0.0037898442,-0.002872729,0.7932662,-0.6088563,-613.91095,226.931,8.331,0,-0.00010999999,4.52281
93.875,2000,0,91.24,0.000002697398,0.000002697398,0.000002697398,0.99999994,0,0,0,0,0,0,1,1,0,0,0,false,false,true,-365.81,-4065.47,17.01,-0.0037358964,-0.0029428613,0.7816513,-0.6236974,-610.631,216.701,8.331,0.00010999999,-0.00010999999,4.56711
93.88333,2000,0,91.24,0.000002697398,0.000002697398,0.000002697398,0.99999994,0,0,0,0,0,0,1,1,0,0,0,false,false,true,-370.9,-4063.66,17.01,-0.003681948,-0.0030129934,0.7696421,-0.6384576,-607.011,206.751,8.331,0.00010999999,0,4.61061
93.89167,2000,0,91.24,0.000002697398,0.000002697398,0.000002697398,0.99999994,0,0,0,0,0,0,1,1,0,0,0,false,false,true,-375.96,-4061.94,17.01,-0.0036226052,-0.0030831257,0.75723404,-0.6531261,-603.08093,197.091,8.331,0.00010999999,0,4.65341
93.9,2000,0,91.24,0.000002697398,0.000002697398,0.000002697398,0.99999994,0,0,0,0,0,0,1,1,0,0,0,false,false,true,-380.99,-4060.2998,17.01,-0.0035632628,-0.0031532582,0.744427,-0.66768676,-598.86096,187.731,8.331,0.00021,0,4.69531
93.90833,2000,0,91.24,0.000002697398,0.000002697398,0.000002697398,0.99999994,0,0,0,0,0,0,1,1,0,0,0,false,false,true,-385.97998,-4058.74,17.01,-0.00350392,-0.0032233908,0.73122156,-0.6821233,-594.371,178.681,8.331,0.00021,0,4.7364097
93.916664,2000,0,91.24,0.000002697398,0.000002697398,0.000002697398,0.99999994,0,0,0,0,0,0,1,1,0,0,0,false,false,true,-390.93,-4057.25,17.01,-0.0034391829,-0.0032935233,0.71761894,-0.69641966,-589.641,169.951,8.331,0.00021,0.00010999999,4.77661
93.925,2000,0,91.24,0.000002697398,0.000002697398,0.000002697398,0.99999994,0,0,0,0,0,0,1,1,0,0,0,false,false,true,-395.84,-4055.8298,17.01,0.0033744453,0.0033636556,-0.7036163,0.7105641,-584.65094,161.55101,8.331,0.00021,0.00010999999,4.81481
93.933334,2000,0,91.24,0.000002697398,0.000002697398,0.000002697398,0.99999994,0,0,0,0,0,0,1,1,0,0,0,false,false,true,-400.71,-4054.48,17.01,0.0033043127,0.0034337877,-0.6892229,0.7245336,-579.36096,153.521,8.331,0.00021,0.00021,4.84941
93.941666,2000,0,91.24,0.000002697398,0.000002697398,0.000002697398,0.99999994,0,0,0,0,0,0,1,1,0,0,0,false,false,true,-405.53998,-4053.2,17.01,0.0032341804,0.0034985254,-0.6744411,0.7383132,-573.79095,145.871,8.331,0.00021,0.00021,4.88021
93.95,2000,0,91.24,0.000002697398,0.000002697398,0.000002697398,0.99999994,0,0,0,0,0,0,1,1,0,0,0,false,false,true,-410.31998,-4051.98,17.01,0.0031640478,0.0035632628,-0.65928704,0.7518761,-567.98096,138.61101,8.331,0.00021,0.00030999997,4.90731
93.958336,2000,0,91.24,0.000002697398,0.000002697398,0.000002697398,0.99999994,0,0,0,0,0,0,1,1,0,0,0,false,false,true,-415.05,-4050.8198,17.01,0.0030885208,0.0036280004,-0.64377695,0.7651983,-561.97095,131.731,8.331,0.00021,0.00040999998,4.9306097
93.96667,2000,0,91.24,0.000002697398,0.000002697398,0.000002697398,0.99999994,0,0,0,0,0,0,1,1,0,0,0,false,false,true,-419.72998,-4049.72,17.01,0.0030129936,0.003692738,-0.6279216,0.7782619,-555.78094,125.241,8.331,0.00021,0.00051,4.95001
93.975,2000,0,91.24,0.000002697398,0.000002697398,0.000002697398,0.99999994,0,0,0,0,0,0,1,1,0,0,0,false,false,true,-424.36,-4048.68,17.01,0.0029374664,0.0037574756,-0.61173713,0.7910466,-549.441,119.141,8.331,0.00021,0.00061,4.96561
93.98333,2000,0,91.24,0.000002697398,0.000002697398,0.000002697398,0.99999994,0,0,0,0,0,0,1,1,0,0,0,false,false,true,-428.94,-4047.69,17.01,0.0028565447,0.0038222133,-0.5952398,0.8035339,-542.99097,113.421,8.321,0.00010999999,0.00061,4.97721
93.99167,2000,0,91.24,0.000002697398,0.000002697398,0.000002697398,0.99999994,0,0,0,0,0,0,1,1,0,0,0,false,false,true,-433.46,-4046.74,17.01,0.0027756228,0.003881556,-0.57845116,0.81570303,-536.46094,108.071,8.321,0.00010999999,0.00061,4.98481
94,2000,0,91.24,0.000002697398,0.000002697398,0.000002697398,0.99999994,0,0,0,0,0,0,1,1,0,0,0,false,false,true,-437.93,-4045.8398,17.01,0.0026947008,0.003940899,-0.56138736,0.8275393,-529.871,103.08099,8.321,0.00010999999,0.00071,4.98841
94.00833,2000,0,91.24,0.000002697398,0.000002697398,0.000002697398,0.99999994,0,0,0,0,0,0,1,1,0,0,0,false,false,true,-442.34998,-4044.98,17.01,0.0026083838,0.004000241,-0.5440645,0.8390297,-523.261,98.431,8.321,0,0.00081,4.98791
94.01667,2000,0,91.24,0.000002697398,0.000002697398,0.000002697398,0.99999994,0,0,0,0,0,0,1,1,0,0,0,false,false,true,-446.71,-4044.16,17.01,0.0025220672,0.004054189,-0.5265098,0.85015553,-516.65094,94.120995,8.321,0,0.00081,4.98311
94.025,2000,0,91.24,0.000002697398,0.000002697398,0.000002697398,0.99999994,0,0,0,0,0,0,1,1,0,0,0,false,false,true,-451.02,-4043.38,17.01,0.0024357503,0.004108137,-0.50874466,0.8609041,-510.081,90.120995,8.321,0,0.00081,4.97401
94.03333,2000,0,91.24,0.000002697398,0.000002697398,0.000002697398,0.99999994,0,0,0,0,0,0,1,1,0,0,0,false,false,true,-455.27,-4042.63,17.01,0.0023494337,0.0041620852,-0.49079615,0.87126124,-503.501,86.370995,8.321,0,0.00081,4.96031
94.041664,2000,0,91.24,0.000002697398,0.000002697398,0.000002697398,0.99999994,0,0,0,0,0,0,1,1,0,0,0,false,false,true,-459.47,-4041.91,17.01,0.0022631169,0.0042106383,-0.47268575,0.881218,-496.931,82.861,8.321,0,0.00081,4.9422097
94.05,2000,0,91.24,0.000002697398,0.000002697398,0.000002697398,0.99999994,0,0,0,0,0,0,1,1,0,0,0,false,false,true,-463.61,-4041.22,17.01,0.0021768005,0.004259192,-0.4544405,0.89076424,-490.391,79.571,8.321,0,0.00081,4.91961
94.058334,2000,0,91.24,0.000002697398,0.000002697398,0.000002697398,0.99999994,0,0,0,0,0,0,1,1,0,0,0,false,false,true,-467.69998,-4040.5598,17.01,0.0020850885,0.0043077446,-0.43608734,0.89989156,-483.911,76.501,8.311,-0.00010999999,0.00081,4.89211
94.066666,2000,0,91.24,0.000002697398,0.000002697398,0.000002697398,0.99999994,0,0,0,0,0,0,1,1,0,0,0,false,false,true,-471.72998,-4039.92,17.01,0.0019933772,0.0043509034,-0.41765326,0.90859383,-477.38098,73.571,8.311,-0.00021,0.00071,4.86311
94.075,2000,0,91.24,0.000002697398,0.000002697398,0.000002697398,0.99999994,0,0,0,0,0,0,1,1,0,0,0,false,false,true,-475.71,-4039.3098,17.01,0.0019016657,0.0043940614,-0.3991598,0.9168688,-470.791,70.781,8.311,-0.00030999997,0.00061,4.83321
94.083336,2000,0,91.24,0.000002697398,0.000002697398,0.000002697398,0.99999994,0,0,0,0,0,0,1,1,0,0,0,false,false,true,-479.62997,-4038.72,17.01,0.0018099541,0.0044318247,-0.3806178,0.92472,-464.151,68.141,8.311,-0.00030999997,0.00051,4.80261
94.09167,2000,0,91.24,0.000002697398,0.000002697398,0.000002697398,0.99999994,0,0,0,0,0,0,1,1,0,0,0,false,false,true,-483.5,-4038.15,17.01,0.0017182427,0.004469589,-0.3620381,0.93215096,-457.461,65.651,8.311,-0.00040999998,0.00040999998,4.77151
94.1,2000,0,91.24,0.000002697398,0.000002697398,0.000002697398,0.99999994,0,0,0,0,0,0,1,1,0,0,0,false,false,true,-487.31,-4037.5999,17.01,0.001626531,0.0045019574,-0.34343672,0.93916357,-450.731,63.301,8.311,-0.00040999998,0.00030999997,4.74001
94.10833,2000,0,91.24,0.000002697398,0.000002697398,0.000002697398,0.99999994,0,0,0,0,0,0,1,1,0,0,0,false,false,true,-491.06998,-4037.0698,17.01,0.0015348195,0.004534326,-0.3248246,0.9457621,-443.951,61.100998,8.311,-0.00040999998,0.00021,4.70841
94.11667,2000,0,91.24,0.000002697398,0.000002697398,0.000002697398,0.99999994,0,0,0,0,0,0,1,1,0,0,0,false,false,true,-494.77,-4036.5598,17.01,0.001443108,0.0045613,-0.3062071,0.9519528,-437.131,59.051,8.311,-0.00040999998,0.00010999999,4.67681
94.125,2000,0,91.24,0.000002697398,0.000002697398,0.000002697398,0.99999994,0,0,0,0,0,0,1,1,0,0,0,false,false,true,-498.41,-4036.0698,17.01,0.0013513963,0.0045882734,-0.28760034,0.9577384,-430.271,57.161,8.311,-0.00040999998,0.00010999999,4.64541
94.13333,2000,0,91.24,0.000002697398,0.000002697398,0.000002697398,0.99999994,0,0,0,0,0,0,1,1,0,0,0,false,false,true,-502,-4035.5898,17.01,0.001259685,0.0046152486,-0.26900983,0.9631255,-423.371,55.420998,8.311,-0.00040999998,0,4.61441
94.14167,2000,0,91.24,0.000002697398,0.000002697398,0.000002697398,0.99999994,0,0,0,0,0,0,1,1,0,0,0,false,false,true,-505.53,-4035.13,17.01,0.0011679735,0.0046368274,-0.25044093,0.96812004,-416.431,53.830997,8.311,-0.00040999998,0,4.58401
94.15,2000,0,91.24,0.000002697398,0.000002697398,0.000002697398,0.99999994,0,0,0,0,0,0,1,1,0,0,0,false,false,true,-509,-4034.68,17.01,0.0010762617,0.004658406,-0.2319043,0.9727268,-409.461,52.391,8.311,-0.00040999998,0,4.55431
94.15833,2000,0,91.24,0.000002697398,0.000002697398,0.000002697398,0.99999994,0,0,0,0,0,0,1,1,0,0,0,false,false,true,-512.41,-4034.24,17.01,0.0009845502,0.0046799853,-0.21340545,0.97695196,-402.451,51.111,8.311,-0.00030999997,0,4.52551
94.166664,2000,0,91.24,0.000002697398,0.000002697398,0.000002697398,0.99999994,0,0,0,0,0,0,1,1,0,0,0,false,false,true,-515.76,-4033.8098,17.01,0.00089283875,0.00469617,-0.19494441,0.9808026,-395.401,49.990997,8.311,-0.00021,-0.00010999999,4.49781
94.175,2000,0,91.24,0.000002697398,0.000002697398,0.000002697398,0.99999994,0,0,0,0,0,0,1,1,0,0,0,false,false,true,-519.05,-4033.39,17.01,0.0008065221,0.004712355,-0.1765319,0.98428327,-388.311,49.031,8.311,-0.00010999999,-0.00021,4.47141
94.183334,2000,0,91.24,0.000002697398,0.000002697398,0.000002697398,0.99999994,0,0,0,0,0,0,1,1,0,0,0,false,false,true,-522.29,-4032.98,17.01,0.00072020525,0.0047231438,-0.15816252,0.9874015,-381.181,48.231,8.311,-0.00010999999,-0.00030999997,4.4464097
94.191666,2000,0,91.24,0.000002697398,0.000002697398,0.000002697398,0.99999994,0,0,0,0,0,0,1,1,0,0,0,false,false,true,-525.47,-4032.5798,17.01,0.0006338886,0.004733934,-0.13984177,0.9901623,-374.011,47.600998,8.311,-0.00010999999,-0.00030999997,4.42301
94.2,2000,0,91.24,0.000002697398,0.000002697398,0.000002697398,0.99999994,0,0,0,0,0,0,1,1,0,0,0,false,false,true,-528.58997,-4032.18,17.01,0.0005475718,0.004744723,-0.1215695,0.99257135,-366.801,47.141,8.311,-0.00010999999,-0.00030999997,4.40141
94.208336,2000,0,91.24,0.000002697398,0.000002697398,0.000002697398,0.99999994,0,0,0,0,0,0,1,1,0,0,0,false,false,true,-531.64996,-4031.7898,17.01,0.0004612551,0.004750118,-0.1033458,0.994634,-359.551,46.861,8.311,-0.00010999999,-0.00030999997,4.38171
94.21667,2000,0,91.24,0.000002697398,0.000002697398,0.000002697398,0.99999994,0,0,0,0,0,0,1,1,0,0,0,false,false,true,-534.64996,-4031.4,17.01,0.0003749383,0.0047555123,-0.08517067,0.9963548,-352.261,46.771,8.301001,-0.00010999999,-0.00030999997,4.36411
94.225,2000,0,91.24,0.000002697398,0.000002697398,0.000002697398,0.99999994,0,0,0,0,0,0,1,1,0,0,0,false,false,true,-537.58997,-4031.01,17.01,0.00028862155,0.004760907,-0.06703868,0.99773884,-344.931,46.871,8.301001,0,-0.00030999997,4.34871
94.23333,2000,0,91.24,0.000002697398,0.000002697398,0.000002697398,0.99999994,0,0,0,0,0,0,1,1,0,0,0,false,false,true,-540.45996,-4030.6199,17.01,0.00020230486,0.004766302,-0.048949853,0.9987898,-337.571,47.170998,8.301001,0,-0.00030999997,4.33571
94.24167,2000,0,91.24,0.000002697398,0.000002697398,0.000002697398,0.99999994,0,0,0,0,0,0,1,1,0,0,0,false,false,true,-543.26996,-4030.23,17.01,0.00011598813,0.0047663026,-0.030898824,0.9995111,-330.181,47.681,8.301001,0,-0.00040999998,4.32521
94.25,2000,0,91.24,0.000002697398,0.000002697398,0.000002697398,0.99999994,0,0,0,0,0,0,1,1,0,0,0,false,false,true,-546.01996,-4029.8298,17.01,0.000029671379,0.004766302,-0.012880118,0.99990565,-322.771,48.400997,8.301001,0,-0.00040999998,4.31741
94.25833,2000,0,91.24,0.000002697398,0.000002697398,0.000002697398,0.99999994,0,0,0,0,0,0,1,1,0,0,0,false,false,true,-548.70996,-4029.43,17.01,-0.00005664536,0.004766302,0.0051061744,0.99997556,-315.341,49.350998,8.301001,0,-0.00040999998,4.31241
94.26667,2000,0,91.24,0.000002697398,0.000002697398,0.000002697398,0.99999994,0,0,0,0,0,0,1,1,0,0,0,false,false,true,-551.33997,-4029.02,17.01,-0.00014296209,0.0047609075,0.02307093,0.9997224,-307.891,50.531,8.301001,0.00010999999,-0.00051,4.31041
94.275,2000,0,91.24,0.000002697398,0.000002697398,0.000002697398,0.99999994,0,0,0,0,0,0,1,1,0,0,0,false,false,true,-553.91,-4028.5999,17.01,-0.00022927884,0.004755513,0.0410195,0.99914694,-300.431,51.961,8.301001,0.00021,-0.00051,4.3116097
94.28333,2000,0,91.24,0.000002697398,0.000002697398,0.000002697398,0.99999994,0,0,0,0,0,0,1,1,0,0,0,false,false,true,-556.41,-4028.17,17.01,-0.0003155956,0.004750118,0.05896268,0.9982488,-292.981,53.650997,8.301001,0.00030999997,-0.00051,4.31621
94.291664,2000,0,91.24,0.000002697398,0.000002697398,0.000002697398,0.99999994,0,0,0,0,0,0,1,1,0,0,0,false,false,true,-558.85,-4027.72,17.01,-0.00040191234,0.0047393288,0.07690577,0.997027,-285.54102,55.600998,8.301001,0.00040999998,-0.00051,4.32431
94.3,2000,0,91.24,0.000002697398,0.000002697398,0.000002697398,0.99999994,0,0,0,0,0,0,1,1,0,0,0,false,false,true,-561.23,-4027.26,17.01,-0.00048822907,0.0047285384,0.09485434,0.99547976,-278.131,57.830997,8.301001,0.00051,-0.00051,4.33611
94.308334,2000,0,91.24,0.000002697398,0.000002697398,0.000002697398,0.99999994,0,0,0,0,0,0,1,1,0,0,0,false,false,true,-563.55,-4026.78,17.01,-0.00056915096,0.004717749,0.11282449,0.9936035,-270.761,60.350998,8.301001,0.00061,-0.00051,4.35171
94.316666,2000,0,91.24,0.000002697398,0.000002697398,0.000002697398,0.99999994,0,0,0,0,0,0,1,1,0,0,0,false,false,true,-565.81,-4026.28,17.01,-0.000650073,0.00470696,0.13082163,0.9913945,-263.451,63.170998,8.301001,0.00071,-0.00051,4.3713098
94.325,2000,0,91.24,0.000002697398,0.000002697398,0.000002697398,0.99999994,0,0,0,0,0,0,1,1,0,0,0,false,false,true,-568.01,-4025.75,17.01,-0.0007309948,0.0046907747,0.14885648,0.98884726,-256.231,66.251,8.301001,0.00081,-0.00051,4.39391
94.333336,2000,0,91.24,0.000002697398,0.000002697398,0.000002697398,0.99999994,0,0,0,0,0,0,1,1,0,0,0,false,false,true,-570.14996,-4025.2,17.01,-0.00081191683,0.0046745907,0.16693455,0.9859565,-249.171,69.471,8.301001,0.00091,-0.00051,4.41501
94.34167,2000,0,91.24,0.000002697398,0.000002697398,0.000002697398,0.99999994,0,0,0,0,0,0,1,1,0,0,0,false,false,true,-572.23,-4024.6199,17.01,-0.00089283875,0.004658406,0.18504488,0.9827186,-242.151,72.881,8.301001,0.00091,-0.00040999998,4.43681
94.35,2000,0,91.24,0.000002697398,0.000002697398,0.000002697398,0.99999994,0,0,0,0,0,0,1,1,0,0,0,false,false,true,-574.25,-4024.01,17.01,-0.0009737608,0.0046368274,0.20317689,0.97913057,-235.011,76.571,8.301001,0.00081,-0.00030999997,4.46231
94.35833,2000,0,91.24,0.000002697398,0.000002697398,0.000002697398,0.99999994,0,0,0,0,0,0,1,1,0,0,0,false,false,true,-576.20996,-4023.3699,17.01,-0.0010546828,0.0046152486,0.22134665,0.97518367,-227.761,80.581,8.301001,0.00071,-0.00021,4.48991
94.36667,2000,0,91.24,0.000002697398,0.000002697398,0.000002697398,0.99999994,0,0,0,0,0,0,1,1,0,0,0,false,false,true,-578.11,-4022.7,17.01,-0.0011356046,0.004593669,0.23954876,0.97087276,-220.391,84.971,8.301001,0.00061,-0.00010999999,4.52031
94.375,2000,0,91.24,0.000002697398,0.000002697398,0.000002697398,0.99999994,0,0,0,0,0,0,1,1,0,0,0,false,false,true,-579.95,-4021.99,17.01,-0.0012219213,0.0045720898,0.25778863,0.9661897,-212.871,89.811,8.301001,0.00040999998,0,4.55461
94.38333,2000,0,91.24,0.000002697398,0.000002697398,0.000002697398,0.99999994,0,0,0,0,0,0,1,1,0,0,0,false,false,true,-581.72,-4021.24,17.01,-0.0013082381,0.004545116,0.27607703,0.9611238,-205.101,95.251,8.301001,0.00021,0,4.59501
94.39167,2000,0,91.24,0.000002697398,0.000002697398,0.000002697398,0.99999994,0,0,0,0,0,0,1,1,0,0,0,false,false,true,-583.43,-4020.45,17.01,-0.0013945547,0.0045181415,0.29442477,0.9556629,-197.72101,100.811,8.301001,0.00021,0,4.63061
94.4,2000,0,91.24,0.000002697398,0.000002697398,0.000002697398,0.99999994,0,0,0,0,0,0,1,1,0,0,0,false,false,true,-585.08,-4019.6099,17.01,-0.0014808716,0.0044911676,0.31280494,0.94980556,-190.591,106.620995,8.301001,0.00030999997,0.00010999999,4.66431
94.40833,2000,0,91.24,0.000002697398,0.000002697398,0.000002697398,0.99999994,0,0,0,0,0,0,1,1,0,0,0,false,false,true,-586.67,-4018.72,17.01,-0.0015671883,0.0044641937,0.3312013,0.9435482,-183.681,112.730995,8.301001,0.00040999998,0.00010999999,4.69721
94.416664,2000,0,91.24,0.000002697398,0.000002697398,0.000002697398,0.99999994,0,0,0,0,0,0,1,1,0,0,0,false,false,true,-588.2,-4017.78,17.01,-0.0016535051,0.004431825,0.34960306,0.93688595,-176.991,119.160995,8.301001,0.00051,0.00010999999,4.7298098
94.425,2000,0,91.24,0.000002697398,0.000002697398,0.000002697398,0.99999994,0,0,0,0,0,0,1,1,0,0,0,false,false,true,-589.67,-4016.7898,17.01,-0.0017398217,0.004399456,0.36799935,0.9298139,-170.531,125.931,8.301001,0.00061,0.00021,4.76231
94.433334,2000,0,91.24,0.000002697398,0.000002697398,0.000002697398,0.99999994,0,0,0,0,0,0,1,1,0,0,0,false,false,true,-591.08997,-4015.74,17.01,-0.0018261382,0.004361692,0.386374,0.9223299,-164.291,132.981,8.301001,0.00071,0.00030999997,4.79351
94.441666,2000,0,91.24,0.000002697398,0.000002697398,0.000002697398,0.99999994,0,0,0,0,0,0,1,1,0,0,0,false,false,true,-592.45996,-4014.63,17.01,-0.0019070605,0.004323929,0.40471643,0.91442996,-158.271,140.27101,8.301001,0.00071,0.00040999998,4.82241
94.45,2000,0,91.24,0.000002697398,0.000002697398,0.000002697398,0.99999994,0,0,0,0,0,0,1,1,0,0,0,false,false,true,-593.77997,-4013.46,17.01,-0.001987982,0.004286165,0.4230048,0.90611494,-152.521,147.741,8.301001,0.00061,0.00040999998,4.84861
94.458336,2000,0,91.24,0.000002697398,0.000002697398,0.000002697398,0.99999994,0,0,0,0,0,0,1,1,0,0,0,false,false,true,-595.05,-4012.23,17.01,-0.0020689045,0.0042430074,0.4412232,0.89738494,-147.091,155.271,8.301001,0.00051,0.00040999998,4.87111
94.46667,2000,0,91.24,0.000002697398,0.000002697398,0.000002697398,0.99999994,0,0,0,0,0,0,1,1,0,0,0,false,false,true,-596.27997,-4010.94,17.01,-0.0021498261,0.0041998485,0.4593444,0.88824564,-142.001,162.86101,8.301001,0.00030999997,0.00040999998,4.89011
94.475,2000,0,91.24,0.000002697398,0.000002697398,0.000002697398,0.99999994,0,0,0,0,0,0,1,1,0,0,0,false,false,true,-597.45996,-4009.5798,17.01,-0.002230748,0.00415669,0.4773469,0.8787022,-137.251,170.511,8.301001,0.00010999999,0.00040999998,4.9057097
94.48333,2000,0,91.24,0.000002697398,0.000002697398,0.000002697398,0.99999994,0,0,0,0,0,0,1,1,0,0,0,false,false,true,-598.6,-4008.16,17.01,-0.00231167,0.0041135317,0.49520907,0.86876094,-132.851,178.231,8.301001,0,0.00040999998,4.9180098
94.49167,2000,0,91.24,0.000002697398,0.000002697398,0.000002697398,0.99999994,0,0,0,0,0,0,1,1,0,0,0,false,false,true,-599.70996,-4006.67,17.01,-0.002392592,0.0040649786,0.51290405,0.8584329,-128.80101,186.011,8.301001,-0.00010999999,0.00030999997,4.92681
94.5,2000,0,91.24,0.000002697398,0.000002697398,0.000002697398,0.99999994,0,0,0,0,0,0,1,1,0,0,0,false,false,true,-600.77997,-4005.1199,17.01,-0.0024735143,0.004016426,0.5304157,0.8477245,-125.101,193.871,8.301001,-0.00021,0.00030999997,4.93181
94.50833,2000,0,91.24,0.000002697398,0.000002697398,0.000002697398,0.99999994,0,0,0,0,0,0,1,1,0,0,0,false,false,true,-601.82,-4003.5,17.01,-0.002554436,0.0039678724,0.5477223,0.8366468,-121.741,201.871,8.301001,-0.00030999997,0.00030999997,4.93211
94.51667,2000,0,91.24,0.000002697398,0.000002697398,0.000002697398,0.99999994,0,0,0,0,0,0,1,1,0,0,0,false,false,true,-602.82996,-4001.8198,17.01,-0.0026353581,0.003913925,0.5647969,0.8252164,-118.65099,210.22101,8.301001,-0.00040999998,0.00030999997,4.92351
94.525,2000,0,91.24,0.000002697398,0.000002697398,0.000002697398,0.99999994,0,0,0,0,0,0,1,1,0,0,0,false,false,true,-603.82,-4000.0698,17.01,-0.0027162798,0.0038599768,0.58160704,0.81345606,-116.090996,218.091,8.301001,-0.00040999998,0.00021,4.9211097
94.53333,2000,0,91.24,0.000002697398,0.000002697398,0.000002697398,0.99999994,0,0,0,0,0,0,1,1,0,0,0,false,false,true,-604.79,-3998.25,17.01,-0.0027972017,0.0038060287,0.5981638,0.80135983,-114.010994,225.601,8.301001,-0.00040999998,0,4.9222097
94.541664,2000,0,91.24,0.000002697398,0.000002697398,0.000002697398,0.99999994,0,0,0,0,0,0,1,1,0,0,0,false,false,true,-605.74,-3996.3699,17.01,-0.002878124,0.0037466863,0.6144724,0.78892416,-112.391,232.791,8.301001,-0.00030999997,-0.00010999999,4.92561
94.55,2000,0,91.24,0.000002697398,0.000002697398,0.000002697398,0.99999994,0,0,0,0,0,0,1,1,0,0,0,false,false,true,-606.68,-3994.43,17.01,-0.0029536507,0.0036873426,0.6305327,0.77614814,-111.15099,240.001,8.301001,-0.00030999997,-0.00010999999,4.9253097
94.558334,2000,0,91.24,0.000002697398,0.000002697398,0.000002697398,0.99999994,0,0,0,0,0,0,1,1,0,0,0,false,false,true,-607.61,-3992.43,17.01,-0.003029178,0.0036280004,0.6463287,0.76304436,-110.281,247.211,8.301001,-0.00030999997,-0.00021,4.92171
94.566666,2000,0,91.24,0.000002697398,0.000002697398,0.000002697398,0.99999994,0,0,0,0,0,0,1,1,0,0,0,false,false,true,-608.52997,-3990.3699,17.01,-0.0031047054,0.003563263,0.6618389,0.74963117,-109.791,254.431,8.301001,-0.00030999997,-0.00021,4.9162097
94.575,2000,0,91.24,0.000002697398,0.000002697398,0.000002697398,0.99999994,0,0,0,0,0,0,1,1,0,0,0,false,false,true,-609.44,-3988.25,17.01,-0.0031802324,0.0034985254,0.6770522,0.7359197,-109.671,261.611,8.301001,-0.00030999997,-0.00021,4.9092097
94.583336,2000,0,91.24,0.000002697398,0.000002697398,0.000002697398,0.99999994,0,0,0,0,0,0,1,1,0,0,0,false,false,true,-610.35,-3986.0698,17.01,-0.0032503647,0.0034337877,0.69196343,0.721917,-109.940994,268.731,8.301001,-0.00030999997,-0.00021,4.90081
94.59167,2000,0,91.24,0.000002697398,0.000002697398,0.000002697398,0.99999994,0,0,0,0,0,0,1,1,0,0,0,false,false,true,-611.26996,-3983.8298,17.01,-0.003320497,0.00336905,0.70656186,0.7076354,-110.590996,275.771,8.301001,-0.00040999998,-0.00030999997,4.89121
94.6,2000,0,91.24,0.000002697398,0.000002697398,0.000002697398,0.99999994,0,0,0,0,0,0,1,1,0,0,0,false,false,true,-612.19,-3981.53,17.01,-0.0033906295,0.003298918,0.72083455,0.693091,-111.620995,282.701,8.301001,-0.00040999998,-0.00030999997,4.88061
94.60833,2000,0,91.24,0.000002697398,0.000002697398,0.000002697398,0.99999994,0,0,0,0,0,0,1,1,0,0,0,false,false,true,-613.12,-3979.17,17.01,-0.0034607616,0.0032287855,0.73478115,0.6782876,-113.020996,289.501,8.301001,-0.00040999998,-0.00030999997,4.86911
94.61667,2000,0,91.24,0.000002697398,0.000002697398,0.000002697398,0.99999994,0,0,0,0,0,0,1,1,0,0,0,false,false,true,-614.06,-3976.76,17.01,-0.0035254995,0.0031586534,0.74839044,0.6632415,-114.791,296.151,8.301001,-0.00040999998,-0.00030999997,4.8569098
94.625,2000,0,91.24,0.000002697398,0.000002697398,0.000002697398,0.99999994,0,0,0,0,0,0,1,1,0,0,0,false,false,true,-615.01996,-3974.2898,17.01,-0.003590237,0.0030885208,0.76165676,0.6479633,-116.921,302.631,8.301001,-0.00040999998,-0.00040999998,4.84401
94.63333,2000,0,91.24,0.000002697398,0.000002697398,0.000002697398,0.99999994,0,0,0,0,0,0,1,1,0,0,0,false,false,true,-615.99,-3971.77,17.01,-0.0036549745,0.0030129936,0.7745795,0.6324587,-119.410995,308.921,8.301001,-0.00040999998,-0.00040999998,4.83061
94.64167,2000,0,91.24,0.000002697398,0.000002697398,0.000002697398,0.99999994,0,0,0,0,0,0,1,1,0,0,0,false,false,true,-616.99,-3969.2,17.01,-0.003719712,0.0029374664,0.78714985,0.6167435,-122.241,315.001,8.301001,-0.00040999998,-0.00040999998,4.8168097
94.65,2000,0,91.24,0.000002697398,0.000002697398,0.000002697398,0.99999994,0,0,0,0,0,0,1,1,0,0,0,false,false,true,-618.01,-3966.5698,17.01,-0.0037790546,0.0028619394,0.79936767,0.6008234,-125.40099,320.861,8.301001,-0.00040999998,-0.00040999998,4.80261
94.65833,2000,0,91.24,0.000002697398,0.000002697398,0.000002697398,0.99999994,0,0,0,0,0,0,1,1,0,0,0,false,false,true,-619.05,-3963.9,17.01,-0.0038383978,0.0027864124,0.81122917,0.5847091,-128.891,326.471,8.301001,-0.00040999998,-0.00040999998,4.78821
94.666664,2000,0,91.24,0.000002697398,0.000002697398,0.000002697398,0.99999994,0,0,0,0,0,0,1,1,0,0,0,false,false,true,-620.12,-3961.18,17.01,-0.0038977403,0.002710885,0.82273066,0.5684114,-132.69101,331.831,8.301001,-0.00040999998,-0.00040999998,4.77371
94.675,2000,0,91.24,0.000002697398,0.000002697398,0.000002697398,0.99999994,0,0,0,0,0,0,1,1,0,0,0,false,false,true,-621.23,-3958.41,17.01,-0.003951688,0.002635358,0.8338731,0.5519356,-136.781,336.911,8.301001,-0.00040999998,-0.00040999998,4.75921
94.683334,2000,0,91.24,0.000002697398,0.000002697398,0.000002697398,0.99999994,0,0,0,0,0,0,1,1,0,0,0,false,false,true,-622.37,-3955.5999,17.01,-0.004005636,0.002554436,0.8446533,0.53529257,-141.151,341.701,8.301001,-0.00030999997,-0.00040999998,4.74481
94.691666,2000,0,91.24,0.000002697398,0.000002697398,0.000002697398,0.99999994,0,0,0,0,0,0,1,1,0,0,0,false,false,true,-623.55,-3952.75,17.01,-0.004059584,0.002473514,0.8550718,0.5184877,-145.791,346.191,8.301001,-0.00030999997,-0.00040999998,4.73061
94.7,2000,0,91.24,0.000002697398,0.000002697398,0.000002697398,0.99999994,0,0,0,0,0,0,1,1,0,0,0,false,false,true,-624.76,-3949.8599,17.01,-0.004108137,0.002392592,0.865126,0.50153184,-150.681,350.361,8.301001,-0.00030999997,-0.00040999998,4.71671
94.708336,2000,0,91.24,0.000002697398,0.000002697398,0.000002697398,0.99999994,0,0,0,0,0,0,1,1,0,0,0,false,false,true,-626.01996,-3946.94,17.01,-0.00415669,0.00231167,0.87481385,0.48443568,-155.80101,354.201,8.301001,-0.00030999997,-0.00040999998,4.70321
94.71667,2000,0,91.24,0.000002697398,0.000002697398,0.000002697398,0.99999994,0,0,0,0,0,0,1,1,0,0,0,false,false,true,-627.32,-3943.99,17.01,-0.004205243,0.002230748,0.8841392,0.4671992,-161.131,357.701,8.301001,-0.00030999997,-0.00040999998,4.69021
94.725,2000,0,91.24,0.000002697398,0.000002697398,0.000002697398,0.99999994,0,0,0,0,0,0,1,1,0,0,0,false,false,true,-628.66,-3941.01,17.01,-0.004248402,0.0021498264,0.8930998,0.4498333,-166.671,360.861,8.301001,-0.00030999997,-0.00040999998,4.67821
94.73333,2000,0,91.24,0.000002697398,0.000002697398,0.000002697398,0.99999994,0,0,0,0,0,0,1,1,0,0,0,false,false,true,-630.05,-3938,17.01,-0.00429156,0.0020689042,0.901699,0.43233794,-172.421,363.691,8.301001,-0.00030999997,-0.00040999998,4.66781
94.74167,2000,0,91.24,0.000002697398,0.000002697398,0.000002697398,0.99999994,0,0,0,0,0,0,1,1,0,0,0,false,false,true,-631.49,-3934.97,17.01,-0.004334718,0.001987982,0.90993714,0.41471842,-178.36101,366.191,8.301001,-0.00021,-0.00040999998,4.65901
94.75,2000,0,91.24,0.000002697398,0.000002697398,0.000002697398,0.99999994,0,0,0,0,0,0,1,1,0,0,0,false,false,true,-632.98,-3931.92,17.01,-0.0043724827,0.0019016658,0.91781706,0.39697492,-184.47101,368.341,8.301001,-0.00010999999,-0.00040999998,4.6518097
94.75833,2000,0,91.24,0.000002697398,0.000002697398,0.000002697398,0.99999994,0,0,0,0,0,0,1,1,0,0,0,false,false,true,-634.51996,-3928.8499,17.01,-0.0044102455,0.0018153489,0.9253382,0.37911263,-190.731,370.141,8.301001,-0.00010999999,-0.00040999998,4.6462097
94.76667,2000,0,91.24,0.000002697398,0.000002697398,0.000002697398,0.99999994,0,0,0,0,0,0,1,1,0,0,0,false,false,true,-636.11,-3925.76,17.01,-0.0044480087,0.0017290319,0.93250453,0.36112627,-197.121,371.591,8.301001,-0.00010999999,-0.00040999998,4.64221
94.775,2000,0,91.24,0.000002697398,0.000002697398,0.000002697398,0.99999994,0,0,0,0,0,0,1,1,0,0,0,false,false,true,-637.75,-3922.66,17.01,-0.0044803782,0.0016427154,0.93931544,0.34302136,-203.651,372.701,8.301001,-0.00010999999,-0.00030999997,4.63971
94.78333,2000,0,91.24,0.000002697398,0.000002697398,0.000002697398,0.99999994,0,0,0,0,0,0,1,1,0,0,0,false,false,true,-639.45,-3919.5498,17.01,-0.0045127473,0.0015563988,0.94577146,0.3247977,-210.341,373.481,8.301001,-0.00010999999,-0.00030999997,4.63831
94.791664,2000,0,91.24,0.000002697398,0.000002697398,0.000002697398,0.99999994,0,0,0,0,0,0,1,1,0,0,0,false,false,true,-641.2,-3916.44,17.01,-0.0045451154,0.001470082,0.9518713,0.30646065,-217.171,373.921,8.311,-0.00010999999,-0.00021,4.63801
94.8,2000,0,91.24,0.000002697398,0.000002697398,0.000002697398,0.99999994,0,0,0,0,0,0,1,1,0,0,0,false,false,true,-643.01,-3913.3198,17.01,-0.0045720898,0.0013837651,0.9576153,0.28801036,-224.121,374.021,8.311,-0.00010999999,-0.00010999999,4.63861
94.808334,2000,0,91.24,0.000002697398,0.000002697398,0.000002697398,0.99999994,0,0,0,0,0,0,1,1,0,0,0,false,false,true,-644.88,-3910.2,17.01,-0.0045990637,0.0012974484,0.96300334,0.2694468,-231.171,373.781,8.311,-0.00010999999,-0.00010999999,4.64011
94.816666,2000,0,91.24,0.000002697398,0.000002697398,0.000002697398,0.99999994,0,0,0,0,0,0,1,1,0,0,0,false,false,true,-646.81,-3907.0798,17.01,-0.004626038,0.0012111318,0.96803206,0.25078073,-238.301,373.201,8.311,0,0,4.64251
94.825,2000,0,91.24,0.000002697398,0.000002697398,0.000002697398,0.99999994,0,0,0,0,0,0,1,1,0,0,0,false,false,true,-648.8,-3903.97,17.01,-0.0046476163,0.00111942,0.972701,0.23201211,-245.501,372.281,8.311,0,0,4.64561
94.833336,2000,0,91.24,0.000002697398,0.000002697398,0.000002697398,0.99999994,0,0,0,0,0,0,1,1,0,0,0,false,false,true,-650.85,-3900.8699,17.01,-0.004669196,0.0010277086,0.97700965,0.21314114,-252.751,371.021,8.311,0,0,4.64941
94.84167,2000,0,91.24,0.000002697398,0.000002697398,0.000002697398,0.99999994,0,0,0,0,0,0,1,1,0,0,0,false,false,true,-652.95996,-3897.78,17.01,-0.004690775,0.0009359971,0.9809556,0.19417296,-260.031,369.421,8.311,0,0,4.6539097
94.85,2000,0,91.24,0.000002697398,0.000002697398,0.000002697398,0.99999994,0,0,0,0,0,0,1,1,0,0,0,false,false,true,-655.13,-3894.7,17.01,-0.0047069597,0.0008442856,0.98453665,0.17511305,-267.331,367.481,8.311,0,0,4.65901
94.85833,2000,0,91.24,0.000002697398,0.000002697398,0.000002697398,0.99999994,0,0,0,0,0,0,1,1,0,0,0,false,false,true,-657.36,-3891.64,17.01,-0.0047231438,0.00075257407,0.98775065,0.15596683,-274.631,365.201,8.311,0,0,4.66471
94.86667,2000,0,91.24,0.000002697398,0.000002697398,0.000002697398,0.99999994,0,0,0,0,0,0,1,1,0,0,0,false,false,true,-659.64996,-3888.5999,17.01,-0.0047393283,0.00066086254,0.9905954,0.1367397,-281.921,362.581,8.311,0,0,4.67091
94.875,2000,0,91.24,0.000002697398,0.000002697398,0.000002697398,0.99999994,0,0,0,0,0,0,1,1,0,0,0,false,false,true,-662,-3885.5798,17.01,-0.0047501177,0.00056915096,0.99306875,0.11743704,-289.181,359.631,8.311,0,0.00010999999,4.67761
94.88333,2000,0,91.24,0.000002697398,0.000002697398,0.000002697398,0.99999994,0,0,0,0,0,0,1,1,0,0,0,false,false,true,-664.41,-3882.5798,17.01,-0.0047609075,0.00047743946,0.99516904,0.09805885,-296.401,356.351,8.311,0,0.00010999999,4.6848097
94.89167,2000,0,91.24,0.000002697398,0.000002697398,0.000002697398,0.99999994,0,0,0,0,0,0,1,1,0,0,0,false,false,true,-666.88,-3879.6099,17.01,-0.0047663017,0.00038572788,0.99689335,0.07861599,-303.571,352.751,8.311,0,0.00010999999,4.69251
94.9,2000,0,91.24,0.000002697398,0.000002697398,0.000002697398,0.99999994,0,0,0,0,0,0,1,1,0,0,0,false,false,true,-669.41,-3876.67,17.01,-0.0047716964,0.00029401635,0.99824,0.059108328,-310.671,348.821,8.311,0,0.00010999999,4.7006097
94.90833,2000,0,91.24,0.000002697398,0.000002697398,0.000002697398,0.99999994,0,0,0,0,0,0,1,1,0,0,0,false,false,true,-672,-3873.76,17.01,-0.004777092,0.00020230486,0.9992062,0.03954672,-317.691,344.581,8.311,0,0.00010999999,4.70911
94.916664,2000,0,91.24,0.000002697398,0.000002697398,0.000002697398,0.99999994,0,0,0,0,0,0,1,1,0,0,0,false,false,true,-674.64996,-3870.89,17.01,-0.004777092,0.00011059332,0.9997898,0.019936552,-324.621,340.021,8.311,0,0.00010999999,4.71801
94.925,2000,0,91.24,0.000002697398,0.000002697398,0.000002697398,0.99999994,0,0,0,0,0,0,1,1,0,0,0,false,false,true,-677.36,-3868.0598,17.01,-0.004777092,0.000018881787,0.9999885,0.000277832,-331.451,335.161,8.311,0,0.00010999999,4.7273097
94.933334,2000,0,91.24,0.000002697398,0.000002697398,0.000002697398,0.99999994,0,0,0,0,0,0,1,1,0,0,0,false,false,true,-680.12,-3865.27,17.01,-0.004777092,-0.000072829745,0.99979997,-0.019418653,-338.171,329.991,8.311,0,0.00010999999,4.73691
94.941666,2000,0,91.24,0.000002697398,0.000002697398,0.000002697398,0.99999994,0,0,0,0,0,0,1,1,0,0,0,false,false,true,-682.94,-3862.52,17.01,-0.004771697,-0.00016454128,0.999222,-0.039147507,-344.771,324.531,8.311,0,0.00010999999,4.74691
