time,ball_loc_x,ball_loc_y,ball_loc_z,ball_rot_x,ball_rot_y,ball_rot_z,ball_rot_w,ball_vel_x,ball_vel_y,ball_vel_z,ball_ang_x,ball_ang_y,ball_ang_z,player0_throttle,player0_steer,player0_pitch,player0_yaw,player0_roll,player0_jump,player0_boost,player0_handbrake,player0_loc_x,player0_loc_y,player0_loc_z,player0_rot_x,player0_rot_y,player0_rot_z,player0_rot_w,player0_vel_x,player0_vel_y,player0_vel_z,player0_ang_x,player0_ang_y,player0_ang_z
63.866665,2000,0,91.24,0.000002697398,0.000002697398,0.000002697398,0.99999994,0,0,0,0,0,0,0.503937,0,0,0,0,false,false,false,0,-4801.7197,17.01,-0.0033582605,0.003347471,0.7070905,0.70710707,0,501.671,8.321,-0.00051,0.00010999999,0
63.875,2000,0,91.24,0.000002697398,0.000002697398,0.000002697398,0.99999994,0,0,0,0,0,0,0,1,0,0,0,false,false,true,0,-4797.54,17.01,-0.0033582605,0.003347471,0.7070905,0.70710707,-11.061,498.001,8.351,-0.00081,0.00291,0.30031002
63.883335,2000,0,91.24,0.000002697398,0.000002697398,0.000002697398,0.99999994,0,0,0,0,0,0,0,1,0,0,0,false,false,true,-0.089999996,-4793.39,17.01,-0.0033582605,0.0033528658,0.7079745,0.70622194,-18.571,495.481,8.361,-0.0010099999,0.00371,0.50231
63.891666,2000,0,91.24,0.000002697398,0.000002697398,0.000002697398,0.99999994,0,0,0,0,0,0,0,1,0,0,0,false,false,true,-0.24,-4789.26,17.01,-0.0033582605,0.0033582605,0.70945126,0.7047384,-25.230999,493.241,8.361,-0.0010099999,0.00391,0.67571
63.9,2000,0,91.24,0.000002697398,0.000002697398,0.000002697398,0.99999994,0,0,0,0,0,0,0,1,0,0,0,false,false,true,-0.45,-4785.15,17.01,-0.0033582605,0.0033636554,0.7114338,0.7027369,-31.251,491.231,8.361,-0.0010099999,0.00361,0.82421
63.908333,2000,0,91.24,0.000002697398,0.000002697398,0.000002697398,0.99999994,0,0,0,0,0,0,0,1,0,0,0,false,false,true,-0.71,-4781.06,17.01,-0.0033636554,0.0033636554,0.7138448,0.7002877,-36.771,489.401,8.361,-0.0010099999,0.00311,0.95111
63.916668,2000,0,91.24,0.000002697398,0.000002697398,0.000002697398,0.99999994,0,0,0,0,0,0,0,1,0,0,0,false,false,true,-1.02,-4776.98,17.01,-0.00336905,0.0033636554,0.7166123,0.6974554,-41.911,487.721,8.361,-0.00091,0.00251,1.05961
63.925,2000,0,91.24,0.000002697398,0.000002697398,0.000002697398,0.99999994,0,0,0,0,0,0,0,1,0,0,0,false,false,true,-1.37,-4772.92,17.01,-0.0033798397,0.0033582605,0.71968603,0.6942832,-46.751,486.151,8.351,-0.00081,0.0019099999,1.1525099
63.933334,2000,0,91.24,0.000002697398,0.000002697398,0.000002697398,0.99999994,0,0,0,0,0,0,0,1,0,0,0,false,false,true,-1.76,-4768.87,17.01,-0.0033906293,0.003347471,0.7230112,0.69081974,-51.361,484.671,8.351,-0.00071,0.00131,1.23211
63.941666,2000,0,91.24,0.000002697398,0.000002697398,0.000002697398,0.99999994,0,0,0,0,0,0,0,1,0,0,0,false,false,true,-2.19,-4764.83,17.01,-0.0034068138,0.0033366815,0.7265496,0.6870973,-55.771,483.261,8.351,-0.00071,0.00071,1.30041
63.95,2000,0,91.24,0.000002697398,0.000002697398,0.000002697398,0.99999994,0,0,0,0,0,0,0,1,0,0,0,false,false,true,-2.6499999,-4760.8,17.01,-0.0034229981,0.003320497,0.73026395,0.6831483,-60.021,481.911,8.351,-0.00061,0.00021,1.35911
63.958332,2000,0,91.24,0.000002697398,0.000002697398,0.000002697398,0.99999994,0,0,0,0,0,0,0,1,0,0,0,false,false,true,-3.1499999,-4756.78,17.01,-0.0034445773,0.0033043127,0.7341229,0.6789997,-64.120995,480.60098,8.341001,-0.00061,-0.00010999999,1.40961
63.966667,2000,0,91.24,0.000002697398,0.000002697398,0.000002697398,0.99999994,0,0,0,0,0,0,0,1,0,0,0,false,false,true,-3.6799998,-4752.77,17.01,-0.0034661565,0.0032881282,0.7380961,0.6746785,-68.090996,479.32098,8.341001,-0.00051,-0.00030999997,1.45311
63.975,2000,0,91.24,0.000002697398,0.000002697398,0.000002697398,0.99999994,0,0,0,0,0,0,0,1,0,0,0,false,false,true,-4.25,-4748.78,17.01,-0.0034877358,0.003266549,0.74216926,0.67019534,-71.921,478.07098,8.341001,-0.00040999998,-0.00051,1.49071
63.983334,2000,0,91.24,0.000002697398,0.000002697398,0.000002697398,0.99999994,0,0,0,0,0,0,0,1,0,0,0,false,false,true,-4.85,-4744.8,17.01,-0.003509315,0.0032449698,0.7463182,0.665572,-75.601,476.841,8.341001,-0.00030999997,-0.00071,1.52311
63.991665,2000,0,91.24,0.000002697398,0.000002697398,0.000002697398,0.99999994,0,0,0,0,0,0,0,1,0,0,0,false,false,true,-5.48,-4740.83,17.01,-0.0035308942,0.0032233908,0.75052506,0.6608246,-79.131,475.63098,8.341001,-0.00021,-0.00091,1.55101
64,2000,0,91.24,0.000002697398,0.000002697398,0.000002697398,0.99999994,0,0,0,0,0,0,0,1,0,0,0,false,false,true,-6.14,-4736.87,17.01,-0.003552473,0.0031964164,0.7547817,0.6559584,-82.501,474.451,8.341001,-0.00021,-0.0010099999,1.57501
64.00833,2000,0,91.24,0.000002697398,0.000002697398,0.000002697398,0.99999994,0,0,0,0,0,0,0,1,0,0,0,false,false,true,-6.83,-4732.92,17.01,-0.0035794475,0.003169443,0.75907135,0.65098983,-85.690994,473.301,8.341001,-0.00021,-0.00111,1.59561
64.01667,2000,0,91.24,0.000002697398,0.000002697398,0.000002697398,0.99999994,0,0,0,0,0,0,0,1,0,0,0,false,false,true,-7.54,-4728.98,17.01,-0.0036064212,0.0031424686,0.763382,0.64592946,-88.671,472.201,8.331,-0.00010999999,-0.00111,1.61321
64.025,2000,0,91.24,0.000002697398,0.000002697398,0.000002697398,0.99999994,0,0,0,0,0,0,0,1,0,0,0,false,false,true,-8.28,-4725.04,17.01,-0.0036333953,0.0031154947,0.76770717,0.64078283,-91.431,471.151,8.331,-0.00010999999,-0.00111,1.6281099
64.03333,2000,0,91.24,0.000002697398,0.000002697398,0.000002697398,0.99999994,0,0,0,0,0,0,0,1,0,0,0,false,false,true,-9.04,-4721.11,17.01,-0.0036603692,0.0030885208,0.77203596,0.6355607,-93.940994,470.161,8.331,0,-0.00111,1.64051
64.041664,2000,0,91.24,0.000002697398,0.000002697398,0.000002697398,0.99999994,0,0,0,0,0,0,0,1,0,0,0,false,false,true,-9.82,-4717.19,17.01,-0.0036873433,0.003061547,0.7763625,0.63026845,-96.171,469.251,8.331,0,-0.0010099999,1.65071
64.05,2000,0,91.24,0.000002697398,0.000002697398,0.000002697398,0.99999994,0,0,0,0,0,0,0,1,0,0,0,false,false,true,-10.62,-4713.28,17.01,-0.0037089223,0.0030345728,0.780681,0.62491125,-98.090996,468.441,8.331,0,-0.00091,1.6589099
64.058334,2000,0,91.24,0.000002697398,0.000002697398,0.000002697398,0.99999994,0,0,0,0,0,0,0,1,0,0,0,false,false,true,-11.44,-4709.38,17.01,-0.0037305015,0.003007599,0.7849817,0.6195003,-99.671,467.751,8.331,0,-0.00091,1.66511
64.066666,2000,0,91.24,0.000002697398,0.000002697398,0.000002697398,0.99999994,0,0,0,0,0,0,0,1,0,0,0,false,false,true,-12.2699995,-4705.48,17.01,-0.0037520807,0.0029806248,0.7892597,0.61404073,-100.870995,467.211,8.321,0,-0.00091,1.66951
64.075,2000,0,91.24,0.000002697398,0.000002697398,0.000002697398,0.99999994,0,0,0,0,0,0,0,1,0,0,0,false,false,true,-13.11,-4701.59,17.01,-0.00377366,0.002953651,0.79351014,0.60853803,-102.131,466.621,8.321,0,-0.00091,1.67381
64.083336,2000,0,91.24,0.000002697398,0.000002697398,0.000002697398,0.99999994,0,0,0,0,0,0,0,1,0,0,0,false,false,true,-13.96,-4697.6997,17.01,-0.0037952391,0.0029266768,0.79773676,0.6029867,-103.440994,465.991,8.321,0,-0.00091,1.67801
64.09167,2000,0,91.24,0.000002697398,0.000002697398,0.000002697398,0.99999994,0,0,0,0,0,0,0,1,0,0,0,false,false,true,-14.82,-4693.82,17.01,-0.0038168184,0.0028997029,0.8019347,0.5973923,-104.800995,465.311,8.321,0,-0.00091,1.68211
64.1,2000,0,91.24,0.000002697398,0.000002697398,0.000002697398,0.99999994,0,0,0,0,0,0,0,1,0,0,0,false,false,true,-15.69,-4689.94,17.01,-0.0038383976,0.002872729,0.8061037,0.59175473,-106.211,464.591,8.321,0,-0.00081,1.68611
64.10833,2000,0,91.24,0.000002697398,0.000002697398,0.000002697398,0.99999994,0,0,0,0,0,0,0,1,0,0,0,false,false,true,-16.58,-4686.07,17.01,-0.0038599768,0.0028457548,0.8102393,0.5860794,-107.671,463.82098,8.321,0,-0.00081,1.69001
64.11667,2000,0,91.24,0.000002697398,0.000002697398,0.000002697398,0.99999994,0,0,0,0,0,0,0,1,0,0,0,false,false,true,-17.48,-4682.1997,17.01,-0.0038815557,0.002818781,0.81434524,0.58036083,-109.171,463.011,8.321,0.00010999999,-0.00081,1.69381
64.125,2000,0,91.24,0.000002697398,0.000002697398,0.000002697398,0.99999994,0,0,0,0,0,0,0,1,0,0,0,false,false,true,-18.39,-4678.34,17.01,-0.003903135,0.0027864121,0.81842077,0.5745992,-110.711,462.151,8.321,0.00010999999,-0.00081,1.69751
64.13333,2000,0,91.24,0.000002697398,0.000002697398,0.000002697398,0.99999994,0,0,0,0,0,0,0,1,0,0,0,false,false,true,-19.31,-4674.4897,17.01,-0.003924714,0.0027540433,0.82246566,0.5687944,-112.291,461.241,8.321,0.00010999999,-0.00071,1.70101
64.14167,2000,0,91.24,0.000002697398,0.000002697398,0.000002697398,0.99999994,0,0,0,0,0,0,0,1,0,0,0,false,false,true,-20.25,-4670.65,17.01,-0.0039462927,0.0027216743,0.82647574,0.5629517,-113.90099,460.281,8.321,0.00010999999,-0.00061,1.70441
64.15,2000,0,91.24,0.000002697398,0.000002697398,0.000002697398,0.99999994,0,0,0,0,0,0,0,1,0,0,0,false,false,true,-21.199999,-4666.81,17.01,-0.0039678724,0.002689306,0.8304543,0.557066,-115.541,459.271,8.321,0.00010999999,-0.00051,1.70771
64.15833,2000,0,91.24,0.000002697398,0.000002697398,0.000002697398,0.99999994,0,0,0,0,0,0,0,1,0,0,0,false,false,true,-22.16,-4662.98,17.01,-0.0039894516,0.002656937,0.83439726,0.5511426,-117.211,458.211,8.321,0,-0.00040999998,1.71091
64.166664,2000,0,91.24,0.000002697398,0.000002697398,0.000002697398,0.99999994,0,0,0,0,0,0,0,1,0,0,0,false,false,true,-23.14,-4659.1597,17.01,-0.004011031,0.002629963,0.8383044,0.5451813,-118.910995,457.10098,8.321,0,-0.00030999997,1.71401
64.175,2000,0,91.24,0.000002697398,0.000002697398,0.000002697398,0.99999994,0,0,0,0,0,0,0,1,0,0,0,false,false,true,-24.13,-4655.35,17.01,-0.00403261,0.002602989,0.84217536,0.5391822,-120.641,455.941,8.321,0,-0.00030999997,1.71701
64.183334,2000,0,91.24,0.000002697398,0.000002697398,0.000002697398,0.99999994,0,0,0,0,0,0,0,1,0,0,0,false,false,true,-25.14,-4651.55,17.01,-0.0040541897,0.0025760154,0.8460099,0.5331455,-122.391,454.731,8.321,0,-0.00021,1.71991
64.191666,2000,0,91.24,0.000002697398,0.000002697398,0.000002697398,0.99999994,0,0,0,0,0,0,0,1,0,0,0,false,false,true,-26.16,-4647.76,17.01,-0.0040757684,0.002549041,0.8498076,0.5270709,-124.160995,453.471,8.321,0.00010999999,-0.00021,1.72261
64.2,2000,0,91.24,0.000002697398,0.000002697398,0.000002697398,0.99999994,0,0,0,0,0,0,0,1,0,0,0,false,false,true,-27.189999,-4643.98,17.01,-0.0040919525,0.0025166722,0.8535684,0.5209586,-125.951,452.161,8.321,0.00021,-0.00010999999,1.72521
64.208336,2000,0,91.24,0.000002697398,0.000002697398,0.000002697398,0.99999994,0,0,0,0,0,0,0,1,0,0,0,false,false,true,-28.24,-4640.21,17.01,-0.004108137,0.0024843037,0.8572917,0.5148084,-127.760994,450.801,8.321,0.00021,-0.00010999999,1.72771
64.21667,2000,0,91.24,0.000002697398,0.000002697398,0.000002697398,0.99999994,0,0,0,0,0,0,0,1,0,0,0,false,false,true,-29.3,-4636.4497,17.01,-0.004124322,0.002451935,0.86097413,0.50862604,-129.58101,449.391,8.321,0.00010999999,-0.00010999999,1.7301099
64.225,2000,0,91.24,0.000002697398,0.000002697398,0.000002697398,0.99999994,0,0,0,0,0,0,0,1,0,0,0,false,false,true,-30.38,-4632.6997,17.01,-0.004140506,0.002419566,0.8646186,0.50240576,-131.41101,447.931,8.321,0.00010999999,-0.00010999999,1.73241
64.23333,2000,0,91.24,0.000002697398,0.000002697398,0.000002697398,0.99999994,0,0,0,0,0,0,0,1,0,0,0,false,false,true,-31.48,-4628.9697,17.01,-0.00415669,0.0023871972,0.8682217,0.49615318,-133.251,446.421,8.321,0,-0.00010999999,1.73451
64.24167,2000,0,91.24,0.000002697398,0.000002697398,0.000002697398,0.99999994,0,0,0,0,0,0,0,1,0,0,0,false,false,true,-32.59,-4625.25,17.01,-0.0041728746,0.0023548284,0.87178326,0.48986822,-135.101,444.861,8.321,0,-0.00010999999,1.7365099
64.25,2000,0,91.24,0.000002697398,0.000002697398,0.000002697398,0.99999994,0,0,0,0,0,0,0,1,0,0,0,false,false,true,-33.719997,-4621.54,17.01,-0.0041890587,0.0023224594,0.87530595,0.48354548,-136.951,443.251,8.321,0,-0.00010999999,1.73841
64.25833,2000,0,91.24,0.000002697398,0.000002697398,0.000002697398,0.99999994,0,0,0,0,0,0,0,1,0,0,0,false,false,true,-34.86,-4617.85,17.01,-0.004205243,0.0022900908,0.87878674,0.47719046,-138.811,441.591,8.321,0,-0.00010999999,1.7402099
64.26667,2000,0,91.24,0.000002697398,0.000002697398,0.000002697398,0.99999994,0,0,0,0,0,0,0,1,0,0,0,false,false,true,-36.02,-4614.17,17.01,-0.0042214277,0.0022577222,0.8822225,0.47080833,-140.671,439.881,8.321,0,-0.00010999999,1.74181
64.275,2000,0,91.24,0.000002697398,0.000002697398,0.000002697398,0.99999994,0,0,0,0,0,0,0,1,0,0,0,false,false,true,-37.19,-4610.5,17.01,-0.0042376122,0.0022253534,0.88561577,0.4643939,-142.531,438.121,8.321,0,-0.00010999999,1.74331
64.28333,2000,0,91.24,0.000002697398,0.000002697398,0.000002697398,0.99999994,0,0,0,0,0,0,0,1,0,0,0,false,false,true,-38.379997,-4606.85,17.01,-0.0042537972,0.0021929848,0.8889665,0.45794716,-144.381,436.32098,8.321,0,-0.00010999999,1.74471
64.291664,2000,0,91.24,0.000002697398,0.000002697398,0.000002697398,0.99999994,0,0,0,0,0,0,0,1,0,0,0,false,false,true,-39.579998,-4603.21,17.01,-0.0042699804,0.0021606155,0.89227164,0.45147324,-146.231,434.471,8.321,0,-0.00010999999,1.74601
64.3,2000,0,91.24,0.000002697398,0.000002697398,0.000002697398,0.99999994,0,0,0,0,0,0,0,1,0,0,0,false,false,true,-40.8,-4599.59,17.01,-0.0042861653,0.002128247,0.89553136,0.44497257,-148.071,432.57098,8.321,-0.00010999999,-0.00010999999,1.74711
64.308334,2000,0,91.24,0.000002697398,0.000002697398,0.000002697398,0.99999994,0,0,0,0,0,0,0,1,0,0,0,false,false,true,-42.03,-4595.98,17.01,-0.0043023503,0.0020958784,0.8987479,0.4384395,-149.901,430.631,8.321,-0.00010999999,-0.00010999999,1.7481099
64.316666,2000,0,91.24,0.000002697398,0.000002697398,0.000002697398,0.99999994,0,0,0,0,0,0,0,1,0,0,0,false,false,true,-43.28,-4592.39,17.01,-0.004318534,0.0020635095,0.9019186,0.4318794,-151.72101,428.641,8.321,-0.00010999999,-0.00010999999,1.74901
64.325,2000,0,91.24,0.000002697398,0.000002697398,0.000002697398,0.99999994,0,0,0,0,0,0,0,1,0,0,0,false,false,true,-44.539997,-4588.82,17.01,-0.004334719,0.002031141,0.90504086,0.42529768,-153.531,426.611,8.321,-0.00010999999,-0.00010999999,1.74981
64.333336,2000,0,91.24,0.000002697398,0.000002697398,0.000002697398,0.99999994,0,0,0,0,0,0,0,1,0,0,0,false,false,true,-45.82,-4585.26,17.01,-0.0043509034,0.0019987721,0.908117,0.41868907,-155.33101,424.531,8.321,-0.00010999999,0,1.75041
64.34167,2000,0,91.24,0.000002697398,0.000002697398,0.000002697398,0.99999994,0,0,0,0,0,0,0,1,0,0,0,false,false,true,-47.11,-4581.7197,17.01,-0.0043670875,0.001966403,0.911147,0.41205344,-157.11101,422.411,8.321,-0.00010999999,0,1.7509099
64.35,2000,0,91.24,0.000002697398,0.000002697398,0.000002697398,0.99999994,0,0,0,0,0,0,0,1,0,0,0,false,false,true,-48.42,-4578.1997,17.01,-0.0043832716,0.0019340344,0.9141285,0.40539616,-158.881,420.251,8.321,-0.00010999999,0,1.75131
64.35833,2000,0,91.24,0.000002697398,0.000002697398,0.000002697398,0.99999994,0,0,0,0,0,0,0,1,0,0,0,false,false,true,-49.739998,-4574.6997,17.01,-0.0043994565,0.0019016658,0.91706127,0.39871743,-160.631,418.051,8.321,-0.00010999999,0,1.75151
64.36667,2000,0,91.24,0.000002697398,0.000002697398,0.000002697398,0.99999994,0,0,0,0,0,0,0,1,0,0,0,false,false,true,-51.079998,-4571.2197,17.01,-0.0044156406,0.0018692969,0.9199477,0.39201167,-162.36101,415.811,8.321,-0.00010999999,0,1.7516099
64.375,2000,0,91.24,0.000002697398,0.000002697398,0.000002697398,0.99999994,0,0,0,0,0,0,0,1,0,0,0,false,false,true,-52.43,-4567.75,17.01,-0.004431825,0.0018369282,0.92278314,0.3852897,-164.071,413.531,8.321,-0.00010999999,0,1.7516099
64.38333,2000,0,91.24,0.000002697398,0.000002697398,0.000002697398,0.99999994,0,0,0,0,0,0,0,1,0,0,0,false,false,true,-53.8,-4564.3,17.01,-0.004442614,0.0018045591,0.92556983,0.37854615,-165.751,411.211,8.321,-0.00010999999,0,1.75151
64.39167,2000,0,91.24,0.000002697398,0.000002697398,0.000002697398,0.99999994,0,0,0,0,0,0,0,1,0,0,0,false,false,true,-55.18,-4560.87,17.01,-0.0044534043,0.0017721907,0.928308,0.37178114,-167.41101,408.851,8.321,-0.00010999999,0,1.75121
64.4,2000,0,91.24,0.000002697398,0.000002697398,0.000002697398,0.99999994,0,0,0,0,0,0,0,1,0,0,0,false,false,true,-56.579998,-4557.46,17.01,-0.004464194,0.0017398219,0.9309952,0.3649999,-169.041,406.461,8.321,-0.00010999999,0,1.75081
64.40833,2000,0,91.24,0.000002697398,0.000002697398,0.000002697398,0.99999994,0,0,0,0,0,0,0,1,0,0,0,false,false,true,-57.989998,-4554.07,17.01,-0.0044749826,0.0017074527,0.9336336,0.35819688,-170.651,404.031,8.321,-0.00010999999,0,1.75031
64.416664,2000,0,91.24,0.000002697398,0.000002697398,0.000002697398,0.99999994,0,0,0,0,0,0,0,1,0,0,0,false,false,true,-59.41,-4550.6997,17.01,-0.0044857725,0.001675084,0.9362213,0.35137787,-172.231,401.57098,8.321,-0.00010999999,0,1.74961
64.425,2000,0,91.24,0.000002697398,0.000002697398,0.000002697398,0.99999994,0,0,0,0,0,0,0,1,0,0,0,false,false,true,-60.85,-4547.35,17.01,-0.0044965628,0.0016427155,0.93875843,0.3445427,-173.781,399.07098,8.321,-0.00010999999,0,1.7488099
64.433334,2000,0,91.24,0.000002697398,0.000002697398,0.000002697398,0.99999994,0,0,0,0,0,0,0,1,0,0,0,false,false,true,-62.3,-4544.02,17.01,-0.004507352,0.0016103466,0.9412447,0.33769122,-175.30101,396.541,8.321,-0.00010999999,0,1.74791
64.441666,2000,0,91.24,0.000002697398,0.000002697398,0.000002697398,0.99999994,0,0,0,0,0,0,0,1,0,0,0,false,false,true,-63.76,-4540.7197,17.01,-0.0045181415,0.0015779779,0.9436785,0.33082902,-176.791,393.981,8.321,-0.00010999999,0,1.74681
64.45,2000,0,91.24,0.000002697398,0.000002697398,0.000002697398,0.99999994,0,0,0,0,0,0,0,1,0,0,0,false,false,true,-65.229996,-4537.44,17.01,-0.004528932,0.0015456092,0.94606185,0.3239507,-178.241,391.391,8.321,-0.00010999999,0,1.74561
64.458336,2000,0,91.24,0.000002697398,0.000002697398,0.000002697398,0.99999994,0,0,0,0,0,0,0,1,0,0,0,false,false,true,-66.72,-4534.1797,17.01,-0.0045397207,0.0015132403,0.94839287,0.31706142,-179.661,388.781,8.321,-0.00010999999,0,1.74431
64.46667,2000,0,91.24,0.000002697398,0.000002697398,0.000002697398,0.99999994,0,0,0,0,0,0,0,1,0,0,0,false,false,true,-68.22,-4530.94,17.01,-0.0045505106,0.0014808716,0.9506718,0.3101615,-181.05101,386.141,8.321,-0.00010999999,0,1.74281
64.475,2000,0,91.24,0.000002697398,0.000002697398,0.000002697398,0.99999994,0,0,0,0,0,0,0,1,0,0,0,false,false,true,-69.729996,-4527.7197,17.01,-0.0045612995,0.0014485026,0.9528986,0.30325073,-182.401,383.471,8.321,-0.00010999999,0,1.74121
64.48333,2000,0,91.24,0.000002697398,0.000002697398,0.000002697398,0.99999994,0,0,0,0,0,0,0,1,0,0,0,false,false,true,-71.25,-4524.52,17.01,-0.00457209,0.0014161341,0.95507383,0.29632917,-183.72101,380.781,8.321,-0.00010999999,0,1.7395099
64.49167,2000,0,91.24,0.000002697398,0.000002697398,0.000002697398,0.99999994,0,0,0,0,0,0,0,1,0,0,0,false,false,true,-72.78,-4521.35,17.01,-0.004582879,0.0013837651,0.9571972,0.28939682,-185.001,378.07098,8.321,-0.00010999999,0,1.73761
64.5,2000,0,91.24,0.000002697398,0.000002697398,0.000002697398,0.99999994,0,0,0,0,0,0,0,1,0,0,0,false,false,true,-74.32,-4518.1997,17.01,-0.004593669,0.0013513964,0.9592673,0.2824591,-186.241,375.341,8.321,-0.00010999999,0,1.73561
64.50833,2000,0,91.24,0.000002697398,0.000002697398,0.000002697398,0.99999994,0,0,0,0,0,0,0,1,0,0,0,false,false,true,-75.869995,-4515.07,17.01,-0.004604459,0.0013190277,0.9612845,0.27551597,-187.44101,372.591,8.321,-0.00010999999,0,1.73351
64.51667,2000,0,91.24,0.000002697398,0.000002697398,0.000002697398,0.99999994,0,0,0,0,0,0,0,1,0,0,0,false,false,true,-77.43,-4511.96,17.01,-0.004615248,0.0012866588,0.9632489,0.26856744,-188.601,369.82098,8.321,0,0,1.73131
64.525,2000,0,91.24,0.000002697398,0.000002697398,0.000002697398,0.99999994,0,0,0,0,0,0,0,1,0,0,0,false,false,true,-79,-4508.88,17.01,-0.0046260376,0.0012542901,0.9651607,0.26161355,-189.72101,367.031,8.321,0,0,1.72891
64.53333,2000,0,91.24,0.000002697398,0.000002697398,0.000002697398,0.99999994,0,0,0,0,0,0,0,1,0,0,0,false,false,true,-80.58,-4505.82,17.01,-0.004636827,0.0012219213,0.9670202,0.25465426,-190.80101,364.231,8.321,0,0,1.7264099
64.541664,2000,0,91.24,0.000002697398,0.000002697398,0.000002697398,0.99999994,0,0,0,0,0,0,0,1,0,0,0,false,false,true,-82.17,-4502.78,17.01,-0.0046476168,0.0011895525,0.96882755,0.2476895,-191.841,361.411,8.321,0,0,1.72381
64.55,2000,0,91.24,0.000002697398,0.000002697398,0.000002697398,0.99999994,0,0,0,0,0,0,0,1,0,0,0,false,false,true,-83.77,-4499.77,17.01,-0.004658406,0.0011571838,0.9705815,0.24072483,-192.841,358.581,8.321,0,0,1.72101
64.558334,2000,0,91.24,0.000002697398,0.000002697398,0.000002697398,0.99999994,0,0,0,0,0,0,0,1,0,0,0,false,false,true,-85.38,-4496.78,17.01,-0.0046691964,0.0011248151,0.9722824,0.23376016,-193.80101,355.741,8.321,0,0,1.71811
64.566666,2000,0,91.24,0.000002697398,0.000002697398,0.000002697398,0.99999994,0,0,0,0,0,0,0,1,0,0,0,false,false,true,-86.99,-4493.82,17.01,-0.0046745907,0.0010924462,0.97393054,0.22679538,-194.72101,352.891,8.321,0,0,1.71511
64.575,2000,0,91.24,0.000002697398,0.000002697398,0.000002697398,0.99999994,0,0,0,0,0,0,0,1,0,0,0,false,false,true,-88.61,-4490.88,17.01,-0.0046799853,0.0010600775,0.9755262,0.21983069,-195.601,350.031,8.321,0,0,1.71191
64.583336,2000,0,91.24,0.000002697398,0.000002697398,0.000002697398,0.99999994,0,0,0,0,0,0,0,1,0,0,0,false,false,true,-90.24,-4487.96,17.01,-0.0046853805,0.0010277086,0.97706956,0.21286601,-196.44101,347.161,8.321,0,0,1.7086099
64.59167,2000,0,91.24,0.000002697398,0.000002697398,0.000002697398,0.99999994,0,0,0,0,0,0,0,1,0,0,0,false,false,true,-91.88,-4485.07,17.01,-0.0046907756,0.00099534,0.97855985,0.20590666,-197.241,344.291,8.321,0,0,1.70521
64.6,2000,0,91.24,0.000002697398,0.000002697398,0.000002697398,0.99999994,0,0,0,0,0,0,0,1,0,0,0,false,false,true,-93.52,-4482.1997,17.01,-0.0046961694,0.000962971,0.9799983,0.19894734,-197.991,341.411,8.321,0,0,1.70171
64.60833,2000,0,91.24,0.000002697398,0.000002697398,0.000002697398,0.99999994,0,0,0,0,0,0,0,1,0,0,0,false,false,true,-95.17,-4479.35,17.01,-0.0047015646,0.0009306023,0.98138446,0.19199346,-198.701,338.531,8.321,0,0,1.69801
64.61667,2000,0,91.24,0.000002697398,0.000002697398,0.000002697398,0.99999994,0,0,0,0,0,0,0,1,0,0,0,false,false,true,-96.829994,-4476.53,17.01,-0.00470696,0.0008982336,0.98271835,0.1850449,-199.371,335.651,8.321,0,0,1.6942099
64.625,2000,0,91.24,0.000002697398,0.000002697398,0.000002697398,0.99999994,0,0,0,0,0,0,0,1,0,0,0,false,false,true,-98.49,-4473.73,17.01,-0.004712355,0.00086586486,0.9840004,0.1781018,-200.001,332.771,8.321,0.00010999999,-0.00010999999,1.69031
64.63333,2000,0,91.24,0.000002697398,0.000002697398,0.000002697398,0.99999994,0,0,0,0,0,0,0,1,0,0,0,false,false,true,-100.159996,-4470.96,17.01,-0.004717749,0.000833496,0.9852299,0.17116946,-200.591,329.891,8.321,0.00010999999,-0.00010999999,1.6863099
64.64167,2000,0,91.24,0.000002697398,0.000002697398,0.000002697398,0.99999994,0,0,0,0,0,0,0,1,0,0,0,false,false,true,-101.829994,-4468.21,17.01,-0.004723144,0.0008011273,0.98640835,0.16424248,-201.131,327.011,8.321,0.00010999999,-0.00010999999,1.68211
64.65,2000,0,91.24,0.000002697398,0.000002697398,0.000002697398,0.99999994,0,0,0,0,0,0,0,1,0,0,0,false,false,true,-103.509995,-4465.48,17.01,-0.0047285384,0.0007687585,0.987535,0.15732633,-201.631,324.131,8.321,0.00010999999,-0.00010999999,1.67781
64.65833,2000,0,91.24,0.000002697398,0.000002697398,0.000002697398,0.99999994,0,0,0,0,0,0,0,1,0,0,0,false,false,true,-105.189995,-4462.78,17.01,-0.0047339336,0.00073638966,0.9886104,0.150421,-202.091,321.261,8.321,0.00021,-0.00010999999,1.6734099
64.666664,2000,0,91.24,0.000002697398,0.000002697398,0.000002697398,0.99999994,0,0,0,0,0,0,0,1,0,0,0,false,false,true,-106.869995,-4460.1,17.01,-0.0047393288,0.00070402096,0.9896349,0.14352638,-202.511,318.391,8.321,0.00021,-0.00010999999,1.66891
64.675,2000,0,91.24,0.000002697398,0.000002697398,0.000002697398,0.99999994,0,0,0,0,0,0,0,1,0,0,0,false,false,true,-108.56,-4457.4497,17.01,-0.004744723,0.0006716521,0.99060875,0.13664259,-202.891,315.531,8.321,0.00021,-0.00010999999,1.66421
64.683334,2000,0,91.24,0.000002697398,0.000002697398,0.000002697398,0.99999994,0,0,0,0,0,0,0,1,0,0,0,false,false,true,-110.25,-4454.82,17.01,-0.004750118,0.0006392834,0.99153256,0.12976964,-203.231,312.681,8.321,0.00021,-0.00010999999,1.65941
64.691666,2000,0,91.24,0.000002697398,0.000002697398,0.000002697398,0.99999994,0,0,0,0,0,0,0,1,0,0,0,false,false,true,-111.939995,-4452.21,17.01,-0.004755513,0.0006069146,0.99240583,0.12291285,-203.531,309.841,8.321,0.00030999997,-0.00010999999,1.65451
64.7,2000,0,91.24,0.000002697398,0.000002697398,0.000002697398,0.99999994,0,0,0,0,0,0,0,1,0,0,0,false,false,true,-113.64,-4449.63,17.01,-0.004760907,0.0005745457,0.9932297,0.11606675,-203.791,307.011,8.321,0.00030999997,-0.00010999999,1.64951
64.708336,2000,0,91.24,0.000002697398,0.000002697398,0.000002697398,0.99999994,0,0,0,0,0,0,0,1,0,0,0,false,false,true,-115.34,-4447.07,17.01,-0.0047663026,0.00054217706,0.99400413,0.109236956,-204.011,304.191,8.321,0.00030999997,-0.00010999999,1.64441
64.71667,2000,0,91.24,0.000002697398,0.000002697398,0.000002697398,0.99999994,0,0,0,0,0,0,0,1,0,0,0,false,false,true,-117.04,-4444.53,17.01,-0.004771697,0.0005098082,0.9947293,0.102423325,-204.19101,301.391,8.321,0.00030999997,-0.00010999999,1.63921
64.725,2000,0,91.24,0.000002697398,0.000002697398,0.000002697398,0.99999994,0,0,0,0,0,0,0,1,0,0,0,false,false,true,-118.74,-4442.02,17.01,-0.0047770925,0.0004774395,0.99540573,0.0956258,-204.33101,298.601,8.321,0.00030999997,0,1.6338099
64.73333,2000,0,91.24,0.000002697398,0.000002697398,0.000002697398,0.99999994,0,0,0,0,0,0,0,1,0,0,0,false,false,true,-120.439995,-4439.53,17.01,-0.0047824867,0.00044507068,0.9960334,0.08884993,-204.431,295.821,8.321,0.00030999997,0,1.62831
64.74167,2000,0,91.24,0.000002697398,0.000002697398,0.000002697398,0.99999994,0,0,0,0,0,0,0,1,0,0,0,false,false,true,-122.14,-4437.06,17.01,-0.004787882,0.00041270192,0.9966133,0.08209026,-204.501,293.061,8.321,0.00040999998,0,1.62271
64.75,2000,0,91.24,0.000002697398,0.000002697398,0.000002697398,0.99999994,0,0,0,0,0,0,0,1,0,0,0,false,false,true,-123.84,-4434.62,17.01,-0.0047878814,0.00038033313,0.99714535,0.075352065,-204.531,290.321,8.321,0.00040999998,0,1.61701
64.75833,2000,0,91.24,0.000002697398,0.000002697398,0.000002697398,0.99999994,0,0,0,0,0,0,0,1,0,0,0,false,false,true,-125.54,-4432.1997,17.01,-0.004787882,0.00034796438,0.9976306,0.06863016,-204.521,287.601,8.321,0.00040999998,0,1.61121
64.76667,2000,0,91.24,0.000002697398,0.000002697398,0.000002697398,0.99999994,0,0,0,0,0,0,0,1,0,0,0,false,false,true,-127.24,-4429.8,17.01,-0.004787882,0.0003155956,0.9980689,0.06192982,-204.481,284.901,8.321,0.00040999998,0,1.60531
64.775,2000,0,91.24,0.000002697398,0.000002697398,0.000002697398,0.99999994,0,0,0,0,0,0,0,1,0,0,0,false,false,true,-128.94,-4427.4297,17.01,-0.004787881,0.00028322675,0.9984608,0.05525105,-204.401,282.221,8.321,0.00040999998,0,1.59921
64.78333,2000,0,91.24,0.000002697398,0.000002697398,0.000002697398,0.99999994,0,0,0,0,0,0,0,1,0,0,0,false,false,true,-130.64,-4425.08,17.01,-0.0047878814,0.00025085802,0.9988068,0.04859919,-204.291,279.561,8.321,0.00040999998,0,1.59301
64.791664,2000,0,91.24,0.000002697398,0.000002697398,0.000002697398,0.99999994,0,0,0,0,0,0,0,1,0,0,0,false,false,true,-132.34,-4422.75,17.01,-0.004787882,0.00021848927,0.9991074,0.041968986,-204.141,276.921,8.321,0.00040999998,0,1.58671
64.8,2000,0,91.24,0.000002697398,0.000002697398,0.000002697398,0.99999994,0,0,0,0,0,0,0,1,0,0,0,false,false,true,-134.04,-4420.44,17.01,-0.004787882,0.00018612048,0.9993631,0.035360362,-203.961,274.301,8.321,0.00040999998,0,1.58031
64.808334,2000,0,91.24,0.000002697398,0.000002697398,0.000002697398,0.99999994,0,0,0,0,0,0,0,1,0,0,0,false,false,true,-135.73999,-4418.15,17.01,-0.004787882,0.0001537517,0.9995743,0.028778626,-203.751,271.711,8.321,0.00040999998,0,1.57381
64.816666,2000,0,91.24,0.000002697398,0.000002697398,0.000002697398,0.99999994,0,0,0,0,0,0,0,1,0,0,0,false,false,true,-137.44,-4415.89,17.01,-0.0047878814,0.00012138292,0.9997415,0.022223948,-203.511,269.141,8.321,0.00040999998,0,1.56721
64.825,2000,0,91.24,0.000002697398,0.000002697398,0.000002697398,0.99999994,0,0,0,0,0,0,0,1,0,0,0,false,false,true,-139.14,-4413.65,17.01,-0.0047878814,0.00008901414,0.9998653,0.015696242,-203.241,266.601,8.321,0.00040999998,0,1.5605099
64.833336,2000,0,91.24,0.000002697398,0.000002697398,0.000002697398,0.99999994,0,0,0,0,0,0,0,1,0,0,0,false,false,true,-140.83,-4411.4297,17.01,-0.0047878814,0.00005664536,0.9999462,0.009195429,-202.94101,264.081,8.321,0.00040999998,-0.00010999999,1.55371
64.84167,2000,0,91.24,0.000002697398,0.000002697398,0.000002697398,0.99999994,0,0,0,0,0,0,0,1,0,0,0,false,false,true,-142.52,-4409.23,17.01,-0.004787882,0.000024276584,0.9999848,0.0027216747,-202.61101,261.591,8.321,0.00040999998,-0.00010999999,1.54681
64.85,2000,0,91.24,0.000002697398,0.000002697398,0.000002697398,0.99999994,0,0,0,0,0,0,0,1,0,0,0,false,false,true,-144.20999,-4407.05,17.01,-0.0047878814,-0.000008092194,0.9999815,-0.0037251068,-202.251,259.131,8.321,0.00040999998,-0.00010999999,1.53981
64.85833,2000,0,91.24,0.000002697398,0.000002697398,0.000002697398,0.99999994,0,0,0,0,0,0,0,1,0,0,0,false,false,true,-145.9,-4404.89,17.01,-0.0047878814,-0.00004046097,0.99993706,-0.010139561,-201.871,256.691,8.321,0.00040999998,-0.00010999999,1.53271
64.86667,2000,0,91.24,0.000002697398,0.000002697398,0.000002697398,0.99999994,0,0,0,0,0,0,0,1,0,0,0,false,false,true,-147.58,-4402.75,17.01,-0.0047878814,-0.000072829745,0.9998519,-0.016526999,-201.461,254.281,8.321,0.00030999997,-0.00010999999,1.5254099
64.875,2000,0,91.24,0.000002697398,0.000002697398,0.000002697398,0.99999994,0,0,0,0,0,0,0,1,0,0,0,false,false,true,-149.26,-4400.63,17.01,-0.0047878814,-0.000105198524,0.99972665,-0.022882111,-201.031,251.901,8.321,0.00030999997,-0.00010999999,1.51801
64.88333,2000,0,91.24,0.000002697398,0.000002697398,0.000002697398,0.99999994,0,0,0,0,0,0,0,1,0,0,0,false,false,true,-150.94,-4398.53,17.01,-0.0047878814,-0.0001375673,0.9995619,-0.029204855,-200.571,249.551,8.321,0.00030999997,-0.00010999999,1.51051
64.89167,2000,0,91.24,0.000002697398,0.000002697398,0.000002697398,0.99999994,0,0,0,0,0,0,0,1,0,0,0,false,false,true,-152.61,-4396.4497,17.01,-0.0047878814,-0.00016993607,0.9993583,-0.035495188,-200.091,247.231,8.321,0.00021,-0.00010999999,1.50291
64.9,2000,0,91.24,0.000002697398,0.000002697398,0.000002697398,0.99999994,0,0,0,0,0,0,0,1,0,0,0,false,false,true,-154.28,-4394.39,17.01,-0.004787882,-0.00020230487,0.9991164,-0.041753195,-199.591,244.941,8.321,0.00021,-0.00010999999,1.4952099
64.90833,2000,0,91.24,0.000002697398,0.000002697398,0.000002697398,0.99999994,0,0,0,0,0,0,0,1,0,0,0,false,false,true,-155.94,-4392.35,17.01,-0.0047878814,-0.00023467363,0.99883676,-0.04797879,-199.061,242.681,8.321,0.00010999999,-0.00010999999,1.48741
64.916664,2000,0,91.24,0.000002697398,0.000002697398,0.000002697398,0.99999994,0,0,0,0,0,0,0,1,0,0,0,false,false,true,-157.59999,-4390.33,17.01,-0.0047878814,-0.0002670424,0.9985203,-0.05416666,-198.511,240.461,8.321,0.00010999999,0,1.47951
64.925,2000,0,91.24,0.000002697398,0.000002697398,0.000002697398,0.99999994,0,0,0,0,0,0,0,1,0,0,0,false,false,true,-159.25,-4388.33,17.01,-0.004787882,-0.00029941121,0.9981674,-0.06032213,-197.94101,238.271,8.321,0,0,1.4715099
64.933334,2000,0,91.24,0.000002697398,0.000002697398,0.000002697398,0.99999994,0,0,0,0,0,0,0,1,0,0,0,false,false,true,-160.9,-4386.34,17.01,-0.0047878814,-0.00032638517,0.99777883,-0.06643986,-197.351,236.11101,8.321,0,0,1.46341
64.941666,2000,0,91.24,0.000002697398,0.000002697398,0.000002697398,0.99999994,0,0,0,0,0,0,0,1,0,0,0,false,false,true,-162.54,-4384.37,17.01,-0.004787882,-0.00035335918,0.997355,-0.07252524,-196.751,233.981,8.321,0,0,1.45521
64.95,2000,0,91.24,0.000002697398,0.000002697398,0.000002697398,0.99999994,0,0,0,0,0,0,0,1,0,0,0,false,false,true,-164.18,-4382.42,17.01,-0.0047878814,-0.00038033313,0.99689674,-0.0785728,-196.131,231.891,8.321,0,0,1.44691
64.958336,2000,0,91.24,0.000002697398,0.000002697398,0.000002697398,0.99999994,0,0,0,0,0,0,0,1,0,0,0,false,false,true,-165.81,-4380.4897,17.01,-0.0047878814,-0.00040730712,0.9964048,-0.08458265,-195.491,229.83101,8.321,0,0,1.43851
64.96667,2000,0,91.24,0.000002697398,0.000002697398,0.000002697398,0.99999994,0,0,0,0,0,0,0,1,0,0,0,false,false,true,-167.44,-4378.57,17.01,-0.0047878814,-0.0004342811,0.9958798,-0.090554684,-194.841,227.801,8.321,0,0,1.43001
64.975,2000,0,91.24,0.000002697398,0.000002697398,0.000002697398,0.99999994,0,0,0,0,0,0,0,1,0,0,0,false,false,true,-169.06,-4376.67,17.01,-0.004787882,-0.0004612551,0.9953224,-0.09648901,-194.181,225.811,8.321,0,0.00010999999,1.42141
64.98333,2000,0,91.24,0.000002697398,0.000002697398,0.000002697398,0.99999994,0,0,0,0,0,0,0,1,0,0,0,false,false,true,-170.68,-4374.79,17.01,-0.004782487,-0.0004882291,0.9947337,-0.10238013,-193.501,223.851,8.321,0,0.00021,1.41271
64.99167,2000,0,91.24,0.000002697398,0.000002697398,0.000002697398,0.99999994,0,0,0,0,0,0,0,1,0,0,0,false,false,true,-172.29,-4372.92,17.01,-0.0047770925,-0.00051520305,0.99411386,-0.10823353,-192.811,221.931,8.321,0,0.00021,1.4039099
65,2000,0,91.24,0.000002697398,0.000002697398,0.000002697398,0.99999994,0,0,0,0,0,0,0,1,0,0,0,false,false,true,-173.9,-4371.07,17.01,-0.004771697,-0.000542177,0.99346346,-0.11404911,-192.11101,220.041,8.321,0.00010999999,0.00021,1.39491
65.00833,2000,0,91.24,0.000002697398,0.000002697398,0.000002697398,0.99999994,0,0,0,0,0,0,0,1,0,0,0,false,false,true,-175.5,-4369.2397,17.01,-0.0047663017,-0.0005691509,0.99278367,-0.11982157,-191.401,218.181,8.321,0.00010999999,0.00010999999,1.38581
65.01667,2000,0,91.24,0.000002697398,0.000002697398,0.000002697398,0.99999994,0,0,0,0,0,0,0,1,0,0,0,false,false,true,-177.09,-4367.42,17.01,-0.0047609075,-0.00059612497,0.9920755,-0.12555085,-190.681,216.36101,8.321,0.00010999999,0.00010999999,1.3766099
65.025,2000,0,91.24,0.000002697398,0.000002697398,0.000002697398,0.99999994,0,0,0,0,0,0,0,1,0,0,0,false,false,true,-178.68,-4365.62,17.01,-0.0047555133,-0.000623099,0.9913394,-0.13123703,-189.951,214.571,8.321,0.00021,0.00010999999,1.3673099
65.03333,2000,0,91.24,0.000002697398,0.000002697398,0.000002697398,0.99999994,0,0,0,0,0,0,0,1,0,0,0,false,false,true,-180.26,-4363.83,17.01,-0.0047501177,-0.00065007294,0.99057597,-0.13687997,-189.22101,212.821,8.321,0.00021,0,1.35791
65.041664,2000,0,91.24,0.000002697398,0.000002697398,0.000002697398,0.99999994,0,0,0,0,0,0,0,1,0,0,0,false,false,true,-181.84,-4362.06,17.01,-0.0047447234,-0.00067704695,0.9897861,-0.14247982,-188.481,211.101,8.321,0.00021,0,1.34841
65.05,2000,0,91.24,0.000002697398,0.000002697398,0.000002697398,0.99999994,0,0,0,0,0,0,0,1,0,0,0,false,false,true,-183.40999,-4360.3,17.01,-0.0047393288,-0.00070402096,0.9889703,-0.14803647,-187.731,209.421,8.321,0.00021,0,1.33881
65.058334,2000,0,91.24,0.000002697398,0.000002697398,0.000002697398,0.99999994,0,0,0,0,0,0,0,1,0,0,0,false,false,true,-184.97,-4358.55,17.01,-0.004733934,-0.0007309949,0.98812926,-0.15354998,-186.981,207.771,8.321,0.00021,0,1.32911
65.066666,2000,0,91.24,0.000002697398,0.000002697398,0.000002697398,0.99999994,0,0,0,0,0,0,0,1,0,0,0,false,false,true,-186.53,-4356.82,17.01,-0.004728539,-0.0007579689,0.9872637,-0.1590203,-186.231,206.161,8.321,0.00021,0,1.3192099
65.075,2000,0,91.24,0.000002697398,0.000002697398,0.000002697398,0.99999994,0,0,0,0,0,0,0,1,0,0,0,false,false,true,-188.08,-4355.1,17.01,-0.0047231433,-0.00078494276,0.986375,-0.16444209,-185.47101,204.58101,8.321,0.00021,0,1.30921
65.083336,2000,0,91.24,0.000002697398,0.000002697398,0.000002697398,0.99999994,0,0,0,0,0,0,0,1,0,0,0,false,false,true,-189.62999,-4353.39,17.01,-0.0047177495,-0.0008119169,0.9854633,-0.16982074,-184.711,203.031,8.321,0.00021,0,1.2991099
65.09167,2000,0,91.24,0.000002697398,0.000002697398,0.000002697398,0.99999994,0,0,0,0,0,0,0,1,0,0,0,false,false,true,-191.17,-4351.6997,17.01,-0.004712355,-0.00083889085,0.98453,-0.17515084,-183.94101,201.511,8.321,0.00021,0,1.28931
65.1,2000,0,91.24,0.000002697398,0.000002697398,0.000002697398,0.99999994,0,0,0,0,0,0,0,1,0,0,0,false,false,true,-192.7,-4350.02,17.01,-0.00470696,-0.00086586486,0.98357475,-0.18043773,-183.161,200.011,8.321,0.00021,0,1.27981
65.10833,2000,0,91.24,0.000002697398,0.000002697398,0.000002697398,0.99999994,0,0,0,0,0,0,0,1,0,0,0,false,false,true,-194.23,-4348.35,17.01,-0.004701565,-0.0008928388,0.9825983,-0.18568152,-182.371,198.541,8.321,0.00021,0,1.27061
65.11667,2000,0,91.24,0.000002697398,0.000002697398,0.000002697398,0.99999994,0,0,0,0,0,0,0,1,0,0,0,false,false,true,-195.75,-4346.6997,17.01,-0.0046961703,-0.0009198128,0.9816013,-0.1908821,-181.58101,197.091,8.321,0.00021,0,1.26161
65.125,2000,0,91.24,0.000002697398,0.000002697398,0.000002697398,0.99999994,0,0,0,0,0,0,0,1,0,0,0,false,false,true,-197.26,-4345.06,17.01,-0.004690775,-0.0009467867,0.98058426,-0.19603956,-180.781,195.671,8.321,0.00021,-0.00010999999,1.25291
65.13333,2000,0,91.24,0.000002697398,0.000002697398,0.000002697398,0.99999994,0,0,0,0,0,0,0,1,0,0,0,false,false,true,-198.76999,-4343.4297,17.01,-0.0046853805,-0.00097376073,0.9795479,-0.20115383,-179.97101,194.281,8.321,0.00010999999,-0.00010999999,1.24441
65.14167,2000,0,91.24,0.000002697398,0.000002697398,0.000002697398,0.99999994,0,0,0,0,0,0,0,1,0,0,0,false,false,true,-200.26999,-4341.81,17.01,-0.0046799853,-0.0010007346,0.9784917,-0.20623037,-179.161,192.911,8.321,0,-0.00010999999,1.23621
65.15,2000,0,91.24,0.000002697398,0.000002697398,0.000002697398,0.99999994,0,0,0,0,0,0,0,1,0,0,0,false,false,true,-201.76,-4340.1997,17.01,-0.0046745907,-0.0010223138,0.97741616,-0.21126911,-178.341,191.571,8.321,0,-0.00010999999,1.22821
65.15833,2000,0,91.24,0.000002697398,0.000002697398,0.000002697398,0.99999994,0,0,0,0,0,0,0,1,0,0,0,false,false,true,-203.25,-4338.6,17.01,-0.0046691964,-0.0010438932,0.9763218,-0.21627015,-177.521,190.251,8.321,0,-0.00010999999,1.22041
65.166664,2000,0,91.24,0.000002697398,0.000002697398,0.000002697398,0.99999994,0,0,0,0,0,0,0,1,0,0,0,false,false,true,-204.73,-4337.01,17.01,-0.0046638013,-0.0010654721,0.9752091,-0.22123334,-176.701,188.961,8.321,0,-0.00010999999,1.2129099
65.175,2000,0,91.24,0.000002697398,0.000002697398,0.000002697398,0.99999994,0,0,0,0,0,0,0,1,0,0,0,false,false,true,-206.2,-4335.4297,17.01,-0.004658406,-0.0010870514,0.97407866,-0.22615878,-175.871,187.701,8.321,0,-0.00010999999,1.20561
65.183334,2000,0,91.24,0.000002697398,0.000002697398,0.000002697398,0.99999994,0,0,0,0,0,0,0,1,0,0,0,false,false,true,-207.67,-4333.87,17.01,-0.004653012,-0.0011086307,0.9729309,-0.23104653,-175.041,186.461,8.321,0,-0.00010999999,1.1985099
65.191666,2000,0,91.24,0.000002697398,0.000002697398,0.000002697398,0.99999994,0,0,0,0,0,0,0,1,0,0,0,false,false,true,-209.12999,-4332.32,17.01,-0.0046476163,-0.0011302097,0.971765,-0.2359018,-174.211,185.251,8.321,0,-0.00010999999,1.19161
65.2,2000,0,91.24,0.000002697398,0.000002697398,0.000002697398,0.99999994,0,0,0,0,0,0,0,1,0,0,0,false,false,true,-210.58,-4330.78,17.01,-0.004642222,-0.001151789,0.97058153,-0.24072483,-173.381,184.061,8.321,0.00010999999,-0.00010999999,1.1849099
65.208336,2000,0,91.24,0.000002697398,0.000002697398,0.000002697398,0.99999994,0,0,0,0,0,0,0,1,0,0,0,false,false,true,-212.01999,-4329.25,17.01,-0.0046368274,-0.0011733682,0.96938086,-0.24551542,-172.55101,182.901,8.321,0.00010999999,-0.00010999999,1.1784099
65.21667,2000,0,91.24,0.000002697398,0.000002697398,0.000002697398,0.99999994,0,0,0,0,0,0,0,1,0,0,0,false,false,true,-213.45999,-4327.73,17.01,-0.0046314322,-0.0011949473,0.96816325,-0.25027364,-171.72101,181.771,8.321,0.00010999999,-0.00010999999,1.17211
65.225,2000,0,91.24,0.000002697398,0.000002697398,0.000002697398,0.99999994,0,0,0,0,0,0,0,1,0,0,0,false,false,true,-214.89,-4326.21,17.01,-0.004626037,-0.0012165264,0.9669292,-0.25499946,-170.901,180.661,8.321,0.00021,-0.00010999999,1.16601
65.23333,2000,0,91.24,0.000002697398,0.000002697398,0.000002697398,0.99999994,0,0,0,0,0,0,0,1,0,0,0,false,false,true,-216.31,-4324.6997,17.01,-0.0046206424,-0.0012381056,0.9656792,-0.25969297,-170.08101,179.58101,8.321,0.00021,-0.00010999999,1.16011
65.24167,2000,0,91.24,0.000002697398,0.000002697398,0.000002697398,0.99999994,0,0,0,0,0,0,0,1,0,0,0,false,false,true,-217.73,-4323.1997,17.01,-0.004615248,-0.0012596849,0.9644123,-0.2643595,-169.261,178.531,8.321,0.00021,-0.00010999999,1.15441
65.25,2000,0,91.24,0.000002697398,0.000002697398,0.000002697398,0.99999994,0,0,0,0,0,0,0,1,0,0,0,false,false,true,-219.14,-4321.71,17.01,-0.004609853,-0.001281264,0.96313,-0.26899362,-168.451,177.501,8.321,0.00021,-0.00010999999,1.1489099
65.25833,2000,0,91.24,0.000002697398,0.000002697398,0.000002697398,0.99999994,0,0,0,0,0,0,0,1,0,0,0,false,false,true,-220.54,-4320.23,17.01,-0.004604458,-0.0013028431,0.9618313,-0.2736008,-167.641,176.501,8.321,0.00021,-0.00010999999,1.14351
65.26667,2000,0,91.24,0.000002697398,0.000002697398,0.000002697398,0.99999994,0,0,0,0,0,0,0,1,0,0,0,false,false,true,-221.94,-4318.76,17.01,-0.0045990637,-0.0013244224,0.9605167,-0.27818102,-166.841,175.521,8.321,0.00021,-0.00010999999,1.13831
65.275,2000,0,91.24,0.000002697398,0.000002697398,0.000002697398,0.99999994,0,0,0,0,0,0,0,1,0,0,0,false,false,true,-223.33,-4317.3,17.01,-0.0045936685,-0.0013460015,0.9591862,-0.28273422,-166.041,174.571,8.321,0.00021,0,1.13331
65.28333,2000,0,91.24,0.000002697398,0.000002697398,0.000002697398,0.99999994,0,0,0,0,0,0,0,1,0,0,0,false,false,true,-224.70999,-4315.84,17.01,-0.004588274,-0.0013675808,0.95784044,-0.2872605,-165.251,173.641,8.321,0.00021,0,1.12841
65.291664,2000,0,91.24,0.000002697398,0.000002697398,0.000002697398,0.99999994,0,0,0,0,0,0,0,1,0,0,0,false,false,true,-226.09,-4314.39,17.01,-0.004582879,-0.0013891599,0.9564796,-0.29175976,-164.461,172.731,8.321,0.00021,0,1.12391
65.3,2000,0,91.24,0.000002697398,0.000002697398,0.000002697398,0.99999994,0,0,0,0,0,0,0,1,0,0,0,false,false,true,-227.45999,-4312.9497,17.01,-0.004577484,-0.001410739,0.95510215,-0.29623744,-163.66101,171.841,8.321,0.00021,0,1.11991
65.308334,2000,0,91.24,0.000002697398,0.000002697398,0.000002697398,0.99999994,0,0,0,0,0,0,0,1,0,0,0,false,false,true,-228.81999,-4311.52,17.01,-0.0045720898,-0.0014323184,0.9537087,-0.30069357,-162.86101,170.97101,8.321,0.00021,0,1.11641
65.316666,2000,0,91.24,0.000002697398,0.000002697398,0.000002697398,0.99999994,0,0,0,0,0,0,0,1,0,0,0,false,false,true,-230.18,-4310.1,17.01,-0.0045666946,-0.0014538976,0.9522992,-0.30512816,-162.05101,170.121,8.321,0.00021,0,1.11331
65.325,2000,0,91.24,0.000002697398,0.000002697398,0.000002697398,0.99999994,0,0,0,0,0,0,0,1,0,0,0,false,false,true,-231.53,-4308.6797,17.01,-0.0045613,-0.0014754768,0.9508739,-0.30954108,-161.241,169.281,8.321,0.00021,0,1.11071
65.333336,2000,0,91.24,0.000002697398,0.000002697398,0.000002697398,0.99999994,0,0,0,0,0,0,0,1,0,0,0,false,false,true,-232.87,-4307.27,17.01,-0.0045559052,-0.0014970559,0.94943136,-0.31393784,-160.421,168.451,8.321,0.00021,0,1.10831
65.34167,2000,0,91.24,0.000002697398,0.000002697398,0.000002697398,0.99999994,0,0,0,0,0,0,0,1,0,0,0,false,false,true,-234.20999,-4305.87,17.01,-0.0045505106,-0.0015186351,0.94797164,-0.31831846,-159.58101,167.631,8.321,0.00021,0,1.10601
65.35,2000,0,91.24,0.000002697398,0.000002697398,0.000002697398,0.99999994,0,0,0,0,0,0,0,1,0,0,0,false,false,true,-235.54,-4304.4697,17.01,-0.004545116,-0.0015402144,0.94649494,-0.3226829,-158.731,166.811,8.321,0.00021,0,1.10391
65.35833,2000,0,91.24,0.000002697398,0.000002697398,0.000002697398,0.99999994,0,0,0,0,0,0,0,1,0,0,0,false,false,true,-236.86,-4303.08,17.01,-0.0045397207,-0.0015617935,0.9450013,-0.3270311,-157.871,166.001,8.321,0.00010999999,0,1.10191
65.36667,2000,0,91.24,0.000002697398,0.000002697398,0.000002697398,0.99999994,0,0,0,0,0,0,0,1,0,0,0,false,false,true,-238.18,-4301.6997,17.01,-0.004534326,-0.0015833727,0.94348913,-0.3313685,-157.001,165.19101,8.321,0.00010999999,0,1.10001
65.375,2000,0,91.24,0.000002697398,0.000002697398,0.000002697398,0.99999994,0,0,0,0,0,0,0,1,0,0,0,false,false,true,-239.48999,-4300.32,17.01,-0.0045289313,-0.0016049518,0.9419603,-0.33568975,-156.121,164.391,8.321,0,0.00010999999,1.09821
65.38333,2000,0,91.24,0.000002697398,0.000002697398,0.000002697398,0.99999994,0,0,0,0,0,0,0,1,0,0,0,false,false,true,-240.79,-4298.9497,17.01,-0.004523536,-0.001626531,0.94041497,-0.33999485,-155.231,163.601,8.321,0,0.00010999999,1.0965099
65.39167,2000,0,91.24,0.000002697398,0.000002697398,0.000002697398,0.99999994,0,0,0,0,0,0,0,1,0,0,0,false,false,true,-242.08,-4297.59,17.01,-0.0045181415,-0.0016481102,0.9388513,-0.3442891,-154.33101,162.811,8.321,0,0.00010999999,1.09491
65.4,2000,0,91.24,0.000002697398,0.000002697398,0.000002697398,0.99999994,0,0,0,0,0,0,0,1,0,0,0,false,false,true,-243.37,-4296.23,17.01,-0.0045127473,-0.0016696895,0.9372714,-0.34856725,-153.421,162.031,8.321,0,0.00021,1.09341
65.40833,2000,0,91.24,0.000002697398,0.000002697398,0.000002697398,0.99999994,0,0,0,0,0,0,0,1,0,0,0,false,false,true,-244.65,-4294.88,17.01,-0.004501957,-0.0016912684,0.93567324,-0.35283446,-152.501,161.261,8.321,0,0.00021,1.09201
65.416664,2000,0,91.24,0.000002697398,0.000002697398,0.000002697398,0.99999994,0,0,0,0,0,0,0,1,0,0,0,false,false,true,-245.92,-4293.54,17.01,-0.0044911676,-0.0017128477,0.93405926,-0.3570856,-151.571,160.501,8.321,0,0.00021,1.09071
65.425,2000,0,91.24,0.000002697398,0.000002697398,0.000002697398,0.99999994,0,0,0,0,0,0,0,1,0,0,0,false,false,true,-247.18,-4292.1997,17.01,-0.0044803782,-0.001734427,0.93242717,-0.36132592,-150.631,159.751,8.321,0,0.00021,1.08951
65.433334,2000,0,91.24,0.000002697398,0.000002697398,0.000002697398,0.99999994,0,0,0,0,0,0,0,1,0,0,0,false,false,true,-248.43999,-4290.87,17.01,-0.004469589,-0.0017560063,0.93077713,-0.3655555,-149.681,159.011,8.321,0,0.00010999999,1.08831
65.441666,2000,0,91.24,0.000002697398,0.000002697398,0.000002697398,0.99999994,0,0,0,0,0,0,0,1,0,0,0,false,false,true,-249.68999,-4289.54,17.01,-0.004458799,-0.0017775854,0.92910916,-0.36977425,-148.731,158.271,8.321,0,0,1.0872099
65.45,2000,0,91.24,0.000002697398,0.000002697398,0.000002697398,0.99999994,0,0,0,0,0,0,0,1,0,0,0,false,false,true,-250.93,-4288.2197,17.01,-0.0044480097,-0.0017991647,0.9274256,-0.37397683,-147.77101,157.541,8.321,0,0,1.08621
65.458336,2000,0,91.24,0.000002697398,0.000002697398,0.000002697398,0.99999994,0,0,0,0,0,0,0,1,0,0,0,false,false,true,-252.15999,-4286.9097,17.01,-0.00443722,-0.0018207437,0.92572427,-0.37816855,-146.811,156.821,8.321,0,0,1.08531
65.46667,2000,0,91.24,0.000002697398,0.000002697398,0.000002697398,0.99999994,0,0,0,0,0,0,0,1,0,0,0,false,false,true,-253.37999,-4285.6,17.01,-0.00442643,-0.0018423229,0.92400527,-0.38234952,-145.841,156.121,8.321,0,0,1.08441
65.475,2000,0,91.24,0.000002697398,0.000002697398,0.000002697398,0.99999994,0,0,0,0,0,0,0,1,0,0,0,false,false,true,-254.59999,-4284.3,17.01,-0.0044156406,-0.0018639021,0.9222686,-0.38651973,-144.871,155.431,8.321,0,0,1.0836099
65.48333,2000,0,91.24,0.000002697398,0.000002697398,0.000002697398,0.99999994,0,0,0,0,0,0,0,1,0,0,0,false,false,true,-255.81,-4283,17.01,-0.0044048512,-0.0018854814,0.9205144,-0.39067918,-143.891,154.751,8.321,0,-0.00010999999,1.08291
65.49167,2000,0,91.24,0.000002697398,0.000002697398,0.000002697398,0.99999994,0,0,0,0,0,0,0,1,0,0,0,false,false,true,-257.00998,-4281.71,17.01,-0.0043940614,-0.0019070605,0.9187426,-0.39482775,-142.91101,154.08101,8.321,0,-0.00010999999,1.08221
65.5,2000,0,91.24,0.000002697398,0.000002697398,0.000002697398,0.99999994,0,0,0,0,0,0,0,1,0,0,0,false,false,true,-258.19998,-4280.4297,17.01,-0.0043832716,-0.0019286396,0.9169533,-0.39896557,-141.931,153.421,8.321,0,-0.00021,1.08161
65.50833,2000,0,91.24,0.000002697398,0.000002697398,0.000002697398,0.99999994,0,0,0,0,0,0,0,1,0,0,0,false,false,true,-259.38,-4279.15,17.01,-0.0043778773,-0.0019502189,0.9151466,-0.40309262,-140.94101,152.771,8.321,0,-0.00030999997,1.08111
65.51667,2000,0,91.24,0.000002697398,0.000002697398,0.000002697398,0.99999994,0,0,0,0,0,0,0,1,0,0,0,false,false,true,-260.55,-4277.88,17.01,-0.004372482,-0.0019717978,0.9133224,-0.40720886,-139.951,152.131,8.321,0,-0.00030999997,1.08061
65.525,2000,0,91.24,0.000002697398,0.000002697398,0.000002697398,0.99999994,0,0,0,0,0,0,0,1,0,0,0,false,false,true,-261.72,-4276.61,17.01,-0.0043670875,-0.001993377,0.91148084,-0.4113143,-138.961,151.511,8.321,-0.00010999999,-0.00030999997,1.08021
65.53333,2000,0,91.24,0.000002697398,0.000002697398,0.000002697398,0.99999994,0,0,0,0,0,0,0,1,0,0,0,false,false,true,-262.88,-4275.35,17.01,-0.0043616924,-0.0020095615,0.9096195,-0.4154144,-137.97101,150.901,8.321,-0.00021,-0.00021,1.07981
65.541664,2000,0,91.24,0.000002697398,0.000002697398,0.000002697398,0.99999994,0,0,0,0,0,0,0,1,0,0,0,false,false,true,-264.03,-4274.09,17.01,-0.0043509034,-0.002025746,0.9077409,-0.4195037,-136.981,150.30101,8.321,-0.00021,-0.00010999999,1.07951
65.55,2000,0,91.24,0.000002697398,0.000002697398,0.000002697398,0.99999994,0,0,0,0,0,0,0,1,0,0,0,false,false,true,-265.16998,-4272.84,17.01,-0.004340113,-0.0020419303,0.9058449,-0.4235821,-135.991,149.711,8.321,-0.00021,-0.00010999999,1.07921
65.558334,2000,0,91.24,0.000002697398,0.000002697398,0.000002697398,0.99999994,0,0,0,0,0,0,0,1,0,0,0,false,false,true,-266.3,-4271.59,17.01,-0.0043293233,-0.0020581144,0.9039316,-0.42764974,-135.001,149.141,8.321,-0.00010999999,-0.00010999999,1.07901
65.566666,2000,0,91.24,0.000002697398,0.000002697398,0.000002697398,0.99999994,0,0,0,0,0,0,0,1,0,0,0,false,false,true,-267.41998,-4270.35,17.01,-0.0043185344,-0.0020742991,0.90200126,-0.43170676,-134.011,148.58101,8.321,0,-0.00010999999,1.07881
65.575,2000,0,91.24,0.000002697398,0.000002697398,0.000002697398,0.99999994,0,0,0,0,0,0,0,1,0,0,0,false,false,true,-268.54,-4269.11,17.01,-0.004307745,-0.0020958784,0.90005094,-0.4357583,-133.02101,148.031,8.321,0,-0.00010999999,1.07871
65.583336,2000,0,91.24,0.000002697398,0.000002697398,0.000002697398,0.99999994,0,0,0,0,0,0,0,1,0,0,0,false,false,true,-269.65,-4267.88,17.01,-0.004296955,-0.0021174573,0.8980834,-0.43979895,-132.031,147.491,8.321,0,-0.00010999999,1.07841
65.59167,2000,0,91.24,0.000002697398,0.000002697398,0.000002697398,0.99999994,0,0,0,0,0,0,0,1,0,0,0,false,false,true,-270.75,-4266.65,17.01,-0.0042861653,-0.0021390365,0.8960987,-0.44382888,-131.031,146.951,8.321,0,-0.00010999999,1.07791
65.6,2000,0,91.24,0.000002697398,0.000002697398,0.000002697398,0.99999994,0,0,0,0,0,0,0,1,0,0,0,false,false,true,-271.84,-4265.4297,17.01,-0.0042753764,-0.002160616,0.89409685,-0.44784802,-130.02101,146.421,8.321,0,-0.00021,1.07721
65.60833,2000,0,91.24,0.000002697398,0.000002697398,0.000002697398,0.99999994,0,0,0,0,0,0,0,1,0,0,0,false,false,true,-272.91998,-4264.21,17.01,-0.004264586,-0.0021768003,0.8920778,-0.45185637,-129.001,145.891,8.321,0,-0.00021,1.07621
65.61667,2000,0,91.24,0.000002697398,0.000002697398,0.000002697398,0.99999994,0,0,0,0,0,0,0,1,0,0,0,false,false,true,-273.99,-4262.9897,17.01,-0.0042537972,-0.0021929848,0.8900417,-0.45585397,-127.97099,145.371,8.321,0,-0.00021,1.07501
65.625,2000,0,91.24,0.000002697398,0.000002697398,0.000002697398,0.99999994,0,0,0,0,0,0,0,1,0,0,0,false,false,true,-275.06,-4261.78,17.01,-0.004243007,-0.0022091689,0.88799125,-0.45983532,-126.931,144.851,8.321,0,-0.00021,1.07361
65.63333,2000,0,91.24,0.000002697398,0.000002697398,0.000002697398,0.99999994,0,0,0,0,0,0,0,1,0,0,0,false,false,true,-276.12,-4260.57,17.01,-0.004232217,-0.0022253531,0.8859266,-0.46380043,-125.891,144.341,8.321,0,-0.00021,1.07191
65.64167,2000,0,91.24,0.000002697398,0.000002697398,0.000002697398,0.99999994,0,0,0,0,0,0,0,1,0,0,0,false,false,true,-277.16998,-4259.37,17.01,-0.0042214277,-0.0022415377,0.88384527,-0.46775487,-124.840996,143.83101,8.321,0.00010999999,-0.00021,1.07001
65.65,2000,0,91.24,0.000002697398,0.000002697398,0.000002697398,0.99999994,0,0,0,0,0,0,0,1,0,0,0,false,false,true,-278.21,-4258.17,17.01,-0.0042106383,-0.0022577222,0.8817498,-0.47169307,-123.781,143.33101,8.321,0.00010999999,-0.00021,1.06791
65.65833,2000,0,91.24,0.000002697398,0.000002697398,0.000002697398,0.99999994,0,0,0,0,0,0,0,1,0,0,0,false,false,true,-279.24,-4256.98,17.01,-0.0041998485,-0.0022739065,0.8796433,-0.47560975,-122.72099,142.841,8.321,0.00021,-0.00021,1.0656099
65.666664,2000,0,91.24,0.000002697398,0.000002697398,0.000002697398,0.99999994,0,0,0,0,0,0,0,1,0,0,0,false,false,true,-280.25998,-4255.79,17.01,-0.004189059,-0.0022954857,0.87752324,-0.47951022,-121.65099,142.351,8.321,0.00030999997,-0.00021,1.06301
65.675,2000,0,91.24,0.000002697398,0.000002697398,0.000002697398,0.99999994,0,0,0,0,0,0,0,1,0,0,0,false,false,true,-281.27,-4254.6,17.01,-0.0041782693,-0.002317065,0.8753895,-0.48339447,-120.58099,141.871,8.321,0.00030999997,-0.00021,1.06021
65.683334,2000,0,91.24,0.000002697398,0.000002697398,0.000002697398,0.99999994,0,0,0,0,0,0,0,1,0,0,0,false,false,true,-282.27,-4253.42,17.01,-0.0041674795,-0.002338644,0.8732453,-0.4872571,-119.510994,141.401,8.321,0.00030999997,-0.00021,1.05721
65.691666,2000,0,91.24,0.000002697398,0.000002697398,0.000002697398,0.99999994,0,0,0,0,0,0,0,1,0,0,0,false,false,true,-283.27,-4252.2397,17.01,-0.00415669,-0.0023602233,0.871091,-0.49109825,-118.431,140.94101,8.321,0.00021,-0.00021,1.05401
65.7,2000,0,91.24,0.000002697398,0.000002697398,0.000002697398,0.99999994,0,0,0,0,0,0,0,1,0,0,0,false,false,true,-284.25998,-4251.06,17.01,-0.0041459007,-0.0023764076,0.8689266,-0.4949178,-117.351,140.481,8.321,0.00021,-0.00021,1.05061
65.708336,2000,0,91.24,0.000002697398,0.000002697398,0.000002697398,0.99999994,0,0,0,0,0,0,0,1,0,0,0,false,false,true,-285.24,-4249.89,17.01,-0.0041351113,-0.0023925921,0.8667524,-0.49871576,-116.270996,140.031,8.321,0.00021,-0.00021,1.04701
65.71667,2000,0,91.24,0.000002697398,0.000002697398,0.000002697398,0.99999994,0,0,0,0,0,0,0,1,0,0,0,false,false,true,-286.21,-4248.7197,17.01,-0.0041243215,-0.0024087764,0.86456853,-0.50249213,-115.190994,139.591,8.321,0.00021,-0.00021,1.04311
65.725,2000,0,91.24,0.000002697398,0.000002697398,0.000002697398,0.99999994,0,0,0,0,0,0,0,1,0,0,0,false,false,true,-287.16998,-4247.56,17.01,-0.0041135317,-0.0024249607,0.86237526,-0.50624686,-114.101,139.16101,8.321,0.00021,-0.00021,1.0390099
65.73333,2000,0,91.24,0.000002697398,0.000002697398,0.000002697398,0.99999994,0,0,0,0,0,0,0,1,0,0,0,false,false,true,-288.12,-4246.4,17.01,-0.0041027423,-0.0024411452,0.8601761,-0.5099747,-113.010994,138.741,8.321,0.00030999997,-0.00021,1.0347099
65.74167,2000,0,91.24,0.000002697398,0.000002697398,0.000002697398,0.99999994,0,0,0,0,0,0,0,1,0,0,0,false,false,true,-289.06,-4245.2397,17.01,-0.004091953,-0.0024573298,0.857968,-0.513681,-111.921,138.33101,8.321,0.00030999997,-0.00021,1.03021
65.75,2000,0,91.24,0.000002697398,0.000002697398,0.000002697398,0.99999994,0,0,0,0,0,0,0,1,0,0,0,false,false,true,-289.99,-4244.09,17.01,-0.004081163,-0.002473514,0.8557543,-0.5173602,-110.83099,137.921,8.321,0.00030999997,-0.00021,1.02551
65.75833,2000,0,91.24,0.000002697398,0.000002697398,0.000002697398,0.99999994,0,0,0,0,0,0,0,1,0,0,0,false,false,true,-290.91,-4242.94,17.01,-0.0040703737,-0.0024896984,0.8535356,-0.5210125,-109.741,137.52101,8.321,0.00040999998,-0.00021,1.02061
65.76667,2000,0,91.24,0.000002697398,0.000002697398,0.000002697398,0.99999994,0,0,0,0,0,0,0,1,0,0,0,false,false,true,-291.82,-4241.79,17.01,-0.004059584,-0.0025058826,0.8513121,-0.5246378,-108.65099,137.131,8.321,0.00040999998,-0.00021,1.01551
65.775,2000,0,91.24,0.000002697398,0.000002697398,0.000002697398,0.99999994,0,0,0,0,0,0,0,1,0,0,0,false,false,true,-292.72998,-4240.65,17.01,-0.0040487945,-0.0025220672,0.849084,-0.52823615,-107.571,136.751,8.321,0.00040999998,-0.00021,1.01021
65.78333,2000,0,91.24,0.000002697398,0.000002697398,0.000002697398,0.99999994,0,0,0,0,0,0,0,1,0,0,0,false,false,true,-293.63,-4239.51,17.01,-0.0040380047,-0.0025382515,0.8468517,-0.53180754,-106.491,136.381,8.321,0.00040999998,-0.00021,1.00481
65.791664,2000,0,91.24,0.000002697398,0.000002697398,0.000002697398,0.99999994,0,0,0,0,0,0,0,1,0,0,0,false,false,true,-294.52,-4238.37,17.01,-0.0040272153,-0.002554436,0.844619,-0.5353465,-105.410995,136.02101,8.321,0.00051,-0.00021,0.99921
65.8,2000,0,91.24,0.000002697398,0.000002697398,0.000002697398,0.99999994,0,0,0,0,0,0,0,1,0,0,0,false,false,true,-295.4,-4237.2397,17.01,-0.0040164255,-0.0025706203,0.84238267,-0.53885853,-104.33099,135.671,8.321,0.00051,-0.00010999999,0.99341
65.808334,2000,0,91.24,0.000002697398,0.000002697398,0.000002697398,0.99999994,0,0,0,0,0,0,0,1,0,0,0,false,false,true,-296.27,-4236.11,17.01,-0.004005636,-0.0025868048,0.84014666,-0.5423382,-103.260994,135.33101,8.321,0.00051,-0.00010999999,0.98741
65.816666,2000,0,91.24,0.000002697398,0.000002697398,0.000002697398,0.99999994,0,0,0,0,0,0,0,1,0,0,0,false,false,true,-297.13,-4234.98,17.01,-0.0039948463,-0.002602989,0.83790773,-0.5457909,-102.190994,135.001,8.321,0.00051,-0.00010999999,0.98121
65.825,2000,0,91.24,0.000002697398,0.000002697398,0.000002697398,0.99999994,0,0,0,0,0,0,0,1,0,0,0,false,false,true,-297.97998,-4233.85,17.01,-0.003984057,-0.0026191734,0.83566993,-0.5492112,-101.131,134.671,8.321,0.00051,-0.00010999999,0.97481
65.833336,2000,0,91.24,0.000002697398,0.000002697398,0.000002697398,0.99999994,0,0,0,0,0,0,0,1,0,0,0,false,false,true,-298.82,-4232.73,17.01,-0.003973267,-0.002635358,0.83343345,-0.55259913,-100.071,134.351,8.321,0.00051,-0.00010999999,0.96831
65.84167,2000,0,91.24,0.000002697398,0.000002697398,0.000002697398,0.99999994,0,0,0,0,0,0,0,1,0,0,0,false,false,true,-299.65,-4231.61,17.01,-0.003962477,-0.002651542,0.8311988,-0.55595464,-99.020996,134.041,8.321,0.00051,-0.00010999999,0.96160996
65.85,2000,0,91.24,0.000002697398,0.000002697398,0.000002697398,0.99999994,0,0,0,0,0,0,0,1,0,0,0,false,false,true,-300.47998,-4230.4897,17.01,-0.003951688,-0.0026677267,0.82896644,-0.5592779,-97.971,133.741,8.321,0.00051,-0.00010999999,0.95471
65.85833,2000,0,91.24,0.000002697398,0.000002697398,0.000002697398,0.99999994,0,0,0,0,0,0,0,1,0,0,0,false,false,true,-301.3,-4229.37,17.01,-0.003940899,-0.0026839112,0.8267366,-0.56256884,-96.931,133.451,8.321,0.00051,-0.00010999999,0.94760996
65.86667,2000,0,91.24,0.000002697398,0.000002697398,0.000002697398,0.99999994,0,0,0,0,0,0,0,1,0,0,0,false,false,true,-302.11,-4228.26,17.01,-0.0039301086,-0.0027000955,0.8245099,-0.56582725,-95.891,133.171,8.321,0.00051,-0.00010999999,0.94041
65.875,2000,0,91.24,0.000002697398,0.000002697398,0.000002697398,0.99999994,0,0,0,0,0,0,0,1,0,0,0,false,false,true,-302.91,-4227.15,17.01,-0.0039193192,-0.0027162798,0.82228667,-0.56905335,-94.861,132.901,8.321,0.00051,-0.00010999999,0.93301
65.88333,2000,0,91.24,0.000002697398,0.000002697398,0.000002697398,0.99999994,0,0,0,0,0,0,0,1,0,0,0,false,false,true,-303.69998,-4226.04,17.01,-0.003908529,-0.0027324639,0.8200673,-0.572247,-93.840996,132.631,8.321,0.00051,-0.00010999999,0.92541
65.89167,2000,0,91.24,0.000002697398,0.000002697398,0.000002697398,0.99999994,0,0,0,0,0,0,0,1,0,0,0,false,false,true,-304.47998,-4224.9297,17.01,-0.0038977403,-0.0027486486,0.817856,-0.57540303,-92.821,132.371,8.321,0.00051,-0.00010999999,0.91771
65.9,2000,0,91.24,0.000002697398,0.000002697398,0.000002697398,0.99999994,0,0,0,0,0,0,0,1,0,0,0,false,false,true,-305.25,-4223.83,17.01,-0.0038869507,-0.002764833,0.81564945,-0.5785266,-91.811,132.121,8.321,0.00051,-0.00010999999,0.90981
65.90833,2000,0,91.24,0.000002697398,0.000002697398,0.000002697398,0.99999994,0,0,0,0,0,0,0,1,0,0,0,false,false,true,-306.02,-4222.73,17.01,-0.003876161,-0.0027810175,0.8134519,-0.58161247,-90.811,131.881,8.321,0.00051,-0.00010999999,0.90181
65.916664,2000,0,91.24,0.000002697398,0.000002697398,0.000002697398,0.99999994,0,0,0,0,0,0,0,1,0,0,0,false,false,true,-306.78,-4221.63,17.01,-0.003865371,-0.0027972015,0.81126,-0.5846659,-89.821,131.651,8.321,0.00051,-0.00010999999,0.89361
65.925,2000,0,91.24,0.000002697398,0.000002697398,0.000002697398,0.99999994,0,0,0,0,0,0,0,1,0,0,0,false,false,true,-307.53,-4220.53,17.01,-0.003854582,-0.0028133865,0.8090781,-0.5876817,-88.840996,131.421,8.321,0.00051,-0.00010999999,0.88531
65.933334,2000,0,91.24,0.000002697398,0.000002697398,0.000002697398,0.99999994,0,0,0,0,0,0,0,1,0,0,0,false,false,true,-308.27,-4219.4297,17.01,-0.0038437925,-0.0028295708,0.80690664,-0.5906597,-87.870995,131.201,8.321,0.00051,-0.00010999999,0.87681
