time,ball_loc_x,ball_loc_y,ball_loc_z,ball_rot_x,ball_rot_y,ball_rot_z,ball_rot_w,ball_vel_x,ball_vel_y,ball_vel_z,ball_ang_x,ball_ang_y,ball_ang_z,player0_throttle,player0_steer,player0_pitch,player0_yaw,player0_roll,player0_jump,player0_boost,player0_handbrake,player0_loc_x,player0_loc_y,player0_loc_z,player0_rot_x,player0_rot_y,player0_rot_z,player0_rot_w,player0_vel_x,player0_vel_y,player0_vel_z,player0_ang_x,player0_ang_y,player0_ang_z
122.566666,2000,0,91.24,0.000002697398,0.000002697398,0.000002697398,0.99999994,0,0,0,0,0,0,1,0,0,0,0,false,false,false,0,-4418.54,17.01,-0.003347471,0.0033366815,0.70708513,0.7071125,0,1001.621,8.321,-0.00081,0,0
122.575,2000,0,91.24,0.000002697398,0.000002697398,0.000002697398,0.99999994,0,0,0,0,0,0,0,1,0,0,0,false,false,true,0,-4410.19,17.01,-0.003347471,0.0033366815,0.70708513,0.7071125,-12.841001,999.2009,8.341001,-0.00111,0.00341,0.35541
122.583336,2000,0,91.24,0.000002697398,0.000002697398,0.000002697398,0.99999994,0,0,0,0,0,0,0,1,0,0,0,false,false,true,-0.11,-4401.86,17.01,-0.0033474704,0.0033474704,0.70813054,0.7060655,-22.671,997.30096,8.351,-0.00131,0.00461,0.61811
122.59167,2000,0,91.24,0.000002697398,0.000002697398,0.000002697398,0.99999994,0,0,0,0,0,0,0,1,0,0,0,false,false,true,-0.29999998,-4393.55,17.01,-0.003347471,0.0033582605,0.7099493,0.7042367,-31.790998,995.52094,8.351,-0.00131,0.00491,0.84471
122.6,2000,0,91.24,0.000002697398,0.000002697398,0.000002697398,0.99999994,0,0,0,0,0,0,0,1,0,0,0,false,false,true,-0.56,-4385.25,17.01,-0.003347471,0.0033636554,0.7124236,0.70173347,-40.551,993.80096,8.351,-0.0012099999,0.00461,1.04081
122.60833,2000,0,91.24,0.000002697398,0.000002697398,0.000002697398,0.99999994,0,0,0,0,0,0,0,1,0,0,0,false,false,true,-0.9,-4376.9697,17.01,-0.0033528658,0.0033636554,0.71546054,0.6986369,-49.170998,992.10095,8.351,-0.0012099999,0.00401,1.21151
122.61667,2000,0,91.24,0.000002697398,0.000002697398,0.000002697398,0.99999994,0,0,0,0,0,0,0,1,0,0,0,false,false,true,-1.31,-4368.6997,17.01,-0.0033636554,0.0033636554,0.7189776,0.69501686,-57.790997,990.371,8.351,-0.00111,0.00331,1.3609099
122.625,2000,0,91.24,0.000002697398,0.000002697398,0.000002697398,0.99999994,0,0,0,0,0,0,0,1,0,0,0,false,false,true,-1.79,-4360.4497,17.01,-0.0033744453,0.0033582607,0.7229082,0.6909277,-66.491,988.58093,8.351,-0.0010099999,0.00251,1.49241
122.63333,2000,0,91.24,0.000002697398,0.000002697398,0.000002697398,0.99999994,0,0,0,0,0,0,0,1,0,0,0,false,false,true,-2.34,-4352.21,17.01,-0.0033906293,0.003347471,0.72719187,0.6864176,-75.311,986.7009,8.351,-0.00091,0.0018099999,1.60891
122.64167,2000,0,91.24,0.000002697398,0.000002697398,0.000002697398,0.99999994,0,0,0,0,0,0,0,1,0,0,0,false,false,true,-2.97,-4343.9897,17.01,-0.0034122085,0.0033312866,0.73177963,0.6815245,-84.260994,984.71094,8.351,-0.00081,0.00111,1.71261
122.65,2000,0,91.24,0.000002697398,0.000002697398,0.000002697398,0.99999994,0,0,0,0,0,0,0,1,0,0,0,false,false,true,-3.6699998,-4335.78,17.01,-0.0034337877,0.0033151023,0.73662347,0.67628616,-93.321,982.60095,8.351,-0.00071,0.00061,1.80541
122.65833,2000,0,91.24,0.000002697398,0.000002697398,0.000002697398,0.99999994,0,0,0,0,0,0,0,1,0,0,0,false,false,true,-4.45,-4327.59,17.01,-0.0034607616,0.003293523,0.74169147,0.67072403,-102.451,980.35095,8.351,-0.00061,0.00010999999,1.8888099
122.666664,2000,0,91.24,0.000002697398,0.000002697398,0.000002697398,0.99999994,0,0,0,0,0,0,0,1,0,0,0,false,false,true,-5.2999997,-4319.42,17.01,-0.0034877358,0.003266549,0.74694794,0.66486526,-111.601,977.96094,8.351,-0.00040999998,-0.00021,1.96401
122.675,2000,0,91.24,0.000002697398,0.000002697398,0.000002697398,0.99999994,0,0,0,0,0,0,0,1,0,0,0,false,false,true,-6.23,-4311.27,17.01,-0.0035147096,0.003239575,0.7523629,0.6587314,-120.701,975.441,8.351,-0.00030999997,-0.00051,2.03201
122.683334,2000,0,91.24,0.000002697398,0.000002697398,0.000002697398,0.99999994,0,0,0,0,0,0,0,1,0,0,0,false,false,true,-7.24,-4303.14,17.01,-0.0035470787,0.0032072065,0.7579125,0.6523386,-129.701,972.79095,8.351,-0.00021,-0.00071,2.09351
122.691666,2000,0,91.24,0.000002697398,0.000002697398,0.000002697398,0.99999994,0,0,0,0,0,0,0,1,0,0,0,false,false,true,-8.32,-4295.03,17.01,-0.0035794473,0.0031748374,0.76357365,0.6457029,-138.511,970.03094,8.351,-0.00010999999,-0.00091,2.14901
122.7,2000,0,91.24,0.000002697398,0.000002697398,0.000002697398,0.99999994,0,0,0,0,0,0,0,1,0,0,0,false,false,true,-9.469999,-4286.9497,17.01,-0.003611816,0.0031424686,0.76932406,0.6388407,-147.061,967.18097,8.351,0,-0.0010099999,2.19911
122.708336,2000,0,91.24,0.000002697398,0.000002697398,0.000002697398,0.99999994,0,0,0,0,0,0,0,1,0,0,0,false,false,true,-10.7,-4278.89,17.01,-0.003644185,0.0031047051,0.7751469,0.63176274,-155.261,964.28094,8.351,0,-0.00111,2.24401
122.71667,2000,0,91.24,0.000002697398,0.000002697398,0.000002697398,0.99999994,0,0,0,0,0,0,0,1,0,0,0,false,false,true,-11.99,-4270.85,17.01,-0.0036765535,0.0030669416,0.78102195,0.6244851,-163.031,961.36096,8.351,0,-0.00111,2.28411
122.725,2000,0,91.24,0.000002697398,0.000002697398,0.000002697398,0.99999994,0,0,0,0,0,0,0,1,0,0,0,false,false,true,-13.349999,-4262.84,17.01,-0.0037089223,0.003029178,0.7869296,0.61702406,-170.281,958.47095,8.351,0,-0.00111,2.3194098
122.73333,2000,0,91.24,0.000002697398,0.000002697398,0.000002697398,0.99999994,0,0,0,0,0,0,0,1,0,0,0,false,false,true,-14.7699995,-4254.85,17.01,-0.0037412914,0.0029914146,0.79285574,0.6093905,-176.91101,955.67096,8.351,0,-0.00111,2.35011
122.74167,2000,0,91.24,0.000002697398,0.000002697398,0.000002697398,0.99999994,0,0,0,0,0,0,0,1,0,0,0,false,false,true,-16.24,-4246.89,17.01,-0.00377366,0.002953651,0.7987869,0.60159487,-182.83101,953.02094,8.341001,0,-0.00111,2.3763099
122.75,2000,0,91.24,0.000002697398,0.000002697398,0.000002697398,0.99999994,0,0,0,0,0,0,0,1,0,0,0,false,false,true,-17.76,-4238.9497,17.01,-0.003806029,0.0029158876,0.8047062,0.5936538,-187.94101,950.61096,8.341001,0.00010999999,-0.0012099999,2.3979099
122.75833,2000,0,91.24,0.000002697398,0.000002697398,0.000002697398,0.99999994,0,0,0,0,0,0,0,1,0,0,0,false,false,true,-19.33,-4231.03,17.01,-0.003838397,0.0028727287,0.8105981,0.58558303,-192.151,948.5109,8.341001,0.00021,-0.0012099999,2.41501
122.76667,2000,0,91.24,0.000002697398,0.000002697398,0.000002697398,0.99999994,0,0,0,0,0,0,0,1,0,0,0,false,false,true,-20.93,-4223.12,17.01,-0.0038707664,0.0028295706,0.81644785,0.57739913,-195.351,946.83093,8.331,0.00021,-0.0012099999,2.42751
122.775,2000,0,91.24,0.000002697398,0.000002697398,0.000002697398,0.99999994,0,0,0,0,0,0,0,1,0,0,0,false,false,true,-22.56,-4215.23,17.01,-0.003903135,0.0027864121,0.8222454,0.5691127,-198.671,945.001,8.331,0.00021,-0.0012099999,2.4395099
122.78333,2000,0,91.24,0.000002697398,0.000002697398,0.000002697398,0.99999994,0,0,0,0,0,0,0,1,0,0,0,false,false,true,-24.22,-4207.35,17.01,-0.003935504,0.0027432537,0.827989,0.5607237,-202.11101,943.02094,8.331,0.00030999997,-0.00111,2.45111
122.791664,2000,0,91.24,0.000002697398,0.000002697398,0.000002697398,0.99999994,0,0,0,0,0,0,0,1,0,0,0,false,false,true,-25.9,-4199.4897,17.01,-0.0039678724,0.0027000955,0.8336728,0.5522377,-205.661,940.8909,8.331,0.00030999997,-0.0010099999,2.4623098
122.8,2000,0,91.24,0.000002697398,0.000002697398,0.000002697398,0.99999994,0,0,0,0,0,0,0,1,0,0,0,false,false,true,-27.609999,-4191.65,17.01,-0.004000241,0.002656937,0.83929527,0.54365456,-209.301,938.61096,8.331,0.00030999997,-0.00091,2.47311
122.808334,2000,0,91.24,0.000002697398,0.000002697398,0.000002697398,0.99999994,0,0,0,0,0,0,0,1,0,0,0,false,false,true,-29.349998,-4183.83,17.01,-0.0040272153,0.0026137787,0.8448512,0.53497964,-213.031,936.17096,8.331,0.00030999997,-0.00081,2.48361
122.816666,2000,0,91.24,0.000002697398,0.000002697398,0.000002697398,0.99999994,0,0,0,0,0,0,0,1,0,0,0,false,false,true,-31.13,-4176.03,17.01,-0.004054189,0.0025706203,0.8503424,0.52620775,-216.83101,933.571,8.331,0.00030999997,-0.00071,2.49371
122.825,2000,0,91.24,0.000002697398,0.000002697398,0.000002697398,0.99999994,0,0,0,0,0,0,0,1,0,0,0,false,false,true,-32.94,-4168.25,17.01,-0.004081163,0.0025274619,0.855764,0.517344,-220.701,930.811,8.331,0.00030999997,-0.00071,2.5034099
122.833336,2000,0,91.24,0.000002697398,0.000002697398,0.000002697398,0.99999994,0,0,0,0,0,0,0,1,0,0,0,false,false,true,-34.78,-4160.4897,17.01,-0.004108137,0.0024843037,0.86111426,0.50838864,-224.621,927.8909,8.331,0.00030999997,-0.00071,2.5127099
122.84167,2000,0,91.24,0.000002697398,0.000002697398,0.000002697398,0.99999994,0,0,0,0,0,0,0,1,0,0,0,false,false,true,-36.649998,-4152.76,17.01,-0.0041351113,0.0024411455,0.86638874,0.499347,-228.591,924.811,8.331,0.00030999997,-0.00071,2.52161
122.85,2000,0,91.24,0.000002697398,0.000002697398,0.000002697398,0.99999994,0,0,0,0,0,0,0,1,0,0,0,false,false,true,-38.55,-4145.05,17.01,-0.0041620852,0.002392592,0.8715861,0.49021888,-232.591,921.571,8.331,0.00040999998,-0.00061,2.53011
122.85833,2000,0,91.24,0.000002697398,0.000002697398,0.000002697398,0.99999994,0,0,0,0,0,0,0,1,0,0,0,false,false,true,-40.489998,-4137.37,17.01,-0.004189059,0.0023440388,0.8767049,0.48100457,-236.621,918.17096,8.331,0.00040999998,-0.00061,2.53821
122.86667,2000,0,91.24,0.000002697398,0.000002697398,0.000002697398,0.99999994,0,0,0,0,0,0,0,1,0,0,0,false,false,true,-42.46,-4129.7197,17.01,-0.004216033,0.0022954857,0.8817439,0.47170386,-240.671,914.61096,8.331,0.00040999998,-0.00051,2.54591
122.875,2000,0,91.24,0.000002697398,0.000002697398,0.000002697398,0.99999994,0,0,0,0,0,0,0,1,0,0,0,false,false,true,-44.469997,-4122.1,17.01,-0.0042430074,0.0022469328,0.8866989,0.46232235,-244.72101,910.8909,8.331,0.00040999998,-0.00040999998,2.55321
122.88333,2000,0,91.24,0.000002697398,0.000002697398,0.000002697398,0.99999994,0,0,0,0,0,0,0,1,0,0,0,false,false,true,-46.51,-4114.51,17.01,-0.0042699813,0.0021983795,0.89156604,0.45286518,-248.771,907.011,8.331,0.00030999997,-0.00030999997,2.56001
122.89167,2000,0,91.24,0.000002697398,0.000002697398,0.000002697398,0.99999994,0,0,0,0,0,0,0,1,0,0,0,false,false,true,-48.579998,-4106.9497,17.01,-0.00429156,0.0021498261,0.8963469,0.44332716,-252.801,902.98096,8.331,0.00030999997,-0.00021,2.56641
122.9,2000,0,91.24,0.000002697398,0.000002697398,0.000002697398,0.99999994,0,0,0,0,0,0,0,1,0,0,0,false,false,true,-50.69,-4099.42,17.01,-0.0043131392,0.002101273,0.90103537,0.433719,-256.811,898.80096,8.331,0.00021,-0.00021,2.5724099
122.90833,2000,0,91.24,0.000002697398,0.000002697398,0.000002697398,0.99999994,0,0,0,0,0,0,0,1,0,0,0,false,false,true,-52.829998,-4091.93,17.01,-0.0043347185,0.00205272,0.9056329,0.42403528,-260.79102,894.47095,8.331,0.00021,-0.00021,2.57791
122.916664,2000,0,91.24,0.000002697398,0.000002697398,0.000002697398,0.99999994,0,0,0,0,0,0,0,1,0,0,0,false,false,true,-55,-4084.48,17.01,-0.0043562977,0.0020041666,0.9101361,0.4142815,-264.731,889.99097,8.331,0.00010999999,-0.00021,2.58301
122.925,2000,0,91.24,0.000002697398,0.000002697398,0.000002697398,0.99999994,0,0,0,0,0,0,0,1,0,0,0,false,false,true,-57.21,-4077.0598,17.01,-0.004377877,0.0019556135,0.9145418,0.40446287,-268.631,885.371,8.331,0.00010999999,-0.00021,2.58761
122.933334,2000,0,91.24,0.000002697398,0.000002697398,0.000002697398,0.99999994,0,0,0,0,0,0,0,1,0,0,0,false,false,true,-59.449997,-4069.68,17.01,-0.0043994565,0.0019070606,0.91884923,0.39457962,-272.471,880.61096,8.331,0.00010999999,-0.00021,2.59181
122.941666,2000,0,91.24,0.000002697398,0.000002697398,0.000002697398,0.99999994,0,0,0,0,0,0,0,1,0,0,0,false,false,true,-61.719997,-4062.3398,17.01,-0.0044210353,0.0018585073,0.9230577,0.3846315,-276.251,875.72095,8.331,0.00010999999,-0.00021,2.59551
122.95,2000,0,91.24,0.000002697398,0.000002697398,0.000002697398,0.99999994,0,0,0,0,0,0,0,1,0,0,0,false,false,true,-64.02,-4055.0398,17.01,-0.0044426145,0.0018099541,0.92716426,0.37462416,-279.961,870.7009,8.331,0.00010999999,-0.00021,2.59871
122.958336,2000,0,91.24,0.000002697398,0.000002697398,0.000002697398,0.99999994,0,0,0,0,0,0,0,1,0,0,0,false,false,true,-66.35,-4047.78,17.01,-0.0044641937,0.001761401,0.93116635,0.36456278,-283.591,865.561,8.331,0.00010999999,-0.00010999999,2.60141
122.96667,2000,0,91.24,0.000002697398,0.000002697398,0.000002697398,0.99999994,0,0,0,0,0,0,0,1,0,0,0,false,false,true,-68.71,-4040.5698,17.01,-0.0044857734,0.0017128479,0.93506354,0.35444757,-287.131,860.30096,8.331,0.00010999999,-0.00010999999,2.60361
122.975,2000,0,91.24,0.000002697398,0.000002697398,0.000002697398,0.99999994,0,0,0,0,0,0,0,1,0,0,0,false,false,true,-71.1,-4033.4,17.01,-0.0045019574,0.0016642946,0.9388533,0.34428376,-290.581,854.93097,8.331,0.00010999999,0,2.60531
122.98333,2000,0,91.24,0.000002697398,0.000002697398,0.000002697398,0.99999994,0,0,0,0,0,0,0,1,0,0,0,false,false,true,-73.52,-4026.28,17.01,-0.0045181415,0.0016157414,0.9425355,0.3340713,-293.931,849.4509,8.331,0.00010999999,0,2.60651
122.99167,2000,0,91.24,0.000002697398,0.000002697398,0.000002697398,0.99999994,0,0,0,0,0,0,0,1,0,0,0,false,false,true,-75.97,-4019.2,17.01,-0.004534326,0.0015671883,0.9461079,0.3238158,-297.181,843.871,8.331,0.00010999999,0,2.60721
123,2000,0,91.24,0.000002697398,0.000002697398,0.000002697398,0.99999994,0,0,0,0,0,0,0,1,0,0,0,false,false,true,-78.45,-4012.17,17.01,-0.00455051,0.001518635,0.9495703,0.31351703,-300.321,838.2009,8.331,0.00010999999,0,2.60741
123.00833,2000,0,91.24,0.000002697398,0.000002697398,0.000002697398,0.99999994,0,0,0,0,0,0,0,1,0,0,0,false,false,true,-80.95,-4005.18,17.01,-0.0045666946,0.001470082,0.952921,0.30318063,-303.351,832.441,8.331,0.00010999999,0,2.60701
123.01667,2000,0,91.24,0.000002697398,0.000002697398,0.000002697398,0.99999994,0,0,0,0,0,0,0,1,0,0,0,false,false,true,-83.479996,-3998.24,17.01,-0.0045828787,0.0014215286,0.9561579,0.29281172,-306.261,826.61096,8.331,0.00010999999,0,2.6061099
123.025,2000,0,91.24,0.000002697398,0.000002697398,0.000002697398,0.99999994,0,0,0,0,0,0,0,1,0,0,0,false,false,true,-86.03,-3991.3499,17.01,-0.004599064,0.0013729758,0.9592816,0.2824106,-309.051,820.7009,8.331,0.00021,0,2.6047099
123.03333,2000,0,91.24,0.000002697398,0.000002697398,0.000002697398,0.99999994,0,0,0,0,0,0,0,1,0,0,0,false,false,true,-88.61,-3984.51,17.01,-0.0046152477,0.0013244223,0.9622901,0.2719823,-311.711,814.73096,8.331,0.00021,0,2.60271
123.041664,2000,0,91.24,0.000002697398,0.000002697398,0.000002697398,0.99999994,0,0,0,0,0,0,0,1,0,0,0,false,false,true,-91.21,-3977.72,17.01,-0.0046314327,0.0012758693,0.96518266,0.26153266,-314.241,808.701,8.331,0.00030999997,0,2.60011
123.05,2000,0,91.24,0.000002697398,0.000002697398,0.000002697398,0.99999994,0,0,0,0,0,0,0,1,0,0,0,false,false,true,-93.829994,-3970.98,17.01,-0.004642222,0.0012219213,0.9679592,0.25106123,-316.641,802.621,8.331,0.00030999997,0,2.59701
123.058334,2000,0,91.24,0.000002697398,0.000002697398,0.000002697398,0.99999994,0,0,0,0,0,0,0,1,0,0,0,false,false,true,-96.47,-3964.2898,17.01,-0.0046530114,0.0011679734,0.97061896,0.24057376,-318.901,796.501,8.331,0.00030999997,0,2.5933099
123.066666,2000,0,91.24,0.000002697398,0.000002697398,0.000002697398,0.99999994,0,0,0,0,0,0,0,1,0,0,0,false,false,true,-99.13,-3957.65,17.01,-0.0046638018,0.0011140255,0.97316223,0.23007004,-321.031,790.35095,8.331,0.00030999997,0,2.58901
123.075,2000,0,91.24,0.000002697398,0.000002697398,0.000002697398,0.99999994,0,0,0,0,0,0,0,1,0,0,0,false,false,true,-101.81,-3951.0598,17.01,-0.004674591,0.0010600776,0.97558695,0.21956097,-323.021,784.17096,8.331,0.00030999997,0,2.58411
123.083336,2000,0,91.24,0.000002697398,0.000002697398,0.000002697398,0.99999994,0,0,0,0,0,0,0,1,0,0,0,false,false,true,-104.5,-3944.52,17.01,-0.00468538,0.0010061293,0.9778938,0.20904638,-324.871,777.97095,8.331,0.00021,-0.00010999999,2.57861
123.09167,2000,0,91.24,0.000002697398,0.000002697398,0.000002697398,0.99999994,0,0,0,0,0,0,0,1,0,0,0,false,false,true,-107.21,-3938.0398,17.01,-0.0046961694,0.0009521814,0.98008364,0.19852655,-326.581,771.761,8.331,0.00010999999,-0.00010999999,2.57251
123.1,2000,0,91.24,0.000002697398,0.000002697398,0.000002697398,0.99999994,0,0,0,0,0,0,0,1,0,0,0,false,false,true,-109.93,-3931.6099,17.01,-0.0047069597,0.00090362836,0.98215497,0.1880121,-328.141,765.55096,8.331,0.00010999999,-0.00010999999,2.56581
123.10833,2000,0,91.24,0.000002697398,0.000002697398,0.000002697398,0.99999994,0,0,0,0,0,0,0,1,0,0,0,false,false,true,-112.659996,-3925.23,17.01,-0.0047177486,0.0008550751,0.98410845,0.17750293,-329.561,759.35095,8.331,0.00010999999,-0.00010999999,2.55851
123.11667,2000,0,91.24,0.000002697398,0.000002697398,0.000002697398,0.99999994,0,0,0,0,0,0,0,1,0,0,0,false,false,true,-115.409996,-3918.9,17.01,-0.0047285384,0.00080652203,0.9859444,0.16700467,-330.841,753.16095,8.331,0.00010999999,-0.00010999999,2.55051
123.125,2000,0,91.24,0.000002697398,0.000002697398,0.000002697398,0.99999994,0,0,0,0,0,0,0,1,0,0,0,false,false,true,-118.17,-3912.6199,17.01,-0.0047393288,0.0007579689,0.98766357,0.15651712,-331.981,746.99097,8.331,0.00010999999,-0.00010999999,2.54191
123.13333,2000,0,91.24,0.000002697398,0.000002697398,0.000002697398,0.99999994,0,0,0,0,0,0,0,1,0,0,0,false,false,true,-120.939995,-3906.39,17.01,-0.0047501177,0.0007094157,0.9892661,0.1460458,-332.991,740.85095,8.331,0.00021,0,2.53261
123.14167,2000,0,91.24,0.000002697398,0.000002697398,0.000002697398,0.99999994,0,0,0,0,0,0,0,1,0,0,0,false,false,true,-123.71,-3900.22,17.01,-0.004755513,0.00066086254,0.9907525,0.135596,-333.861,734.751,8.331,0.00021,0,2.5227098
123.15,2000,0,91.24,0.000002697398,0.000002697398,0.000002697398,0.99999994,0,0,0,0,0,0,0,1,0,0,0,false,false,true,-126.49,-3894.0999,17.01,-0.004760907,0.00061230926,0.9921231,0.12517324,-334.601,728.691,8.331,0.00030999997,0,2.51211
123.15833,2000,0,91.24,0.000002697398,0.000002697398,0.000002697398,0.99999994,0,0,0,0,0,0,0,1,0,0,0,false,false,true,-129.28,-3888.03,17.01,-0.004766302,0.00056375616,0.993379,0.1147828,-335.201,722.691,8.331,0.00030999997,0,2.50091
123.166664,2000,0,91.24,0.000002697398,0.000002697398,0.000002697398,0.99999994,0,0,0,0,0,0,0,1,0,0,0,false,false,true,-132.06999,-3882.01,17.01,-0.004771697,0.000515203,0.99452114,0.10442479,-335.681,716.74097,8.331,0.00040999998,0,2.4890099
123.175,2000,0,91.24,0.000002697398,0.000002697398,0.000002697398,0.99999994,0,0,0,0,0,0,0,1,0,0,0,false,false,true,-134.87,-3876.0398,17.01,-0.004777092,0.00046664986,0.9955507,0.09410446,-336.031,710.86096,8.331,0.00040999998,0,2.47641
123.183334,2000,0,91.24,0.000002697398,0.000002697398,0.000002697398,0.99999994,0,0,0,0,0,0,0,1,0,0,0,false,false,true,-137.67,-3870.1199,17.01,-0.0047824867,0.0004180967,0.99646866,0.08382738,-336.261,705.05096,8.331,0.00051,0,2.46311
123.191666,2000,0,91.24,0.000002697398,0.000002697398,0.000002697398,0.99999994,0,0,0,0,0,0,0,1,0,0,0,false,false,true,-140.47,-3864.24,17.01,-0.004787882,0.00036954356,0.99727637,0.073598765,-336.371,699.321,8.331,0.00051,0,2.44911
123.2,2000,0,91.24,0.000002697398,0.000002697398,0.000002697398,0.99999994,0,0,0,0,0,0,0,1,0,0,0,false,false,true,-143.27,-3858.41,17.01,-0.004793276,0.00032099037,0.9979754,0.063418776,-336.371,693.68097,8.331,0.00051,0,2.4344099
123.208336,2000,0,91.24,0.000002697398,0.000002697398,0.000002697398,0.99999994,0,0,0,0,0,0,0,1,0,0,0,false,false,true,-146.06999,-3852.63,17.01,-0.0047986708,0.00027243717,0.9985672,0.053292654,-336.261,688.131,8.331,0.00061,0,2.41901
123.21667,2000,0,91.24,0.000002697398,0.000002697398,0.000002697398,0.99999994,0,0,0,0,0,0,0,1,0,0,0,false,false,true,-148.87,-3846.9,17.01,-0.004798671,0.00022388404,0.9990537,0.04322597,-336.051,682.68097,8.331,0.00061,0,2.4028099
123.225,2000,0,91.24,0.000002697398,0.000002697398,0.000002697398,0.99999994,0,0,0,0,0,0,0,1,0,0,0,false,false,true,-151.67,-3841.21,17.01,-0.0047986717,0.00017533089,0.9994364,0.033224024,-335.741,677.33093,8.331,0.00061,0,2.38591
123.23333,2000,0,91.24,0.000002697398,0.000002697398,0.000002697398,0.99999994,0,0,0,0,0,0,0,1,0,0,0,false,false,true,-154.47,-3835.5698,17.01,-0.004798671,0.0001267777,0.99971724,0.02328672,-335.331,672.09094,8.331,0.00061,0,2.3682098
123.24167,2000,0,91.24,0.000002697398,0.000002697398,0.000002697398,0.99999994,0,0,0,0,0,0,0,1,0,0,0,false,false,true,-157.26,-3829.97,17.01,-0.0047986717,0.00007822455,0.99989843,0.01341964,-334.841,666.96094,8.331,0.00061,0,2.34981
123.25,2000,0,91.24,0.000002697398,0.000002697398,0.000002697398,0.99999994,0,0,0,0,0,0,0,1,0,0,0,false,false,true,-160.05,-3824.41,17.01,-0.0047986717,0.00002967138,0.9999819,0.0036280006,-334.261,661.951,8.331,0.00061,0,2.33061
123.25833,2000,0,91.24,0.000002697398,0.000002697398,0.000002697398,0.99999994,0,0,0,0,0,0,0,1,0,0,0,false,false,true,-162.84,-3818.89,17.01,-0.0047986717,-0.000018881788,0.99996996,-0.0060826754,-333.611,657.061,8.331,0.00061,0,2.31061
123.26667,2000,0,91.24,0.000002697398,0.000002697398,0.000002697398,0.99999994,0,0,0,0,0,0,0,1,0,0,0,false,false,true,-165.62,-3813.41,17.01,-0.0047986717,-0.00006743496,0.9998651,-0.015706992,-332.891,652.29095,8.331,0.00061,0,2.28981
123.275,2000,0,91.24,0.000002697398,0.000002697398,0.000002697398,0.99999994,0,0,0,0,0,0,0,1,0,0,0,false,false,true,-168.39,-3807.97,17.01,-0.0047986708,-0.00011598811,0.9996696,-0.025245031,-332.111,647.65094,8.331,0.00061,0,2.26811
123.28333,2000,0,91.24,0.000002697398,0.000002697398,0.000002697398,0.99999994,0,0,0,0,0,0,0,1,0,0,0,false,false,true,-171.16,-3802.5698,17.01,-0.004798671,-0.00016454128,0.9993865,-0.034691364,-331.271,643.15094,8.331,0.00061,0,2.24561
123.291664,2000,0,91.24,0.000002697398,0.000002697398,0.000002697398,0.99999994,0,0,0,0,0,0,0,1,0,0,0,false,false,true,-173.92,-3797.21,17.01,-0.004798671,-0.00021309445,0.99901813,-0.044040587,-330.381,638.78094,8.331,0.00061,0,2.22221
123.3,2000,0,91.24,0.000002697398,0.000002697398,0.000002697398,0.99999994,0,0,0,0,0,0,0,1,0,0,0,false,false,true,-176.67,-3791.89,17.01,-0.0047986717,-0.00026164763,0.99856764,-0.053287312,-329.451,634.55096,8.331,0.00051,0,2.19791
123.308334,2000,0,91.24,0.000002697398,0.000002697398,0.000002697398,0.99999994,0,0,0,0,0,0,0,1,0,0,0,false,false,true,-179.42,-3786.5999,17.01,-0.0047986708,-0.00031020073,0.9980375,-0.062431525,-328.461,630.42096,8.331,0.00040999998,0.00010999999,2.17421
123.316666,2000,0,91.24,0.000002697398,0.000002697398,0.000002697398,0.99999994,0,0,0,0,0,0,0,1,0,0,0,false,false,true,-182.15999,-3781.3499,17.01,-0.0047932756,-0.00035335912,0.99743116,-0.0714678,-327.411,626.381,8.331,0.00030999997,0.00010999999,2.15161
123.325,2000,0,91.24,0.000002697398,0.000002697398,0.000002697398,0.99999994,0,0,0,0,0,0,0,1,0,0,0,false,false,true,-184.89,-3776.13,17.01,-0.004787882,-0.00039651754,0.9967505,-0.08040704,-326.301,622.441,8.331,0.00030999997,0.00010999999,2.13001
123.333336,2000,0,91.24,0.000002697398,0.000002697398,0.000002697398,0.99999994,0,0,0,0,0,0,0,1,0,0,0,false,false,true,-187.61,-3770.94,17.01,-0.0047824862,-0.00043967582,0.9959976,-0.08924914,-325.141,618.59094,8.331,0.00021,0.00010999999,2.10931
123.34167,2000,0,91.24,0.000002697398,0.000002697398,0.000002697398,0.99999994,0,0,0,0,0,0,0,1,0,0,0,false,false,true,-190.31999,-3765.78,17.01,-0.004777092,-0.00048283426,0.9951748,-0.09799955,-323.941,614.84094,8.331,0.00021,0.00010999999,2.08951
123.35,2000,0,91.24,0.000002697398,0.000002697398,0.000002697398,0.99999994,0,0,0,0,0,0,0,1,0,0,0,false,false,true,-193.01999,-3760.66,17.01,-0.004771697,-0.0005259926,0.9942841,-0.106658235,-322.701,611.201,8.331,0.00010999999,0.00010999999,2.07061
123.35833,2000,0,91.24,0.000002697398,0.000002697398,0.000002697398,0.99999994,0,0,0,0,0,0,0,1,0,0,0,false,false,true,-195.70999,-3755.5698,17.01,-0.0047663017,-0.0005691509,0.993327,-0.11523055,-321.421,607.66095,8.331,0.00010999999,0.00010999999,2.05251
123.36667,2000,0,91.24,0.000002697398,0.000002697398,0.000002697398,0.99999994,0,0,0,0,0,0,0,1,0,0,0,false,false,true,-198.39,-3750.51,17.01,-0.004760907,-0.00061230926,0.99230516,-0.12372201,-320.111,604.24097,8.331,0,0,2.03521
123.375,2000,0,91.24,0.000002697398,0.000002697398,0.000002697398,0.99999994,0,0,0,0,0,0,0,1,0,0,0,false,false,true,-201.06,-3745.47,17.01,-0.004755513,-0.00065007294,0.99122036,-0.13213255,-318.751,600.891,8.331,0,0,2.01961
123.38333,2000,0,91.24,0.000002697398,0.000002697398,0.000002697398,0.99999994,0,0,0,0,0,0,0,1,0,0,0,false,false,true,-203.72,-3740.46,17.01,-0.004750118,-0.00068783655,0.9900736,-0.14046757,-317.321,597.581,8.331,0,0,2.00661
123.39167,2000,0,91.24,0.000002697398,0.000002697398,0.000002697398,0.99999994,0,0,0,0,0,0,0,1,0,0,0,false,false,true,-206.36,-3735.48,17.01,-0.004744723,-0.00072560005,0.98886496,-0.14873777,-315.821,594.331,8.331,0,0,1.99611
123.4,2000,0,91.24,0.000002697398,0.000002697398,0.000002697398,0.99999994,0,0,0,0,0,0,0,1,0,0,0,false,false,true,-208.98999,-3730.53,17.01,-0.0047393288,-0.0007633637,0.98759335,-0.1569595,-314.261,591.131,8.331,0,0,1.9880099
123.40833,2000,0,91.24,0.000002697398,0.000002697398,0.000002697398,0.99999994,0,0,0,0,0,0,0,1,0,0,0,false,false,true,-211.61,-3725.5999,17.01,-0.0047339336,-0.00080112723,0.98625964,-0.16513264,-312.641,587.99097,8.331,0,0,1.9822099
123.416664,2000,0,91.24,0.000002697398,0.000002697398,0.000002697398,0.99999994,0,0,0,0,0,0,0,1,0,0,0,false,false,true,-214.22,-3720.7,17.01,-0.0047285384,-0.0008388908,0.98486197,-0.17327343,-310.961,584.92096,8.331,0,0,1.97881
123.425,2000,0,91.24,0.000002697398,0.000002697398,0.000002697398,0.99999994,0,0,0,0,0,0,0,1,0,0,0,false,false,true,-216.81,-3715.8298,17.01,-0.004723144,-0.0008766544,0.9834,-0.18138722,-309.231,581.92096,8.331,0,0,1.97761
123.433334,2000,0,91.24,0.000002697398,0.000002697398,0.000002697398,0.99999994,0,0,0,0,0,0,0,1,0,0,0,false,false,true,-219.39,-3710.98,17.01,-0.004717749,-0.00091441796,0.98187184,-0.18948483,-307.461,579.001,8.331,0,0,1.9786099
123.441666,2000,0,91.24,0.000002697398,0.000002697398,0.000002697398,0.99999994,0,0,0,0,0,0,0,1,0,0,0,false,false,true,-221.95,-3706.15,17.01,-0.0047123544,-0.0009521815,0.9802766,-0.19757168,-305.651,576.16095,8.331,0,0,1.98181
123.45,2000,0,91.24,0.000002697398,0.000002697398,0.000002697398,0.99999994,0,0,0,0,0,0,0,1,0,0,0,false,false,true,-224.5,-3701.3499,17.01,-0.0047069597,-0.000989945,0.97861195,-0.20565853,-303.801,573.41095,8.331,-0.00010999999,0,1.9872099
123.458336,2000,0,91.24,0.000002697398,0.000002697398,0.000002697398,0.99999994,0,0,0,0,0,0,0,1,0,0,0,false,false,true,-227.03,-3696.5698,17.01,-0.0046961694,-0.0010277085,0.97687507,-0.21375608,-301.891,570.68097,8.331,-0.00010999999,0,1.99321
123.46667,2000,0,91.24,0.000002697398,0.000002697398,0.000002697398,0.99999994,0,0,0,0,0,0,0,1,0,0,0,false,false,true,-229.54999,-3691.8098,17.01,-0.0046853805,-0.0010654721,0.97506684,-0.22185914,-299.911,567.96094,8.331,-0.00010999999,0,1.99971
123.475,2000,0,91.24,0.000002697398,0.000002697398,0.000002697398,0.99999994,0,0,0,0,0,0,0,1,0,0,0,false,false,true,-232.04999,-3687.0798,17.01,-0.0046745907,-0.0011032358,0.9731838,-0.22997835,-297.871,565.261,8.331,-0.00010999999,0,2.00661
123.48333,2000,0,91.24,0.000002697398,0.000002697398,0.000002697398,0.99999994,0,0,0,0,0,0,0,1,0,0,0,false,false,true,-234.53,-3682.3699,17.01,-0.004663801,-0.0011409993,0.9712266,-0.23810832,-295.771,562.581,8.331,-0.00010999999,0,2.01391
123.49167,2000,0,91.24,0.000002697398,0.000002697398,0.000002697398,0.99999994,0,0,0,0,0,0,0,1,0,0,0,false,false,true,-236.98999,-3677.68,17.01,-0.004653011,-0.0011787628,0.96919453,-0.24624906,-293.611,559.93097,8.331,-0.00010999999,0,2.02171
123.5,2000,0,91.24,0.000002697398,0.000002697398,0.000002697398,0.99999994,0,0,0,0,0,0,0,1,0,0,0,false,false,true,-239.43999,-3673.01,17.01,-0.0046422225,-0.0012165266,0.96708554,-0.2544061,-291.401,557.311,8.331,-0.00010999999,0,2.02981
123.50833,2000,0,91.24,0.000002697398,0.000002697398,0.000002697398,0.99999994,0,0,0,0,0,0,0,1,0,0,0,false,false,true,-241.87,-3668.3699,17.01,-0.0046314322,-0.0012542901,0.9648999,-0.2625738,-289.151,554.73096,8.331,-0.00010999999,0,2.03831
123.51667,2000,0,91.24,0.000002697398,0.000002697398,0.000002697398,0.99999994,0,0,0,0,0,0,0,1,0,0,0,false,false,true,-244.28,-3663.75,17.01,-0.0046206424,-0.0012920535,0.9626354,-0.27075773,-286.861,552.201,8.331,0,0,2.04711
123.525,2000,0,91.24,0.000002697398,0.000002697398,0.000002697398,0.99999994,0,0,0,0,0,0,0,1,0,0,0,false,false,true,-246.67,-3659.15,17.01,-0.0046098535,-0.0013298173,0.9602913,-0.2789579,-284.531,549.71094,8.331,0,0,2.05631
123.53333,2000,0,91.24,0.000002697398,0.000002697398,0.000002697398,0.99999994,0,0,0,0,0,0,0,1,0,0,0,false,false,true,-249.04,-3654.5698,17.01,-0.0045990637,-0.0013675808,0.9578663,-0.28717417,-282.171,547.27094,8.331,0,0,2.06581
123.541664,2000,0,91.24,0.000002697398,0.000002697398,0.000002697398,0.99999994,0,0,0,0,0,0,0,1,0,0,0,false,false,true,-251.39,-3650.01,17.01,-0.0045882743,-0.0014053445,0.9553595,-0.2954067,-279.761,544.871,8.331,0,0,2.0752099
123.55,2000,0,91.24,0.000002697398,0.000002697398,0.000002697398,0.99999994,0,0,0,0,0,0,0,1,0,0,0,false,false,true,-253.72,-3645.47,17.01,-0.004577485,-0.0014431081,0.9527698,-0.30365536,-277.281,542.46094,8.331,0,0,2.08341
123.558334,2000,0,91.24,0.000002697398,0.000002697398,0.000002697398,0.99999994,0,0,0,0,0,0,0,1,0,0,0,false,false,true,-256.03,-3640.95,17.01,-0.0045666946,-0.0014808716,0.95009786,-0.3119148,-274.721,540.04095,8.331,0,0,2.09041
123.566666,2000,0,91.24,0.000002697398,0.000002697398,0.000002697398,0.99999994,0,0,0,0,0,0,0,1,0,0,0,false,false,true,-258.32,-3636.45,17.01,-0.0045559052,-0.0015186351,0.9473446,-0.32017967,-272.091,537.621,8.331,0,0,2.09621
123.575,2000,0,91.24,0.000002697398,0.000002697398,0.000002697398,0.99999994,0,0,0,0,0,0,0,1,0,0,0,false,false,true,-260.59,-3631.97,17.01,-0.004545116,-0.0015563988,0.94451284,-0.32843918,-269.391,535.201,8.331,0,0.00010999999,2.10081
123.583336,2000,0,91.24,0.000002697398,0.000002697398,0.000002697398,0.99999994,0,0,0,0,0,0,0,1,0,0,0,false,false,true,-262.83,-3627.51,17.01,-0.0045289313,-0.0015941622,0.9416021,-0.3366932,-266.631,532.79095,8.331,0,0.00021,2.10431
123.59167,2000,0,91.24,0.000002697398,0.000002697398,0.000002697398,0.99999994,0,0,0,0,0,0,0,1,0,0,0,false,false,true,-265.05,-3623.0698,17.01,-0.0045127473,-0.0016319259,0.9386137,-0.3449365,-263.801,530.40094,8.331,0.00010999999,0.00021,2.10661
123.6,2000,0,91.24,0.000002697398,0.000002697398,0.000002697398,0.99999994,0,0,0,0,0,0,0,1,0,0,0,false,false,true,-267.25,-3618.65,17.01,-0.004496562,-0.0016696892,0.93554914,-0.35316354,-260.911,528.03094,8.331,0.00021,0.00021,2.10781
123.60833,2000,0,91.24,0.000002697398,0.000002697398,0.000002697398,0.99999994,0,0,0,0,0,0,0,1,0,0,0,false,false,true,-269.41998,-3614.25,17.01,-0.0044803787,-0.0017128479,0.93241256,-0.3613637,-257.971,525.68097,8.331,0.00021,0.00021,2.10781
123.61667,2000,0,91.24,0.000002697398,0.000002697398,0.000002697398,0.99999994,0,0,0,0,0,0,0,1,0,0,0,false,false,true,-271.57,-3609.8699,17.01,-0.0044641937,-0.0017506114,0.9292036,-0.36953688,-254.981,523.36096,8.331,0.00021,0.00021,2.10671
123.625,2000,0,91.24,0.000002697398,0.000002697398,0.000002697398,0.99999994,0,0,0,0,0,0,0,1,0,0,0,false,false,true,-273.69,-3605.51,17.01,-0.004448009,-0.001788375,0.92592466,-0.37767762,-251.941,521.081,8.331,0.00030999997,0.00021,2.10451
123.63333,2000,0,91.24,0.000002697398,0.000002697398,0.000002697398,0.99999994,0,0,0,0,0,0,0,1,0,0,0,false,false,true,-275.79,-3601.17,17.01,-0.004431825,-0.0018261386,0.92257804,-0.38578066,-248.851,518.831,8.331,0.00030999997,0.00021,2.10131
123.64167,2000,0,91.24,0.000002697398,0.000002697398,0.000002697398,0.99999994,0,0,0,0,0,0,0,1,0,0,0,false,false,true,-277.86,-3596.8499,17.01,-0.004415641,-0.0018639022,0.91916394,-0.39384595,-245.72101,516.621,8.331,0.00030999997,0.00021,2.09701
123.65,2000,0,91.24,0.000002697398,0.000002697398,0.000002697398,0.99999994,0,0,0,0,0,0,0,1,0,0,0,false,false,true,-279.91,-3592.54,17.01,-0.004399456,-0.0019016657,0.9156874,-0.4018626,-242.561,514.46094,8.331,0.00040999998,0.00021,2.09161
123.65833,2000,0,91.24,0.000002697398,0.000002697398,0.000002697398,0.99999994,0,0,0,0,0,0,0,1,0,0,0,false,false,true,-281.93,-3588.25,17.01,-0.004383272,-0.0019394293,0.9121514,-0.40982535,-239.36101,512.34094,8.331,0.00040999998,0.00030999997,2.0852098
123.666664,2000,0,91.24,0.000002697398,0.000002697398,0.000002697398,0.99999994,0,0,0,0,0,0,0,1,0,0,0,false,false,true,-283.91998,-3583.98,17.01,-0.0043670875,-0.0019771927,0.9085566,-0.41773415,-236.141,510.271,8.331,0.00040999998,0.00030999997,2.07771
123.675,2000,0,91.24,0.000002697398,0.000002697398,0.000002697398,0.99999994,0,0,0,0,0,0,0,1,0,0,0,false,false,true,-285.88998,-3579.73,17.01,-0.004350903,-0.0020149562,0.90490633,-0.42558357,-232.891,508.251,8.331,0.00040999998,0.00040999998,2.06921
123.683334,2000,0,91.24,0.000002697398,0.000002697398,0.000002697398,0.99999994,0,0,0,0,0,0,0,1,0,0,0,false,false,true,-287.83,-3575.49,17.01,-0.0043347185,-0.00205272,0.90120405,-0.43336833,-229.631,506.291,8.331,0.00040999998,0.00040999998,2.05971
123.691666,2000,0,91.24,0.000002697398,0.000002697398,0.000002697398,0.99999994,0,0,0,0,0,0,0,1,0,0,0,false,false,true,-289.74,-3571.27,17.01,-0.004318534,-0.0020904834,0.8974508,-0.44108832,-226.351,504.38098,8.331,0.00040999998,0.00051,2.04921
123.7,2000,0,91.24,0.000002697398,0.000002697398,0.000002697398,0.99999994,0,0,0,0,0,0,0,1,0,0,0,false,false,true,-291.63,-3567.0698,17.01,-0.004296955,-0.002128247,0.8936531,-0.44873273,-223.061,502.531,8.331,0.00040999998,0.00051,2.0378098
123.708336,2000,0,91.24,0.000002697398,0.000002697398,0.000002697398,0.99999994,0,0,0,0,0,0,0,1,0,0,0,false,false,true,-293.49,-3562.88,17.01,-0.0042753764,-0.002166011,0.8898122,-0.45630175,-219.771,500.741,8.331,0.00040999998,0.00051,2.02541
123.71667,2000,0,91.24,0.000002697398,0.000002697398,0.000002697398,0.99999994,0,0,0,0,0,0,0,1,0,0,0,false,false,true,-295.32,-3558.71,17.01,-0.004253797,-0.0022037742,0.88592947,-0.4637951,-216.481,499.011,8.331,0.00040999998,0.00051,2.0120099
123.725,2000,0,91.24,0.000002697398,0.000002697398,0.000002697398,0.99999994,0,0,0,0,0,0,0,1,0,0,0,false,false,true,-297.12,-3554.5498,17.01,-0.0042322176,-0.0022415377,0.88200927,-0.47120756,-213.19101,497.341,8.331,0.00040999998,0.00051,1.99771
123.73333,2000,0,91.24,0.000002697398,0.000002697398,0.000002697398,0.99999994,0,0,0,0,0,0,0,1,0,0,0,false,false,true,-298.9,-3550.4,17.01,-0.0042106383,-0.0022793014,0.87805605,-0.47853377,-209.911,495.731,8.331,0.00040999998,0.00051,1.98251
123.74167,2000,0,91.24,0.000002697398,0.000002697398,0.000002697398,0.99999994,0,0,0,0,0,0,0,1,0,0,0,false,false,true,-300.65,-3546.27,17.01,-0.004189059,-0.002317065,0.8740745,-0.4857682,-206.641,494.191,8.331,0.00040999998,0.00040999998,1.9664099
123.75,2000,0,91.24,0.000002697398,0.000002697398,0.000002697398,0.99999994,0,0,0,0,0,0,0,1,0,0,0,false,false,true,-302.37,-3542.15,17.01,-0.00416748,-0.0023548284,0.8700666,-0.4929109,-203.391,492.711,8.331,0.00040999998,0.00040999998,1.94941
123.75833,2000,0,91.24,0.000002697398,0.000002697398,0.000002697398,0.99999994,0,0,0,0,0,0,0,1,0,0,0,false,false,true,-304.06,-3538.04,17.01,-0.0041459007,-0.002392592,0.8660341,-0.49996197,-200.161,491.291,8.331,0.00040999998,0.00030999997,1.93151
123.76667,2000,0,91.24,0.000002697398,0.000002697398,0.000002697398,0.99999994,0,0,0,0,0,0,0,1,0,0,0,false,false,true,-305.72998,-3533.95,17.01,-0.0041243215,-0.0024303556,0.86198217,-0.50691587,-196.961,489.931,8.331,0.00040999998,0.00030999997,1.91271
123.775,2000,0,91.24,0.000002697398,0.000002697398,0.000002697398,0.99999994,0,0,0,0,0,0,0,1,0,0,0,false,false,true,-307.37,-3529.8699,17.01,-0.0041027423,-0.0024627245,0.8579162,-0.51376724,-193.791,488.63098,8.331,0.00040999998,0.00021,1.8931099
123.78333,2000,0,91.24,0.000002697398,0.000002697398,0.000002697398,0.99999994,0,0,0,0,0,0,0,1,0,0,0,false,false,true,-308.97998,-3525.7998,17.01,-0.004081163,-0.0024950933,0.8538383,-0.52051616,-190.651,487.391,8.331,0.00040999998,0.00021,1.87271
123.791664,2000,0,91.24,0.000002697398,0.000002697398,0.000002697398,0.99999994,0,0,0,0,0,0,0,1,0,0,0,false,false,true,-310.57,-3521.74,17.01,-0.004059584,-0.0025274619,0.8497509,-0.5271626,-187.55101,486.211,8.331,0.00040999998,0.00021,1.8514099
123.8,2000,0,91.24,0.000002697398,0.000002697398,0.000002697398,0.99999994,0,0,0,0,0,0,0,1,0,0,0,false,false,true,-312.13,-3517.69,17.01,-0.004038005,-0.002559831,0.8456596,-0.5337011,-184.491,485.091,8.331,0.00040999998,0.00021,1.8293099
123.808334,2000,0,91.24,0.000002697398,0.000002697398,0.000002697398,0.99999994,0,0,0,0,0,0,0,1,0,0,0,false,false,true,-313.66998,-3513.65,17.01,-0.0040164255,-0.0025921995,0.8415668,-0.54013175,-181.481,484.031,8.321,0.00040999998,0.00010999999,1.80651
123.816666,2000,0,91.24,0.000002697398,0.000002697398,0.000002697398,0.99999994,0,0,0,0,0,0,0,1,0,0,0,false,false,true,-315.18,-3509.6199,17.01,-0.0039948467,-0.0026245685,0.83747864,-0.5464491,-178.511,483.021,8.321,0.00040999998,0.00010999999,1.78291
123.825,2000,0,91.24,0.000002697398,0.000002697398,0.000002697398,0.99999994,0,0,0,0,0,0,0,1,0,0,0,false,false,true,-316.66998,-3505.5898,17.01,-0.003973267,-0.002656937,0.8333976,-0.5526531,-175.591,482.07098,8.321,0.00040999998,0.00010999999,1.75851
123.833336,2000,0,91.24,0.000002697398,0.000002697398,0.000002697398,0.99999994,0,0,0,0,0,0,0,1,0,0,0,false,false,true,-318.13,-3501.5698,17.01,-0.0039516883,-0.0026893062,0.82932645,-0.5587439,-172.731,481.171,8.321,0.00040999998,0,1.73341
123.84167,2000,0,91.24,0.000002697398,0.000002697398,0.000002697398,0.99999994,0,0,0,0,0,0,0,1,0,0,0,false,false,true,-319.57,-3497.5598,17.01,-0.0039355042,-0.0027216747,0.82526773,-0.56472135,-169.921,480.32098,8.321,0.00040999998,0,1.70761
123.85,2000,0,91.24,0.000002697398,0.000002697398,0.000002697398,0.99999994,0,0,0,0,0,0,0,1,0,0,0,false,false,true,-320.99,-3493.5598,17.01,-0.0039193197,-0.0027486489,0.82122797,-0.5705801,-167.171,479.521,8.321,0.00030999997,0,1.68111
123.85833,2000,0,91.24,0.000002697398,0.000002697398,0.000002697398,0.99999994,0,0,0,0,0,0,0,1,0,0,0,false,false,true,-322.38,-3489.5598,17.01,-0.003903135,-0.0027756225,0.81720984,-0.5763202,-164.481,478.771,8.321,0.00021,0,1.6539099
123.86667,2000,0,91.24,0.000002697398,0.000002697398,0.000002697398,0.99999994,0,0,0,0,0,0,0,1,0,0,0,false,false,true,-323.75,-3485.5698,17.01,-0.003886951,-0.002802597,0.81322026,-0.58193624,-161.86101,478.061,8.321,0.00021,0,1.62611
123.875,2000,0,91.24,0.000002697398,0.000002697398,0.000002697398,0.99999994,0,0,0,0,0,0,0,1,0,0,0,false,false,true,-325.1,-3481.5898,17.01,-0.0038707664,-0.0028295706,0.80925816,-0.58743346,-159.30101,477.401,8.321,0.00021,0.00010999999,1.59761
123.88333,2000,0,91.24,0.000002697398,0.000002697398,0.000002697398,0.99999994,0,0,0,0,0,0,0,1,0,0,0,false,false,true,-326.43,-3477.6099,17.01,-0.0038545819,-0.0028565445,0.80533034,-0.59280676,-156.811,476.781,8.321,0.00010999999,0.00021,1.5685099
123.89167,2000,0,91.24,0.000002697398,0.000002697398,0.000002697398,0.99999994,0,0,0,0,0,0,0,1,0,0,0,false,false,true,-327.74,-3473.64,17.01,-0.0038330026,-0.0028835186,0.80143994,-0.5980559,-154.391,476.191,8.321,0.00010999999,0.00021,1.53881
123.9,2000,0,91.24,0.000002697398,0.000002697398,0.000002697398,0.99999994,0,0,0,0,0,0,0,1,0,0,0,false,false,true,-329.03,-3469.67,17.01,-0.0038114234,-0.0029104925,0.79758984,-0.60318094,-152.031,475.641,8.321,0.00010999999,0.00021,1.50851
123.90833,2000,0,91.24,0.000002697398,0.000002697398,0.000002697398,0.99999994,0,0,0,0,0,0,0,1,0,0,0,false,false,true,-330.3,-3465.71,17.01,-0.0037952394,-0.0029374666,0.79378307,-0.608182,-149.741,475.121,8.321,0.00010999999,0.00021,1.47771
123.916664,2000,0,91.24,0.000002697398,0.000002697398,0.000002697398,0.99999994,0,0,0,0,0,0,0,1,0,0,0,false,false,true,-331.55,-3461.75,17.01,-0.0037790549,-0.0029590458,0.79002255,-0.6130589,-147.52101,474.641,8.321,0,0.00021,1.4463099
123.925,2000,0,91.24,0.000002697398,0.000002697398,0.000002697398,0.99999994,0,0,0,0,0,0,0,1,0,0,0,false,false,true,-332.78,-3457.79,17.01,-0.0037628703,-0.0029806248,0.78631556,-0.6178063,-145.381,474.191,8.321,0,0.00021,1.41441
123.933334,2000,0,91.24,0.000002697398,0.000002697398,0.000002697398,0.99999994,0,0,0,0,0,0,0,1,0,0,0,false,false,true,-333.99,-3453.8398,17.01,-0.0037466863,-0.0030022042,0.7826609,-0.6224297,-143.311,473.761,8.321,0,0.00021,1.38201
123.941666,2000,0,91.24,0.000002697398,0.000002697398,0.000002697398,0.99999994,0,0,0,0,0,0,0,1,0,0,0,false,false,true,-335.18,-3449.89,17.01,-0.0037305015,-0.0030237832,0.77906585,-0.62692356,-141.311,473.361,8.321,0,0.00021,1.34921
123.95,2000,0,91.24,0.000002697398,0.000002697398,0.000002697398,0.99999994,0,0,0,0,0,0,0,1,0,0,0,false,false,true,-336.36,-3445.94,17.01,-0.0037143172,-0.0030453624,0.77552915,-0.63129336,-139.381,472.981,8.321,0,0.00030999997,1.31601
123.958336,2000,0,91.24,0.000002697398,0.000002697398,0.000002697398,0.99999994,0,0,0,0,0,0,0,1,0,0,0,false,false,true,-337.52,-3442,17.01,-0.0036981327,-0.0030669416,0.77205807,-0.6355337,-137.52101,472.621,8.321,0,0.00030999997,1.28241
123.96667,2000,0,91.24,0.000002697398,0.000002697398,0.000002697398,0.99999994,0,0,0,0,0,0,0,1,0,0,0,false,false,true,-338.66998,-3438.0598,17.01,-0.0036819484,-0.0030885208,0.76865125,-0.6396499,-135.731,472.281,8.321,0,0.00030999997,1.24841
123.975,2000,0,91.24,0.000002697398,0.000002697398,0.000002697398,0.99999994,0,0,0,0,0,0,0,1,0,0,0,false,false,true,-339.8,-3434.1199,17.01,-0.003665764,-0.0031101,0.76531595,-0.6436367,-134.011,471.961,8.321,0,0.00030999997,1.21411
123.98333,2000,0,91.24,0.000002697398,0.000002697398,0.000002697398,0.99999994,0,0,0,0,0,0,0,1,0,0,0,false,false,true,-340.91998,-3430.19,17.01,-0.0036495796,-0.0031316793,0.7620507,-0.6474994,-132.36101,471.661,8.321,0,0.00030999997,1.17951
123.99167,2000,0,91.24,0.000002697398,0.000002697398,0.000002697398,0.99999994,0,0,0,0,0,0,0,1,0,0,0,false,false,true,-342.02,-3426.26,17.01,-0.0036333948,-0.0031478633,0.7588582,-0.6512379,-130.781,471.371,8.321,0,0.00030999997,1.14471
124,2000,0,91.24,0.000002697398,0.000002697398,0.000002697398,0.99999994,0,0,0,0,0,0,0,1,0,0,0,false,false,true,-343.11,-3422.3298,17.01,-0.003617211,-0.003164048,0.75574607,-0.65484715,-129.261,471.10098,8.321,0,0.00030999997,1.10971
124.00833,2000,0,91.24,0.000002697398,0.000002697398,0.000002697398,0.99999994,0,0,0,0,0,0,0,1,0,0,0,false,false,true,-344.19,-3418.4,17.01,-0.0036010267,-0.0031802326,0.75271213,-0.6583322,-127.800995,470.841,8.321,0,0.00030999997,1.07461
124.01667,2000,0,91.24,0.000002697398,0.000002697398,0.000002697398,0.99999994,0,0,0,0,0,0,0,1,0,0,0,false,false,true,-345.25,-3414.48,17.01,-0.003584842,-0.0031964167,0.74975926,-0.66169316,-126.40099,470.591,8.321,0,0.00030999997,1.03941
124.025,2000,0,91.24,0.000002697398,0.000002697398,0.000002697398,0.99999994,0,0,0,0,0,0,0,1,0,0,0,false,false,true,-346.3,-3410.5598,17.01,-0.0035686577,-0.0032126012,0.7468853,-0.6649354,-125.061,470.35098,8.311,0,0.00030999997,1.00421
124.03333,2000,0,91.24,0.000002697398,0.000002697398,0.000002697398,0.99999994,0,0,0,0,0,0,0,1,0,0,0,false,false,true,-347.34,-3406.64,17.01,-0.0035524734,-0.0032287855,0.74409753,-0.6680536,-123.781,470.121,8.311,0,0.00030999997,0.96901
124.041664,2000,0,91.24,0.000002697398,0.000002697398,0.000002697398,0.99999994,0,0,0,0,0,0,0,1,0,0,0,false,false,true,-348.37,-3402.72,17.01,-0.003536289,-0.00324497,0.7413936,-0.67105323,-122.550995,469.901,8.311,0,0.00021,0.93381
124.05,2000,0,91.24,0.000002697398,0.000002697398,0.000002697398,0.99999994,0,0,0,0,0,0,0,1,0,0,0,false,false,true,-349.38998,-3398.7998,17.01,-0.0035254993,-0.0032611543,0.73877585,-0.673934,-121.381,469.691,8.311,0,0.00010999999,0.89871
124.058334,2000,0,91.24,0.000002697398,0.000002697398,0.000002697398,0.99999994,0,0,0,0,0,0,0,1,0,0,0,false,false,true,-350.4,-3394.89,17.01,-0.0035147096,-0.003271944,0.73624665,-0.6766961,-120.260994,469.481,8.311,0,0.00010999999,0.86371
124.066666,2000,0,91.24,0.000002697398,0.000002697398,0.000002697398,0.99999994,0,0,0,0,0,0,0,1,0,0,0,false,false,true,-351.4,-3390.98,17.01,-0.00350392,-0.0032827335,0.7338082,-0.6793396,-119.190994,469.281,8.311,0,0.00010999999,0.82881
124.075,2000,0,91.24,0.000002697398,0.000002697398,0.000002697398,0.99999994,0,0,0,0,0,0,0,1,0,0,0,false,false,true,-352.38998,-3387.0698,17.01,-0.0034931304,-0.003293523,0.7314577,-0.68186975,-118.160995,469.081,8.311,0,0.00010999999,0.79401
124.083336,2000,0,91.24,0.000002697398,0.000002697398,0.000002697398,0.99999994,0,0,0,0,0,0,0,1,0,0,0,false,false,true,-353.37,-3383.16,17.01,-0.0034823408,-0.0033043127,0.7291972,-0.68428665,-117.181,468.891,8.311,0,0.00010999999,0.75941
124.09167,2000,0,91.24,0.000002697398,0.000002697398,0.000002697398,0.99999994,0,0,0,0,0,0,0,1,0,0,0,false,false,true,-354.35,-3379.25,17.01,-0.0034715512,-0.0033151023,0.72702867,-0.6865902,-116.241,468.701,8.311,0,0.00010999999,0.72501
124.1,2000,0,91.24,0.000002697398,0.000002697398,0.000002697398,0.99999994,0,0,0,0,0,0,0,1,0,0,0,false,false,true,-355.31998,-3375.3398,17.01,-0.0034607612,-0.0033258914,0.72494876,-0.68878585,-115.351,468.511,8.311,0,0.00010999999,0.69081
124.10833,2000,0,91.24,0.000002697398,0.000002697398,0.000002697398,0.99999994,0,0,0,0,0,0,0,1,0,0,0,false,false,true,-356.28,-3371.44,17.01,-0.0034499725,-0.0033366818,0.7229646,-0.6908684,-114.501,468.331,8.311,0,0.00010999999,0.65681
124.11667,2000,0,91.24,0.000002697398,0.000002697398,0.000002697398,0.99999994,0,0,0,0,0,0,0,1,0,0,0,false,false,true,-357.22998,-3367.54,17.01,-0.0034391826,-0.003347471,0.72107255,-0.69284284,-113.681,468.151,8.311,0,0.00010999999,0.62311
124.125,2000,0,91.24,0.000002697398,0.000002697398,0.000002697398,0.99999994,0,0,0,0,0,0,0,1,0,0,0,false,false,true,-358.18,-3363.64,17.01,-0.003428393,-0.0033582605,0.71926916,-0.69471484,-112.90099,467.971,8.311,0,0.00010999999,0.58961
124.13333,2000,0,91.24,0.000002697398,0.000002697398,0.000002697398,0.99999994,0,0,0,0,0,0,0,1,0,0,0,false,false,true,-359.12,-3359.74,17.01,-0.0034176037,-0.0033690503,0.7175611,-0.69647896,-112.160995,467.791,8.311,0,0.00010999999,0.55641
124.14167,2000,0,91.24,0.000002697398,0.000002697398,0.000002697398,0.99999994,0,0,0,0,0,0,0,1,0,0,0,false,false,true,-360.05,-3355.8398,17.01,-0.0034068138,-0.0033798397,0.7159446,-0.6981405,-111.451,467.611,8.311,0,0,0.52351
124.15,2000,0,91.24,0.000002697398,0.000002697398,0.000002697398,0.99999994,0,0,0,0,0,0,0,1,0,0,0,false,false,true,-360.97998,-3351.94,17.01,-0.003401419,-0.0033852346,0.7144209,-0.69969964,-110.770996,467.431,8.311,0,0,0.49091
124.15833,2000,0,91.24,0.000002697398,0.000002697398,0.000002697398,0.99999994,0,0,0,0,0,0,0,1,0,0,0,false,false,true,-361.9,-3348.04,17.01,-0.0033960242,-0.0033906293,0.7129861,-0.7011616,-110.120995,467.261,8.311,0,0,0.45861
124.166664,2000,0,91.24,0.000002697398,0.000002697398,0.000002697398,0.99999994,0,0,0,0,0,0,0,1,0,0,0,false,false,true,-362.81998,-3344.15,17.01,-0.0033906295,-0.0033960245,0.7116466,-0.7025212,-109.501,467.091,8.311,0,0,0.42661
124.175,2000,0,91.24,0.000002697398,0.000002697398,0.000002697398,0.99999994,0,0,0,0,0,0,0,1,0,0,0,false,false,true,-363.72998,-3340.26,17.01,-0.0033852346,-0.003401419,0.7103982,-0.7037835,-108.90099,466.921,8.311,0,0,0.39491
124.183334,2000,0,91.24,0.000002697398,0.000002697398,0.000002697398,0.99999994,0,0,0,0,0,0,0,1,0,0,0,false,false,true,-364.63998,-3336.3699,17.01,-0.0033798397,-0.0034068138,0.70924187,-0.7049488,-108.33099,466.751,8.311,0,0,0.36351
124.191666,2000,0,91.24,0.000002697398,0.000002697398,0.000002697398,0.99999994,0,0,0,0,0,0,0,1,0,0,0,false,false,true,-365.53998,-3332.48,17.01,-0.003374445,-0.0034122085,0.70817316,-0.7060224,-107.781,466.581,8.311,0,0,0.33241
124.2,2000,0,91.24,0.000002697398,0.000002697398,0.000002697398,0.99999994,0,0,0,0,0,0,0,1,0,0,0,false,false,true,-366.44,-3328.5898,17.01,-0.00336905,-0.0034176034,0.70719296,-0.7070042,-107.251,466.411,8.311,0,0,0.30161
124.208336,2000,0,91.24,0.000002697398,0.000002697398,0.000002697398,0.99999994,0,0,0,0,0,0,0,1,0,0,0,false,false,true,-367.33,-3324.7,17.01,0.0033636556,0.0034229984,-0.70630294,0.7078934,-106.741,466.241,8.311,0,0,0.27121
124.21667,2000,0,91.24,0.000002697398,0.000002697398,0.000002697398,0.99999994,0,0,0,0,0,0,0,1,0,0,0,false,false,true,-368.22,-3320.8098,17.01,0.0033582605,0.003428393,-0.7055045,0.7086891,-106.251,466.07098,8.311,0,0,0.24111
124.225,2000,0,91.24,0.000002697398,0.000002697398,0.000002697398,0.99999994,0,0,0,0,0,0,0,1,0,0,0,false,false,true,-369.11,-3316.93,17.01,0.0033528658,0.0034337877,-0.7047923,0.7093973,-105.781,465.901,8.311,0,0,0.21131
124.23333,2000,0,91.24,0.000002697398,0.000002697398,0.000002697398,0.99999994,0,0,0,0,0,0,0,1,0,0,0,false,false,true,-369.99,-3313.0498,17.01,0.0033474704,0.0034391822,-0.7041665,0.7100185,-105.321,465.731,8.311,0,0,0.18191
124.24167,2000,0,91.24,0.000002697398,0.000002697398,0.000002697398,0.99999994,0,0,0,0,0,0,0,1,0,0,0,false,false,true,-370.87,-3309.17,17.01,0.003347471,0.0034391826,-0.70362705,0.71055317,-104.881,465.57098,8.311,0,0,0.15280999
124.25,2000,0,91.24,0.000002697398,0.000002697398,0.000002697398,0.99999994,0,0,0,0,0,0,0,1,0,0,0,false,false,true,-371.74,-3305.29,17.01,0.003347471,0.0034391826,-0.7031739,0.71100163,-104.451,465.411,8.311,0,0,0.12401
124.25833,2000,0,91.24,0.000002697398,0.000002697398,0.000002697398,0.99999994,0,0,0,0,0,0,0,1,0,0,0,false,false,true,-372.61,-3301.41,17.01,0.003347471,0.0034391826,-0.70280707,0.7113642,-104.031,465.251,8.311,0,0,0.09560999
124.26667,2000,0,91.24,0.000002697398,0.000002697398,0.000002697398,0.99999994,0,0,0,0,0,0,0,1,0,0,0,false,false,true,-373.47998,-3297.53,17.01,0.003347471,0.0034391826,-0.70252115,0.71164656,-103.620995,465.091,8.311,0,0,0.067509994
124.275,2000,0,91.24,0.000002697398,0.000002697398,0.000002697398,0.99999994,0,0,0,0,0,0,0,1,0,0,0,false,false,true,-374.34,-3293.65,17.01,0.0033474704,0.0034391822,-0.70232147,0.71184355,-103.221,464.931,8.311,0,0,0.039809998
124.28333,2000,0,91.24,0.000002697398,0.000002697398,0.000002697398,0.99999994,0,0,0,0,0,0,0,1,0,0,0,false,false,true,-375.19998,-3289.77,17.01,0.0033474711,0.0034391829,-0.7022029,0.7119607,-102.821,464.771,8.311,0,0,0.012409999
124.291664,2000,0,91.24,0.000002697398,0.000002697398,0.000002697398,0.99999994,0,0,0,0,0,0,0,1,0,0,0,false,false,true,-376.06,-3285.9,17.01,0.003347471,0.0034391826,-0.70216507,0.7119979,-102.431,464.621,8.311,0,0,-0.014609999
124.3,2000,0,91.24,0.000002697398,0.000002697398,0.000002697398,0.99999994,0,0,0,0,0,0,0,1,0,0,0,false,false,true,-376.91,-3282.03,17.01,0.003347471,0.0034391826,-0.7022082,0.71195537,-102.041,464.471,8.311,0,0,-0.04121
124.308334,2000,0,91.24,0.000002697398,0.000002697398,0.000002697398,0.99999994,0,0,0,0,0,0,0,1,0,0,0,false,false,true,-377.75998,-3278.16,17.01,0.003347471,0.0034391826,-0.7023323,0.71183294,-101.651,464.32098,8.311,0,0,-0.067509994
124.316666,2000,0,91.24,0.000002697398,0.000002697398,0.000002697398,0.99999994,0,0,0,0,0,0,0,1,0,0,0,false,false,true,-378.61,-3274.29,17.01,0.003347471,0.0034391826,-0.70253193,0.71163595,-101.260994,464.171,8.311,0,0,-0.093509994
124.325,2000,0,91.24,0.000002697398,0.000002697398,0.000002697398,0.99999994,0,0,0,0,0,0,0,1,0,0,0,false,false,true,-379.44998,-3270.42,17.01,0.003347471,0.0034391826,-0.70280707,0.7113642,-100.870995,464.021,8.311,0,0,-0.119109996
124.333336,2000,0,91.24,0.000002697398,0.000002697398,0.000002697398,0.99999994,0,0,0,0,0,0,0,1,0,0,0,false,false,true,-380.28998,-3266.55,17.01,0.003347471,0.0034391826,-0.7031577,0.7110176,-100.480995,463.881,8.311,0,0,-0.14441
124.34167,2000,0,91.24,0.000002697398,0.000002697398,0.000002697398,0.99999994,0,0,0,0,0,0,0,1,0,0,0,false,false,true,-381.13,-3262.68,17.01,0.003347471,0.0034391826,-0.7035839,0.7105959,-100.090996,463.741,8.311,0,0,-0.16940999
124.35,2000,0,91.24,0.000002697398,0.000002697398,0.000002697398,0.99999994,0,0,0,0,0,0,0,1,0,0,0,false,false,true,-381.96,-3258.8098,17.01,0.003347471,0.0034391826,-0.70408565,0.71009874,-99.690994,463.60098,8.311,0,-0.00010999999,-0.19400999
124.35833,2000,0,91.24,0.000002697398,0.000002697398,0.000002697398,0.99999994,0,0,0,0,0,0,0,1,0,0,0,false,false,true,-382.78998,-3254.95,17.01,0.0033528658,0.0034337877,-0.7046575,0.70953125,-99.291,463.461,8.311,0,-0.00021,-0.21831
124.36667,2000,0,91.24,0.000002697398,0.000002697398,0.000002697398,0.99999994,0,0,0,0,0,0,0,1,0,0,0,false,false,true,-383.62,-3251.0898,17.01,0.0033582605,0.003428393,-0.70530486,0.7088878,-98.881,463.331,8.311,0,-0.00021,-0.24230999
124.375,2000,0,91.24,0.000002697398,0.000002697398,0.000002697398,0.99999994,0,0,0,0,0,0,0,1,0,0,0,false,false,true,-384.44,-3247.23,17.01,0.0033636556,0.0034229984,-0.70602244,0.70817316,-98.461,463.201,8.311,0,-0.00021,-0.26591
124.38333,2000,0,91.24,0.000002697398,0.000002697398,0.000002697398,0.99999994,0,0,0,0,0,0,0,1,0,0,0,false,false,true,-385.25998,-3243.3699,17.01,0.00336905,0.0034176034,-0.7068046,0.7073925,-98.031,463.07098,8.311,0,-0.00010999999,-0.28921
124.39167,2000,0,91.24,0.000002697398,0.000002697398,0.000002697398,0.99999994,0,0,0,0,0,0,0,1,0,0,0,false,false,true,-386.08,-3239.51,17.01,-0.003374445,-0.0034122085,0.7076565,-0.7065402,-97.590996,462.951,8.311,0,-0.00010999999,-0.31221
124.4,2000,0,91.24,0.000002697398,0.000002697398,0.000002697398,0.99999994,0,0,0,0,0,0,0,1,0,0,0,false,false,true,-386.88998,-3235.65,17.01,-0.00337984,-0.003406814,0.7085763,-0.7056178,-97.141,462.831,8.311,0,-0.00010999999,-0.33481002
124.40833,2000,0,91.24,0.000002697398,0.000002697398,0.000002697398,0.99999994,0,0,0,0,0,0,0,1,0,0,0,false,false,true,-387.69998,-3231.79,17.01,-0.0033852346,-0.003401419,0.7095581,-0.7046305,-96.681,462.711,8.311,0,0,-0.35711
124.416664,2000,0,91.24,0.000002697398,0.000002697398,0.000002697398,0.99999994,0,0,0,0,0,0,0,1,0,0,0,false,false,true,-388.50998,-3227.93,17.01,-0.0033906293,-0.0033960242,0.7106066,-0.7035731,-96.201,462.60098,8.311,0,0,-0.37911
124.425,2000,0,91.24,0.000002697398,0.000002697398,0.000002697398,0.99999994,0,0,0,0,0,0,0,1,0,0,0,false,false,true,-389.31,-3224.0698,17.01,-0.0033960245,-0.0033906295,0.7117159,-0.70245105,-95.711,462.491,8.311,0,0,-0.40081
124.433334,2000,0,91.24,0.000002697398,0.000002697398,0.000002697398,0.99999994,0,0,0,0,0,0,0,1,0,0,0,false,false,true,-390.11,-3220.22,17.01,-0.003401419,-0.0033852346,0.7128906,-0.7012587,-95.201,462.381,8.311,0,0,-0.42211
124.441666,2000,0,91.24,0.000002697398,0.000002697398,0.000002697398,0.99999994,0,0,0,0,0,0,0,1,0,0,0,false,false,true,-390.9,-3216.3699,17.01,-0.0034068138,-0.0033798397,0.7141249,-0.7000017,-94.681,462.271,8.311,0,0,-0.44311
124.45,2000,0,91.24,0.000002697398,0.000002697398,0.000002697398,0.99999994,0,0,0,0,0,0,0,1,0,0,0,false,false,true,-391.69,-3212.52,17.01,-0.0034122088,-0.0033744453,0.71541816,-0.69868004,-94.141,462.171,8.311,0,0,-0.46381
124.458336,2000,0,91.24,0.000002697398,0.000002697398,0.000002697398,0.99999994,0,0,0,0,0,0,0,1,0,0,0,false,false,true,-392.47,-3208.67,17.01,-0.0034176037,-0.0033690503,0.7167696,-0.6972936,-93.58099,462.07098,8.311,0,0,-0.48411
124.46667,2000,0,91.24,0.000002697398,0.000002697398,0.000002697398,0.99999994,0,0,0,0,0,0,0,1,0,0,0,false,false,true,-393.25,-3204.8198,17.01,-0.0034229984,-0.0033636556,0.7181732,-0.6958478,-93.001,461.971,8.311,0,0,-0.50411
124.475,2000,0,91.24,0.000002697398,0.000002697398,0.000002697398,0.99999994,0,0,0,0,0,0,0,1,0,0,0,false,false,true,-394.02,-3200.97,17.01,-0.003428393,-0.0033582605,0.71963376,-0.6943372,-92.401,461.881,8.311,0,0,-0.52371
124.48333,2000,0,91.24,0.000002697398,0.000002697398,0.000002697398,0.99999994,0,0,0,0,0,0,0,1,0,0,0,false,false,true,-394.78998,-3197.1199,17.01,-0.003433788,-0.003352866,0.7211451,-0.6927674,-91.781,461.791,8.311,0,-0.00010999999,-0.54301
124.49167,2000,0,91.24,0.000002697398,0.000002697398,0.000002697398,0.99999994,0,0,0,0,0,0,0,1,0,0,0,false,false,true,-395.55,-3193.27,17.01,-0.0034391826,-0.0033420762,0.7227119,-0.69113266,-91.141,461.701,8.311,0,-0.00021,-0.56201
124.5,2000,0,91.24,0.000002697398,0.000002697398,0.000002697398,0.99999994,0,0,0,0,0,0,0,1,0,0,0,false,false,true,-396.31,-3189.42,17.01,-0.0034499723,-0.0033312866,0.7243281,-0.68943864,-90.471,461.611,8.311,0,-0.00021,-0.58061
124.50833,2000,0,91.24,0.000002697398,0.000002697398,0.000002697398,0.99999994,0,0,0,0,0,0,0,1,0,0,0,false,false,true,-397.06,-3185.5698,17.01,-0.0034607619,-0.0033204972,0.7259929,-0.68768543,-89.781,461.521,8.311,0,-0.00021,-0.59891
124.51667,2000,0,91.24,0.000002697398,0.000002697398,0.000002697398,0.99999994,0,0,0,0,0,0,0,1,0,0,0,false,false,true,-397.81,-3181.72,17.01,-0.0034715512,-0.0033097074,0.7277056,-0.68587273,-89.071,461.431,8.311,0,-0.00021,-0.61681
124.525,2000,0,91.24,0.000002697398,0.000002697398,0.000002697398,0.99999994,0,0,0,0,0,0,0,1,0,0,0,false,false,true,-398.55,-3177.8699,17.01,-0.0034823408,-0.0032989178,0.7294654,-0.68400073,-88.331,461.35098,8.311,0,-0.00010999999,-0.63441
124.53333,2000,0,91.24,0.000002697398,0.000002697398,0.000002697398,0.99999994,0,0,0,0,0,0,0,1,0,0,0,false,false,true,-399.28998,-3174.02,17.01,-0.00349313,-0.0032881277,0.7312716,-0.6820693,-87.561,461.271,8.311,0,-0.00010999999,-0.65161
124.541664,2000,0,91.24,0.000002697398,0.000002697398,0.000002697398,0.99999994,0,0,0,0,0,0,0,1,0,0,0,false,false,true,-400.02,-3170.18,17.01,-0.00350392,-0.0032773386,0.7331233,-0.6800787,-86.770996,461.191,8.311,0,0,-0.66851
124.55,2000,0,91.24,0.000002697398,0.000002697398,0.000002697398,0.99999994,0,0,0,0,0,0,0,1,0,0,0,false,false,true,-400.74,-3166.3398,17.01,-0.0035147099,-0.0032665492,0.7350148,-0.67803407,-85.951,461.111,8.311,0,0,-0.68501
124.558334,2000,0,91.24,0.000002697398,0.000002697398,0.000002697398,0.99999994,0,0,0,0,0,0,0,1,0,0,0,false,false,true,-401.46,-3162.5,17.01,-0.0035254995,-0.0032557596,0.73694515,-0.6759355,-85.101,461.031,8.311,0,0,-0.70111
124.566666,2000,0,91.24,0.000002697398,0.000002697398,0.000002697398,0.99999994,0,0,0,0,0,0,0,1,0,0,0,false,false,true,-402.16998,-3158.66,17.01,-0.003536289,-0.00324497,0.7389186,-0.6737776,-84.230995,460.951,8.311,0,0,-0.71691
124.575,2000,0,91.24,0.000002697398,0.000002697398,0.000002697398,0.99999994,0,0,0,0,0,0,0,1,0,0,0,false,false,true,-402.87,-3154.8198,17.01,-0.0035470785,-0.0032341804,0.7409294,-0.67156565,-83.331,460.861,8.311,0,0,-0.73231
124.583336,2000,0,91.24,0.000002697398,0.000002697398,0.000002697398,0.99999994,0,0,0,0,0,0,0,1,0,0,0,false,false,true,-403.56,-3150.98,17.01,-0.0035578676,-0.0032233906,0.7429768,-0.6692998,-82.401,460.771,8.311,0,0,-0.74741
124.59167,2000,0,91.24,0.000002697398,0.000002697398,0.000002697398,0.99999994,0,0,0,0,0,0,0,1,0,0,0,false,false,true,-404.25,-3147.14,17.01,-0.0035686577,-0.0032126012,0.74506,-0.66698,-81.440994,460.681,8.311,0,0,-0.76211
124.6,2000,0,91.24,0.000002697398,0.000002697398,0.000002697398,0.99999994,0,0,0,0,0,0,0,1,0,0,0,false,false,true,-404.93,-3143.3,17.01,-0.0035794473,-0.0032018116,0.7471733,-0.66461176,-80.451,460.591,8.311,0,0,-0.77651
124.60833,2000,0,91.24,0.000002697398,0.000002697398,0.000002697398,0.99999994,0,0,0,0,0,0,0,1,0,0,0,false,false,true,-405.6,-3139.46,17.01,-0.003590237,-0.003191022,0.7493209,-0.6621895,-79.431,460.501,8.311,0,0,-0.79051
124.61667,2000,0,91.24,0.000002697398,0.000002697398,0.000002697398,0.99999994,0,0,0,0,0,0,0,1,0,0,0,false,false,true,-406.25998,-3135.6199,17.01,-0.0036010265,-0.0031802324,0.7514972,-0.65971863,-78.381,460.401,8.311,0,0,-0.80421
124.625,2000,0,91.24,0.000002697398,0.000002697398,0.000002697398,0.99999994,0,0,0,0,0,0,0,1,0,0,0,false,false,true,-406.91,-3131.78,17.01,-0.0036118163,-0.003169443,0.75370145,-0.6571993,-77.300995,460.301,8.311,0,0,-0.81760997
124.63333,2000,0,91.24,0.000002697398,0.000002697398,0.000002697398,0.99999994,0,0,0,0,0,0,0,1,0,0,0,false,false,true,-407.55,-3127.94,17.01,-0.0036226052,-0.003158653,0.7559376,-0.65462583,-76.201,460.191,8.311,0,0,-0.83071
124.64167,2000,0,91.24,0.000002697398,0.000002697398,0.000002697398,0.99999994,0,0,0,0,0,0,0,1,0,0,0,false,false,true,-408.18,-3124.0999,17.01,-0.0036333948,-0.0031478633,0.7582001,-0.652004,-75.071,460.081,8.311,0,0,-0.84351
