time,ball_loc_x,ball_loc_y,ball_loc_z,ball_rot_x,ball_rot_y,ball_rot_z,ball_rot_w,ball_vel_x,ball_vel_y,ball_vel_z,ball_ang_x,ball_ang_y,ball_ang_z,player0_throttle,player0_steer,player0_pitch,player0_yaw,player0_roll,player0_jump,player0_boost,player0_handbrake,player0_loc_x,player0_loc_y,player0_loc_z,player0_rot_x,player0_rot_y,player0_rot_z,player0_rot_w,player0_vel_x,player0_vel_y,player0_vel_z,player0_ang_x,player0_ang_y,player0_ang_z
104.675,2000,0,91.24,0.000002697398,0.000002697398,0.000002697398,0.99999994,0,0,0,0,0,0,0.8031496,0,0,0,0,false,false,false,0,-4610.29,17.01,-0.003352866,0.0033420764,0.7070852,0.7071125,0,802.15094,8.321,-0.00061,0.00010999999,0
104.683334,2000,0,91.24,0.000002697398,0.000002697398,0.000002697398,0.99999994,0,0,0,0,0,0,1,1,0,0,0,false,false,true,0,-4603.61,17.01,-0.003352866,0.0033420764,0.7070852,0.7071125,-13.981,805.15094,8.351,-0.00061,0.00371,0.38481
104.691666,2000,0,91.24,0.000002697398,0.000002697398,0.000002697398,0.99999994,0,0,0,0,0,0,1,1,0,0,0,false,false,true,-0.12,-4596.9,17.01,-0.003347471,0.003347471,0.70821667,0.70597917,-24.310999,808.881,8.361,-0.00061,0.00491,0.66151
104.7,2000,0,91.24,0.000002697398,0.000002697398,0.000002697398,0.99999994,0,0,0,0,0,0,1,1,0,0,0,false,false,true,-0.32,-4590.1597,17.01,-0.0033420764,0.003352866,0.71015805,0.70402634,-33.771,812.68097,8.361,-0.00061,0.00521,0.89961
104.708336,2000,0,91.24,0.000002697398,0.000002697398,0.000002697398,0.99999994,0,0,0,0,0,0,1,1,0,0,0,false,false,true,-0.59999996,-4583.39,17.01,-0.0033420762,0.0033582605,0.71279013,0.70136124,-42.711,816.47095,8.361,-0.00061,0.00491,1.10481
104.71667,2000,0,91.24,0.000002697398,0.000002697398,0.000002697398,0.99999994,0,0,0,0,0,0,1,1,0,0,0,false,false,true,-0.96,-4576.59,17.01,-0.0033420762,0.0033582605,0.7160134,0.6980704,-51.361,820.191,8.361,-0.00061,0.00421,1.28231
104.725,2000,0,91.24,0.000002697398,0.000002697398,0.000002697398,0.99999994,0,0,0,0,0,0,1,1,0,0,0,false,false,true,-1.39,-4569.75,17.01,-0.003347471,0.0033528658,0.719733,0.69423467,-59.900997,823.79095,8.361,-0.00061,0.00341,1.43651
104.73333,2000,0,91.24,0.000002697398,0.000002697398,0.000002697398,0.99999994,0,0,0,0,0,0,1,1,0,0,0,false,false,true,-1.89,-4562.88,17.01,-0.0033582605,0.0033420762,0.7238763,0.6899134,-68.431,827.24097,8.361,-0.00061,0.00261,1.57121
104.74167,2000,0,91.24,0.000002697398,0.000002697398,0.000002697398,0.99999994,0,0,0,0,0,0,1,1,0,0,0,false,false,true,-2.46,-4555.9897,17.01,-0.003374445,0.0033312866,0.7283765,0.6851606,-77.020996,830.49097,8.361,-0.00061,0.0018099999,1.68961
104.75,2000,0,91.24,0.000002697398,0.000002697398,0.000002697398,0.99999994,0,0,0,0,0,0,1,1,0,0,0,false,false,true,-3.1,-4549.07,17.01,-0.0033960242,0.0033151023,0.7331837,0.68001395,-85.711,833.53094,8.361,-0.00061,0.00111,1.79441
104.75833,2000,0,91.24,0.000002697398,0.000002697398,0.000002697398,0.99999994,0,0,0,0,0,0,1,1,0,0,0,false,false,true,-3.81,-4542.12,17.01,-0.003417603,0.0032935226,0.7382492,0.6745112,-94.501,836.33093,8.361,-0.00051,0.00051,1.88781
104.76667,2000,0,91.24,0.000002697398,0.000002697398,0.000002697398,0.99999994,0,0,0,0,0,0,1,1,0,0,0,false,false,true,-4.6,-4535.15,17.01,-0.0034445773,0.003271944,0.7435307,0.6686848,-103.370995,838.881,8.351,-0.00051,0,1.9715099
104.775,2000,0,91.24,0.000002697398,0.000002697398,0.000002697398,0.99999994,0,0,0,0,0,0,1,1,0,0,0,false,false,true,-5.46,-4528.1597,17.01,-0.0034715512,0.0032449698,0.748997,0.6625563,-112.300995,841.17096,8.351,-0.00040999998,-0.00030999997,2.04701
104.78333,2000,0,91.24,0.000002697398,0.000002697398,0.000002697398,0.99999994,0,0,0,0,0,0,1,1,0,0,0,false,false,true,-6.3999996,-4521.15,17.01,-0.0034985254,0.0032179959,0.75462246,0.6561419,-121.241,843.21094,8.351,-0.00030999997,-0.00061,2.1154099
104.791664,2000,0,91.24,0.000002697398,0.000002697398,0.000002697398,0.99999994,0,0,0,0,0,0,1,1,0,0,0,false,false,true,-7.41,-4514.12,17.01,-0.0035308942,0.003185627,0.7603782,0.64946306,-130.151,845.001,8.351,-0.00021,-0.00091,2.17761
104.8,2000,0,91.24,0.000002697398,0.000002697398,0.000002697398,0.99999994,0,0,0,0,0,0,1,1,0,0,0,false,false,true,-8.49,-4507.08,17.01,-0.0035632628,0.0031532582,0.7662405,0.64253616,-138.961,846.561,8.351,-0.00021,-0.00111,2.23441
104.808334,2000,0,91.24,0.000002697398,0.000002697398,0.000002697398,0.99999994,0,0,0,0,0,0,1,1,0,0,0,false,false,true,-9.65,-4500.03,17.01,-0.0035956318,0.003115495,0.7721872,0.6353773,-147.61101,847.90094,8.351,-0.00010999999,-0.0012099999,2.28631
104.816666,2000,0,91.24,0.000002697398,0.000002697398,0.000002697398,0.99999994,0,0,0,0,0,0,1,1,0,0,0,false,false,true,-10.88,-4492.96,17.01,-0.0036280004,0.0030777312,0.7782054,0.6279917,-156.031,849.061,8.351,-0.00010999999,-0.00131,2.3338099
104.825,2000,0,91.24,0.000002697398,0.000002697398,0.000002697398,0.99999994,0,0,0,0,0,0,1,1,0,0,0,false,false,true,-12.179999,-4485.88,17.01,-0.0036603692,0.0030399675,0.78427434,0.6203958,-164.141,850.071,8.351,-0.00010999999,-0.00131,2.37731
104.833336,2000,0,91.24,0.000002697398,0.000002697398,0.000002697398,0.99999994,0,0,0,0,0,0,1,1,0,0,0,false,false,true,-13.549999,-4478.8,17.01,-0.003692738,0.003002204,0.79038256,0.6125949,-171.86101,850.98096,8.351,0,-0.0014099999,2.41701
104.84167,2000,0,91.24,0.000002697398,0.000002697398,0.000002697398,0.99999994,0,0,0,0,0,0,1,1,0,0,0,false,false,true,-14.98,-4471.71,17.01,-0.0037251068,0.0029590456,0.79651105,0.60460514,-179.11101,851.83093,8.341001,0,-0.0014099999,2.4530098
104.85,2000,0,91.24,0.000002697398,0.000002697398,0.000002697398,0.99999994,0,0,0,0,0,0,1,1,0,0,0,false,false,true,-16.47,-4464.61,17.01,-0.0037574756,0.0029158874,0.8026494,0.59643203,-185.791,852.7009,8.341001,0,-0.0014099999,2.48561
104.85833,2000,0,91.24,0.000002697398,0.000002697398,0.000002697398,0.99999994,0,0,0,0,0,0,1,1,0,0,0,false,false,true,-18.02,-4457.5,17.01,-0.0037898442,0.002872729,0.8087841,0.5880863,-191.821,853.65094,8.341001,0,-0.0014099999,2.51471
104.86667,2000,0,91.24,0.000002697398,0.000002697398,0.000002697398,0.99999994,0,0,0,0,0,0,1,1,0,0,0,false,false,true,-19.619999,-4450.39,17.01,-0.003822213,0.0028295706,0.81490237,0.57957864,-197.11101,854.77094,8.331,0,-0.0014099999,2.54051
104.875,2000,0,91.24,0.000002697398,0.000002697398,0.000002697398,0.99999994,0,0,0,0,0,0,1,1,0,0,0,false,false,true,-21.26,-4443.27,17.01,-0.0038545819,0.0027864121,0.8209919,0.57091993,-201.55101,856.15094,8.331,0,-0.0014099999,2.5629098
104.88333,2000,0,91.24,0.000002697398,0.000002697398,0.000002697398,0.99999994,0,0,0,0,0,0,1,1,0,0,0,false,false,true,-22.939999,-4436.14,17.01,-0.0038869507,0.0027432537,0.82704127,0.562121,-206.19101,857.381,8.331,0,-0.0014099999,2.58501
104.89167,2000,0,91.24,0.000002697398,0.000002697398,0.000002697398,0.99999994,0,0,0,0,0,0,1,1,0,0,0,false,false,true,-24.66,-4428.9897,17.01,-0.0039193192,0.0027000955,0.8330469,0.55318177,-211.021,858.4509,8.331,0,-0.00131,2.6068099
104.9,2000,0,91.24,0.000002697398,0.000002697398,0.000002697398,0.99999994,0,0,0,0,0,0,1,1,0,0,0,false,false,true,-26.42,-4421.84,17.01,-0.003951688,0.002656937,0.83900523,0.5441024,-216.041,859.35095,8.331,0,-0.00131,2.6284099
104.90833,2000,0,91.24,0.000002697398,0.000002697398,0.000002697398,0.99999994,0,0,0,0,0,0,1,1,0,0,0,false,false,true,-28.22,-4414.6797,17.01,-0.003984057,0.0026083838,0.8449129,0.53488255,-221.231,860.071,8.331,0,-0.0012099999,2.6498098
104.916664,2000,0,91.24,0.000002697398,0.000002697398,0.000002697398,0.99999994,0,0,0,0,0,0,1,1,0,0,0,false,false,true,-30.06,-4407.51,17.01,-0.0040164255,0.0025598307,0.8507662,0.5255226,-226.591,860.61096,8.331,0,-0.00111,2.67091
104.925,2000,0,91.24,0.000002697398,0.000002697398,0.000002697398,0.99999994,0,0,0,0,0,0,1,1,0,0,0,false,false,true,-31.949999,-4400.34,17.01,-0.0040487945,0.0025112776,0.85656184,0.51602226,-232.11101,860.97095,8.331,0,-0.0010099999,2.69181
104.933334,2000,0,91.24,0.000002697398,0.000002697398,0.000002697398,0.99999994,0,0,0,0,0,0,1,1,0,0,0,false,false,true,-33.88,-4393.1597,17.01,-0.0040811636,0.0024627247,0.86229616,0.5063818,-237.781,861.1409,8.331,0,-0.00091,2.7125099
104.941666,2000,0,91.24,0.000002697398,0.000002697398,0.000002697398,0.99999994,0,0,0,0,0,0,1,1,0,0,0,false,false,true,-35.86,-4385.98,17.01,-0.0041135317,0.0024141711,0.8679627,0.49660632,-243.591,861.121,8.331,0,-0.00081,2.73301
104.95,2000,0,91.24,0.000002697398,0.000002697398,0.000002697398,0.99999994,0,0,0,0,0,0,1,1,0,0,0,false,false,true,-37.89,-4378.8,17.01,-0.0041459007,0.002365618,0.87356126,0.4866907,-249.541,860.90094,8.331,0,-0.00071,2.75331
104.958336,2000,0,91.24,0.000002697398,0.000002697398,0.000002697398,0.99999994,0,0,0,0,0,0,1,1,0,0,0,false,false,true,-39.969997,-4371.63,17.01,-0.004172875,0.0023170651,0.8790884,0.47663483,-255.621,860.49097,8.331,0,-0.00061,2.7734098
104.96667,2000,0,91.24,0.000002697398,0.000002697398,0.000002697398,0.99999994,0,0,0,0,0,0,1,1,0,0,0,false,false,true,-42.1,-4364.46,17.01,-0.004199849,0.002268512,0.8845379,0.46644396,-261.821,859.871,8.331,0,-0.00051,2.79331
104.975,2000,0,91.24,0.000002697398,0.000002697398,0.000002697398,0.99999994,0,0,0,0,0,0,1,1,0,0,0,false,false,true,-44.28,-4357.29,17.01,-0.004226823,0.0022199587,0.8899063,0.45611832,-268.131,859.05096,8.331,0,-0.00040999998,2.81301
104.98333,2000,0,91.24,0.000002697398,0.000002697398,0.000002697398,0.99999994,0,0,0,0,0,0,1,1,0,0,0,false,false,true,-46.51,-4350.13,17.01,-0.004253797,0.0021714054,0.8951906,0.4456577,-274.54102,858.02094,8.331,0.00010999999,-0.00040999998,2.83251
104.99167,2000,0,91.24,0.000002697398,0.000002697398,0.000002697398,0.99999994,0,0,0,0,0,0,1,1,0,0,0,false,false,true,-48.8,-4342.98,17.01,-0.00428077,0.002117457,0.9003875,0.43506226,-281.04102,856.79095,8.331,0.00010999999,-0.00040999998,2.85181
105,2000,0,91.24,0.000002697398,0.000002697398,0.000002697398,0.99999994,0,0,0,0,0,0,1,1,0,0,0,false,false,true,-51.14,-4335.84,17.01,-0.0043077446,0.0020635095,0.90549403,0.424332,-287.631,855.35095,8.331,0.00010999999,-0.00030999997,2.87091
105.00833,2000,0,91.24,0.000002697398,0.000002697398,0.000002697398,0.99999994,0,0,0,0,0,0,1,1,0,0,0,false,false,true,-53.539997,-4328.71,17.01,-0.0043347185,0.0020095615,0.9105041,0.41347227,-294.301,853.691,8.331,0.00010999999,-0.00021,2.8898098
105.01667,2000,0,91.24,0.000002697398,0.000002697398,0.000002697398,0.99999994,0,0,0,0,0,0,1,1,0,0,0,false,false,true,-55.989998,-4321.6,17.01,-0.0043616924,0.0019556135,0.9154173,0.4024776,-301.041,851.821,8.331,0.00010999999,-0.00021,2.90851
105.025,2000,0,91.24,0.000002697398,0.000002697398,0.000002697398,0.99999994,0,0,0,0,0,0,1,1,0,0,0,false,false,true,-58.5,-4314.5,17.01,-0.0043832716,0.0019016657,0.92022794,0.39135352,-307.841,849.74097,8.331,0.00010999999,-0.00010999999,2.9270098
105.03333,2000,0,91.24,0.000002697398,0.000002697398,0.000002697398,0.99999994,0,0,0,0,0,0,1,1,0,0,0,false,false,true,-61.07,-4307.42,17.01,-0.0044048512,0.0018477178,0.9249331,0.38009992,-314.691,847.4509,8.331,0.00010999999,-0.00010999999,2.9453099
105.041664,2000,0,91.24,0.000002697398,0.000002697398,0.000002697398,0.99999994,0,0,0,0,0,0,1,1,0,0,0,false,false,true,-63.69,-4300.36,17.01,-0.00442643,0.0017937698,0.9295273,0.36872226,-321.591,844.941,8.331,0.00010999999,-0.00010999999,2.96341
105.05,2000,0,91.24,0.000002697398,0.000002697398,0.000002697398,0.99999994,0,0,0,0,0,0,1,1,0,0,0,false,false,true,-66.369995,-4293.32,17.01,-0.004448009,0.0017398217,0.93400985,0.35721508,-328.531,842.22095,8.331,0.00010999999,-0.00010999999,2.98141
105.058334,2000,0,91.24,0.000002697398,0.000002697398,0.000002697398,0.99999994,0,0,0,0,0,0,1,1,0,0,0,false,false,true,-69.11,-4286.3,17.01,-0.0044695884,0.0016858738,0.93837565,0.3455839,-335.501,839.29095,8.331,0.00010999999,-0.00010999999,2.99921
105.066666,2000,0,91.24,0.000002697398,0.000002697398,0.000002697398,0.99999994,0,0,0,0,0,0,1,1,0,0,0,false,false,true,-71.909996,-4279.31,17.01,-0.0044911676,0.0016319258,0.94262165,0.33382854,-342.491,836.15094,8.331,0.00010999999,-0.00010999999,3.01681
105.075,2000,0,91.24,0.000002697398,0.000002697398,0.000002697398,0.99999994,0,0,0,0,0,0,1,1,0,0,0,false,false,true,-74.76,-4272.34,17.01,-0.0045127473,0.0015725832,0.946743,0.32195464,-349.501,832.80096,8.331,0.00021,-0.00010999999,3.03421
105.083336,2000,0,91.24,0.000002697398,0.000002697398,0.000002697398,0.99999994,0,0,0,0,0,0,1,1,0,0,0,false,false,true,-77.67,-4265.4,17.01,-0.0045343256,0.0015132402,0.9507368,0.30996186,-356.521,829.24097,8.331,0.00021,0,3.05141
105.09167,2000,0,91.24,0.000002697398,0.000002697398,0.000002697398,0.99999994,0,0,0,0,0,0,1,1,0,0,0,false,false,true,-80.64,-4258.4897,17.01,-0.0045505106,0.0014538976,0.9546005,0.2978505,-363.541,825.48096,8.331,0.00021,0,3.0685098
105.1,2000,0,91.24,0.000002697398,0.000002697398,0.000002697398,0.99999994,0,0,0,0,0,0,1,1,0,0,0,false,false,true,-83.67,-4251.61,17.01,-0.0045666946,0.0013945547,0.9583308,0.28562048,-370.551,821.511,8.331,0.00021,0,3.0854099
105.10833,2000,0,91.24,0.000002697398,0.000002697398,0.000002697398,0.99999994,0,0,0,0,0,0,1,1,0,0,0,false,false,true,-86.759995,-4244.76,17.01,-0.0045828787,0.0013352119,0.96192336,0.27327707,-377.551,817.34094,8.331,0.00021,0,3.10211
105.11667,2000,0,91.24,0.000002697398,0.000002697398,0.000002697398,0.99999994,0,0,0,0,0,0,1,1,0,0,0,false,false,true,-89.909996,-4237.9497,17.01,-0.004599064,0.0012758693,0.9653755,0.26082054,-384.541,812.97095,8.331,0.00021,0,3.11871
105.125,2000,0,91.24,0.000002697398,0.000002697398,0.000002697398,0.99999994,0,0,0,0,0,0,1,1,0,0,0,false,false,true,-93.11,-4231.17,17.01,-0.004615248,0.0012165265,0.96868265,0.24825597,-391.501,808.40094,8.331,0.00021,0,3.13511
105.13333,2000,0,91.24,0.000002697398,0.000002697398,0.000002697398,0.99999994,0,0,0,0,0,0,1,1,0,0,0,false,false,true,-96.369995,-4224.4297,17.01,-0.004631432,0.0011571837,0.9718422,0.23558356,-398.441,803.6409,8.331,0.00021,0,3.15131
105.14167,2000,0,91.24,0.000002697398,0.000002697398,0.000002697398,0.99999994,0,0,0,0,0,0,1,1,0,0,0,false,false,true,-99.689995,-4217.73,17.01,-0.0046476163,0.0010978408,0.9748516,0.22280319,-405.341,798.691,8.331,0.00021,0,3.16741
105.15,2000,0,91.24,0.000002697398,0.000002697398,0.000002697398,0.99999994,0,0,0,0,0,0,1,1,0,0,0,false,false,true,-103.07,-4211.07,17.01,-0.0046638018,0.0010331036,0.9777068,0.20992038,-412.201,793.55096,8.331,0.00021,0,3.18331
105.15833,2000,0,91.24,0.000002697398,0.000002697398,0.000002697398,0.99999994,0,0,0,0,0,0,1,1,0,0,0,false,false,true,-106.5,-4204.46,17.01,-0.0046745907,0.00096836593,0.98040485,0.19693509,-419.021,788.22095,8.331,0.00021,0,3.19901
105.166664,2000,0,91.24,0.000002697398,0.000002697398,0.000002697398,0.99999994,0,0,0,0,0,0,1,1,0,0,0,false,false,true,-109.99,-4197.89,17.01,-0.0046853805,0.00090362836,0.98294216,0.18385263,-425.791,782.71094,8.331,0.00010999999,0,3.2146099
105.175,2000,0,91.24,0.000002697398,0.000002697398,0.000002697398,0.99999994,0,0,0,0,0,0,1,1,0,0,0,false,false,true,-113.54,-4191.37,17.01,-0.00469617,0.0008388908,0.9853161,0.17067315,-432.511,777.02094,8.331,0.00010999999,0,3.23001
105.183334,2000,0,91.24,0.000002697398,0.000002697398,0.000002697398,0.99999994,0,0,0,0,0,0,1,1,0,0,0,false,false,true,-117.14,-4184.89,17.01,-0.0047069597,0.0007741532,0.9875239,0.15739647,-439.171,771.16095,8.331,0.00010999999,0,3.2453098
105.191666,2000,0,91.24,0.000002697398,0.000002697398,0.000002697398,0.99999994,0,0,0,0,0,0,1,1,0,0,0,false,false,true,-120.799995,-4178.46,17.01,-0.004717749,0.0007094157,0.98956203,0.14402816,-445.771,765.131,8.331,0,0,3.2604098
105.2,2000,0,91.24,0.000002697398,0.000002697398,0.000002697398,0.99999994,0,0,0,0,0,0,1,1,0,0,0,false,false,true,-124.509995,-4172.08,17.01,-0.004728539,0.0006446782,0.9914271,0.13057347,-452.301,758.93097,8.331,0,0,3.27541
105.208336,2000,0,91.24,0.000002697398,0.000002697398,0.000002697398,0.99999994,0,0,0,0,0,0,1,1,0,0,0,false,false,true,-128.28,-4165.76,17.01,-0.0047393283,0.00057994056,0.99311656,0.11703243,-458.761,752.571,8.331,0,0,3.29021
105.21667,2000,0,91.24,0.000002697398,0.000002697398,0.000002697398,0.99999994,0,0,0,0,0,0,1,1,0,0,0,false,false,true,-132.09999,-4159.4897,17.01,-0.0047447234,0.00051520305,0.99462783,0.103405185,-465.151,746.05096,8.331,0,0,3.30491
105.225,2000,0,91.24,0.000002697398,0.000002697398,0.000002697398,0.99999994,0,0,0,0,0,0,1,1,0,0,0,false,false,true,-135.98,-4153.27,17.01,-0.0047501177,0.00045046548,0.9959576,0.089696914,-471.471,739.371,8.331,0,0,3.3194098
105.23333,2000,0,91.24,0.000002697398,0.000002697398,0.000002697398,0.99999994,0,0,0,0,0,0,1,1,0,0,0,false,false,true,-139.91,-4147.11,17.01,-0.004755513,0.0003857279,0.997103,0.075913124,-477.721,732.54095,8.331,0,0,3.3338099
105.24167,2000,0,91.24,0.000002697398,0.000002697398,0.000002697398,0.99999994,0,0,0,0,0,0,1,1,0,0,0,false,false,true,-143.89,-4141,17.01,-0.004760908,0.0003209904,0.99806136,0.0620539,-483.891,725.561,8.331,0,0,3.3480098
105.25,2000,0,91.24,0.000002697398,0.000002697398,0.000002697398,0.99999994,0,0,0,0,0,0,1,1,0,0,0,false,false,true,-147.92,-4134.9497,17.01,-0.004766302,0.0002562528,0.9988299,0.048124447,-489.981,718.43097,8.331,0,0,3.36211
105.25833,2000,0,91.24,0.000002697398,0.000002697398,0.000002697398,0.99999994,0,0,0,0,0,0,1,1,0,0,0,false,false,true,-152,-4128.96,17.01,-0.004771697,0.00019151527,0.9994059,0.034130346,-495.991,711.16095,8.331,0,0.00010999999,3.3761098
105.26667,2000,0,91.24,0.000002697398,0.000002697398,0.000002697398,0.99999994,0,0,0,0,0,0,1,1,0,0,0,false,false,true,-156.12999,-4123.03,17.01,-0.004771697,0.0001267777,0.9997872,0.020066028,-501.921,703.751,8.331,0,0.00010999999,3.38991
105.275,2000,0,91.24,0.000002697398,0.000002697398,0.000002697398,0.99999994,0,0,0,0,0,0,1,1,0,0,0,false,false,true,-160.31,-4117.1597,17.01,-0.004771697,0.000062040155,0.9999709,0.005942368,-507.771,696.201,8.331,0,0.00010999999,3.40361
105.28333,2000,0,91.24,0.000002697398,0.000002697398,0.000002697398,0.99999994,0,0,0,0,0,0,1,1,0,0,0,false,false,true,-164.54,-4111.36,17.01,-0.0047716973,-0.000008092195,0.99995464,-0.008240594,-513.53094,688.52094,8.331,0,0.00010999999,3.41711
105.291664,2000,0,91.24,0.000002697398,0.000002697398,0.000002697398,0.99999994,0,0,0,0,0,0,1,1,0,0,0,false,false,true,-168.81999,-4105.62,17.01,-0.0047716973,-0.00007822455,0.99973595,-0.022477504,-519.21094,680.71094,8.331,0,0.00010999999,3.43051
105.3,2000,0,91.24,0.000002697398,0.000002697398,0.000002697398,0.99999994,0,0,0,0,0,0,1,1,0,0,0,false,false,true,-173.15,-4099.9497,17.01,-0.004771697,-0.00014835689,0.9993126,-0.036762964,-524.811,672.77094,8.331,0,0.00021,3.44381
105.308334,2000,0,91.24,0.000002697398,0.000002697398,0.000002697398,0.99999994,0,0,0,0,0,0,1,1,0,0,0,false,false,true,-177.51999,-4094.3398,17.01,-0.0047663026,-0.00021848927,0.99868226,-0.051097024,-530.321,664.701,8.331,0,0.00021,3.45691
105.316666,2000,0,91.24,0.000002697398,0.000002697398,0.000002697398,0.99999994,0,0,0,0,0,0,1,1,0,0,0,false,false,true,-181.94,-4088.7998,17.01,-0.0047609075,-0.00028862158,0.9978428,-0.06547419,-535.751,656.511,8.331,0,0.00021,3.46991
105.325,2000,0,91.24,0.000002697398,0.000002697398,0.000002697398,0.99999994,0,0,0,0,0,0,1,1,0,0,0,false,false,true,-186.4,-4083.3298,17.01,-0.0047555123,-0.0003587539,0.9967918,-0.07989452,-541.10095,648.191,8.331,0,0.00021,3.48271
105.333336,2000,0,91.24,0.000002697398,0.000002697398,0.000002697398,0.99999994,0,0,0,0,0,0,1,1,0,0,0,false,false,true,-190.90999,-4077.93,17.01,-0.0047501177,-0.0004288863,0.9955273,-0.09435266,-546.371,639.751,8.331,0,0.00021,3.49541
105.34167,2000,0,91.24,0.000002697398,0.000002697398,0.000002697398,0.99999994,0,0,0,0,0,0,1,1,0,0,0,false,false,true,-195.45999,-4072.5999,17.01,-0.0047447234,-0.0004990187,0.99404746,-0.10884314,-551.55096,631.191,8.331,0,0.00021,3.50791
105.35,2000,0,91.24,0.000002697398,0.000002697398,0.000002697398,0.99999994,0,0,0,0,0,0,1,1,0,0,0,false,false,true,-200.06,-4067.3398,17.01,-0.0047339336,-0.00056915096,0.9923504,-0.123360574,-556.65094,622.511,8.331,0,0.00021,3.52031
105.35833,2000,0,91.24,0.000002697398,0.000002697398,0.000002697398,0.99999994,0,0,0,0,0,0,1,1,0,0,0,false,false,true,-204.7,-4062.15,17.01,-0.0047231438,-0.00063928333,0.99043393,-0.13790497,-561.67096,613.701,8.331,0,0.00021,3.53251
105.36667,2000,0,91.24,0.000002697398,0.000002697398,0.000002697398,0.99999994,0,0,0,0,0,0,1,1,0,0,0,false,false,true,-209.37999,-4057.0398,17.01,-0.0047123544,-0.0007094157,0.9882972,-0.15246561,-566.621,604.77094,8.331,-0.00010999999,0.00021,3.54451
105.375,2000,0,91.24,0.000002697398,0.000002697398,0.000002697398,0.99999994,0,0,0,0,0,0,1,1,0,0,0,false,false,true,-214.09999,-4052,17.01,-0.0047015646,-0.000779548,0.98593813,-0.1670424,-571.49097,595.72095,8.331,-0.00010999999,0.00021,3.5564098
105.38333,2000,0,91.24,0.000002697398,0.000002697398,0.000002697398,0.99999994,0,0,0,0,0,0,1,1,0,0,0,false,false,true,-218.86,-4047.0398,17.01,-0.004690775,-0.0008496804,0.98335433,-0.18163536,-576.28094,586.54095,8.331,-0.00021,0.00021,3.56811
105.39167,2000,0,91.24,0.000002697398,0.000002697398,0.000002697398,0.99999994,0,0,0,0,0,0,1,1,0,0,0,false,false,true,-223.65999,-4042.15,17.01,-0.0046745907,-0.00091981277,0.9805455,-0.19623376,-581.001,577.24097,8.331,-0.00021,0.00021,3.5796099
105.4,2000,0,91.24,0.000002697398,0.000002697398,0.000002697398,0.99999994,0,0,0,0,0,0,1,1,0,0,0,false,false,true,-228.5,-4037.3398,17.01,-0.004658406,-0.000989945,0.97750944,-0.21083753,-585.641,567.811,8.331,-0.00021,0.00021,3.59091
105.40833,2000,0,91.24,0.000002697398,0.000002697398,0.000002697398,0.99999994,0,0,0,0,0,0,1,1,0,0,0,false,false,true,-233.37999,-4032.6099,17.01,-0.004642222,-0.0010600775,0.9742451,-0.22544128,-590.11096,558.24097,8.331,-0.00030999997,0.00021,3.60461
105.416664,2000,0,91.24,0.000002697398,0.000002697398,0.000002697398,0.99999994,0,0,0,0,0,0,1,1,0,0,0,false,false,true,-238.29999,-4027.96,17.01,-0.0046260376,-0.0011302098,0.97075003,-0.24004509,-594.41095,548.53094,8.331,-0.00030999997,0.00010999999,3.62071
105.425,2000,0,91.24,0.000002697398,0.000002697398,0.000002697398,0.99999994,0,0,0,0,0,0,1,1,0,0,0,false,false,true,-243.25,-4023.39,17.01,-0.004609853,-0.0012003421,0.96701896,-0.25465962,-598.54095,538.68097,8.331,-0.00030999997,0.00010999999,3.6391098
105.433334,2000,0,91.24,0.000002697398,0.000002697398,0.000002697398,0.99999994,0,0,0,0,0,0,1,1,0,0,0,false,false,true,-248.23999,-4018.9,17.01,-0.0045882743,-0.0012704746,0.96304727,-0.26929036,-602.501,528.701,8.331,-0.00040999998,0.00010999999,3.6598098
105.441666,2000,0,91.24,0.000002697398,0.000002697398,0.000002697398,0.99999994,0,0,0,0,0,0,1,1,0,0,0,false,false,true,-253.26,-4014.49,17.01,-0.004566694,-0.0013406067,0.9588293,-0.28394267,-606.29095,518.59094,8.331,-0.00040999998,0,3.6828098
105.45,2000,0,91.24,0.000002697398,0.000002697398,0.000002697398,0.99999994,0,0,0,0,0,0,1,1,0,0,0,false,false,true,-258.31,-4010.17,17.01,-0.0045451154,-0.0014107391,0.95435953,-0.29862198,-609.91095,508.35098,8.331,-0.00040999998,0,3.7081099
105.458336,2000,0,91.24,0.000002697398,0.000002697398,0.000002697398,0.99999994,0,0,0,0,0,0,1,1,0,0,0,false,false,true,-263.38998,-4005.93,17.01,-0.0045235367,-0.0014808717,0.94963115,-0.31333366,-613.36096,497.991,8.331,-0.00040999998,0,3.73571
105.46667,2000,0,91.24,0.000002697398,0.000002697398,0.000002697398,0.99999994,0,0,0,0,0,0,1,1,0,0,0,false,false,true,-268.5,-4001.78,17.01,-0.0045019574,-0.0015510039,0.94463867,-0.3280777,-616.641,487.511,8.331,-0.00040999998,0,3.7655098
105.475,2000,0,91.24,0.000002697398,0.000002697398,0.000002697398,0.99999994,0,0,0,0,0,0,1,1,0,0,0,false,false,true,-273.63998,-3997.72,17.01,-0.004474983,-0.0016211362,0.93937457,-0.34285948,-619.751,476.911,8.331,-0.00051,0,3.7976098
105.48333,2000,0,91.24,0.000002697398,0.000002697398,0.000002697398,0.99999994,0,0,0,0,0,0,1,1,0,0,0,false,false,true,-278.8,-3993.75,17.01,-0.0044480097,-0.0016912688,0.9338324,-0.35767907,-622.691,466.191,8.331,-0.00051,-0.00010999999,3.83191
105.49167,2000,0,91.24,0.000002697398,0.000002697398,0.000002697398,0.99999994,0,0,0,0,0,0,1,1,0,0,0,false,false,true,-283.99,-3989.8699,17.01,-0.0044210358,-0.0017614011,0.9280032,-0.37254182,-625.46094,455.35098,8.331,-0.00051,-0.00010999999,3.86851
105.5,2000,0,91.24,0.000002697398,0.000002697398,0.000002697398,0.99999994,0,0,0,0,0,0,1,1,0,0,0,false,false,true,-289.19998,-3986.0798,17.01,-0.0043940614,-0.0018315333,0.9218771,-0.38745302,-628.05096,444.391,8.331,-0.00051,-0.00021,3.90731
105.50833,2000,0,91.24,0.000002697398,0.000002697398,0.000002697398,0.99999994,0,0,0,0,0,0,1,1,0,0,0,false,false,true,-294.43,-3982.38,17.01,-0.0043616924,-0.0019016657,0.91544825,-0.40240744,-630.43097,433.32098,8.331,-0.00051,-0.00021,3.94871
105.51667,2000,0,91.24,0.000002697398,0.000002697398,0.000002697398,0.99999994,0,0,0,0,0,0,1,1,0,0,0,false,false,true,-299.68,-3978.77,17.01,-0.0043293233,-0.0019717976,0.90870297,-0.4174158,-632.49097,422.141,8.331,-0.00051,-0.00030999997,3.9925098
105.525,2000,0,91.24,0.000002697398,0.000002697398,0.000002697398,0.99999994,0,0,0,0,0,0,1,1,0,0,0,false,false,true,-304.94998,-3975.25,17.01,-0.0042969547,-0.00204193,0.9016343,-0.4324727,-634.141,410.831,8.331,-0.00051,-0.00030999997,4.03761
105.53333,2000,0,91.24,0.000002697398,0.000002697398,0.000002697398,0.99999994,0,0,0,0,0,0,1,1,0,0,0,false,false,true,-310.22998,-3971.8298,17.01,-0.004264586,-0.0021120626,0.89423203,-0.44757825,-635.381,399.401,8.331,-0.00040999998,-0.00030999997,4.08401
105.541664,2000,0,91.24,0.000002697398,0.000002697398,0.000002697398,0.99999994,0,0,0,0,0,0,1,1,0,0,0,false,false,true,-315.52,-3968.5,17.01,-0.0042268224,-0.002182195,0.886488,-0.46272692,-636.201,387.881,8.331,-0.00040999998,-0.00030999997,4.13161
105.55,2000,0,91.24,0.000002697398,0.000002697398,0.000002697398,0.99999994,0,0,0,0,0,0,1,1,0,0,0,false,false,true,-320.82,-3965.27,17.01,-0.004189059,-0.0022523273,0.8783911,-0.47791874,-636.61096,376.281,8.331,-0.00030999997,-0.00030999997,4.18031
105.558334,2000,0,91.24,0.000002697398,0.000002697398,0.000002697398,0.99999994,0,0,0,0,0,0,1,1,0,0,0,false,false,true,-326.13,-3962.13,17.01,-0.0041512954,-0.0023224596,0.8699353,-0.49314287,-636.60095,364.621,8.331,-0.00021,-0.00030999997,4.2301097
105.566666,2000,0,91.24,0.000002697398,0.000002697398,0.000002697398,0.99999994,0,0,0,0,0,0,1,1,0,0,0,false,false,true,-331.43,-3959.0898,17.01,-0.004108137,-0.002392592,0.8611082,-0.5083994,-636.141,353.071,8.331,-0.00010999999,-0.00030999997,4.27981
105.575,2000,0,91.24,0.000002697398,0.000002697398,0.000002697398,0.99999994,0,0,0,0,0,0,1,1,0,0,0,false,false,true,-336.72998,-3956.15,17.01,-0.0040649786,-0.0024627245,0.85190654,-0.52367216,-635.24097,341.701,8.331,0,-0.00030999997,4.32891
105.583336,2000,0,91.24,0.000002697398,0.000002697398,0.000002697398,0.99999994,0,0,0,0,0,0,1,1,0,0,0,false,false,true,-342.02,-3953.2998,17.01,-0.00402182,-0.0025328568,0.8423241,-0.53895026,-633.91095,330.521,8.331,0,-0.00030999997,4.37731
105.59167,2000,0,91.24,0.000002697398,0.000002697398,0.000002697398,0.99999994,0,0,0,0,0,0,1,1,0,0,0,false,false,true,-347.3,-3950.5498,17.01,-0.0039786627,-0.0026029893,0.83235455,-0.55422306,-632.17096,319.561,8.331,0,-0.00021,4.4250097
105.6,2000,0,91.24,0.000002697398,0.000002697398,0.000002697398,0.99999994,0,0,0,0,0,0,1,1,0,0,0,false,false,true,-352.57,-3947.89,17.01,-0.0039301086,-0.0026731214,0.8219954,-0.56947416,-630.03094,308.831,8.331,0.00010999999,-0.00010999999,4.47201
105.60833,2000,0,91.24,0.000002697398,0.000002697398,0.000002697398,0.99999994,0,0,0,0,0,0,1,1,0,0,0,false,false,true,-357.81998,-3945.3198,17.01,-0.0038815557,-0.0027486486,0.8112407,-0.5846929,-627.52094,298.351,8.331,0.00021,0,4.51831
105.61667,2000,0,91.24,0.000002697398,0.000002697398,0.000002697398,0.99999994,0,0,0,0,0,0,1,1,0,0,0,false,false,true,-363.05,-3942.8298,17.01,-0.0038276082,-0.0028241759,0.8000884,-0.5998632,-624.65094,288.141,8.331,0.00021,0,4.56391
105.625,2000,0,91.24,0.000002697398,0.000002697398,0.000002697398,0.99999994,0,0,0,0,0,0,1,1,0,0,0,false,false,true,-368.25998,-3940.43,17.01,-0.00377366,-0.0028997029,0.7885371,-0.61496866,-621.451,278.201,8.331,0.00021,0,4.60871
105.63333,2000,0,91.24,0.000002697398,0.000002697398,0.000002697398,0.99999994,0,0,0,0,0,0,1,1,0,0,0,false,false,true,-373.44,-3938.1099,17.01,-0.003719712,-0.0029698352,0.7765816,-0.62999856,-617.941,268.551,8.331,0.00021,0,4.65271
105.64167,2000,0,91.24,0.000002697398,0.000002697398,0.000002697398,0.99999994,0,0,0,0,0,0,1,1,0,0,0,false,false,true,-378.59,-3935.8699,17.01,-0.0036603694,-0.0030399677,0.764221,-0.64493686,-614.15094,259.201,8.331,0.00021,0,4.69591
105.65,2000,0,91.24,0.000002697398,0.000002697398,0.000002697398,0.99999994,0,0,0,0,0,0,1,1,0,0,0,false,false,true,-383.71,-3933.71,17.01,-0.0036010265,-0.0031101,0.7514549,-0.6597672,-610.04095,250.171,8.331,0.00030999997,0.00010999999,4.7368097
105.65833,2000,0,91.24,0.000002697398,0.000002697398,0.000002697398,0.99999994,0,0,0,0,0,0,1,1,0,0,0,false,false,true,-388.78998,-3931.6199,17.01,-0.0035416833,-0.0031802321,0.7382886,-0.674468,-605.571,241.481,8.331,0.00030999997,0.00021,4.77391
105.666664,2000,0,91.24,0.000002697398,0.000002697398,0.000002697398,0.99999994,0,0,0,0,0,0,1,1,0,0,0,false,false,true,-393.84,-3929.6099,17.01,-0.0034769461,-0.0032503647,0.7247286,-0.6890179,-600.77094,233.151,8.331,0.00030999997,0.00030999997,4.80711
105.675,2000,0,91.24,0.000002697398,0.000002697398,0.000002697398,0.99999994,0,0,0,0,0,0,1,1,0,0,0,false,false,true,-398.85,-3927.67,17.01,-0.0034122085,-0.003320497,0.71078306,-0.70339507,-595.68097,225.19101,8.331,0.00030999997,0.00040999998,4.83641
105.683334,2000,0,91.24,0.000002697398,0.000002697398,0.000002697398,0.99999994,0,0,0,0,0,0,1,1,0,0,0,false,false,true,-403.81,-3925.7898,17.01,0.0033420762,0.0033906293,-0.69646275,0.71757704,-590.321,217.61101,8.331,0.00030999997,0.00051,4.8618097
105.691666,2000,0,91.24,0.000002697398,0.000002697398,0.000002697398,0.99999994,0,0,0,0,0,0,1,1,0,0,0,false,false,true,-408.72998,-3923.98,17.01,0.003271944,0.0034607616,-0.68178344,0.7315384,-584.73096,210.411,8.331,0.00030999997,0.00061,4.8832097
105.7,2000,0,91.24,0.000002697398,0.000002697398,0.000002697398,0.99999994,0,0,0,0,0,0,1,1,0,0,0,false,false,true,-413.59998,-3922.23,17.01,0.0032018116,0.0035308942,-0.66675884,0.7452582,-578.941,203.591,8.331,0.00030999997,0.00061,4.90071
105.708336,2000,0,91.24,0.000002697398,0.000002697398,0.000002697398,0.99999994,0,0,0,0,0,0,1,1,0,0,0,false,false,true,-418.41998,-3920.53,17.01,0.0031262843,0.0036010265,-0.6514052,0.7587149,-572.98096,197.151,8.331,0.00021,0.00071,4.91421
105.71667,2000,0,91.24,0.000002697398,0.000002697398,0.000002697398,0.99999994,0,0,0,0,0,0,1,1,0,0,0,false,false,true,-423.19,-3918.89,17.01,0.0030507569,0.0036657634,-0.63573325,0.7718939,-566.891,191.08101,8.331,0.00021,0.00071,4.92371
105.725,2000,0,91.24,0.000002697398,0.000002697398,0.000002697398,0.99999994,0,0,0,0,0,0,1,1,0,0,0,false,false,true,-427.91,-3917.2998,17.01,0.00297523,0.0037305015,-0.6197646,0.7847731,-560.701,185.381,8.321,0.00021,0.00071,4.92911
105.73333,2000,0,91.24,0.000002697398,0.000002697398,0.000002697398,0.99999994,0,0,0,0,0,0,1,1,0,0,0,false,false,true,-432.58,-3915.75,17.01,0.0028943082,0.0037952391,-0.6035154,0.79733694,-554.441,180.041,8.321,0.00010999999,0.00081,4.93041
105.74167,2000,0,91.24,0.000002697398,0.000002697398,0.000002697398,0.99999994,0,0,0,0,0,0,1,1,0,0,0,false,false,true,-437.19998,-3914.25,17.01,0.0028133863,0.0038545819,-0.5870073,0.8095675,-548.141,175.05101,8.321,0.00010999999,0.00081,4.92751
105.75,2000,0,91.24,0.000002697398,0.000002697398,0.000002697398,0.99999994,0,0,0,0,0,0,1,1,0,0,0,false,false,true,-441.77,-3912.7898,17.01,0.002732464,0.0039139246,-0.5702618,0.8214491,-541.84094,170.391,8.321,0.00010999999,0.00081,4.9204097
105.75833,2000,0,91.24,0.000002697398,0.000002697398,0.000002697398,0.99999994,0,0,0,0,0,0,1,1,0,0,0,false,false,true,-446.28998,-3911.3699,17.01,0.0026515422,0.003973267,-0.5533005,0.83296794,-535.561,166.041,8.321,0,0.00081,4.90901
105.76667,2000,0,91.24,0.000002697398,0.000002697398,0.000002697398,0.99999994,0,0,0,0,0,0,1,1,0,0,0,false,false,true,-450.75,-3909.99,17.01,0.0025652256,0.0040272153,-0.53615034,0.84410894,-529.321,161.981,8.321,0,0.00091,4.89321
105.775,2000,0,91.24,0.000002697398,0.000002697398,0.000002697398,0.99999994,0,0,0,0,0,0,1,1,0,0,0,false,false,true,-455.16,-3908.64,17.01,0.0024789087,0.004081163,-0.5188276,0.8548655,-523.09094,158.141,8.321,0,0.00091,4.87281
105.78333,2000,0,91.24,0.000002697398,0.000002697398,0.000002697398,0.99999994,0,0,0,0,0,0,1,1,0,0,0,false,false,true,-459.52,-3907.3198,17.01,0.002392592,0.004135111,-0.5013646,0.8652229,-516.891,154.521,8.321,0,0.00091,4.84791
105.791664,2000,0,91.24,0.000002697398,0.000002697398,0.000002697398,0.99999994,0,0,0,0,0,0,1,1,0,0,0,false,false,true,-463.83,-3906.03,17.01,0.0023062753,0.0041836645,-0.48378828,0.87517196,-510.741,151.091,8.321,0,0.00081,4.8186097
105.8,2000,0,91.24,0.000002697398,0.000002697398,0.000002697398,0.99999994,0,0,0,0,0,0,1,1,0,0,0,false,false,true,-468.09,-3904.77,17.01,0.0022199587,0.004232218,-0.46612027,0.8847084,-504.641,147.841,8.311,0,0.00081,4.78531
105.808334,2000,0,91.24,0.000002697398,0.000002697398,0.000002697398,0.99999994,0,0,0,0,0,0,1,1,0,0,0,false,false,true,-472.3,-3903.5398,17.01,0.0021336419,0.0042807707,-0.44838747,0.8938264,-498.491,144.701,8.311,-0.00010999999,0.00071,4.75111
105.816666,2000,0,91.24,0.000002697398,0.000002697398,0.000002697398,0.99999994,0,0,0,0,0,0,1,1,0,0,0,false,false,true,-476.44998,-3902.3298,17.01,0.0020473253,0.0043239295,-0.43060622,0.9025272,-492.311,141.671,8.311,-0.00021,0.00061,4.71591
105.825,2000,0,91.24,0.000002697398,0.000002697398,0.000002697398,0.99999994,0,0,0,0,0,0,1,1,0,0,0,false,false,true,-480.55,-3901.15,17.01,0.0019610084,0.0043670875,-0.41279253,0.91081244,-486.10098,138.761,8.311,-0.00030999997,0.00051,4.6799097
105.833336,2000,0,91.24,0.000002697398,0.000002697398,0.000002697398,0.99999994,0,0,0,0,0,0,1,1,0,0,0,false,false,true,-484.59998,-3899.99,17.01,0.0018746918,0.0044048512,-0.39495727,0.918687,-479.861,135.97101,8.311,-0.00040999998,0.00040999998,4.64331
105.84167,2000,0,91.24,0.000002697398,0.000002697398,0.000002697398,0.99999994,0,0,0,0,0,0,1,1,0,0,0,false,false,true,-488.59998,-3898.8599,17.01,0.0017883751,0.004442615,-0.3771112,0.92615557,-473.591,133.291,8.311,-0.00040999998,0.00030999997,4.60631
105.85,2000,0,91.24,0.000002697398,0.000002697398,0.000002697398,0.99999994,0,0,0,0,0,0,1,1,0,0,0,false,false,true,-492.55,-3897.75,17.01,0.0017020581,0.004474983,-0.3592651,0.9332232,-467.291,130.731,8.311,-0.00051,0.00021,4.56921
105.85833,2000,0,91.24,0.000002697398,0.000002697398,0.000002697398,0.99999994,0,0,0,0,0,0,1,1,0,0,0,false,false,true,-496.44,-3896.66,17.01,0.0016157415,0.0045073526,-0.34143528,0.93989307,-460.961,128.291,8.311,-0.00051,0.00021,4.53221
105.86667,2000,0,91.24,0.000002697398,0.000002697398,0.000002697398,0.99999994,0,0,0,0,0,0,1,1,0,0,0,false,false,true,-500.28,-3895.5898,17.01,0.0015294248,0.004539721,-0.32362697,0.9461726,-454.60098,125.961,8.311,-0.00051,0.00010999999,4.49541
105.875,2000,0,91.24,0.000002697398,0.000002697398,0.000002697398,0.99999994,0,0,0,0,0,0,1,1,0,0,0,false,false,true,-504.06998,-3894.5398,17.01,0.001443108,0.0045666946,-0.30585104,0.95206726,-448.201,123.751,8.311,-0.00051,0,4.45911
105.88333,2000,0,91.24,0.000002697398,0.000002697398,0.000002697398,0.99999994,0,0,0,0,0,0,1,1,0,0,0,false,false,true,-507.8,-3893.51,17.01,0.0013567912,0.004593669,-0.28811288,0.9575844,-441.771,121.65099,8.311,-0.00051,0,4.42351
105.89167,2000,0,91.24,0.000002697398,0.000002697398,0.000002697398,0.99999994,0,0,0,0,0,0,1,1,0,0,0,false,false,true,-511.47998,-3892.5,17.01,0.0012704744,0.0046152477,-0.27041784,0.962731,-435.301,119.660995,8.311,-0.00051,0,4.38871
105.9,2000,0,91.24,0.000002697398,0.000002697398,0.000002697398,0.99999994,0,0,0,0,0,0,1,1,0,0,0,false,false,true,-515.11,-3891.5,17.01,0.0011841578,0.0046368274,-0.25277147,0.96751416,-428.791,117.791,8.311,-0.00051,0,4.35491
105.90833,2000,0,91.24,0.000002697398,0.000002697398,0.000002697398,0.99999994,0,0,0,0,0,0,1,1,0,0,0,false,false,true,-518.68,-3890.52,17.01,0.0010978411,0.0046584066,-0.23517355,0.9719416,-422.241,116.041,8.311,-0.00051,-0.00010999999,4.32231
105.916664,2000,0,91.24,0.000002697398,0.000002697398,0.000002697398,0.99999994,0,0,0,0,0,0,1,1,0,0,0,false,false,true,-522.2,-3889.5498,17.01,0.0010115243,0.004674591,-0.21762963,0.9760197,-415.651,114.410995,8.301001,-0.00051,-0.00021,4.29111
105.925,2000,0,91.24,0.000002697398,0.000002697398,0.000002697398,0.99999994,0,0,0,0,0,0,1,1,0,0,0,false,false,true,-525.66,-3888.5999,17.01,0.00092520757,0.004690775,-0.20014499,0.97975457,-409.011,112.90099,8.301001,-0.00040999998,-0.00021,4.2614098
105.933334,2000,0,91.24,0.000002697398,0.000002697398,0.000002697398,0.99999994,0,0,0,0,0,0,1,1,0,0,0,false,false,true,-529.07,-3887.66,17.01,0.0008388908,0.0047069597,-0.18271977,0.98315334,-402.331,111.510994,8.301001,-0.00030999997,-0.00021,4.23341
105.941666,2000,0,91.24,0.000002697398,0.000002697398,0.000002697398,0.99999994,0,0,0,0,0,0,1,1,0,0,0,false,false,true,-532.42,-3886.73,17.01,0.00075257407,0.004717749,-0.16534844,0.9862236,-395.601,110.251,8.301001,-0.00021,-0.00030999997,4.20721
105.95,2000,0,91.24,0.000002697398,0.000002697398,0.000002697398,0.99999994,0,0,0,0,0,0,1,1,0,0,0,false,false,true,-535.72,-3885.8098,17.01,0.0006716521,0.0047285384,-0.14803645,0.98897034,-388.82098,109.131,8.301001,-0.00010999999,-0.00030999997,4.18301
105.958336,2000,0,91.24,0.000002697398,0.000002697398,0.000002697398,0.99999994,0,0,0,0,0,0,1,1,0,0,0,false,false,true,-538.95996,-3884.9,17.01,0.00059073017,0.0047393283,-0.13077845,0.99140006,-381.991,108.15099,8.301001,-0.00010999999,-0.00040999998,4.16091
105.96667,2000,0,91.24,0.000002697398,0.000002697398,0.000002697398,0.99999994,0,0,0,0,0,0,1,1,0,0,0,false,false,true,-542.14,-3884,17.01,0.0005098082,0.004744723,-0.11356898,0.9935186,-375.111,107.321,8.301001,-0.00010999999,-0.00040999998,4.14111
105.975,2000,0,91.24,0.000002697398,0.000002697398,0.000002697398,0.99999994,0,0,0,0,0,0,1,1,0,0,0,false,false,true,-545.26996,-3883.1099,17.01,0.0004288863,0.0047501177,-0.096408084,0.9953304,-368.181,106.641,8.301001,0,-0.00040999998,4.1237097
105.98333,2000,0,91.24,0.000002697398,0.000002697398,0.000002697398,0.99999994,0,0,0,0,0,0,1,1,0,0,0,false,false,true,-548.33997,-3882.22,17.01,0.00034796432,0.0047555123,-0.0792903,0.99684,-361.201,106.120995,8.301001,0,-0.00040999998,4.10891
105.99167,2000,0,91.24,0.000002697398,0.000002697398,0.000002697398,0.99999994,0,0,0,0,0,0,1,1,0,0,0,false,false,true,-551.35,-3881.3398,17.01,0.0002670424,0.0047609075,-0.06221574,0.9980513,-354.181,105.770996,8.301001,0,-0.00040999998,4.0967097
106,2000,0,91.24,0.000002697398,0.000002697398,0.000002697398,0.99999994,0,0,0,0,0,0,1,1,0,0,0,false,false,true,-554.3,-3880.46,17.01,0.00018612045,0.004760907,-0.04517349,0.99896765,-347.121,105.590996,8.301001,0,-0.00051,4.08741
106.00833,2000,0,91.24,0.000002697398,0.000002697398,0.000002697398,0.99999994,0,0,0,0,0,0,1,1,0,0,0,false,false,true,-557.19,-3879.5798,17.01,0.000105198524,0.0047609075,-0.02815287,0.99959224,-340.021,105.601,8.301001,0,-0.00051,4.08101
106.01667,2000,0,91.24,0.000002697398,0.000002697398,0.000002697398,0.99999994,0,0,0,0,0,0,1,1,0,0,0,false,false,true,-560.01996,-3878.7,17.01,0.000024276584,0.004760908,-0.011153784,0.99992645,-332.891,105.800995,8.301001,0.00010999999,-0.00051,4.0777097
106.025,2000,0,91.24,0.000002697398,0.000002697398,0.000002697398,0.99999994,0,0,0,0,0,0,1,1,0,0,0,false,false,true,-562.79,-3877.8198,17.01,-0.000056645364,0.004760908,0.0058344724,0.9999716,-325.741,106.201,8.301001,0.00021,-0.00051,4.0777097
106.03333,2000,0,91.24,0.000002697398,0.000002697398,0.000002697398,0.99999994,0,0,0,0,0,0,1,1,0,0,0,false,false,true,-565.5,-3876.93,17.01,-0.0001375673,0.004755513,0.02282277,0.99972814,-318.581,106.811,8.301001,0.00030999997,-0.00061,4.08101
106.041664,2000,0,91.24,0.000002697398,0.000002697398,0.000002697398,0.99999994,0,0,0,0,0,0,1,1,0,0,0,false,false,true,-568.14996,-3876.0398,17.01,-0.00021848925,0.0047501177,0.03981646,0.99919564,-311.421,107.641,8.301001,0.00040999998,-0.00061,4.08771
106.05,2000,0,91.24,0.000002697398,0.000002697398,0.000002697398,0.99999994,0,0,0,0,0,0,1,1,0,0,0,false,false,true,-570.75,-3875.14,17.01,-0.00029941121,0.0047447234,0.056826342,0.99837273,-304.281,108.690994,8.301001,0.00051,-0.00061,4.09791
106.058334,2000,0,91.24,0.000002697398,0.000002697398,0.000002697398,0.99999994,0,0,0,0,0,0,1,1,0,0,0,false,false,true,-573.29,-3874.23,17.01,-0.00038033313,0.0047339336,0.073863104,0.99725705,-297.051,109.991,8.301001,0.00061,-0.00061,4.11361
106.066666,2000,0,91.24,0.000002697398,0.000002697398,0.000002697398,0.99999994,0,0,0,0,0,0,1,1,0,0,0,false,false,true,-575.76996,-3873.3098,17.01,-0.00046125508,0.0047231438,0.09094311,0.9958447,-289.681,111.590996,8.301001,0.00071,-0.00051,4.13411
106.075,2000,0,91.24,0.000002697398,0.000002697398,0.000002697398,0.99999994,0,0,0,0,0,0,1,1,0,0,0,false,false,true,-578.18,-3872.38,17.01,-0.000542177,0.0047123544,0.108082466,0.99413055,-282.191,113.520996,8.301001,0.00081,-0.00040999998,4.15961
106.083336,2000,0,91.24,0.000002697398,0.000002697398,0.000002697398,0.99999994,0,0,0,0,0,0,1,1,0,0,0,false,false,true,-580.52997,-3871.43,17.01,-0.000623099,0.004701565,0.12529735,0.99210787,-274.591,115.811,8.301001,0.00091,-0.00030999997,4.19031
106.09167,2000,0,91.24,0.000002697398,0.000002697398,0.000002697398,0.99999994,0,0,0,0,0,0,1,1,0,0,0,false,false,true,-582.82,-3870.46,17.01,-0.0007040209,0.004690775,0.14259845,0.9897692,-266.881,118.361,8.301001,0.00091,-0.00021,4.22201
106.1,2000,0,91.24,0.000002697398,0.000002697398,0.000002697398,0.99999994,0,0,0,0,0,0,1,1,0,0,0,false,false,true,-585.04,-3869.47,17.01,-0.0007849428,0.0046745907,0.15998596,0.9871079,-259.081,121.181,8.301001,0.00091,-0.00010999999,4.25431
106.10833,2000,0,91.24,0.000002697398,0.000002697398,0.000002697398,0.99999994,0,0,0,0,0,0,1,1,0,0,0,false,false,true,-587.2,-3868.46,17.01,-0.0008658648,0.004658406,0.17745979,0.98411655,-251.181,124.300995,8.301001,0.00091,0,4.28751
106.11667,2000,0,91.24,0.000002697398,0.000002697398,0.000002697398,0.99999994,0,0,0,0,0,0,1,1,0,0,0,false,false,true,-589.29,-3867.42,17.01,-0.0009467868,0.0046422225,0.19500917,0.98078996,-243.191,127.770996,8.301001,0.00091,0,4.32171
106.125,2000,0,91.24,0.000002697398,0.000002697398,0.000002697398,0.99999994,0,0,0,0,0,0,1,1,0,0,0,false,false,true,-591.32,-3866.3599,17.01,-0.0010277088,0.004626038,0.21263945,0.9771192,-235.11101,131.621,8.301001,0.00081,0,4.35741
106.13333,2000,0,91.24,0.000002697398,0.000002697398,0.000002697398,0.99999994,0,0,0,0,0,0,1,1,0,0,0,false,false,true,-593.27997,-3865.26,17.01,-0.0011086307,0.004604459,0.23034517,0.97309744,-226.931,135.91101,8.301001,0.00071,0.00010999999,4.39491
106.14167,2000,0,91.24,0.000002697398,0.000002697398,0.000002697398,0.99999994,0,0,0,0,0,0,1,1,0,0,0,false,false,true,-595.17,-3864.13,17.01,-0.0011895525,0.004582879,0.24812649,0.968716,-218.641,140.711,8.301001,0.00061,0.00021,4.43501
106.15,2000,0,91.24,0.000002697398,0.000002697398,0.000002697398,0.99999994,0,0,0,0,0,0,1,1,0,0,0,false,false,true,-596.99,-3862.96,17.01,-0.0012704745,0.0045613,0.26598334,0.96396595,-210.461,145.86101,8.301001,0.00051,0.00021,4.47471
106.15833,2000,0,91.24,0.000002697398,0.000002697398,0.000002697398,0.99999994,0,0,0,0,0,0,1,1,0,0,0,false,false,true,-598.74,-3861.74,17.01,-0.0013513964,0.0045397207,0.28391033,0.95883906,-202.491,151.291,8.301001,0.00051,0.00021,4.51291
106.166664,2000,0,91.24,0.000002697398,0.000002697398,0.000002697398,0.99999994,0,0,0,0,0,0,1,1,0,0,0,false,false,true,-600.43,-3860.48,17.01,-0.0014323185,0.0045127473,0.3018913,0.9533306,-194.72101,157.041,8.301001,0.00061,0.00021,4.55031
106.175,2000,0,91.24,0.000002697398,0.000002697398,0.000002697398,0.99999994,0,0,0,0,0,0,1,1,0,0,0,false,false,true,-602.05,-3859.17,17.01,-0.0015132403,0.004485773,0.3199099,0.9474361,-187.141,163.141,8.301001,0.00071,0.00021,4.58741
106.183334,2000,0,91.24,0.000002697398,0.000002697398,0.000002697398,0.99999994,0,0,0,0,0,0,1,1,0,0,0,false,false,true,-603.61,-3857.8098,17.01,-0.0015941623,0.0044534043,0.337961,0.9411482,-179.741,169.511,8.301001,0.00071,0.00030999997,4.6223097
106.191666,2000,0,91.24,0.000002697398,0.000002697398,0.000002697398,0.99999994,0,0,0,0,0,0,1,1,0,0,0,false,false,true,-605.11,-3856.4,17.01,-0.0016750842,0.0044210353,0.35602283,0.9344652,-172.521,176.151,8.301001,0.00061,0.00040999998,4.65451
106.2,2000,0,91.24,0.000002697398,0.000002697398,0.000002697398,0.99999994,0,0,0,0,0,0,1,1,0,0,0,false,false,true,-606.55,-3854.93,17.01,-0.0017560062,0.0043886667,0.3740793,0.9273846,-165.491,183.071,8.301001,0.00051,0.00040999998,4.6841097
106.208336,2000,0,91.24,0.000002697398,0.000002697398,0.000002697398,0.99999994,0,0,0,0,0,0,1,1,0,0,0,false,false,true,-607.93,-3853.4,17.01,-0.0018369281,0.0043562977,0.3921088,0.9199066,-158.771,190.091,8.301001,0.00040999998,0.00040999998,4.70951
106.21667,2000,0,91.24,0.000002697398,0.000002697398,0.000002697398,0.99999994,0,0,0,0,0,0,1,1,0,0,0,false,false,true,-609.25,-3851.8198,17.01,-0.0019178501,0.0043185344,0.41008437,0.91203535,-152.381,197.211,8.301001,0.00030999997,0.00040999998,4.7308097
106.225,2000,0,91.24,0.000002697398,0.000002697398,0.000002697398,0.99999994,0,0,0,0,0,0,1,1,0,0,0,false,false,true,-610.51996,-3850.18,17.01,-0.001998772,0.0042807707,0.42797887,0.90377635,-146.321,204.431,8.301001,0.00021,0.00040999998,4.7480097
106.23333,2000,0,91.24,0.000002697398,0.000002697398,0.000002697398,0.99999994,0,0,0,0,0,0,1,1,0,0,0,false,false,true,-611.74,-3848.48,17.01,-0.002079694,0.0042430074,0.44577643,0.8951318,-140.591,211.771,8.301001,0,0.00040999998,4.76121
106.24167,2000,0,91.24,0.000002697398,0.000002697398,0.000002697398,0.99999994,0,0,0,0,0,0,1,1,0,0,0,false,false,true,-612.91,-3846.71,17.01,-0.002160616,0.004199849,0.46344447,0.88611335,-135.19101,219.231,8.301001,0,0.00040999998,4.77011
106.25,2000,0,91.24,0.000002697398,0.000002697398,0.000002697398,0.99999994,0,0,0,0,0,0,1,1,0,0,0,false,false,true,-614.04,-3844.88,17.01,-0.0022415377,0.00415669,0.4809614,0.87672895,-130.121,226.841,8.301001,-0.00010999999,0.00040999998,4.77431
106.25833,2000,0,91.24,0.000002697398,0.000002697398,0.000002697398,0.99999994,0,0,0,0,0,0,1,1,0,0,0,false,false,true,-615.12,-3842.99,17.01,-0.0023224596,0.0041135317,0.49830577,0.8669884,-125.381,234.651,8.301001,-0.00021,0.00040999998,4.77291
106.26667,2000,0,91.24,0.000002697398,0.000002697398,0.000002697398,0.99999994,0,0,0,0,0,0,1,1,0,0,0,false,false,true,-616.16,-3841.03,17.01,-0.0024033815,0.0040703737,0.5154504,0.8569063,-120.991,242.571,8.301001,-0.00030999997,0.00040999998,4.76761
106.275,2000,0,91.24,0.000002697398,0.000002697398,0.000002697398,0.99999994,0,0,0,0,0,0,1,1,0,0,0,false,false,true,-617.17,-3839.01,17.01,-0.0024843037,0.00402182,0.5323686,0.8464994,-117.071,250.241,8.301001,-0.00030999997,0.00030999997,4.76551
106.28333,2000,0,91.24,0.000002697398,0.000002697398,0.000002697398,0.99999994,0,0,0,0,0,0,1,1,0,0,0,false,false,true,-618.14996,-3836.92,17.01,-0.0025652256,0.003973267,0.54907095,0.83576226,-113.58099,257.731,8.301001,-0.00030999997,0.00021,4.76501
106.291664,2000,0,91.24,0.000002697398,0.000002697398,0.000002697398,0.99999994,0,0,0,0,0,0,1,1,0,0,0,false,false,true,-619.1,-3834.77,17.01,-0.0026461475,0.003924714,0.56555754,0.82469517,-110.520996,265.071,8.301001,-0.00030999997,0,4.76531
106.3,2000,0,91.24,0.000002697398,0.000002697398,0.000002697398,0.99999994,0,0,0,0,0,0,1,1,0,0,0,false,false,true,-620.01996,-3832.5598,17.01,-0.0027270694,0.0038707664,0.58181745,0.81330556,-107.881,272.271,8.301001,-0.00030999997,-0.00010999999,4.7659097
106.308334,2000,0,91.24,0.000002697398,0.000002697398,0.000002697398,0.99999994,0,0,0,0,0,0,1,1,0,0,0,false,false,true,-620.92,-3830.2898,17.01,-0.0028025967,0.0038168184,0.59785086,0.8015933,-105.660995,279.341,8.301001,-0.00021,-0.00010999999,4.7663097
106.316666,2000,0,91.24,0.000002697398,0.000002697398,0.000002697398,0.99999994,0,0,0,0,0,0,1,1,0,0,0,false,false,true,-621.8,-3827.96,17.01,-0.0028781237,0.0037628703,0.6136523,0.78956205,-103.861,286.271,8.301001,-0.00021,-0.00021,4.7663097
106.325,2000,0,91.24,0.000002697398,0.000002697398,0.000002697398,0.99999994,0,0,0,0,0,0,1,1,0,0,0,false,false,true,-622.67,-3825.5698,17.01,-0.002953651,0.0037035276,0.6292109,0.7772201,-102.480995,293.051,8.301001,-0.00021,-0.00030999997,4.76571
106.333336,2000,0,91.24,0.000002697398,0.000002697398,0.000002697398,0.99999994,0,0,0,0,0,0,1,1,0,0,0,false,false,true,-623.51996,-3823.13,17.01,-0.0030291781,0.0036441851,0.6445215,0.7645715,-101.510994,299.711,8.301001,-0.00021,-0.00040999998,4.7638097
106.34167,2000,0,91.24,0.000002697398,0.000002697398,0.000002697398,0.99999994,0,0,0,0,0,0,1,1,0,0,0,false,false,true,-624.37,-3820.63,17.01,-0.0031047054,0.0035848422,0.65956765,0.7516302,-100.931,306.381,8.301001,-0.00021,-0.00040999998,4.75851
106.35,2000,0,91.24,0.000002697398,0.000002697398,0.000002697398,0.99999994,0,0,0,0,0,0,1,1,0,0,0,false,false,true,-625.20996,-3818.0798,17.01,-0.0031748374,0.0035201046,0.67433864,0.7384069,-100.730995,313.051,8.301001,-0.00010999999,-0.00040999998,4.75161
106.35833,2000,0,91.24,0.000002697398,0.000002697398,0.000002697398,0.99999994,0,0,0,0,0,0,1,1,0,0,0,false,false,true,-626.05,-3815.47,17.01,-0.0032449698,0.003455367,0.68882364,0.72491336,-100.910995,319.681,8.301001,-0.00010999999,-0.00040999998,4.74321
106.36667,2000,0,91.24,0.000002697398,0.000002697398,0.000002697398,0.99999994,0,0,0,0,0,0,1,1,0,0,0,false,false,true,-626.89,-3812.8098,17.01,-0.0033151023,0.0033906293,0.7030175,0.71115667,-101.480995,326.251,8.301001,-0.00021,-0.00040999998,4.7336097
106.375,2000,0,91.24,0.000002697398,0.000002697398,0.000002697398,0.99999994,0,0,0,0,0,0,1,1,0,0,0,false,false,true,-627.74,-3810.0898,17.01,-0.0033852346,0.003325892,0.71690625,0.69715333,-102.431,332.731,8.301001,-0.00021,-0.00040999998,4.72301
106.38333,2000,0,91.24,0.000002697398,0.000002697398,0.000002697398,0.99999994,0,0,0,0,0,0,1,1,0,0,0,false,false,true,-628.58997,-3807.3198,17.01,-0.0034499723,0.0032557594,0.7304861,0.682911,-103.751,339.091,8.301001,-0.00021,-0.00040999998,4.71161
106.39167,2000,0,91.24,0.000002697398,0.000002697398,0.000002697398,0.99999994,0,0,0,0,0,0,1,1,0,0,0,false,false,true,-629.45,-3804.49,17.01,-0.0035147096,0.003185627,0.743749,0.668442,-105.451,345.311,8.301001,-0.00021,-0.00040999998,4.69951
106.4,2000,0,91.24,0.000002697398,0.000002697398,0.000002697398,0.99999994,0,0,0,0,0,0,1,1,0,0,0,false,false,true,-630.32996,-3801.6099,17.01,-0.0035794473,0.0031154947,0.75669384,0.653752,-107.510994,351.371,8.301001,-0.00021,-0.00040999998,4.6869097
106.40833,2000,0,91.24,0.000002697398,0.000002697398,0.000002697398,0.99999994,0,0,0,0,0,0,1,1,0,0,0,false,false,true,-631.23,-3798.68,17.01,-0.00363879,0.0030453624,0.76931536,0.63885146,-109.921,357.251,8.301001,-0.00021,-0.00040999998,4.6739097
106.416664,2000,0,91.24,0.000002697398,0.000002697398,0.000002697398,0.99999994,0,0,0,0,0,0,1,1,0,0,0,false,false,true,-632.14996,-3795.7,17.01,-0.0036981327,0.00297523,0.78160834,0.62375134,-112.681,362.931,8.301001,-0.00030999997,-0.00040999998,4.6606097
106.425,2000,0,91.24,0.000002697398,0.000002697398,0.000002697398,0.99999994,0,0,0,0,0,0,1,1,0,0,0,false,false,true,-633.08997,-3792.68,17.01,-0.0037574759,0.002905098,0.7935724,0.6084572,-115.770996,368.391,8.301001,-0.00030999997,-0.00040999998,4.64721
106.433334,2000,0,91.24,0.000002697398,0.000002697398,0.000002697398,0.99999994,0,0,0,0,0,0,1,1,0,0,0,false,false,true,-634.05,-3789.6099,17.01,-0.0038168184,0.0028295706,0.80520356,0.5929794,-119.181,373.611,8.301001,-0.00030999997,-0.00040999998,4.63381
106.441666,2000,0,91.24,0.000002697398,0.000002697398,0.000002697398,0.99999994,0,0,0,0,0,0,1,1,0,0,0,false,false,true,-635.04,-3786.5,17.01,-0.0038707664,0.0027540433,0.81650156,0.57732356,-122.90099,378.581,8.301001,-0.00030999997,-0.00040999998,4.62051
106.45,2000,0,91.24,0.000002697398,0.000002697398,0.000002697398,0.99999994,0,0,0,0,0,0,1,1,0,0,0,false,false,true,-636.06,-3783.3398,17.01,-0.0039247135,0.002678516,0.8274626,0.5615005,-126.921,383.281,8.301001,-0.00030999997,-0.00040999998,4.60741
106.458336,2000,0,91.24,0.000002697398,0.000002697398,0.000002697398,0.99999994,0,0,0,0,0,0,1,1,0,0,0,false,false,true,-637.12,-3780.15,17.01,-0.0039786627,0.0026029893,0.8380905,0.5455105,-131.211,387.701,8.301001,-0.00030999997,-0.00040999998,4.5946097
106.46667,2000,0,91.24,0.000002697398,0.000002697398,0.000002697398,0.99999994,0,0,0,0,0,0,1,1,0,0,0,false,false,true,-638.20996,-3776.92,17.01,-0.0040272153,0.0025274619,0.84837824,0.52936906,-135.77101,391.82098,8.301001,-0.00030999997,-0.00040999998,4.5823097
106.475,2000,0,91.24,0.000002697398,0.000002697398,0.000002697398,0.99999994,0,0,0,0,0,0,1,1,0,0,0,false,false,true,-639.33997,-3773.65,17.01,-0.0040757684,0.0024519349,0.8583295,0.5130767,-140.571,395.621,8.301001,-0.00030999997,-0.00040999998,4.57051
106.48333,2000,0,91.24,0.000002697398,0.000002697398,0.000002697398,0.99999994,0,0,0,0,0,0,1,1,0,0,0,false,false,true,-640.51,-3770.3499,17.01,-0.004124321,0.0023764074,0.8679442,0.49663863,-145.631,399.131,8.301001,-0.00030999997,-0.00040999998,4.56031
106.49167,2000,0,91.24,0.000002697398,0.000002697398,0.000002697398,0.99999994,0,0,0,0,0,0,1,1,0,0,0,false,false,true,-641.72,-3767.02,17.01,-0.004172874,0.0022954855,0.8772223,0.48006043,-150.94101,402.341,8.301001,-0.00030999997,-0.00040999998,4.55181
106.5,2000,0,91.24,0.000002697398,0.000002697398,0.000002697398,0.99999994,0,0,0,0,0,0,1,1,0,0,0,false,false,true,-642.98,-3763.67,17.01,-0.004216033,0.0022145638,0.88616955,0.46333653,-156.47101,405.241,8.301001,-0.00030999997,-0.00040999998,4.54491
106.50833,2000,0,91.24,0.000002697398,0.000002697398,0.000002697398,0.99999994,0,0,0,0,0,0,1,1,0,0,0,false,false,true,-644.27997,-3760.2898,17.01,-0.004259191,0.0021336416,0.8947846,0.44647226,-162.201,407.82098,8.301001,-0.00030999997,-0.00040999998,4.53961
106.51667,2000,0,91.24,0.000002697398,0.000002697398,0.000002697398,0.99999994,0,0,0,0,0,0,1,1,0,0,0,false,false,true,-645.63,-3756.89,17.01,-0.00430235,0.00205272,0.9030695,0.42946783,-168.11101,410.07098,8.301001,-0.00030999997,-0.00040999998,4.53591
106.525,2000,0,91.24,0.000002697398,0.000002697398,0.000002697398,0.99999994,0,0,0,0,0,0,1,1,0,0,0,false,false,true,-647.02997,-3753.47,17.01,-0.004340113,0.0019717978,0.9110251,0.41232318,-174.22101,412.011,8.301001,-0.00021,-0.00030999997,4.53361
106.53333,2000,0,91.24,0.000002697398,0.000002697398,0.000002697398,0.99999994,0,0,0,0,0,0,1,1,0,0,0,false,false,true,-648.48,-3750.0398,17.01,-0.004377877,0.0018908761,0.9186499,0.39504355,-180.541,413.651,8.311,-0.00021,-0.00030999997,4.53251
106.541664,2000,0,91.24,0.000002697398,0.000002697398,0.000002697398,0.99999994,0,0,0,0,0,0,1,1,0,0,0,false,false,true,-649.98,-3746.5898,17.01,-0.004415641,0.0018099542,0.92594683,0.3776237,-187.05101,414.981,8.311,-0.00021,-0.00030999997,4.5324097
106.55,2000,0,91.24,0.000002697398,0.000002697398,0.000002697398,0.99999994,0,0,0,0,0,0,1,1,0,0,0,false,false,true,-651.54,-3743.13,17.01,-0.004448009,0.0017290321,0.9329134,0.36006892,-193.731,415.991,8.311,-0.00010999999,-0.00021,4.53331
106.558334,2000,0,91.24,0.000002697398,0.000002697398,0.000002697398,0.99999994,0,0,0,0,0,0,1,1,0,0,0,false,false,true,-653.14996,-3739.66,17.01,-0.0044803782,0.0016427154,0.93954766,0.3423847,-200.561,416.681,8.311,-0.00010999999,-0.00021,4.53501
106.566666,2000,0,91.24,0.000002697398,0.000002697398,0.000002697398,0.99999994,0,0,0,0,0,0,1,1,0,0,0,false,false,true,-654.82,-3736.19,17.01,-0.0045127473,0.0015563988,0.94584924,0.3245711,-207.521,417.051,8.311,-0.00010999999,-0.00010999999,4.53761
106.575,2000,0,91.24,0.000002697398,0.000002697398,0.000002697398,0.99999994,0,0,0,0,0,0,1,1,0,0,0,false,false,true,-656.55,-3732.71,17.01,-0.004539721,0.0014700821,0.9518157,0.30663332,-214.591,417.10098,8.311,-0.00010999999,-0.00010999999,4.54091
106.583336,2000,0,91.24,0.000002697398,0.000002697398,0.000002697398,0.99999994,0,0,0,0,0,0,1,1,0,0,0,false,false,true,-658.33997,-3729.23,17.01,-0.004566695,0.0013837653,0.95744646,0.28857145,-221.761,416.82098,8.311,-0.00010999999,-0.00010999999,4.54491
106.59167,2000,0,91.24,0.000002697398,0.000002697398,0.000002697398,0.99999994,0,0,0,0,0,0,1,1,0,0,0,false,false,true,-660.19,-3725.76,17.01,-0.004593669,0.0012974484,0.96273875,0.27039087,-229.011,416.211,8.311,-0.00010999999,0,4.5496097
106.6,2000,0,91.24,0.000002697398,0.000002697398,0.000002697398,0.99999994,0,0,0,0,0,0,1,1,0,0,0,false,false,true,-662.1,-3722.2898,17.01,-0.004615248,0.0012111317,0.96769154,0.25209165,-236.33101,415.271,8.311,-0.00010999999,0,4.5549097
106.60833,2000,0,91.24,0.000002697398,0.000002697398,0.000002697398,0.99999994,0,0,0,0,0,0,1,1,0,0,0,false,false,true,-664.07,-3718.8298,17.01,-0.0046368274,0.0011248151,0.972302,0.23367923,-243.701,414.001,8.311,-0.00010999999,0,4.56071
106.61667,2000,0,91.24,0.000002697398,0.000002697398,0.000002697398,0.99999994,0,0,0,0,0,0,1,1,0,0,0,false,false,true,-666.1,-3715.38,17.01,-0.0046584066,0.0010384984,0.9765662,0.21516421,-251.11101,412.401,8.311,-0.00010999999,0,4.56711
106.625,2000,0,91.24,0.000002697398,0.000002697398,0.000002697398,0.99999994,0,0,0,0,0,0,1,1,0,0,0,false,false,true,-668.19,-3711.94,17.01,-0.004679985,0.0009521814,0.9804838,0.19654126,-258.54102,410.471,8.311,-0.00010999999,0,4.57401
106.63333,2000,0,91.24,0.000002697398,0.000002697398,0.000002697398,0.99999994,0,0,0,0,0,0,1,1,0,0,0,false,false,true,-670.33997,-3708.52,17.01,-0.0046961694,0.0008658647,0.98405105,0.17782123,-265.971,408.221,8.311,-0.00010999999,0,4.58141
106.64167,2000,0,91.24,0.000002697398,0.000002697398,0.000002697398,0.99999994,0,0,0,0,0,0,1,1,0,0,0,false,false,true,-672.56,-3705.1199,17.01,-0.0047123544,0.0007741532,0.9872663,0.1590041,-273.401,405.641,8.311,0,0,4.58921
106.65,2000,0,91.24,0.000002697398,0.000002697398,0.000002697398,0.99999994,0,0,0,0,0,0,1,1,0,0,0,false,false,true,-674.83997,-3701.74,17.01,-0.0047285384,0.0006824417,0.99012566,0.14010066,-280.811,402.741,8.311,0,0,4.5974097
106.65833,2000,0,91.24,0.000002697398,0.000002697398,0.000002697398,0.99999994,0,0,0,0,0,0,1,1,0,0,0,false,false,true,-677.18,-3698.38,17.01,-0.0047393283,0.00059073017,0.99262744,0.1211109,-288.191,399.521,8.311,0,0,4.60601
106.666664,2000,0,91.24,0.000002697398,0.000002697398,0.000002697398,0.99999994,0,0,0,0,0,0,1,1,0,0,0,false,false,true,-679.57996,-3695.0498,17.01,-0.0047501177,0.00049901864,0.99476874,0.10204029,-295.531,395.991,8.311,0,0,4.61501
106.675,2000,0,91.24,0.000002697398,0.000002697398,0.000002697398,0.99999994,0,0,0,0,0,0,1,1,0,0,0,false,false,true,-682.04,-3691.75,17.01,-0.0047609075,0.00040730712,0.99654686,0.08289407,-302.811,392.151,8.311,0,0,4.6244097
106.683334,2000,0,91.24,0.000002697398,0.000002697398,0.000002697398,0.99999994,0,0,0,0,0,0,1,1,0,0,0,false,false,true,-684.56,-3688.48,17.01,-0.004766302,0.00031559556,0.997959,0.06367773,-310.031,388.001,8.311,0,0,4.63411
106.691666,2000,0,91.24,0.000002697398,0.000002697398,0.000002697398,0.99999994,0,0,0,0,0,0,1,1,0,0,0,false,false,true,-687.14,-3685.25,17.01,-0.004771697,0.00022388404,0.9990025,0.044396643,-317.171,383.541,8.311,-0.00010999999,0,4.6441097
106.7,2000,0,91.24,0.000002697398,0.000002697398,0.000002697398,0.99999994,0,0,0,0,0,0,1,1,0,0,0,false,false,true,-689.77997,-3682.0498,17.01,-0.004777092,0.0001321725,0.99967456,0.025056215,-324.221,378.781,8.311,-0.00010999999,0,4.65451
106.708336,2000,0,91.24,0.000002697398,0.000002697398,0.000002697398,0.99999994,0,0,0,0,0,0,1,1,0,0,0,false,false,true,-692.48,-3678.89,17.01,-0.004777092,0.00004046097,0.99997246,0.0056672334,-331.171,373.731,8.311,-0.00010999999,0.00010999999,4.66511
