time,ball_loc_x,ball_loc_y,ball_loc_z,ball_rot_x,ball_rot_y,ball_rot_z,ball_rot_w,ball_vel_x,ball_vel_y,ball_vel_z,ball_ang_x,ball_ang_y,ball_ang_z,player0_throttle,player0_steer,player0_pitch,player0_yaw,player0_roll,player0_jump,player0_boost,player0_handbrake,player0_loc_x,player0_loc_y,player0_loc_z,player0_rot_x,player0_rot_y,player0_rot_z,player0_rot_w,player0_vel_x,player0_vel_y,player0_vel_z,player0_ang_x,player0_ang_y,player0_ang_z
116.558334,2000,0,91.24,0.000002697398,0.000002697398,0.000002697398,0.99999994,0,0,0,0,0,0,0.8976378,0,0,0,0,false,false,false,0,-4523.65,17.01,-0.003347471,0.0033366815,0.70708513,0.7071125,0,900.40094,8.321,-0.00081,0,0
116.566666,2000,0,91.24,0.000002697398,0.000002697398,0.000002697398,0.99999994,0,0,0,0,0,0,1,1,0,0,0,false,false,true,0,-4516.15,17.01,-0.003347471,0.0033366815,0.70708513,0.7071125,-13.801,902.97095,8.341001,-0.00081,0.00361,0.38091
116.575,2000,0,91.24,0.000002697398,0.000002697398,0.000002697398,0.99999994,0,0,0,0,0,0,1,1,0,0,0,false,false,true,-0.12,-4508.62,17.01,-0.0033420762,0.0033420762,0.708206,0.70598996,-24.190998,906.131,8.351,-0.00081,0.00491,0.65881
116.583336,2000,0,91.24,0.000002697398,0.000002697398,0.000002697398,0.99999994,0,0,0,0,0,0,1,1,0,0,0,false,false,true,-0.32,-4501.07,17.01,-0.0033366815,0.003347471,0.710142,0.7040425,-33.781,909.33093,8.351,-0.00081,0.00521,0.89801
116.59167,2000,0,91.24,0.000002697398,0.000002697398,0.000002697398,0.99999994,0,0,0,0,0,0,1,1,0,0,0,false,false,true,-0.59999996,-4493.4897,17.01,-0.0033366815,0.0033528658,0.712769,0.7013828,-42.931,912.501,8.351,-0.00081,0.00491,1.10431
116.6,2000,0,91.24,0.000002697398,0.000002697398,0.000002697398,0.99999994,0,0,0,0,0,0,1,1,0,0,0,false,false,true,-0.96,-4485.89,17.01,-0.0033420762,0.0033528658,0.715987,0.6980974,-51.871,915.59094,8.351,-0.00081,0.00421,1.28321
116.60833,2000,0,91.24,0.000002697398,0.000002697398,0.000002697398,0.99999994,0,0,0,0,0,0,1,1,0,0,0,false,false,true,-1.39,-4478.26,17.01,-0.0033474711,0.0033474711,0.7197071,0.69426167,-60.790997,918.55096,8.351,-0.00081,0.00341,1.4392099
116.61667,2000,0,91.24,0.000002697398,0.000002697398,0.000002697398,0.99999994,0,0,0,0,0,0,1,1,0,0,0,false,false,true,-1.9,-4470.6,17.01,-0.00335826,0.0033420757,0.72385573,0.6899349,-69.791,921.34094,8.351,-0.00081,0.00261,1.57611
116.625,2000,0,91.24,0.000002697398,0.000002697398,0.000002697398,0.99999994,0,0,0,0,0,0,1,1,0,0,0,false,false,true,-2.48,-4462.92,17.01,-0.003374445,0.0033312866,0.7283714,0.685166,-78.921,923.92096,8.351,-0.00081,0.0018099999,1.6970099
116.63333,2000,0,91.24,0.000002697398,0.000002697398,0.000002697398,0.99999994,0,0,0,0,0,0,1,1,0,0,0,false,false,true,-3.1399999,-4455.2197,17.01,-0.0033960242,0.0033151023,0.7331987,0.6799978,-88.211,926.27094,8.351,-0.00071,0.00111,1.80461
116.64167,2000,0,91.24,0.000002697398,0.000002697398,0.000002697398,0.99999994,0,0,0,0,0,0,1,1,0,0,0,false,false,true,-3.8799999,-4447.5,17.01,-0.0034176034,0.003293523,0.73828864,0.6744681,-97.660995,928.371,8.351,-0.00061,0.00051,1.9010099
116.65,2000,0,91.24,0.000002697398,0.000002697398,0.000002697398,0.99999994,0,0,0,0,0,0,1,1,0,0,0,false,false,true,-4.69,-4439.76,17.01,-0.0034445776,0.0032719441,0.74360836,0.66859853,-107.230995,930.21094,8.351,-0.00051,0,1.9879099
116.65833,2000,0,91.24,0.000002697398,0.000002697398,0.000002697398,0.99999994,0,0,0,0,0,0,1,1,0,0,0,false,false,true,-5.58,-4432.01,17.01,-0.0034715515,0.00324497,0.749121,0.6624161,-116.891,931.79095,8.351,-0.00040999998,-0.00030999997,2.0666099
116.666664,2000,0,91.24,0.000002697398,0.000002697398,0.000002697398,0.99999994,0,0,0,0,0,0,1,1,0,0,0,false,false,true,-6.5499997,-4424.2397,17.01,-0.00350392,0.0032179959,0.75479597,0.65594226,-126.58099,933.10095,8.351,-0.00040999998,-0.00061,2.13831
116.675,2000,0,91.24,0.000002697398,0.000002697398,0.000002697398,0.99999994,0,0,0,0,0,0,1,1,0,0,0,false,false,true,-7.6,-4416.46,17.01,-0.0035362889,0.003185627,0.76060843,0.6491933,-136.241,934.16095,8.351,-0.00030999997,-0.00081,2.20381
116.683334,2000,0,91.24,0.000002697398,0.000002697398,0.000002697398,0.99999994,0,0,0,0,0,0,1,1,0,0,0,false,false,true,-8.74,-4408.6797,17.01,-0.0035686577,0.0031532582,0.7665389,0.6421801,-145.80101,934.98096,8.351,-0.00021,-0.0010099999,2.26371
116.691666,2000,0,91.24,0.000002697398,0.000002697398,0.000002697398,0.99999994,0,0,0,0,0,0,1,1,0,0,0,false,false,true,-9.96,-4400.89,17.01,-0.0036010267,0.003115495,0.7725598,0.6349241,-155.181,935.58093,8.351,-0.00010999999,-0.00111,2.31861
116.7,2000,0,91.24,0.000002697398,0.000002697398,0.000002697398,0.99999994,0,0,0,0,0,0,1,1,0,0,0,false,false,true,-11.25,-4393.09,17.01,-0.0036333953,0.0030777312,0.77865785,0.6274306,-164.291,936.001,8.351,-0.00010999999,-0.0012099999,2.3689098
116.708336,2000,0,91.24,0.000002697398,0.000002697398,0.000002697398,0.99999994,0,0,0,0,0,0,1,1,0,0,0,false,false,true,-12.62,-4385.29,17.01,-0.0036657641,0.0030399677,0.7848116,0.6197161,-173.05101,936.28094,8.351,0,-0.00131,2.4149098
116.71667,2000,0,91.24,0.000002697398,0.000002697398,0.000002697398,0.99999994,0,0,0,0,0,0,1,1,0,0,0,false,false,true,-14.059999,-4377.4897,17.01,-0.0036981327,0.003002204,0.7910091,0.6117857,-181.371,936.47095,8.351,0,-0.00131,2.45681
116.725,2000,0,91.24,0.000002697398,0.000002697398,0.000002697398,0.99999994,0,0,0,0,0,0,1,1,0,0,0,false,false,true,-15.57,-4369.69,17.01,-0.0037305015,0.0029590456,0.79723084,0.6036557,-189.151,936.621,8.351,0,-0.0014099999,2.49471
116.73333,2000,0,91.24,0.000002697398,0.000002697398,0.000002697398,0.99999994,0,0,0,0,0,0,1,1,0,0,0,false,false,true,-17.15,-4361.88,17.01,-0.0037682652,0.0029158874,0.80346197,0.5953369,-196.291,936.821,8.341001,0,-0.0014099999,2.52871
116.74167,2000,0,91.24,0.000002697398,0.000002697398,0.000002697398,0.99999994,0,0,0,0,0,0,1,1,0,0,0,false,false,true,-18.789999,-4354.07,17.01,-0.003806029,0.0028727292,0.80968875,0.58684015,-202.69101,937.1409,8.341001,0,-0.0014099999,2.55881
116.75,2000,0,91.24,0.000002697398,0.000002697398,0.000002697398,0.99999994,0,0,0,0,0,0,1,1,0,0,0,false,false,true,-20.48,-4346.26,17.01,-0.0038437922,0.0028295706,0.81589806,0.57817596,-208.241,937.68097,8.341001,0,-0.00131,2.58501
116.75833,2000,0,91.24,0.000002697398,0.000002697398,0.000002697398,0.99999994,0,0,0,0,0,0,1,1,0,0,0,false,false,true,-22.22,-4338.4497,17.01,-0.003876161,0.0027864121,0.8220775,0.5693555,-212.841,938.54095,8.331,0.00010999999,-0.0012099999,2.60731
116.76667,2000,0,91.24,0.000002697398,0.000002697398,0.000002697398,0.99999994,0,0,0,0,0,0,1,1,0,0,0,false,false,true,-23.99,-4330.63,17.01,-0.0039085294,0.0027432537,0.82821554,0.5603892,-217.641,939.24097,8.331,0.00021,-0.0012099999,2.62931
116.775,2000,0,91.24,0.000002697398,0.000002697398,0.000002697398,0.99999994,0,0,0,0,0,0,1,1,0,0,0,false,false,true,-25.8,-4322.8,17.01,-0.003940899,0.0026947008,0.8343047,0.5512829,-222.641,939.7609,8.331,0.00021,-0.00111,2.65101
116.78333,2000,0,91.24,0.000002697398,0.000002697398,0.000002697398,0.99999994,0,0,0,0,0,0,1,1,0,0,0,false,false,true,-27.66,-4314.9697,17.01,-0.003973267,0.0026461475,0.84034157,0.5420361,-227.83101,940.10095,8.331,0.00021,-0.0010099999,2.67241
116.791664,2000,0,91.24,0.000002697398,0.000002697398,0.000002697398,0.99999994,0,0,0,0,0,0,1,1,0,0,0,false,false,true,-29.56,-4307.14,17.01,-0.0040056366,0.0025975946,0.84632605,0.5326438,-233.201,940.251,8.331,0.00021,-0.00091,2.69351
116.8,2000,0,91.24,0.000002697398,0.000002697398,0.000002697398,0.99999994,0,0,0,0,0,0,1,1,0,0,0,false,false,true,-31.5,-4299.3,17.01,-0.004038005,0.0025490413,0.85225105,0.52311116,-238.731,940.21094,8.331,0.00021,-0.00081,2.7144098
116.808334,2000,0,91.24,0.000002697398,0.000002697398,0.000002697398,0.99999994,0,0,0,0,0,0,1,1,0,0,0,false,false,true,-33.489998,-4291.46,17.01,-0.0040703737,0.002500488,0.8581132,0.51343817,-244.421,939.98096,8.331,0.00021,-0.00071,2.73501
116.816666,2000,0,91.24,0.000002697398,0.000002697398,0.000002697398,0.99999994,0,0,0,0,0,0,1,1,0,0,0,false,false,true,-35.53,-4283.63,17.01,-0.0041027423,0.0024519349,0.86390907,0.50362504,-250.271,939.55096,8.331,0.00021,-0.00061,2.75541
116.825,2000,0,91.24,0.000002697398,0.000002697398,0.000002697398,0.99999994,0,0,0,0,0,0,1,1,0,0,0,false,false,true,-37.62,-4275.8,17.01,-0.004129716,0.0024033815,0.8696352,0.49367157,-256.261,938.92096,8.331,0.00021,-0.00051,2.7755098
116.833336,2000,0,91.24,0.000002697398,0.000002697398,0.000002697398,0.99999994,0,0,0,0,0,0,1,1,0,0,0,false,false,true,-39.76,-4267.9697,17.01,-0.0041566896,0.0023548282,0.87528515,0.48358324,-262.381,938.08093,8.331,0.00021,-0.00051,2.79541
116.84167,2000,0,91.24,0.000002697398,0.000002697398,0.000002697398,0.99999994,0,0,0,0,0,0,1,1,0,0,0,false,false,true,-41.95,-4260.15,17.01,-0.0041836645,0.0023062753,0.8808589,0.47335467,-268.621,937.04095,8.331,0.00021,-0.00051,2.81511
116.85,2000,0,91.24,0.000002697398,0.000002697398,0.000002697398,0.99999994,0,0,0,0,0,0,1,1,0,0,0,false,false,true,-44.19,-4252.34,17.01,-0.004210639,0.0022577224,0.8863499,0.4629913,-274.981,935.79095,8.331,0.00021,-0.00051,2.8345098
116.85833,2000,0,91.24,0.000002697398,0.000002697398,0.000002697398,0.99999994,0,0,0,0,0,0,1,1,0,0,0,false,false,true,-46.48,-4244.54,17.01,-0.0042376122,0.0022037742,0.89175516,0.45249292,-281.441,934.321,8.331,0.00021,-0.00051,2.85371
116.86667,2000,0,91.24,0.000002697398,0.000002697398,0.000002697398,0.99999994,0,0,0,0,0,0,1,1,0,0,0,false,false,true,-48.829998,-4236.75,17.01,-0.0042645857,0.002149826,0.89707124,0.44185972,-288.001,932.6409,8.331,0.00021,-0.00040999998,2.87271
116.875,2000,0,91.24,0.000002697398,0.000002697398,0.000002697398,0.99999994,0,0,0,0,0,0,1,1,0,0,0,false,false,true,-51.23,-4228.98,17.01,-0.0042915605,0.0020958784,0.9022954,0.4310918,-294.641,930.751,8.331,0.00021,-0.00040999998,2.89151
116.88333,2000,0,91.24,0.000002697398,0.000002697398,0.000002697398,0.99999994,0,0,0,0,0,0,1,1,0,0,0,false,false,true,-53.69,-4221.2197,17.01,-0.004318534,0.0020419303,0.90742403,0.42018878,-301.361,928.6409,8.331,0.00021,-0.00030999997,2.9100099
116.89167,2000,0,91.24,0.000002697398,0.000002697398,0.000002697398,0.99999994,0,0,0,0,0,0,1,1,0,0,0,false,false,true,-56.199997,-4213.48,17.01,-0.0043455083,0.0019879823,0.9124517,0.4091564,-308.151,926.321,8.331,0.00021,-0.00021,2.92831
116.9,2000,0,91.24,0.000002697398,0.000002697398,0.000002697398,0.99999994,0,0,0,0,0,0,1,1,0,0,0,false,false,true,-58.77,-4205.76,17.01,-0.004372482,0.0019340344,0.91737527,0.39799452,-315.001,923.78094,8.331,0.00021,-0.00021,2.94641
116.90833,2000,0,91.24,0.000002697398,0.000002697398,0.000002697398,0.99999994,0,0,0,0,0,0,1,1,0,0,0,false,false,true,-61.399998,-4198.06,17.01,-0.004394062,0.0018800866,0.9221918,0.38670322,-321.911,921.02094,8.331,0.00021,-0.00010999999,2.96431
116.916664,2000,0,91.24,0.000002697398,0.000002697398,0.000002697398,0.99999994,0,0,0,0,0,0,1,1,0,0,0,false,false,true,-64.08,-4190.38,17.01,-0.0044156406,0.0018261385,0.9268982,0.37528232,-328.861,918.05096,8.331,0.00021,-0.00010999999,2.98201
116.925,2000,0,91.24,0.000002697398,0.000002697398,0.000002697398,0.99999994,0,0,0,0,0,0,1,1,0,0,0,false,false,true,-66.82,-4182.73,17.01,-0.00443722,0.0017721906,0.9314892,0.36373737,-335.851,914.871,8.331,0.00021,-0.00010999999,2.99951
116.933334,2000,0,91.24,0.000002697398,0.000002697398,0.000002697398,0.99999994,0,0,0,0,0,0,1,1,0,0,0,false,false,true,-69.619995,-4175.11,17.01,-0.0044587995,0.0017182427,0.935962,0.35206845,-342.861,911.47095,8.331,0.00021,-0.00010999999,3.01681
116.941666,2000,0,91.24,0.000002697398,0.000002697398,0.000002697398,0.99999994,0,0,0,0,0,0,1,1,0,0,0,false,false,true,-72.479996,-4167.51,17.01,-0.0044803782,0.0016588998,0.94031364,0.34027532,-349.891,907.86096,8.331,0.00021,-0.00010999999,3.03391
116.95,2000,0,91.24,0.000002697398,0.000002697398,0.000002697398,0.99999994,0,0,0,0,0,0,1,1,0,0,0,false,false,true,-75.4,-4159.94,17.01,-0.0045019574,0.001599557,0.94453925,0.32836363,-356.941,904.04095,8.331,0.00021,-0.00010999999,3.0508099
116.958336,2000,0,91.24,0.000002697398,0.000002697398,0.000002697398,0.99999994,0,0,0,0,0,0,1,1,0,0,0,false,false,true,-78.369995,-4152.4097,17.01,-0.0045235367,0.0015402144,0.9486361,0.31633317,-363.991,900.011,8.331,0.00021,-0.00010999999,3.06751
116.96667,2000,0,91.24,0.000002697398,0.000002697398,0.000002697398,0.99999994,0,0,0,0,0,0,1,1,0,0,0,false,false,true,-81.4,-4144.9097,17.01,-0.004545116,0.0014808717,0.95260125,0.30418408,-371.041,895.78094,8.331,0.00021,0,3.08401
116.975,2000,0,91.24,0.000002697398,0.000002697398,0.000002697398,0.99999994,0,0,0,0,0,0,1,1,0,0,0,false,false,true,-84.49,-4137.44,17.01,-0.0045613004,0.0014215289,0.9564319,0.29191622,-378.081,891.35095,8.331,0.00021,0,3.1003098
116.98333,2000,0,91.24,0.000002697398,0.000002697398,0.000002697398,0.99999994,0,0,0,0,0,0,1,1,0,0,0,false,false,true,-87.64,-4130.01,17.01,-0.004577484,0.0013621859,0.9601234,0.2795351,-385.101,886.72095,8.331,0.00010999999,0,3.11641
116.99167,2000,0,91.24,0.000002697398,0.000002697398,0.000002697398,0.99999994,0,0,0,0,0,0,1,1,0,0,0,false,false,true,-90.85,-4122.62,17.01,-0.004593669,0.0013028432,0.96367186,0.2670461,-392.101,881.8909,8.331,0.00010999999,0,3.13231
117,2000,0,91.24,0.000002697398,0.000002697398,0.000002697398,0.99999994,0,0,0,0,0,0,1,1,0,0,0,false,false,true,-94.119995,-4115.27,17.01,-0.0046098535,0.0012435006,0.96707433,0.25444928,-399.081,876.871,8.331,0.00010999999,0,3.14801
117.00833,2000,0,91.24,0.000002697398,0.000002697398,0.000002697398,0.99999994,0,0,0,0,0,0,1,1,0,0,0,false,false,true,-97.45,-4107.96,17.01,-0.0046260376,0.0011841577,0.97032815,0.24174444,-406.021,871.66095,8.331,0.00010999999,0,3.1635098
117.01667,2000,0,91.24,0.000002697398,0.000002697398,0.000002697398,0.99999994,0,0,0,0,0,0,1,1,0,0,0,false,false,true,-100.829994,-4100.6997,17.01,-0.0046422225,0.0011248151,0.97343075,0.22893173,-412.921,866.261,8.331,0.00010999999,0,3.17881
117.025,2000,0,91.24,0.000002697398,0.000002697398,0.000002697398,0.99999994,0,0,0,0,0,0,1,1,0,0,0,false,false,true,-104.27,-4093.48,17.01,-0.0046584057,0.001065472,0.97637784,0.21601655,-419.781,860.68097,8.331,0.00010999999,0,3.19391
117.03333,2000,0,91.24,0.000002697398,0.000002697398,0.000002697398,0.99999994,0,0,0,0,0,0,1,1,0,0,0,false,false,true,-107.77,-4086.3098,17.01,-0.004674591,0.0010007347,0.97916615,0.20300426,-426.591,854.92096,8.331,0.00021,0,3.2088099
117.041664,2000,0,91.24,0.000002697398,0.000002697398,0.000002697398,0.99999994,0,0,0,0,0,0,1,1,0,0,0,false,false,true,-111.32,-4079.19,17.01,-0.0046853805,0.0009359971,0.98179275,0.18989488,-433.35098,848.99097,8.331,0.00021,0,3.22351
117.05,2000,0,91.24,0.000002697398,0.000002697398,0.000002697398,0.99999994,0,0,0,0,0,0,1,1,0,0,0,false,false,true,-114.93,-4072.1099,17.01,-0.0046961694,0.0008712595,0.9842541,0.17669372,-440.051,842.8909,8.331,0.00021,0,3.23801
117.058334,2000,0,91.24,0.000002697398,0.000002697398,0.000002697398,0.99999994,0,0,0,0,0,0,1,1,0,0,0,false,false,true,-118.6,-4065.0898,17.01,-0.0047069597,0.00080652203,0.9865481,0.16340087,-446.691,836.621,8.331,0.00021,0,3.25241
117.066666,2000,0,91.24,0.000002697398,0.000002697398,0.000002697398,0.99999994,0,0,0,0,0,0,1,1,0,0,0,false,false,true,-122.32,-4058.1199,17.01,-0.0047177486,0.0007417844,0.98867184,0.15001637,-453.271,830.191,8.331,0.00021,0,3.26661
117.075,2000,0,91.24,0.000002697398,0.000002697398,0.000002697398,0.99999994,0,0,0,0,0,0,1,1,0,0,0,false,false,true,-126.1,-4051.2,17.01,-0.0047285384,0.0006770469,0.9906222,0.1365455,-459.781,823.61096,8.331,0.00010999999,0,3.2806098
117.083336,2000,0,91.24,0.000002697398,0.000002697398,0.000002697398,0.99999994,0,0,0,0,0,0,1,1,0,0,0,false,false,true,-129.93,-4044.3398,17.01,-0.0047393283,0.0006123093,0.9923959,0.12299377,-466.221,816.871,8.331,0.00010999999,0,3.29441
117.09167,2000,0,91.24,0.000002697398,0.000002697398,0.000002697398,0.99999994,0,0,0,0,0,0,1,1,0,0,0,false,false,true,-133.81999,-4037.53,17.01,-0.004744723,0.0005475718,0.99399054,0.10936103,-472.591,809.99097,8.331,0.00010999999,0.00010999999,3.3080099
117.1,2000,0,91.24,0.000002697398,0.000002697398,0.000002697398,0.99999994,0,0,0,0,0,0,1,1,0,0,0,false,false,true,-137.76,-4030.78,17.01,-0.004750118,0.0004828343,0.9954033,0.095652774,-478.891,802.96094,8.331,0.00010999999,0.00010999999,3.32141
117.10833,2000,0,91.24,0.000002697398,0.000002697398,0.000002697398,0.99999994,0,0,0,0,0,0,1,1,0,0,0,false,false,true,-141.75,-4024.0898,17.01,-0.004755513,0.0004180967,0.9966316,0.081869066,-485.111,795.79095,8.331,0.00010999999,0.00010999999,3.33471
117.11667,2000,0,91.24,0.000002697398,0.000002697398,0.000002697398,0.99999994,0,0,0,0,0,0,1,1,0,0,0,false,false,true,-145.79,-4017.46,17.01,-0.004760907,0.00035335912,0.99767274,0.068015136,-491.261,788.48096,8.331,0.00010999999,0.00010999999,3.34781
117.125,2000,0,91.24,0.000002697398,0.000002697398,0.000002697398,0.99999994,0,0,0,0,0,0,1,1,0,0,0,false,false,true,-149.87999,-4010.89,17.01,-0.0047663017,0.00028862155,0.9985244,0.054091085,-497.331,781.04095,8.331,0.00010999999,0.00010999999,3.36071
117.13333,2000,0,91.24,0.000002697398,0.000002697398,0.000002697398,0.99999994,0,0,0,0,0,0,1,1,0,0,0,false,false,true,-154.01999,-4004.38,17.01,-0.0047716973,0.00022388405,0.99918413,0.04010239,-503.331,773.47095,8.331,0.00010999999,0.00010999999,3.37341
117.14167,2000,0,91.24,0.000002697398,0.000002697398,0.000002697398,0.99999994,0,0,0,0,0,0,1,1,0,0,0,false,false,true,-158.20999,-3997.93,17.01,-0.0047716973,0.0001537517,0.9996491,0.026054254,-509.251,765.78094,8.331,0.00010999999,0.00021,3.38601
117.15,2000,0,91.24,0.000002697398,0.000002697398,0.000002697398,0.99999994,0,0,0,0,0,0,1,1,0,0,0,false,false,true,-162.45,-3991.5498,17.01,-0.0047716973,0.00008361934,0.9999172,0.011946862,-515.09094,757.96094,8.331,0.00010999999,0.00021,3.3984098
117.15833,2000,0,91.24,0.000002697398,0.000002697398,0.000002697398,0.99999994,0,0,0,0,0,0,1,1,0,0,0,false,false,true,-166.73999,-3985.23,17.01,-0.004771697,0.000013486991,0.9999861,-0.0022145638,-520.86096,750.02094,8.331,0.00010999999,0.00021,3.41061
117.166664,2000,0,91.24,0.000002697398,0.000002697398,0.000002697398,0.99999994,0,0,0,0,0,0,1,1,0,0,0,false,false,true,-171.08,-3978.98,17.01,-0.004771697,-0.00005664536,0.9998537,-0.016424498,-526.55096,741.96094,8.331,0,0.00021,3.42261
117.175,2000,0,91.24,0.000002697398,0.000002697398,0.000002697398,0.99999994,0,0,0,0,0,0,1,1,0,0,0,false,false,true,-175.47,-3972.7998,17.01,-0.004771697,-0.0001267777,0.99951774,-0.03068303,-532.17096,733.79095,8.331,0,0.00021,3.43451
117.183334,2000,0,91.24,0.000002697398,0.000002697398,0.000002697398,0.99999994,0,0,0,0,0,0,1,1,0,0,0,false,false,true,-179.9,-3966.68,17.01,-0.004766302,-0.00019691006,0.99897623,-0.044984676,-537.71094,725.501,8.331,0,0.00021,3.44621
117.191666,2000,0,91.24,0.000002697398,0.000002697398,0.000002697398,0.99999994,0,0,0,0,0,0,1,1,0,0,0,false,false,true,-184.37999,-3960.63,17.01,-0.0047609075,-0.0002670424,0.99822736,-0.059324086,-543.18097,717.10095,8.331,0,0.00021,3.45771
117.2,2000,0,91.24,0.000002697398,0.000002697398,0.000002697398,0.99999994,0,0,0,0,0,0,1,1,0,0,0,false,false,true,-188.90999,-3954.65,17.01,-0.004755513,-0.00033717474,0.9972689,-0.0737013,-548.581,708.59094,8.331,0,0.00021,3.4690099
117.208336,2000,0,91.24,0.000002697398,0.000002697398,0.000002697398,0.99999994,0,0,0,0,0,0,1,1,0,0,0,false,false,true,-193.48,-3948.74,17.01,-0.004750118,-0.00040730715,0.9960997,-0.088105455,-553.91095,699.97095,8.331,0,0.00021,3.48011
117.21667,2000,0,91.24,0.000002697398,0.000002697398,0.000002697398,0.99999994,0,0,0,0,0,0,1,1,0,0,0,false,false,true,-198.09999,-3942.91,17.01,-0.004744723,-0.00047743946,0.9947172,-0.10254197,-559.18097,691.24097,8.331,-0.00010999999,0.00021,3.49101
117.225,2000,0,91.24,0.000002697398,0.000002697398,0.000002697398,0.99999994,0,0,0,0,0,0,1,1,0,0,0,false,false,true,-202.76,-3937.15,17.01,-0.004733934,-0.00054757186,0.99312043,-0.11700011,-564.381,682.40094,8.331,-0.00010999999,0.00021,3.50171
117.23333,2000,0,91.24,0.000002697398,0.000002697398,0.000002697398,0.99999994,0,0,0,0,0,0,1,1,0,0,0,false,false,true,-207.45999,-3931.46,17.01,-0.0047231433,-0.00061770406,0.99130726,-0.13147976,-569.52094,673.451,8.331,-0.00021,0.00021,3.51221
117.24167,2000,0,91.24,0.000002697398,0.000002697398,0.000002697398,0.99999994,0,0,0,0,0,0,1,1,0,0,0,false,false,true,-212.20999,-3925.8499,17.01,-0.0047123544,-0.0006878365,0.9892775,-0.14597024,-574.60095,664.391,8.331,-0.00021,0.00021,3.52241
117.25,2000,0,91.24,0.000002697398,0.000002697398,0.000002697398,0.99999994,0,0,0,0,0,0,1,1,0,0,0,false,false,true,-217,-3920.3098,17.01,-0.004701565,-0.0007579689,0.98702896,-0.16047156,-579.621,655.22095,8.331,-0.00021,0.00021,3.53241
117.25833,2000,0,91.24,0.000002697398,0.000002697398,0.000002697398,0.99999994,0,0,0,0,0,0,1,1,0,0,0,false,false,true,-221.83,-3914.8499,17.01,-0.004690775,-0.0008281012,0.9845598,-0.17498358,-584.581,645.93097,8.331,-0.00030999997,0.00021,3.54211
117.26667,2000,0,91.24,0.000002697398,0.000002697398,0.000002697398,0.99999994,0,0,0,0,0,0,1,1,0,0,0,false,false,true,-226.7,-3909.47,17.01,-0.004674591,-0.0008982336,0.98187,-0.18949564,-589.46094,636.511,8.331,-0.00040999998,0.00021,3.55251
117.275,2000,0,91.24,0.000002697398,0.000002697398,0.000002697398,0.99999994,0,0,0,0,0,0,1,1,0,0,0,false,false,true,-231.61,-3904.17,17.01,-0.004658406,-0.00096836593,0.97895765,-0.20400767,-594.191,626.951,8.331,-0.00040999998,0.00010999999,3.56551
117.28333,2000,0,91.24,0.000002697398,0.000002697398,0.000002697398,0.99999994,0,0,0,0,0,0,1,1,0,0,0,false,false,true,-236.56,-3898.95,17.01,-0.004642222,-0.0010384982,0.97581846,-0.21853055,-598.761,617.251,8.331,-0.00040999998,0,3.58111
117.291664,2000,0,91.24,0.000002697398,0.000002697398,0.000002697398,0.99999994,0,0,0,0,0,0,1,1,0,0,0,false,false,true,-241.54999,-3893.8098,17.01,-0.0046260376,-0.0011086306,0.97244966,-0.23306417,-603.18097,607.41095,8.331,-0.00051,0,3.59921
117.3,2000,0,91.24,0.000002697398,0.000002697398,0.000002697398,0.99999994,0,0,0,0,0,0,1,1,0,0,0,false,false,true,-246.58,-3888.75,17.01,-0.0046098526,-0.001173368,0.96884555,-0.24761935,-607.451,597.441,8.331,-0.00051,0,3.6198099
117.308334,2000,0,91.24,0.000002697398,0.000002697398,0.000002697398,0.99999994,0,0,0,0,0,0,1,1,0,0,0,false,false,true,-251.64,-3883.77,17.01,-0.004593669,-0.0012381057,0.96500134,-0.26220158,-611.571,587.34094,8.331,-0.00051,0,3.6428099
117.316666,2000,0,91.24,0.000002697398,0.000002697398,0.000002697398,0.99999994,0,0,0,0,0,0,1,1,0,0,0,false,false,true,-256.74,-3878.88,17.01,-0.00457209,-0.0013082381,0.9609111,-0.27681616,-615.54095,577.121,8.331,-0.00051,0,3.66821
117.325,2000,0,91.24,0.000002697398,0.000002697398,0.000002697398,0.99999994,0,0,0,0,0,0,1,1,0,0,0,false,false,true,-261.87,-3874.0698,17.01,-0.00455051,-0.0013783703,0.9565685,-0.2914684,-619.36096,566.77094,8.331,-0.00051,0,3.69611
117.333336,2000,0,91.24,0.000002697398,0.000002697398,0.000002697398,0.99999994,0,0,0,0,0,0,1,1,0,0,0,false,false,true,-267.03,-3869.3499,17.01,-0.0045289313,-0.0014485028,0.9519669,-0.30616394,-623.04095,556.30096,8.331,-0.00051,-0.00010999999,3.72641
117.34167,2000,0,91.24,0.000002697398,0.000002697398,0.000002697398,0.99999994,0,0,0,0,0,0,1,1,0,0,0,false,false,true,-272.22,-3864.71,17.01,-0.004507352,-0.0015186351,0.9470984,-0.32090798,-626.571,545.701,8.331,-0.00051,-0.00010999999,3.75911
117.35,2000,0,91.24,0.000002697398,0.000002697398,0.000002697398,0.99999994,0,0,0,0,0,0,1,1,0,0,0,false,false,true,-277.44,-3860.16,17.01,-0.0044803782,-0.0015887675,0.9419567,-0.33570054,-629.951,534.98096,8.331,-0.00051,-0.00010999999,3.79421
117.35833,2000,0,91.24,0.000002697398,0.000002697398,0.000002697398,0.99999994,0,0,0,0,0,0,1,1,0,0,0,false,false,true,-282.69,-3855.7,17.01,-0.004453404,-0.0016588998,0.936533,-0.3505471,-633.17096,524.141,8.331,-0.00051,-0.00021,3.83181
117.36667,2000,0,91.24,0.000002697398,0.000002697398,0.000002697398,0.99999994,0,0,0,0,0,0,1,1,0,0,0,false,false,true,-287.97,-3851.3298,17.01,-0.00442643,-0.0017290321,0.9308176,-0.36545298,-636.121,513.17096,8.331,-0.00051,-0.00030999997,3.87281
117.375,2000,0,91.24,0.000002697398,0.000002697398,0.000002697398,0.99999994,0,0,0,0,0,0,1,1,0,0,0,false,false,true,-293.27,-3847.0498,17.01,-0.004399456,-0.0017991646,0.9248001,-0.38042358,-638.811,502.091,8.331,-0.00051,-0.00040999998,3.91711
117.38333,2000,0,91.24,0.000002697398,0.000002697398,0.000002697398,0.99999994,0,0,0,0,0,0,1,1,0,0,0,false,false,true,-298.59,-3842.8699,17.01,-0.0043724827,-0.001869297,0.91846895,-0.3954644,-641.16095,490.871,8.331,-0.00051,-0.00051,3.96361
117.39167,2000,0,91.24,0.000002697398,0.000002697398,0.000002697398,0.99999994,0,0,0,0,0,0,1,1,0,0,0,false,false,true,-303.93,-3838.78,17.01,-0.004340113,-0.0019394292,0.9118118,-0.4105806,-643.11096,479.501,8.331,-0.00051,-0.00051,4.01151
117.4,2000,0,91.24,0.000002697398,0.000002697398,0.000002697398,0.99999994,0,0,0,0,0,0,1,1,0,0,0,false,false,true,-309.28998,-3834.78,17.01,-0.0043077446,-0.0020095615,0.9048228,-0.4257616,-644.65094,468.001,8.331,-0.00051,-0.00051,4.06071
117.40833,2000,0,91.24,0.000002697398,0.000002697398,0.000002697398,0.99999994,0,0,0,0,0,0,1,1,0,0,0,false,false,true,-314.66,-3830.88,17.01,-0.0042753764,-0.002079694,0.89749086,-0.4410074,-645.79095,456.381,8.331,-0.00040999998,-0.00051,4.11121
117.416664,2000,0,91.24,0.000002697398,0.000002697398,0.000002697398,0.99999994,0,0,0,0,0,0,1,1,0,0,0,false,false,true,-320.03998,-3827.0798,17.01,-0.0042376122,-0.0021498261,0.88980407,-0.4563179,-646.52094,444.671,8.331,-0.00030999997,-0.00051,4.16301
117.425,2000,0,91.24,0.000002697398,0.000002697398,0.000002697398,0.99999994,0,0,0,0,0,0,1,1,0,0,0,false,false,true,-325.43,-3823.3699,17.01,-0.0041998485,-0.0022199585,0.8817557,-0.47168228,-646.80096,433.021,8.331,-0.00021,-0.00051,4.21491
117.433334,2000,0,91.24,0.000002697398,0.000002697398,0.000002697398,0.99999994,0,0,0,0,0,0,1,1,0,0,0,false,false,true,-330.82,-3819.76,17.01,-0.0041620852,-0.0022900908,0.87333584,-0.4870953,-646.621,421.521,8.331,-0.00010999999,-0.00051,4.26621
117.441666,2000,0,91.24,0.000002697398,0.000002697398,0.000002697398,0.99999994,0,0,0,0,0,0,1,1,0,0,0,false,false,true,-336.21,-3816.25,17.01,-0.004124321,-0.002360223,0.86454034,-0.5025406,-645.99097,410.201,8.331,0,-0.00051,4.31681
117.45,2000,0,91.24,0.000002697398,0.000002697398,0.000002697398,0.99999994,0,0,0,0,0,0,1,1,0,0,0,false,false,true,-341.59,-3812.8298,17.01,-0.0040811626,-0.0024303554,0.85536265,-0.5180075,-644.941,399.081,8.331,0,-0.00040999998,4.3667097
117.458336,2000,0,91.24,0.000002697398,0.000002697398,0.000002697398,0.99999994,0,0,0,0,0,0,1,1,0,0,0,false,false,true,-346.96,-3809.5,17.01,-0.0040380047,-0.0025058826,0.84579587,-0.5334853,-643.48096,388.171,8.331,0.00010999999,-0.00030999997,4.41601
117.46667,2000,0,91.24,0.000002697398,0.000002697398,0.000002697398,0.99999994,0,0,0,0,0,0,1,1,0,0,0,false,false,true,-352.32,-3806.26,17.01,-0.0039948463,-0.0025814099,0.8358365,-0.54895765,-641.621,377.501,8.331,0.00010999999,-0.00021,4.46461
117.475,2000,0,91.24,0.000002697398,0.000002697398,0.000002697398,0.99999994,0,0,0,0,0,0,1,1,0,0,0,false,false,true,-357.66998,-3803.1099,17.01,-0.003946293,-0.002656937,0.8254819,-0.5644084,-639.40094,367.081,8.331,0.00010999999,-0.00010999999,4.51251
117.48333,2000,0,91.24,0.000002697398,0.000002697398,0.000002697398,0.99999994,0,0,0,0,0,0,1,1,0,0,0,false,false,true,-363,-3800.0498,17.01,-0.0038977405,-0.0027324643,0.8147258,-0.57982683,-636.83093,356.921,8.331,0.00010999999,-0.00010999999,4.55961
117.49167,2000,0,91.24,0.000002697398,0.000002697398,0.000002697398,0.99999994,0,0,0,0,0,0,1,1,0,0,0,false,false,true,-368.31,-3797.0798,17.01,-0.0038437922,-0.0028079913,0.80356187,-0.595202,-633.941,347.041,8.331,0.00010999999,0,4.60601
117.5,2000,0,91.24,0.000002697398,0.000002697398,0.000002697398,0.99999994,0,0,0,0,0,0,1,1,0,0,0,false,false,true,-373.59,-3794.19,17.01,-0.0037898442,-0.0028835186,0.7919922,-0.6105125,-630.701,337.451,8.331,0.00021,0,4.65061
117.50833,2000,0,91.24,0.000002697398,0.000002697398,0.000002697398,0.99999994,0,0,0,0,0,0,1,1,0,0,0,false,false,true,-378.85,-3791.38,17.01,-0.0037358964,-0.0029590456,0.78001535,-0.6257421,-627.05096,328.181,8.331,0.00021,0,4.69121
117.51667,2000,0,91.24,0.000002697398,0.000002697398,0.000002697398,0.99999994,0,0,0,0,0,0,1,1,0,0,0,false,false,true,-384.08,-3788.65,17.01,-0.0036765535,-0.0030345728,0.7676352,-0.64086914,-623.011,319.241,8.331,0.00021,0,4.72771
117.525,2000,0,91.24,0.000002697398,0.000002697398,0.000002697398,0.99999994,0,0,0,0,0,0,1,1,0,0,0,false,false,true,-389.27,-3785.99,17.01,-0.0036172108,-0.0031047051,0.75486153,-0.65586674,-618.621,310.651,8.331,0.00021,0,4.76021
117.53333,2000,0,91.24,0.000002697398,0.000002697398,0.000002697398,0.99999994,0,0,0,0,0,0,1,1,0,0,0,false,false,true,-394.43,-3783.4,17.01,-0.003557868,-0.0031748374,0.7417062,-0.6707079,-613.91095,302.421,8.331,0.00021,0.00010999999,4.78861
117.541664,2000,0,91.24,0.000002697398,0.000002697398,0.000002697398,0.99999994,0,0,0,0,0,0,1,1,0,0,0,false,false,true,-399.55,-3780.88,17.01,-0.0034931307,-0.00324497,0.7281784,-0.68537104,-608.91095,294.561,8.331,0.00021,0.00021,4.8130097
117.55,2000,0,91.24,0.000002697398,0.000002697398,0.000002697398,0.99999994,0,0,0,0,0,0,1,1,0,0,0,false,false,true,-404.62,-3778.43,17.01,-0.0034283926,-0.0033151018,0.714289,-0.6998344,-603.65094,287.081,8.331,0.00021,0.00030999997,4.83331
117.558334,2000,0,91.24,0.000002697398,0.000002697398,0.000002697398,0.99999994,0,0,0,0,0,0,1,1,0,0,0,false,false,true,-409.65,-3776.0398,17.01,0.0033582605,0.0033852346,-0.7000503,0.71407753,-598.17096,279.971,8.331,0.00021,0.00040999998,4.8495097
117.566666,2000,0,91.24,0.000002697398,0.000002697398,0.000002697398,0.99999994,0,0,0,0,0,0,1,1,0,0,0,false,false,true,-414.63,-3773.71,17.01,0.0032881282,0.003455367,-0.68547887,0.7280768,-592.511,273.241,8.331,0.00021,0.00051,4.86161
117.575,2000,0,91.24,0.000002697398,0.000002697398,0.000002697398,0.99999994,0,0,0,0,0,0,1,1,0,0,0,false,false,true,-419.56998,-3771.43,17.01,0.0032179959,0.0035254993,-0.6705892,0.7418134,-586.701,266.891,8.331,0.00021,0.00061,4.86961
117.583336,2000,0,91.24,0.000002697398,0.000002697398,0.000002697398,0.99999994,0,0,0,0,0,0,1,1,0,0,0,false,false,true,-424.46,-3769.21,17.01,0.0031424686,0.003590237,-0.6554028,0.75526434,-580.77094,260.911,8.331,0.00010999999,0.00061,4.87351
117.59167,2000,0,91.24,0.000002697398,0.000002697398,0.000002697398,0.99999994,0,0,0,0,0,0,1,1,0,0,0,false,false,true,-429.3,-3767.0398,17.01,0.0030669416,0.0036549745,-0.6399304,0.76841795,-574.761,255.291,8.321,0.00010999999,0.00071,4.87321
117.6,2000,0,91.24,0.000002697398,0.000002697398,0.000002697398,0.99999994,0,0,0,0,0,0,1,1,0,0,0,false,false,true,-434.09,-3764.91,17.01,0.0029914144,0.003719712,-0.62419915,0.7812506,-568.701,250.021,8.321,0.00010999999,0.00071,4.86871
117.60833,2000,0,91.24,0.000002697398,0.000002697398,0.000002697398,0.99999994,0,0,0,0,0,0,1,1,0,0,0,false,false,true,-438.83,-3762.8298,17.01,0.0029158874,0.0037844495,-0.6082251,0.7937501,-562.621,245.08101,8.321,0.00010999999,0.00081,4.8600097
117.61667,2000,0,91.24,0.000002697398,0.000002697398,0.000002697398,0.99999994,0,0,0,0,0,0,1,1,0,0,0,false,false,true,-443.52,-3760.7898,17.01,0.0028349652,0.0038437922,-0.59202987,0.80590177,-556.55096,240.451,8.321,0,0.00081,4.8470097
117.625,2000,0,91.24,0.000002697398,0.000002697398,0.000002697398,0.99999994,0,0,0,0,0,0,1,1,0,0,0,false,false,true,-448.16,-3758.7898,17.01,0.0027540433,0.003903135,-0.575635,0.8176927,-550.52094,236.121,8.321,0,0.00081,4.82961
117.63333,2000,0,91.24,0.000002697398,0.000002697398,0.000002697398,0.99999994,0,0,0,0,0,0,1,1,0,0,0,false,false,true,-452.75,-3756.8198,17.01,0.0026731214,0.0039624777,-0.5590621,0.82911193,-544.561,232.061,8.321,0,0.00091,4.80781
117.64167,2000,0,91.24,0.000002697398,0.000002697398,0.000002697398,0.99999994,0,0,0,0,0,0,1,1,0,0,0,false,false,true,-457.28998,-3754.89,17.01,0.0025921995,0.0040164255,-0.5423436,0.8401431,-538.631,228.211,8.321,0,0.00091,4.7814097
117.65,2000,0,91.24,0.000002697398,0.000002697398,0.000002697398,0.99999994,0,0,0,0,0,0,1,1,0,0,0,false,false,true,-461.78,-3752.99,17.01,0.0025112776,0.0040703737,-0.525501,0.8507794,-532.751,224.551,8.321,0,0.00091,4.75061
117.65833,2000,0,91.24,0.000002697398,0.000002697398,0.000002697398,0.99999994,0,0,0,0,0,0,1,1,0,0,0,false,false,true,-466.22,-3751.1199,17.01,0.0024303556,0.0041243215,-0.50856125,0.86101246,-526.941,221.061,8.311,0,0.00091,4.7154098
117.666664,2000,0,91.24,0.000002697398,0.000002697398,0.000002697398,0.99999994,0,0,0,0,0,0,1,1,0,0,0,false,false,true,-470.61,-3749.28,17.01,0.0023494337,0.0041728746,-0.491546,0.87083834,-521.16095,217.701,8.311,-0.00010999999,0.00081,4.67751
117.675,2000,0,91.24,0.000002697398,0.000002697398,0.000002697398,0.99999994,0,0,0,0,0,0,1,1,0,0,0,false,false,true,-474.94998,-3747.47,17.01,0.002263117,0.004221428,-0.47448227,0.880252,-515.371,214.431,8.311,-0.00021,0.00071,4.63821
117.683334,2000,0,91.24,0.000002697398,0.000002697398,0.000002697398,0.99999994,0,0,0,0,0,0,1,1,0,0,0,false,false,true,-479.24,-3745.68,17.01,0.0021768,0.0042645857,-0.45738062,0.88925797,-509.57098,211.251,8.311,-0.00030999997,0.00061,4.59791
117.691666,2000,0,91.24,0.000002697398,0.000002697398,0.000002697398,0.99999994,0,0,0,0,0,0,1,1,0,0,0,false,false,true,-483.49,-3743.92,17.01,0.0020904832,0.004307744,-0.44026285,0.897856,-503.771,208.171,8.311,-0.00040999998,0.00051,4.55681
117.7,2000,0,91.24,0.000002697398,0.000002697398,0.000002697398,0.99999994,0,0,0,0,0,0,1,1,0,0,0,false,false,true,-487.69,-3742.18,17.01,0.0020041668,0.0043455088,-0.42313978,0.90605175,-497.961,205.181,8.311,-0.00040999998,0.00040999998,4.51511
117.708336,2000,0,91.24,0.000002697398,0.000002697398,0.000002697398,0.99999994,0,0,0,0,0,0,1,1,0,0,0,false,false,true,-491.84,-3740.47,17.01,0.00191785,0.0043832716,-0.40602195,0.9138507,-492.141,202.281,8.311,-0.00040999998,0.00040999998,4.47301
117.71667,2000,0,91.24,0.000002697398,0.000002697398,0.000002697398,0.99999994,0,0,0,0,0,0,1,1,0,0,0,false,false,true,-495.94,-3738.78,17.01,0.0018315333,0.0044210353,-0.38892043,0.92125887,-486.311,199.461,8.311,-0.00040999998,0.00030999997,4.43081
117.725,2000,0,91.24,0.000002697398,0.000002697398,0.000002697398,0.99999994,0,0,0,0,0,0,1,1,0,0,0,false,false,true,-499.99,-3737.1199,17.01,0.0017452165,0.004453404,-0.37184584,0.9282821,-480.461,196.731,8.311,-0.00040999998,0.00021,4.3888097
117.73333,2000,0,91.24,0.000002697398,0.000002697398,0.000002697398,0.99999994,0,0,0,0,0,0,1,1,0,0,0,false,false,true,-503.99,-3735.48,17.01,0.0016642946,0.004485773,-0.354809,0.9349265,-474.591,194.08101,8.311,-0.00040999998,0.00010999999,4.34711
117.74167,2000,0,91.24,0.000002697398,0.000002697398,0.000002697398,0.99999994,0,0,0,0,0,0,1,1,0,0,0,false,false,true,-507.94,-3733.8599,17.01,0.0015833727,0.004512747,-0.33781534,0.9412002,-468.701,191.511,8.311,-0.00040999998,0,4.30591
117.75,2000,0,91.24,0.000002697398,0.000002697398,0.000002697398,0.99999994,0,0,0,0,0,0,1,1,0,0,0,false,false,true,-511.84998,-3732.26,17.01,0.0015024508,0.004539721,-0.3208756,0.9471092,-462.791,189.021,8.311,-0.00040999998,0,4.26551
117.75833,2000,0,91.24,0.000002697398,0.000002697398,0.000002697398,0.99999994,0,0,0,0,0,0,1,1,0,0,0,false,false,true,-515.70996,-3730.68,17.01,0.0014215288,0.0045666946,-0.30399522,0.95266145,-456.85098,186.601,8.311,-0.00040999998,0,4.22601
117.76667,2000,0,91.24,0.000002697398,0.000002697398,0.000002697398,0.99999994,0,0,0,0,0,0,1,1,0,0,0,false,false,true,-519.51996,-3729.1199,17.01,0.0013406068,0.004588274,-0.28717417,0.9578664,-450.881,184.261,8.301001,-0.00040999998,0,4.1876097
117.775,2000,0,91.24,0.000002697398,0.000002697398,0.000002697398,0.99999994,0,0,0,0,0,0,1,1,0,0,0,false,false,true,-523.27997,-3727.5798,17.01,0.0012596849,0.004609853,-0.27041787,0.9627311,-444.871,182.001,8.301001,-0.00040999998,0,4.15051
117.78333,2000,0,91.24,0.000002697398,0.000002697398,0.000002697398,0.99999994,0,0,0,0,0,0,1,1,0,0,0,false,false,true,-526.99,-3726.0598,17.01,0.0011787629,0.0046314322,-0.2537263,0.9672642,-438.82098,179.821,8.301001,-0.00040999998,0,4.11491
117.791664,2000,0,91.24,0.000002697398,0.000002697398,0.000002697398,0.99999994,0,0,0,0,0,0,1,1,0,0,0,false,false,true,-530.64996,-3724.5598,17.01,0.0010978408,0.004653011,-0.23710485,0.97147214,-432.731,177.72101,8.301001,-0.00040999998,-0.00010999999,4.0809097
117.8,2000,0,91.24,0.000002697398,0.000002697398,0.000002697398,0.99999994,0,0,0,0,0,0,1,1,0,0,0,false,false,true,-534.26,-3723.0798,17.01,0.0010169192,0.0046691964,-0.2205536,0.97536314,-426.591,175.711,8.301001,-0.00030999997,-0.00021,4.04871
117.808334,2000,0,91.24,0.000002697398,0.000002697398,0.000002697398,0.99999994,0,0,0,0,0,0,1,1,0,0,0,false,false,true,-537.81,-3721.6199,17.01,0.0009359971,0.0046853805,-0.20406702,0.9789452,-420.401,173.781,8.301001,-0.00021,-0.00030999997,4.0184097
117.816666,2000,0,91.24,0.000002697398,0.000002697398,0.000002697398,0.99999994,0,0,0,0,0,0,1,1,0,0,0,false,false,true,-541.31,-3720.17,17.01,0.0008550752,0.0047015646,-0.1876506,0.98222417,-414.161,171.951,8.301001,-0.00021,-0.00030999997,3.9902098
117.825,2000,0,91.24,0.000002697398,0.000002697398,0.000002697398,0.99999994,0,0,0,0,0,0,1,1,0,0,0,false,false,true,-544.76,-3718.74,17.01,0.0007741532,0.0047123544,-0.17129354,0.9852084,-407.861,170.211,8.301001,-0.00010999999,-0.00040999998,3.9642098
117.833336,2000,0,91.24,0.000002697398,0.000002697398,0.000002697398,0.99999994,0,0,0,0,0,0,1,1,0,0,0,false,false,true,-548.16,-3717.3198,17.01,0.0006986261,0.0047231438,-0.15499577,0.98790354,-401.511,168.571,8.301001,0,-0.00040999998,3.9405098
117.84167,2000,0,91.24,0.000002697398,0.000002697398,0.000002697398,0.99999994,0,0,0,0,0,0,1,1,0,0,0,false,false,true,-551.51,-3715.92,17.01,0.0006230989,0.0047339336,-0.1387574,0.99031484,-395.101,167.041,8.301001,0,-0.00051,3.9193099
117.85,2000,0,91.24,0.000002697398,0.000002697398,0.000002697398,0.99999994,0,0,0,0,0,0,1,1,0,0,0,false,false,true,-554.8,-3714.53,17.01,0.0005475718,0.0047393283,-0.122567534,0.9924486,-388.641,165.621,8.301001,0,-0.00051,3.90081
117.85833,2000,0,91.24,0.000002697398,0.000002697398,0.000002697398,0.99999994,0,0,0,0,0,0,1,1,0,0,0,false,false,true,-558.04,-3713.15,17.01,0.0004720447,0.0047447234,-0.106420875,0.9943097,-382.121,164.321,8.301001,0,-0.00051,3.88501
117.86667,2000,0,91.24,0.000002697398,0.000002697398,0.000002697398,0.99999994,0,0,0,0,0,0,1,1,0,0,0,false,false,true,-561.22,-3711.78,17.01,0.0003965175,0.0047501177,-0.09031192,0.99590206,-375.551,163.151,8.301001,0,-0.00051,3.87211
117.875,2000,0,91.24,0.000002697398,0.000002697398,0.000002697398,0.99999994,0,0,0,0,0,0,1,1,0,0,0,false,false,true,-564.35,-3710.42,17.01,0.00032099034,0.0047555123,-0.07423538,0.9972292,-368.931,162.11101,8.301001,0,-0.00051,3.8622098
117.88333,2000,0,91.24,0.000002697398,0.000002697398,0.000002697398,0.99999994,0,0,0,0,0,0,1,1,0,0,0,false,false,true,-567.42,-3709.0698,17.01,0.0002454632,0.0047555123,-0.058180384,0.9982946,-362.261,161.211,8.301001,0.00010999999,-0.00061,3.8554099
117.89167,2000,0,91.24,0.000002697398,0.000002697398,0.000002697398,0.99999994,0,0,0,0,0,0,1,1,0,0,0,false,false,true,-570.44,-3707.73,17.01,0.00016993606,0.0047555123,-0.04213622,0.9991004,-355.551,160.461,8.301001,0.00021,-0.00061,3.85181
117.9,2000,0,91.24,0.000002697398,0.000002697398,0.000002697398,0.99999994,0,0,0,0,0,0,1,1,0,0,0,false,false,true,-573.39996,-3706.39,17.01,0.00009440893,0.004755513,-0.026097411,0.99964803,-348.801,159.86101,8.301001,0.00030999997,-0.00061,3.8519099
117.90833,2000,0,91.24,0.000002697398,0.000002697398,0.000002697398,0.99999994,0,0,0,0,0,0,1,1,0,0,0,false,false,true,-576.31,-3705.0598,17.01,0.000018881788,0.0047555133,-0.010053245,0.99993813,-341.861,159.431,8.301001,0.00040999998,-0.00061,3.85641
117.916664,2000,0,91.24,0.000002697398,0.000002697398,0.000002697398,0.99999994,0,0,0,0,0,0,1,1,0,0,0,false,false,true,-579.16,-3703.73,17.01,-0.000056645364,0.004750118,0.0060125007,0.9999706,-334.751,159.201,8.301001,0.00040999998,-0.00051,3.86491
117.925,2000,0,91.24,0.000002697398,0.000002697398,0.000002697398,0.99999994,0,0,0,0,0,0,1,1,0,0,0,false,false,true,-581.95,-3702.4,17.01,-0.00013217251,0.0047447234,0.022116052,0.9997441,-327.481,159.201,8.301001,0.00051,-0.00040999998,3.87741
117.933334,2000,0,91.24,0.000002697398,0.000002697398,0.000002697398,0.99999994,0,0,0,0,0,0,1,1,0,0,0,false,false,true,-584.68,-3701.0698,17.01,-0.00020769966,0.0047393288,0.038262762,0.99925643,-320.051,159.461,8.301001,0.00061,-0.00030999997,3.8940098
117.941666,2000,0,91.24,0.000002697398,0.000002697398,0.000002697398,0.99999994,0,0,0,0,0,0,1,1,0,0,0,false,false,true,-587.35,-3699.74,17.01,-0.00028322678,0.0047339336,0.05446873,0.99850416,-312.461,160.001,8.301001,0.00061,-0.00030999997,3.91481
117.95,2000,0,91.24,0.000002697398,0.000002697398,0.000002697398,0.99999994,0,0,0,0,0,0,1,1,0,0,0,false,false,true,-589.95,-3698.41,17.01,-0.00035875395,0.004728539,0.07075031,0.9974828,-304.731,160.86101,8.301001,0.00071,-0.00021,3.9400098
117.958336,2000,0,91.24,0.000002697398,0.000002697398,0.000002697398,0.99999994,0,0,0,0,0,0,1,1,0,0,0,false,false,true,-592.49,-3697.0698,17.01,-0.00043428104,0.0047231433,0.0871128,0.99618703,-296.861,162.071,8.301001,0.00071,-0.00021,3.96981
117.96667,2000,0,91.24,0.000002697398,0.000002697398,0.000002697398,0.99999994,0,0,0,0,0,0,1,1,0,0,0,false,false,true,-594.95996,-3695.72,17.01,-0.0005098082,0.0047123544,0.10357781,0.99461,-288.861,163.671,8.301001,0.00071,-0.00021,4.00441
117.975,2000,0,91.24,0.000002697398,0.000002697398,0.000002697398,0.99999994,0,0,0,0,0,0,1,1,0,0,0,false,false,true,-597.37,-3694.3599,17.01,-0.0005853354,0.004701565,0.12015603,0.9927437,-280.751,165.591,8.301001,0.00071,-0.00010999999,4.04111
117.98333,2000,0,91.24,0.000002697398,0.000002697398,0.000002697398,0.99999994,0,0,0,0,0,0,1,1,0,0,0,false,false,true,-599.70996,-3692.98,17.01,-0.0006608625,0.0046907747,0.13685298,0.9905799,-272.521,167.791,8.301001,0.00071,0,4.07791
117.99167,2000,0,91.24,0.000002697398,0.000002697398,0.000002697398,0.99999994,0,0,0,0,0,0,1,1,0,0,0,false,false,true,-601.98,-3691.5798,17.01,-0.00073638966,0.0046799853,0.15366326,0.98811185,-264.191,170.30101,8.301001,0.00071,0,4.11491
118,2000,0,91.24,0.000002697398,0.000002697398,0.000002697398,0.99999994,0,0,0,0,0,0,1,1,0,0,0,false,false,true,-604.18,-3690.16,17.01,-0.00081191683,0.0046638013,0.17058143,0.98533213,-255.761,173.16101,8.301001,0.00061,0,4.15241
118.00833,2000,0,91.24,0.000002697398,0.000002697398,0.000002697398,0.99999994,0,0,0,0,0,0,1,1,0,0,0,false,false,true,-606.31,-3688.72,17.01,-0.00088744384,0.0046476163,0.187602,0.9822336,-247.231,176.41101,8.301001,0.00051,0,4.19061
118.01667,2000,0,91.24,0.000002697398,0.000002697398,0.000002697398,0.99999994,0,0,0,0,0,0,1,1,0,0,0,false,false,true,-608.37,-3687.25,17.01,-0.00096836593,0.0046314322,0.20472518,0.978808,-238.61101,180.101,8.301001,0.00040999998,0.00010999999,4.2298098
118.025,2000,0,91.24,0.000002697398,0.000002697398,0.000002697398,0.99999994,0,0,0,0,0,0,1,1,0,0,0,false,false,true,-610.36,-3685.75,17.01,-0.0010492877,0.0046152477,0.22194542,0.97504747,-229.891,184.271,8.301001,0.00030999997,0.00021,4.27041
118.03333,2000,0,91.24,0.000002697398,0.000002697398,0.000002697398,0.99999994,0,0,0,0,0,0,1,1,0,0,0,false,false,true,-612.27997,-3684.21,17.01,-0.0011302097,0.004599063,0.23925741,0.97094446,-221.131,188.94101,8.301001,0.00021,0.00021,4.31221
118.041664,2000,0,91.24,0.000002697398,0.000002697398,0.000002697398,0.99999994,0,0,0,0,0,0,1,1,0,0,0,false,false,true,-614.12,-3682.64,17.01,-0.0012111317,0.0045774844,0.25666112,0.9664898,-212.531,193.901,8.301001,0.00030999997,0.00021,4.35311
118.05,2000,0,91.24,0.000002697398,0.000002697398,0.000002697398,0.99999994,0,0,0,0,0,0,1,1,0,0,0,false,false,true,-615.89,-3681.02,17.01,-0.0012920536,0.0045559052,0.27414566,0.9616765,-204.091,199.201,8.301001,0.00040999998,0.00021,4.3934097
118.058334,2000,0,91.24,0.000002697398,0.000002697398,0.000002697398,0.99999994,0,0,0,0,0,0,1,1,0,0,0,false,false,true,-617.58997,-3679.3599,17.01,-0.0013729756,0.004534326,0.29170042,0.9564979,-195.791,204.801,8.301001,0.00051,0.00021,4.4320097
118.066666,2000,0,91.24,0.000002697398,0.000002697398,0.000002697398,0.99999994,0,0,0,0,0,0,1,1,0,0,0,false,false,true,-619.22,-3677.65,17.01,-0.0014538976,0.004507352,0.30931452,0.95094794,-187.621,210.661,8.301001,0.00051,0.00021,4.46761
118.075,2000,0,91.24,0.000002697398,0.000002697398,0.000002697398,0.99999994,0,0,0,0,0,0,1,1,0,0,0,false,false,true,-620.77997,-3675.89,17.01,-0.0015348196,0.0044803787,0.326961,0.9450259,-179.601,216.811,8.301001,0.00051,0.00021,4.50041
118.083336,2000,0,91.24,0.000002697398,0.000002697398,0.000002697398,0.99999994,0,0,0,0,0,0,1,1,0,0,0,false,false,true,-622.27997,-3674.0798,17.01,-0.0016157415,0.0044534043,0.34462366,0.9387289,-171.761,223.231,8.301001,0.00051,0.00021,4.53011
118.09167,2000,0,91.24,0.000002697398,0.000002697398,0.000002697398,0.99999994,0,0,0,0,0,0,1,1,0,0,0,false,false,true,-623.70996,-3672.22,17.01,-0.0016966634,0.0044210353,0.3622808,0.9320569,-164.231,229.761,8.301001,0.00040999998,0.00021,4.55501
118.1,2000,0,91.24,0.000002697398,0.000002697398,0.000002697398,0.99999994,0,0,0,0,0,0,1,1,0,0,0,false,false,true,-625.07996,-3670.3098,17.01,-0.0017775854,0.0043886667,0.37990567,0.92501307,-157.021,236.411,8.301001,0.00030999997,0.00030999997,4.57551
118.10833,2000,0,91.24,0.000002697398,0.000002697398,0.000002697398,0.99999994,0,0,0,0,0,0,1,1,0,0,0,false,false,true,-626.39,-3668.3398,17.01,-0.0018585073,0.0043562977,0.39747122,0.91760236,-150.121,243.191,8.301001,0.00021,0.00030999997,4.59161
118.11667,2000,0,91.24,0.000002697398,0.000002697398,0.000002697398,0.99999994,0,0,0,0,0,0,1,1,0,0,0,false,false,true,-627.64,-3666.3098,17.01,-0.0019394292,0.004318534,0.41495043,0.90983164,-143.541,250.121,8.301001,0.00010999999,0.00030999997,4.60321
118.125,2000,0,91.24,0.000002697398,0.000002697398,0.000002697398,0.99999994,0,0,0,0,0,0,1,1,0,0,0,false,false,true,-628.83997,-3664.23,17.01,-0.0020203511,0.0042807707,0.43232176,0.90170693,-137.281,257.211,8.301001,0,0.00030999997,4.6100097
118.13333,2000,0,91.24,0.000002697398,0.000002697398,0.000002697398,0.99999994,0,0,0,0,0,0,1,1,0,0,0,false,false,true,-629.98,-3662.0898,17.01,-0.002101273,0.004243007,0.44956353,0.89323574,-131.341,264.501,8.301001,-0.00010999999,0.00040999998,4.6114097
118.14167,2000,0,91.24,0.000002697398,0.000002697398,0.000002697398,0.99999994,0,0,0,0,0,0,1,1,0,0,0,false,false,true,-631.07,-3659.89,17.01,-0.002182195,0.004205243,0.46664354,0.88443273,-125.741,271.941,8.301001,-0.00010999999,0.00040999998,4.60851
118.15,2000,0,91.24,0.000002697398,0.000002697398,0.000002697398,0.99999994,0,0,0,0,0,0,1,1,0,0,0,false,false,true,-632.12,-3657.6199,17.01,-0.0022631169,0.0041620852,0.48354015,0.8753093,-120.571,279.231,8.301001,-0.00010999999,0.00030999997,4.6079097
118.15833,2000,0,91.24,0.000002697398,0.000002697398,0.000002697398,0.99999994,0,0,0,0,0,0,1,1,0,0,0,false,false,true,-633.12,-3655.29,17.01,-0.0023440388,0.004118927,0.50025326,0.86586607,-115.811,286.411,8.301001,-0.00010999999,0.00021,4.60851
118.166664,2000,0,91.24,0.000002697398,0.000002697398,0.000002697398,0.99999994,0,0,0,0,0,0,1,1,0,0,0,false,false,true,-634.08997,-3652.9,17.01,-0.002424961,0.004075769,0.51678836,0.8561,-111.461,293.501,8.301001,-0.00010999999,0.00010999999,4.60981
118.175,2000,0,91.24,0.000002697398,0.000002697398,0.000002697398,0.99999994,0,0,0,0,0,0,1,1,0,0,0,false,false,true,-635.01996,-3650.45,17.01,-0.0025004882,0.0040272158,0.5331347,0.84601706,-107.510994,300.501,8.301001,-0.00010999999,0,4.61131
118.183334,2000,0,91.24,0.000002697398,0.000002697398,0.000002697398,0.99999994,0,0,0,0,0,0,1,1,0,0,0,false,false,true,-635.92,-3647.95,17.01,-0.0025760152,0.003978662,0.54929215,0.8356168,-103.961,307.431,8.301001,-0.00010999999,0,4.61271
118.191666,2000,0,91.24,0.000002697398,0.000002697398,0.000002697398,0.99999994,0,0,0,0,0,0,1,1,0,0,0,false,false,true,-636.79,-3645.39,17.01,-0.0026515422,0.0039301086,0.56525004,0.82490593,-100.811,314.281,8.301001,-0.00010999999,0,4.61381
118.2,2000,0,91.24,0.000002697398,0.000002697398,0.000002697398,0.99999994,0,0,0,0,0,0,1,1,0,0,0,false,false,true,-637.63,-3642.77,17.01,-0.0027270694,0.003876161,0.58100283,0.81388766,-98.071,321.051,8.301001,-0.00010999999,-0.00010999999,4.61451
118.208336,2000,0,91.24,0.000002697398,0.000002697398,0.000002697398,0.99999994,0,0,0,0,0,0,1,1,0,0,0,false,false,true,-638.45,-3640.0898,17.01,-0.0028025967,0.003822213,0.59654534,0.8025653,-95.741,327.731,8.301001,-0.00021,-0.00010999999,4.6146097
118.21667,2000,0,91.24,0.000002697398,0.000002697398,0.000002697398,0.99999994,0,0,0,0,0,0,1,1,0,0,0,false,false,true,-639.25,-3637.3599,17.01,-0.0028781237,0.0037682652,0.61186665,0.7909466,-93.83099,334.301,8.301001,-0.00021,-0.00021,4.6139097
118.225,2000,0,91.24,0.000002697398,0.000002697398,0.000002697398,0.99999994,0,0,0,0,0,0,1,1,0,0,0,false,false,true,-640.02997,-3634.5698,17.01,-0.002953651,0.0037143172,0.62695587,0.7790402,-92.340996,340.761,8.301001,-0.00021,-0.00021,4.61241
118.23333,2000,0,91.24,0.000002697398,0.000002697398,0.000002697398,0.99999994,0,0,0,0,0,0,1,1,0,0,0,false,false,true,-640.8,-3631.73,17.01,-0.0030237832,0.0036549745,0.6418132,0.76684624,-91.270996,347.071,8.301001,-0.00010999999,-0.00030999997,4.61021
118.24167,2000,0,91.24,0.000002697398,0.000002697398,0.000002697398,0.99999994,0,0,0,0,0,0,1,1,0,0,0,false,false,true,-641.56,-3628.8398,17.01,-0.0030939155,0.0035956316,0.65642244,0.7543785,-90.601,353.341,8.301001,-0.00010999999,-0.00030999997,4.60521
118.25,2000,0,91.24,0.000002697398,0.000002697398,0.000002697398,0.99999994,0,0,0,0,0,0,1,1,0,0,0,false,false,true,-642.31,-3625.9,17.01,-0.0031640478,0.0035362889,0.670778,0.7416429,-90.321,359.611,8.301001,-0.00010999999,-0.00030999997,4.59851
118.25833,2000,0,91.24,0.000002697398,0.000002697398,0.000002697398,0.99999994,0,0,0,0,0,0,1,1,0,0,0,false,false,true,-643.06,-3622.9,17.01,-0.0032341804,0.0034769461,0.68486387,0.72865546,-90.431,365.851,8.301001,-0.00010999999,-0.00030999997,4.5904098
118.26667,2000,0,91.24,0.000002697398,0.000002697398,0.000002697398,0.99999994,0,0,0,0,0,0,1,1,0,0,0,false,false,true,-643.81,-3619.8499,17.01,-0.0032989178,0.0034122085,0.6986746,0.7154237,-90.931,372.031,8.301001,-0.00010999999,-0.00030999997,4.58111
118.275,2000,0,91.24,0.000002697398,0.000002697398,0.000002697398,0.99999994,0,0,0,0,0,0,1,1,0,0,0,false,false,true,-644.57,-3616.75,17.01,-0.0033636554,0.003347471,0.71220034,0.7019601,-91.821,378.121,8.301001,-0.00021,-0.00030999997,4.57091
118.28333,2000,0,91.24,0.000002697398,0.000002697398,0.000002697398,0.99999994,0,0,0,0,0,0,1,1,0,0,0,false,false,true,-645.33997,-3613.5999,17.01,-0.003428393,0.0032827335,0.72544086,0.688268,-93.08099,384.111,8.301001,-0.00021,-0.00030999997,4.56001
118.291664,2000,0,91.24,0.000002697398,0.000002697398,0.000002697398,0.99999994,0,0,0,0,0,0,1,1,0,0,0,false,false,true,-646.12,-3610.4,17.01,-0.0034931307,0.003217996,0.73838717,0.6743603,-94.721,389.961,8.301001,-0.00021,-0.00030999997,4.54851
118.3,2000,0,91.24,0.000002697398,0.000002697398,0.000002697398,0.99999994,0,0,0,0,0,0,1,1,0,0,0,false,false,true,-646.91,-3607.15,17.01,-0.0035524736,0.0031532585,0.7510331,0.6602474,-96.721,395.661,8.301001,-0.00021,-0.00030999997,4.53671
118.308334,2000,0,91.24,0.000002697398,0.000002697398,0.000002697398,0.99999994,0,0,0,0,0,0,1,1,0,0,0,false,false,true,-647.72,-3603.8499,17.01,-0.003611816,0.003083126,0.76337767,0.6459349,-99.08099,401.191,8.301001,-0.00021,-0.00040999998,4.52461
118.316666,2000,0,91.24,0.000002697398,0.000002697398,0.000002697398,0.99999994,0,0,0,0,0,0,1,1,0,0,0,false,false,true,-648.55,-3600.51,17.01,-0.0036711588,0.0030129936,0.7754197,0.63142824,-101.781,406.521,8.301001,-0.00030999997,-0.00040999998,4.5124097
118.325,2000,0,91.24,0.000002697398,0.000002697398,0.000002697398,0.99999994,0,0,0,0,0,0,1,1,0,0,0,false,false,true,-649.39996,-3597.1199,17.01,-0.003730501,0.002942861,0.78715396,0.6167381,-104.821,411.641,8.301001,-0.00030999997,-0.00040999998,4.50031
118.333336,2000,0,91.24,0.000002697398,0.000002697398,0.000002697398,0.99999994,0,0,0,0,0,0,1,1,0,0,0,false,false,true,-650.26996,-3593.69,17.01,-0.0037844495,0.002872729,0.7985799,0.60187,-108.181,416.531,8.301001,-0.00030999997,-0.00040999998,4.48831
118.34167,2000,0,91.24,0.000002697398,0.000002697398,0.000002697398,0.99999994,0,0,0,0,0,0,1,1,0,0,0,false,false,true,-651.17,-3590.22,17.01,-0.0038383976,0.0028025967,0.8096966,0.5868293,-111.851,421.171,8.301001,-0.00030999997,-0.00040999998,4.47671
118.35,2000,0,91.24,0.000002697398,0.000002697398,0.000002697398,0.99999994,0,0,0,0,0,0,1,1,0,0,0,false,false,true,-652.1,-3586.71,17.01,-0.0038923454,0.002732464,0.82049996,0.57162666,-115.811,425.541,8.301001,-0.00030999997,-0.00040999998,4.46551
118.35833,2000,0,91.24,0.000002697398,0.000002697398,0.000002697398,0.99999994,0,0,0,0,0,0,1,1,0,0,0,false,false,true,-653.06,-3583.16,17.01,-0.003946293,0.0026623318,0.8309931,0.5562622,-120.050995,429.631,8.301001,-0.00030999997,-0.00040999998,4.45491
118.36667,2000,0,91.24,0.000002697398,0.000002697398,0.000002697398,0.99999994,0,0,0,0,0,0,1,1,0,0,0,false,false,true,-654.06,-3579.5798,17.01,-0.0039948463,0.0025868048,0.8411754,0.5407413,-124.58099,433.471,8.301001,-0.00030999997,-0.00040999998,4.44601
118.375,2000,0,91.24,0.000002697398,0.000002697398,0.000002697398,0.99999994,0,0,0,0,0,0,1,1,0,0,0,false,false,true,-655.1,-3575.97,17.01,-0.0040433994,0.0025112776,0.8510493,0.52506405,-129.391,437.041,8.301001,-0.00030999997,-0.00040999998,4.4387097
118.38333,2000,0,91.24,0.000002697398,0.000002697398,0.000002697398,0.99999994,0,0,0,0,0,0,1,1,0,0,0,false,false,true,-656.18,-3572.3298,17.01,-0.0040919525,0.0024357503,0.8606139,0.5092356,-134.451,440.32098,8.301001,-0.00030999997,-0.00040999998,4.43301
118.39167,2000,0,91.24,0.000002697398,0.000002697398,0.000002697398,0.99999994,0,0,0,0,0,0,1,1,0,0,0,false,false,true,-657.3,-3568.66,17.01,-0.004140506,0.0023602233,0.86987406,0.49325076,-139.751,443.311,8.301001,-0.00030999997,-0.00040999998,4.42891
118.4,2000,0,91.24,0.000002697398,0.000002697398,0.000002697398,0.99999994,0,0,0,0,0,0,1,1,0,0,0,false,false,true,-658.45996,-3564.97,17.01,-0.004183665,0.0022846963,0.8788279,0.47711498,-145.27101,446.001,8.301001,-0.00021,-0.00040999998,4.4264097
118.40833,2000,0,91.24,0.000002697398,0.000002697398,0.000002697398,0.99999994,0,0,0,0,0,0,1,1,0,0,0,false,false,true,-659.67,-3561.25,17.01,-0.004226822,0.0022091686,0.8874765,0.4608279,-151.041,448.421,8.301001,-0.00021,-0.00040999998,4.42511
118.416664,2000,0,91.24,0.000002697398,0.000002697398,0.000002697398,0.99999994,0,0,0,0,0,0,1,1,0,0,0,false,false,true,-660.93,-3557.51,17.01,-0.004269981,0.002128247,0.8958207,0.44438994,-157.05101,450.561,8.311,-0.00010999999,-0.00030999997,4.42481
118.425,2000,0,91.24,0.000002697398,0.000002697398,0.000002697398,0.99999994,0,0,0,0,0,0,1,1,0,0,0,false,false,true,-662.24,-3553.75,17.01,-0.004307744,0.0020473248,0.9038603,0.42780077,-163.271,452.421,8.311,-0.00010999999,-0.00021,4.42551
118.433334,2000,0,91.24,0.000002697398,0.000002697398,0.000002697398,0.99999994,0,0,0,0,0,0,1,1,0,0,0,false,false,true,-663.6,-3549.98,17.01,-0.0043455088,0.0019664033,0.9115954,0.4110608,-169.69101,453.991,8.311,-0.00010999999,-0.00021,4.4271097
118.441666,2000,0,91.24,0.000002697398,0.000002697398,0.000002697398,0.99999994,0,0,0,0,0,0,1,1,0,0,0,false,false,true,-665.01,-3546.2,17.01,-0.004383271,0.0018854811,0.91902286,0.39417496,-176.291,455.261,8.311,-0.00010999999,-0.00010999999,4.42961
118.45,2000,0,91.24,0.000002697398,0.000002697398,0.000002697398,0.99999994,0,0,0,0,0,0,1,1,0,0,0,false,false,true,-666.48,-3542.41,17.01,-0.0044156406,0.0018045594,0.92614025,0.37714893,-183.05101,456.221,8.311,-0.00010999999,-0.00010999999,4.43281
118.458336,2000,0,91.24,0.000002697398,0.000002697398,0.000002697398,0.99999994,0,0,0,0,0,0,1,1,0,0,0,false,false,true,-668.01,-3538.6099,17.01,-0.004448009,0.0017236373,0.9329488,0.35997722,-189.961,456.871,8.311,-0.00010999999,-0.00010999999,4.43681
118.46667,2000,0,91.24,0.000002697398,0.000002697398,0.000002697398,0.99999994,0,0,0,0,0,0,1,1,0,0,0,false,false,true,-669.58997,-3534.7998,17.01,-0.0044803782,0.0016427154,0.9394434,0.3426707,-197.001,457.211,8.311,-0.00010999999,-0.00010999999,4.44141
118.475,2000,0,91.24,0.000002697398,0.000002697398,0.000002697398,0.99999994,0,0,0,0,0,0,1,1,0,0,0,false,false,true,-671.23,-3530.99,17.01,-0.0045127464,0.0015617934,0.945623,0.3252292,-204.151,457.241,8.311,-0.00010999999,0,4.44661
118.48333,2000,0,91.24,0.000002697398,0.000002697398,0.000002697398,0.99999994,0,0,0,0,0,0,1,1,0,0,0,false,false,true,-672.93,-3527.18,17.01,-0.0045397207,0.0014808716,0.9514866,0.30765292,-211.401,456.951,8.311,-0.00010999999,0,4.4524097
118.49167,2000,0,91.24,0.000002697398,0.000002697398,0.000002697398,0.99999994,0,0,0,0,0,0,1,1,0,0,0,false,false,true,-674.69,-3523.3699,17.01,-0.004566694,0.0013945546,0.9570306,0.28994706,-218.731,456.35098,8.311,0,0,4.45881
118.5,2000,0,91.24,0.000002697398,0.000002697398,0.000002697398,0.99999994,0,0,0,0,0,0,1,1,0,0,0,false,false,true,-676.51,-3519.5698,17.01,-0.004593669,0.001308238,0.9622522,0.27211723,-226.131,455.431,8.311,0,0,4.4657097
118.50833,2000,0,91.24,0.000002697398,0.000002697398,0.000002697398,0.99999994,0,0,0,0,0,0,1,1,0,0,0,false,false,true,-678.39,-3515.77,17.01,-0.004615248,0.0012219213,0.96714807,0.25416872,-233.591,454.191,8.311,0,0,4.47301
118.51667,2000,0,91.24,0.000002697398,0.000002697398,0.000002697398,0.99999994,0,0,0,0,0,0,1,1,0,0,0,false,false,true,-680.33997,-3511.98,17.01,-0.0046368274,0.0011356047,0.97171664,0.2361015,-241.091,452.631,8.311,0,0,4.4808097
118.525,2000,0,91.24,0.000002697398,0.000002697398,0.000002697398,0.99999994,0,0,0,0,0,0,1,1,0,0,0,false,false,true,-682.35,-3508.21,17.01,-0.0046584057,0.0010492877,0.9759546,0.2179209,-248.61101,450.751,8.311,0,0,4.48901
118.53333,2000,0,91.24,0.000002697398,0.000002697398,0.000002697398,0.99999994,0,0,0,0,0,0,1,1,0,0,0,false,false,true,-684.42,-3504.45,17.01,-0.0046745907,0.0009629711,0.97986025,0.1996271,-256.151,448.561,8.311,0,0,4.49761
118.541664,2000,0,91.24,0.000002697398,0.000002697398,0.000002697398,0.99999994,0,0,0,0,0,0,1,1,0,0,0,false,false,true,-686.55,-3500.71,17.01,-0.004690775,0.00087665435,0.98342896,0.18123075,-263.691,446.061,8.311,0,0,4.50661
118.55,2000,0,91.24,0.000002697398,0.000002697398,0.000002697398,0.99999994,0,0,0,0,0,0,1,1,0,0,0,false,false,true,-688.75,-3496.99,17.01,-0.00470696,0.0007903377,0.98665875,0.16273193,-271.221,443.241,8.311,0,0,4.5159097
118.558334,2000,0,91.24,0.000002697398,0.000002697398,0.000002697398,0.99999994,0,0,0,0,0,0,1,1,0,0,0,false,false,true,-691.01,-3493.2998,17.01,-0.0047231433,0.00070402084,0.9895454,0.14414144,-278.731,440.121,8.311,0,0,4.52561
118.566666,2000,0,91.24,0.000002697398,0.000002697398,0.000002697398,0.99999994,0,0,0,0,0,0,1,1,0,0,0,false,false,true,-693.32996,-3489.63,17.01,-0.0047339336,0.0006123093,0.99208724,0.12545918,-286.211,436.691,8.311,0,0,4.5356097
118.575,2000,0,91.24,0.000002697398,0.000002697398,0.000002697398,0.99999994,0,0,0,0,0,0,1,1,0,0,0,false,false,true,-695.70996,-3485.99,17.01,-0.004744723,0.0005205978,0.99428076,0.10669061,-293.641,432.961,8.311,0,0,4.54591
118.583336,2000,0,91.24,0.000002697398,0.000002697398,0.000002697398,0.99999994,0,0,0,0,0,0,1,1,0,0,0,false,false,true,-698.16,-3482.38,17.01,-0.0047555123,0.00042888624,0.9961229,0.08784109,-301.021,428.931,8.311,-0.00010999999,0,4.55651
118.59167,2000,0,91.24,0.000002697398,0.000002697398,0.000002697398,0.99999994,0,0,0,0,0,0,1,1,0,0,0,false,false,true,-700.67,-3478.8098,17.01,-0.0047609075,0.00033717474,0.997611,0.068916075,-308.341,424.60098,8.311,-0.00010999999,0,4.56731
