time,ball_loc_x,ball_loc_y,ball_loc_z,ball_rot_x,ball_rot_y,ball_rot_z,ball_rot_w,ball_vel_x,ball_vel_y,ball_vel_z,ball_ang_x,ball_ang_y,ball_ang_z,player0_throttle,player0_steer,player0_pitch,player0_yaw,player0_roll,player0_jump,player0_boost,player0_handbrake,player0_loc_x,player0_loc_y,player0_loc_z,player0_rot_x,player0_rot_y,player0_rot_z,player0_rot_w,player0_vel_x,player0_vel_y,player0_vel_z,player0_ang_x,player0_ang_y,player0_ang_z
160.60834,2000,0,91.24,0.000002697398,0.000002697398,0.000002697398,0.99999994,0,0,0,0,0,0,1,0,0,0,0,false,false,false,0,-3542.3098,17.01,-0.003347471,0.00336905,0.70708513,0.7071124,0,1300.0409,8.321,-0.00071,-0.00010999999,0
160.61667,2000,0,91.24,0.000002697398,0.000002697398,0.000002697398,0.99999994,0,0,0,0,0,0,0,1,0,0,0,false,false,true,0,-3531.48,17.01,-0.003347471,0.00336905,0.70708513,0.7071124,-12.641,1298.241,8.331,-0.00081,0.00311,0.35101
160.625,2000,0,91.24,0.000002697398,0.000002697398,0.000002697398,0.99999994,0,0,0,0,0,0,0,1,0,0,0,false,false,true,-0.11,-3520.66,17.01,-0.003347471,0.003374445,0.7081197,0.7060763,-22.810999,1296.751,8.341001,-0.00091,0.0043099998,0.62081
160.63333,2000,0,91.24,0.000002697398,0.000002697398,0.000002697398,0.99999994,0,0,0,0,0,0,0,1,0,0,0,false,false,true,-0.29999998,-3509.8499,17.01,-0.003347471,0.0033798397,0.7099439,0.70424205,-32.510998,1295.3009,8.341001,-0.00091,0.00461,0.85491
160.64166,2000,0,91.24,0.000002697398,0.000002697398,0.000002697398,0.99999994,0,0,0,0,0,0,0,1,0,0,0,false,false,true,-0.57,-3499.0598,17.01,-0.003347471,0.0033852346,0.7124501,0.7017065,-42.121,1293.841,8.341001,-0.00091,0.00441,1.05951
160.65,2000,0,91.24,0.000002697398,0.000002697398,0.000002697398,0.99999994,0,0,0,0,0,0,0,1,0,0,0,false,false,true,-0.91999996,-3488.28,17.01,-0.0033528658,0.0033852346,0.71553946,0.69855595,-51.900997,1292.3209,8.341001,-0.00081,0.00381,1.2395099
160.65834,2000,0,91.24,0.000002697398,0.000002697398,0.000002697398,0.99999994,0,0,0,0,0,0,0,1,0,0,0,false,false,true,-1.35,-3477.51,17.01,-0.0033636556,0.00337984,0.7191391,0.6948497,-61.981,1290.7009,8.341001,-0.00071,0.00311,1.39911
160.66667,2000,0,91.24,0.000002697398,0.000002697398,0.000002697398,0.99999994,0,0,0,0,0,0,0,1,0,0,0,false,false,true,-1.87,-3466.75,17.01,-0.003374445,0.00336905,0.7231761,0.6906471,-72.440994,1288.9509,8.341001,-0.00071,0.00241,1.54171
160.675,2000,0,91.24,0.000002697398,0.000002697398,0.000002697398,0.99999994,0,0,0,0,0,0,0,1,0,0,0,false,false,true,-2.47,-3456.01,17.01,-0.0033906293,0.0033582605,0.72759897,0.685986,-83.291,1287.021,8.341001,-0.00061,0.0017099999,1.66991
160.68333,2000,0,91.24,0.000002697398,0.000002697398,0.000002697398,0.99999994,0,0,0,0,0,0,0,1,0,0,0,false,false,true,-3.1599998,-3445.28,17.01,-0.003412208,0.0033420757,0.7323569,0.68090403,-94.501,1284.901,8.341001,-0.00051,0.00111,1.78601
160.69167,2000,0,91.24,0.000002697398,0.000002697398,0.000002697398,0.99999994,0,0,0,0,0,0,0,1,0,0,0,false,false,true,-3.9499998,-3434.5698,17.01,-0.0034337877,0.003320497,0.73740506,0.67543375,-106.031,1282.5609,8.341001,-0.00040999998,0.00061,1.8916099
160.7,2000,0,91.24,0.000002697398,0.000002697398,0.000002697398,0.99999994,0,0,0,0,0,0,0,1,0,0,0,false,false,true,-4.83,-3423.88,17.01,-0.0034607619,0.003298918,0.7427047,0.669602,-117.811,1279.981,8.341001,-0.00040999998,0.00010999999,1.98811
160.70833,2000,0,91.24,0.000002697398,0.000002697398,0.000002697398,0.99999994,0,0,0,0,0,0,0,1,0,0,0,false,false,true,-5.81,-3413.21,17.01,-0.0034877358,0.003271944,0.74822754,0.66342485,-129.741,1277.1709,8.341001,-0.00030999997,-0.00021,2.07651
160.71666,2000,0,91.24,0.000002697398,0.000002697398,0.000002697398,0.99999994,0,0,0,0,0,0,0,1,0,0,0,false,false,true,-6.89,-3402.5698,17.01,-0.0035147092,0.0032395748,0.7539414,0.65692407,-141.731,1274.121,8.341001,-0.00021,-0.00040999998,2.15761
160.725,2000,0,91.24,0.000002697398,0.000002697398,0.000002697398,0.99999994,0,0,0,0,0,0,0,1,0,0,0,false,false,true,-8.07,-3391.95,17.01,-0.0035470785,0.0032072063,0.75981534,0.6501212,-153.681,1270.851,8.341001,-0.00021,-0.00061,2.23201
160.73334,2000,0,91.24,0.000002697398,0.000002697398,0.000002697398,0.99999994,0,0,0,0,0,0,0,1,0,0,0,false,false,true,-9.349999,-3381.3599,17.01,-0.0035794473,0.0031748374,0.76582843,0.64302707,-165.461,1267.381,8.341001,-0.00010999999,-0.00081,2.30021
160.74167,2000,0,91.24,0.000002697398,0.000002697398,0.000002697398,0.99999994,0,0,0,0,0,0,0,1,0,0,0,false,false,true,-10.73,-3370.7998,17.01,-0.003611816,0.003137074,0.771956,0.6356578,-176.961,1263.741,8.341001,0,-0.0010099999,2.36251
160.75,2000,0,91.24,0.000002697398,0.000002697398,0.000002697398,0.99999994,0,0,0,0,0,0,0,1,0,0,0,false,false,true,-12.2,-3360.27,17.01,-0.003644185,0.0030993104,0.77817476,0.62802947,-188.041,1259.971,8.341001,0,-0.00111,2.41911
160.75833,2000,0,91.24,0.000002697398,0.000002697398,0.000002697398,0.99999994,0,0,0,0,0,0,0,1,0,0,0,false,false,true,-13.7699995,-3349.77,17.01,-0.0036765535,0.0030615467,0.78446615,0.62015307,-198.58101,1256.131,8.341001,0,-0.0012099999,2.47011
160.76666,2000,0,91.24,0.000002697398,0.000002697398,0.000002697398,0.99999994,0,0,0,0,0,0,0,1,0,0,0,false,false,true,-15.42,-3339.2998,17.01,-0.0037143172,0.0030183885,0.7908086,0.6120447,-208.451,1252.2909,8.341001,0,-0.00131,2.51561
160.775,2000,0,91.24,0.000002697398,0.000002697398,0.000002697398,0.99999994,0,0,0,0,0,0,0,1,0,0,0,false,false,true,-17.16,-3328.8599,17.01,-0.0037520807,0.00297523,0.7971816,0.6037204,-217.501,1248.521,8.341001,0,-0.00131,2.55551
160.78334,2000,0,91.24,0.000002697398,0.000002697398,0.000002697398,0.99999994,0,0,0,0,0,0,0,1,0,0,0,false,false,true,-18.97,-3318.46,17.01,-0.0037898442,0.0029320717,0.80356574,0.5951966,-225.601,1244.9309,8.341001,0.00010999999,-0.00131,2.58981
160.79167,2000,0,91.24,0.000002697398,0.000002697398,0.000002697398,0.99999994,0,0,0,0,0,0,0,1,0,0,0,false,false,true,-20.85,-3308.0898,17.01,-0.0038276082,0.0028889135,0.8099426,0.5864895,-232.61101,1241.631,8.341001,0.00021,-0.00131,2.6184099
160.8,2000,0,91.24,0.000002697398,0.000002697398,0.000002697398,0.99999994,0,0,0,0,0,0,0,1,0,0,0,false,false,true,-22.789999,-3297.74,17.01,-0.0038653715,0.0028457548,0.81629133,0.5776203,-238.381,1238.741,8.341001,0.00030999997,-0.00131,2.64111
160.80833,2000,0,91.24,0.000002697398,0.000002697398,0.000002697398,0.99999994,0,0,0,0,0,0,0,1,0,0,0,false,false,true,-24.779999,-3287.42,17.01,-0.0038977403,0.0027972017,0.82259995,0.5686002,-242.761,1236.4109,8.341001,0.00040999998,-0.00131,2.65781
160.81667,2000,0,91.24,0.000002697398,0.000002697398,0.000002697398,0.99999994,0,0,0,0,0,0,0,1,0,0,0,false,false,true,-26.8,-3277.1199,17.01,-0.0039301086,0.0027486486,0.8288461,0.55945593,-247.311,1233.871,8.341001,0.00040999998,-0.00131,2.67381
160.825,2000,0,91.24,0.000002697398,0.000002697398,0.000002697398,0.99999994,0,0,0,0,0,0,0,1,0,0,0,false,false,true,-28.859999,-3266.8398,17.01,-0.003962477,0.0027000953,0.8350271,0.5501876,-252.021,1231.111,8.341001,0.00040999998,-0.0012099999,2.68941
160.83333,2000,0,91.24,0.000002697398,0.000002697398,0.000002697398,0.99999994,0,0,0,0,0,0,0,1,0,0,0,false,false,true,-30.96,-3256.5798,17.01,-0.0039948467,0.0026515424,0.8411405,0.5407953,-256.871,1228.121,8.341001,0.00040999998,-0.00111,2.70451
160.84166,2000,0,91.24,0.000002697398,0.000002697398,0.000002697398,0.99999994,0,0,0,0,0,0,0,1,0,0,0,false,false,true,-33.1,-3246.3499,17.01,-0.0040272158,0.0026029893,0.84718,0.5312843,-261.841,1224.901,8.341001,0.00040999998,-0.0010099999,2.71911
160.85,2000,0,91.24,0.000002697398,0.000002697398,0.000002697398,0.99999994,0,0,0,0,0,0,0,1,0,0,0,false,false,true,-35.28,-3236.14,17.01,-0.004059584,0.002554436,0.8531433,0.5216545,-266.921,1221.4509,8.341001,0.00040999998,-0.0010099999,2.7332098
160.85834,2000,0,91.24,0.000002697398,0.000002697398,0.000002697398,0.99999994,0,0,0,0,0,0,0,1,0,0,0,false,false,true,-37.5,-3225.96,17.01,-0.004091953,0.0025058829,0.859028,0.5119061,-272.091,1217.771,8.341001,0.00040999998,-0.00091,2.74681
160.86667,2000,0,91.24,0.000002697398,0.000002697398,0.000002697398,0.99999994,0,0,0,0,0,0,0,1,0,0,0,false,false,true,-39.77,-3215.8098,17.01,-0.004124321,0.0024573293,0.8648315,0.5020389,-277.341,1213.861,8.341001,0.00040999998,-0.00081,2.7599099
160.875,2000,0,91.24,0.000002697398,0.000002697398,0.000002697398,0.99999994,0,0,0,0,0,0,0,1,0,0,0,false,false,true,-42.079998,-3205.69,17.01,-0.00415669,0.0024087764,0.8705488,0.49205852,-282.651,1209.7109,8.341001,0.00040999998,-0.00071,2.77251
160.88333,2000,0,91.24,0.000002697398,0.000002697398,0.000002697398,0.99999994,0,0,0,0,0,0,0,1,0,0,0,false,false,true,-44.44,-3195.6099,17.01,-0.004183665,0.0023602236,0.8761744,0.48197028,-288.001,1205.3309,8.341001,0.00040999998,-0.00061,2.78451
160.89166,2000,0,91.24,0.000002697398,0.000002697398,0.000002697398,0.99999994,0,0,0,0,0,0,0,1,0,0,0,false,false,true,-46.84,-3185.5698,17.01,-0.0042106383,0.0023062753,0.88170636,0.471774,-293.381,1200.7109,8.341001,0.00040999998,-0.00061,2.79601
160.9,2000,0,91.24,0.000002697398,0.000002697398,0.000002697398,0.99999994,0,0,0,0,0,0,0,1,0,0,0,false,false,true,-49.28,-3175.5598,17.01,-0.004237612,0.002252327,0.8871427,0.4614699,-298.771,1195.861,8.341001,0.00040999998,-0.00051,2.80691
160.90834,2000,0,91.24,0.000002697398,0.000002697398,0.000002697398,0.99999994,0,0,0,0,0,0,0,1,0,0,0,false,false,true,-51.77,-3165.5898,17.01,-0.004264586,0.0021983793,0.892479,0.4510633,-304.161,1190.781,8.341001,0.00040999998,-0.00051,2.8173099
160.91667,2000,0,91.24,0.000002697398,0.000002697398,0.000002697398,0.99999994,0,0,0,0,0,0,0,1,0,0,0,false,false,true,-54.3,-3155.67,17.01,-0.00429156,0.0021444315,0.8977131,0.44055423,-309.531,1185.471,8.341001,0.00030999997,-0.00040999998,2.82711
160.925,2000,0,91.24,0.000002697398,0.000002697398,0.000002697398,0.99999994,0,0,0,0,0,0,0,1,0,0,0,false,false,true,-56.879997,-3145.79,17.01,-0.004318534,0.0020904834,0.90284085,0.42994797,-314.871,1179.9409,8.341001,0.00030999997,-0.00040999998,2.83631
160.93333,2000,0,91.24,0.000002697398,0.000002697398,0.000002697398,0.99999994,0,0,0,0,0,0,0,1,0,0,0,false,false,true,-59.5,-3135.96,17.01,-0.0043455083,0.0020365354,0.907858,0.4192501,-320.161,1174.1909,8.341001,0.00030999997,-0.00030999997,2.84491
160.94167,2000,0,91.24,0.000002697398,0.000002697398,0.000002697398,0.99999994,0,0,0,0,0,0,0,1,0,0,0,false,false,true,-62.17,-3126.17,17.01,-0.004372482,0.0019825874,0.91276336,0.4084604,-325.391,1168.231,8.341001,0.00021,-0.00021,2.85291
160.95,2000,0,91.24,0.000002697398,0.000002697398,0.000002697398,0.99999994,0,0,0,0,0,0,0,1,0,0,0,false,false,true,-64.88,-3116.43,17.01,-0.004394061,0.0019286394,0.9175552,0.39757907,-330.551,1162.0609,8.341001,0.00021,-0.00010999999,2.86021
160.95833,2000,0,91.24,0.000002697398,0.000002697398,0.000002697398,0.99999994,0,0,0,0,0,0,0,1,0,0,0,false,false,true,-67.63,-3106.75,17.01,-0.0044156406,0.0018746917,0.9222279,0.3866168,-335.621,1155.7009,8.341001,0.00021,-0.00010999999,2.86691
160.96666,2000,0,91.24,0.000002697398,0.000002697398,0.000002697398,0.99999994,0,0,0,0,0,0,0,1,0,0,0,false,false,true,-70.43,-3097.1199,17.01,-0.0044372203,0.0018207438,0.9267801,0.37557366,-340.591,1149.141,8.341001,0.00021,-0.00010999999,2.87291
160.975,2000,0,91.24,0.000002697398,0.000002697398,0.000002697398,0.99999994,0,0,0,0,0,0,0,1,0,0,0,false,false,true,-73.27,-3087.54,17.01,-0.004458799,0.0017667958,0.9312086,0.3644549,-345.451,1142.401,8.341001,0.00021,-0.00010999999,2.8782098
160.98334,2000,0,91.24,0.000002697398,0.000002697398,0.000002697398,0.99999994,0,0,0,0,0,0,0,1,0,0,0,false,false,true,-76.15,-3078.02,17.01,-0.0044803782,0.0017128477,0.93551254,0.3532607,-350.191,1135.481,8.341001,0.00021,-0.00010999999,2.8828099
160.99167,2000,0,91.24,0.000002697398,0.000002697398,0.000002697398,0.99999994,0,0,0,0,0,0,0,1,0,0,0,false,false,true,-79.07,-3068.5598,17.01,-0.0045019574,0.0016588998,0.939689,0.34199628,-354.791,1128.401,8.341001,0.00021,-0.00010999999,2.88671
161,2000,0,91.24,0.000002697398,0.000002697398,0.000002697398,0.99999994,0,0,0,0,0,0,0,1,0,0,0,false,false,true,-82.03,-3059.16,17.01,-0.0045235357,0.0016049517,0.94373506,0.33066717,-359.251,1121.161,8.341001,0.00021,-0.00010999999,2.8898098
161.00833,2000,0,91.24,0.000002697398,0.000002697398,0.000002697398,0.99999994,0,0,0,0,0,0,0,1,0,0,0,false,false,true,-85.02,-3049.8198,17.01,-0.0045451154,0.0015510039,0.94764864,0.3192787,-363.551,1113.781,8.341001,0.00021,-0.00010999999,2.89221
161.01666,2000,0,91.24,0.000002697398,0.000002697398,0.000002697398,0.99999994,0,0,0,0,0,0,0,1,0,0,0,false,false,true,-88.049995,-3040.54,17.01,-0.0045613,0.0014970559,0.95142716,0.30783632,-367.691,1106.261,8.341001,0.00021,-0.00010999999,2.89381
161.025,2000,0,91.24,0.000002697398,0.000002697398,0.000002697398,0.99999994,0,0,0,0,0,0,0,1,0,0,0,false,false,true,-91.11,-3031.3198,17.01,-0.004577485,0.0014431081,0.95507044,0.29633996,-371.661,1098.621,8.341001,0.00021,-0.00010999999,2.89461
161.03334,2000,0,91.24,0.000002697398,0.000002697398,0.000002697398,0.99999994,0,0,0,0,0,0,0,1,0,0,0,false,false,true,-94.21,-3022.16,17.01,-0.004593669,0.0013891599,0.9585748,0.28480047,-375.451,1090.871,8.341001,0.00021,-0.00010999999,2.89461
161.04167,2000,0,91.24,0.000002697398,0.000002697398,0.000002697398,0.99999994,0,0,0,0,0,0,0,1,0,0,0,false,false,true,-97.34,-3013.0698,17.01,-0.004609853,0.001335212,0.96194017,0.27321777,-379.051,1083.021,8.341001,0.00030999997,-0.00010999999,2.89371
161.05,2000,0,91.24,0.000002697398,0.000002697398,0.000002697398,0.99999994,0,0,0,0,0,0,0,1,0,0,0,false,false,true,-100.5,-3004.04,17.01,-0.004626037,0.0012758691,0.965165,0.26159734,-382.461,1075.091,8.341001,0.00030999997,-0.00010999999,2.89201
161.05833,2000,0,91.24,0.000002697398,0.000002697398,0.000002697398,0.99999994,0,0,0,0,0,0,0,1,0,0,0,false,false,true,-103.689995,-2995.0798,17.01,-0.004642222,0.0012165265,0.9682468,0.24994993,-385.671,1067.091,8.341001,0.00030999997,-0.00010999999,2.88941
161.06667,2000,0,91.24,0.000002697398,0.000002697398,0.000002697398,0.99999994,0,0,0,0,0,0,0,1,0,0,0,false,false,true,-106.899994,-2986.19,17.01,-0.004658406,0.0011571838,0.9711857,0.23827559,-388.681,1059.031,8.341001,0.00030999997,-0.00010999999,2.88591
161.075,2000,0,91.24,0.000002697398,0.000002697398,0.000002697398,0.99999994,0,0,0,0,0,0,0,1,0,0,0,false,false,true,-110.14,-2977.3599,17.01,-0.004674591,0.0010978411,0.9739808,0.2265796,-391.481,1050.9209,8.341001,0.00030999997,-0.00010999999,2.88151
161.08333,2000,0,91.24,0.000002697398,0.000002697398,0.000002697398,0.99999994,0,0,0,0,0,0,0,1,0,0,0,false,false,true,-113.399994,-2968.5999,17.01,-0.00468538,0.0010384981,0.9766313,0.21486746,-394.081,1042.781,8.341001,0.00030999997,0,2.8761098
161.09166,2000,0,91.24,0.000002697398,0.000002697398,0.000002697398,0.99999994,0,0,0,0,0,0,0,1,0,0,0,false,false,true,-116.68,-2959.91,17.01,-0.0046961703,0.0009791555,0.9791359,0.20314991,-396.471,1034.621,8.341001,0.00030999997,0,2.8698099
161.1,2000,0,91.24,0.000002697398,0.000002697398,0.000002697398,0.99999994,0,0,0,0,0,0,0,1,0,0,0,false,false,true,-119.979996,-2951.29,17.01,-0.0047069597,0.00091981277,0.9814951,0.191427,-398.651,1026.4609,8.341001,0.00021,0,2.86251
161.10834,2000,0,91.24,0.000002697398,0.000002697398,0.000002697398,0.99999994,0,0,0,0,0,0,0,1,0,0,0,false,false,true,-123.299995,-2942.74,17.01,-0.0047177486,0.0008604699,0.9837079,0.1797094,-400.621,1018.311,8.341001,0.00021,0,2.85421
161.11667,2000,0,91.24,0.000002697398,0.000002697398,0.000002697398,0.99999994,0,0,0,0,0,0,0,1,0,0,0,false,false,true,-126.64,-2934.25,17.01,-0.0047285384,0.00080112723,0.9857757,0.16799732,-402.381,1010.18097,8.341001,0.00010999999,0,2.84491
161.125,2000,0,91.24,0.000002697398,0.000002697398,0.000002697398,0.99999994,0,0,0,0,0,0,0,1,0,0,0,false,false,true,-129.98999,-2925.8298,17.01,-0.0047393283,0.00074717926,0.9876977,0.15630132,-403.931,1002.08093,8.341001,0.00010999999,0,2.8345098
161.13333,2000,0,91.24,0.000002697398,0.000002697398,0.000002697398,0.99999994,0,0,0,0,0,0,0,1,0,0,0,false,false,true,-133.36,-2917.48,17.01,-0.0047501177,0.0006932313,0.98947453,0.14462698,-405.271,994.03094,8.341001,0.00010999999,0,2.8231099
161.14166,2000,0,91.24,0.000002697398,0.000002697398,0.000002697398,0.99999994,0,0,0,0,0,0,0,1,0,0,0,false,false,true,-136.73999,-2909.2,17.01,-0.004755513,0.00063928333,0.9911071,0.13297953,-406.411,986.05096,8.341001,0.00010999999,0,2.81061
161.15,2000,0,91.24,0.000002697398,0.000002697398,0.000002697398,0.99999994,0,0,0,0,0,0,0,1,0,0,0,false,false,true,-140.12999,-2900.98,17.01,-0.004760907,0.0005853353,0.99259627,0.12136444,-407.361,978.1409,8.341001,0.00021,0,2.79701
161.15834,2000,0,91.24,0.000002697398,0.000002697398,0.000002697398,0.99999994,0,0,0,0,0,0,0,1,0,0,0,false,false,true,-143.52,-2892.8298,17.01,-0.0047663026,0.00053138746,0.9939435,0.109787226,-408.111,970.321,8.341001,0.00021,0,2.78231
161.16667,2000,0,91.24,0.000002697398,0.000002697398,0.000002697398,0.99999994,0,0,0,0,0,0,0,1,0,0,0,false,false,true,-146.92,-2884.74,17.01,-0.004771697,0.00047743946,0.9951493,0.09825846,-408.671,962.60095,8.341001,0.00030999997,0,2.7664099
161.175,2000,0,91.24,0.000002697398,0.000002697398,0.000002697398,0.99999994,0,0,0,0,0,0,0,1,0,0,0,false,false,true,-150.33,-2876.72,17.01,-0.004777092,0.0004234915,0.9962156,0.08678372,-409.051,955.001,8.341001,0.00030999997,0,2.74931
161.18333,2000,0,91.24,0.000002697398,0.000002697398,0.000002697398,0.99999994,0,0,0,0,0,0,0,1,0,0,0,false,false,true,-153.73999,-2868.76,17.01,-0.0047824867,0.00036954353,0.99714416,0.07536825,-409.261,947.52094,8.341001,0.00040999998,0,2.7311099
161.19167,2000,0,91.24,0.000002697398,0.000002697398,0.000002697398,0.99999994,0,0,0,0,0,0,0,1,0,0,0,false,false,true,-157.15,-2860.8599,17.01,-0.004787882,0.0003155956,0.9979372,0.06401761,-409.301,940.18097,8.341001,0.00051,0,2.7116098
161.2,2000,0,91.24,0.000002697398,0.000002697398,0.000002697398,0.99999994,0,0,0,0,0,0,0,1,0,0,0,false,false,true,-160.56,-2853.02,17.01,-0.004793276,0.0002616476,0.99859685,0.052736998,-409.191,932.98096,8.341001,0.00051,0,2.6909099
161.20833,2000,0,91.24,0.000002697398,0.000002697398,0.000002697398,0.99999994,0,0,0,0,0,0,0,1,0,0,0,false,false,true,-163.97,-2845.24,17.01,-0.004793276,0.00020769965,0.99912536,0.0415374,-408.931,925.941,8.341001,0.00051,0,2.66891
161.21666,2000,0,91.24,0.000002697398,0.000002697398,0.000002697398,0.99999994,0,0,0,0,0,0,0,1,0,0,0,false,false,true,-167.37999,-2837.52,17.01,-0.0047932756,0.00015375167,0.9995254,0.030424034,-408.531,919.071,8.341001,0.00061,0,2.6456099
161.225,2000,0,91.24,0.000002697398,0.000002697398,0.000002697398,0.99999994,0,0,0,0,0,0,0,1,0,0,0,false,false,true,-170.78,-2829.8599,17.01,-0.004793276,0.00009980373,0.9998002,0.019402469,-408.001,912.371,8.341001,0.00061,0,2.62101
161.23334,2000,0,91.24,0.000002697398,0.000002697398,0.000002697398,0.99999994,0,0,0,0,0,0,0,1,0,0,0,false,false,true,-174.18,-2822.26,17.01,-0.0047932756,0.000045855762,0.9999524,0.008483316,-407.351,905.86096,8.341001,0.00061,0,2.59501
161.24167,2000,0,91.24,0.000002697398,0.000002697398,0.000002697398,0.99999994,0,0,0,0,0,0,0,1,0,0,0,false,false,true,-177.56999,-2814.71,17.01,-0.004793276,-0.000008092194,0.99998575,-0.0023278545,-406.591,899.54095,8.341001,0.00061,0,2.56761
161.25,2000,0,91.24,0.000002697398,0.000002697398,0.000002697398,0.99999994,0,0,0,0,0,0,0,1,0,0,0,false,false,true,-180.95999,-2807.21,17.01,-0.004793276,-0.000062040155,0.9999036,-0.013025777,-405.731,893.42096,8.341001,0.00061,0,2.5387099
161.25833,2000,0,91.24,0.000002697398,0.000002697398,0.000002697398,0.99999994,0,0,0,0,0,0,0,1,0,0,0,false,false,true,-184.34,-2799.76,17.01,-0.004793276,-0.00011598812,0.99970996,-0.023599619,-404.791,887.511,8.331,0.00061,0,2.5083098
161.26666,2000,0,91.24,0.000002697398,0.000002697398,0.000002697398,0.99999994,0,0,0,0,0,0,0,1,0,0,0,false,false,true,-187.70999,-2792.3599,17.01,-0.004793276,-0.00016993607,0.9994088,-0.034043986,-403.781,881.811,8.331,0.00061,0,2.47641
161.275,2000,0,91.24,0.000002697398,0.000002697398,0.000002697398,0.99999994,0,0,0,0,0,0,0,1,0,0,0,false,false,true,-191.06999,-2785.01,17.01,-0.004793276,-0.00022388404,0.9990043,-0.044353485,-402.681,876.27094,8.331,0.00061,0,2.44501
161.28334,2000,0,91.24,0.000002697398,0.000002697398,0.000002697398,0.99999994,0,0,0,0,0,0,0,1,0,0,0,false,false,true,-194.43,-2777.71,17.01,-0.004793276,-0.000277832,0.99850065,-0.054528113,-401.481,870.86096,8.331,0.00051,0,2.41521
161.29167,2000,0,91.24,0.000002697398,0.000002697398,0.000002697398,0.99999994,0,0,0,0,0,0,0,1,0,0,0,false,false,true,-197.78,-2770.45,17.01,-0.0047878814,-0.00032638517,0.9979014,-0.064573266,-400.191,865.59094,8.331,0.00040999998,0,2.38691
161.3,2000,0,91.24,0.000002697398,0.000002697398,0.000002697398,0.99999994,0,0,0,0,0,0,0,1,0,0,0,false,false,true,-201.11,-2763.24,17.01,-0.0047824867,-0.00037493833,0.99720985,-0.07449433,-398.831,860.47095,8.331,0.00030999997,0,2.35991
161.30833,2000,0,91.24,0.000002697398,0.000002697398,0.000002697398,0.99999994,0,0,0,0,0,0,0,1,0,0,0,false,false,true,-204.43,-2756.0698,17.01,-0.004777092,-0.0004234915,0.9964291,-0.084296726,-397.401,855.501,8.331,0.00021,0,2.33421
161.31667,2000,0,91.24,0.000002697398,0.000002697398,0.000002697398,0.99999994,0,0,0,0,0,0,0,1,0,0,0,false,false,true,-207.73999,-2748.94,17.01,-0.0047716973,-0.0004720447,0.99556196,-0.093985826,-395.911,850.7009,8.331,0.00021,0,2.30971
161.325,2000,0,91.24,0.000002697398,0.000002697398,0.000002697398,0.99999994,0,0,0,0,0,0,0,1,0,0,0,false,false,true,-211.04,-2741.8499,17.01,-0.0047663026,-0.00052059785,0.99461144,-0.10356159,-394.311,845.96094,8.331,0.00010999999,0,2.28881
161.33333,2000,0,91.24,0.000002697398,0.000002697398,0.000002697398,0.99999994,0,0,0,0,0,0,0,1,0,0,0,false,false,true,-214.33,-2734.8,17.01,-0.004760907,-0.0005691509,0.9935787,-0.11304027,-392.591,841.28094,8.331,0,0,2.27191
161.34166,2000,0,91.24,0.000002697398,0.000002697398,0.000002697398,0.99999994,0,0,0,0,0,0,0,1,0,0,0,false,false,true,-217.59999,-2727.79,17.01,-0.0047555123,-0.00061230926,0.9924644,-0.12243804,-390.751,836.67096,8.331,0,0,2.25891
161.35,2000,0,91.24,0.000002697398,0.000002697398,0.000002697398,0.99999994,0,0,0,0,0,0,0,1,0,0,0,false,false,true,-220.86,-2720.8198,17.01,-0.0047501177,-0.00065546774,0.9912685,-0.13177109,-388.801,832.1409,8.331,-0.00010999999,0,2.2497098
161.35834,2000,0,91.24,0.000002697398,0.000002697398,0.000002697398,0.99999994,0,0,0,0,0,0,0,1,0,0,0,false,false,true,-224.09999,-2713.89,17.01,-0.004744723,-0.0006986261,0.98999,-0.14105558,-386.751,827.7009,8.331,-0.00021,0,2.24421
161.36667,2000,0,91.24,0.000002697398,0.000002697398,0.000002697398,0.99999994,0,0,0,0,0,0,0,1,0,0,0,false,false,true,-227.31999,-2706.99,17.01,-0.0047393283,-0.00074178446,0.98862755,-0.1503077,-384.611,823.35095,8.331,-0.00021,0,2.24231
161.375,2000,0,91.24,0.000002697398,0.000002697398,0.000002697398,0.99999994,0,0,0,0,0,0,0,1,0,0,0,false,false,true,-230.53,-2700.13,17.01,-0.0047339336,-0.0007849428,0.98718005,-0.1595382,-382.381,819.11096,8.331,-0.00030999997,0,2.24391
161.38333,2000,0,91.24,0.000002697398,0.000002697398,0.000002697398,0.99999994,0,0,0,0,0,0,0,1,0,0,0,false,false,true,-233.72,-2693.3,17.01,-0.004728539,-0.00082810124,0.9856449,-0.16876335,-380.081,814.99097,8.331,-0.00030999997,0,2.24891
161.39166,2000,0,91.24,0.000002697398,0.000002697398,0.000002697398,0.99999994,0,0,0,0,0,0,0,1,0,0,0,false,false,true,-236.89,-2686.51,17.01,-0.0047177495,-0.00087125966,0.9840199,-0.1779939,-377.711,810.99097,8.331,-0.00040999998,0,2.25731
161.4,2000,0,91.24,0.000002697398,0.000002697398,0.000002697398,0.99999994,0,0,0,0,0,0,0,1,0,0,0,false,false,true,-240.04,-2679.75,17.01,-0.0047069597,-0.00091441796,0.9823023,-0.1872406,-375.271,807.131,8.331,-0.00040999998,-0.00010999999,2.26911
161.40834,2000,0,91.24,0.000002697398,0.000002697398,0.000002697398,0.99999994,0,0,0,0,0,0,0,1,0,0,0,false,false,true,-243.17,-2673.02,17.01,-0.00469617,-0.0009575763,0.9804881,-0.19651969,-372.741,803.311,8.331,-0.00040999998,-0.00021,2.2822099
161.41667,2000,0,91.24,0.000002697398,0.000002697398,0.000002697398,0.99999994,0,0,0,0,0,0,0,1,0,0,0,false,false,true,-246.28,-2666.3298,17.01,-0.0046853805,-0.0010007346,0.9785746,-0.20583655,-370.111,799.511,8.331,-0.00040999998,-0.00021,2.29601
161.425,2000,0,91.24,0.000002697398,0.000002697398,0.000002697398,0.99999994,0,0,0,0,0,0,0,1,0,0,0,false,false,true,-249.36,-2659.67,17.01,-0.00467459,-0.0010438929,0.97656006,-0.2151911,-367.381,795.74097,8.331,-0.00040999998,-0.00030999997,2.31051
161.43333,2000,0,91.24,0.000002697398,0.000002697398,0.000002697398,0.99999994,0,0,0,0,0,0,0,1,0,0,0,false,false,true,-252.42,-2653.04,17.01,-0.0046638013,-0.0010870514,0.974443,-0.2245835,-364.561,792.011,8.331,-0.00040999998,-0.00030999997,2.32581
161.44167,2000,0,91.24,0.000002697398,0.000002697398,0.000002697398,0.99999994,0,0,0,0,0,0,0,1,0,0,0,false,false,true,-255.45999,-2646.44,17.01,-0.0046530114,-0.0011302098,0.97222143,-0.23401366,-361.661,788.33093,8.331,-0.00040999998,-0.00030999997,2.34161
161.45,2000,0,91.24,0.000002697398,0.000002697398,0.000002697398,0.99999994,0,0,0,0,0,0,0,1,0,0,0,false,false,true,-258.47,-2639.8699,17.01,-0.0046422225,-0.0011733682,0.9698923,-0.24348697,-358.691,784.71094,8.331,-0.00040999998,-0.00030999997,2.35791
161.45833,2000,0,91.24,0.000002697398,0.000002697398,0.000002697398,0.99999994,0,0,0,0,0,0,0,1,0,0,0,false,false,true,-261.46,-2633.3298,17.01,-0.004631432,-0.0012165264,0.96745336,-0.2530034,-355.661,781.16095,8.331,-0.00040999998,-0.00030999997,2.37481
161.46666,2000,0,91.24,0.000002697398,0.000002697398,0.000002697398,0.99999994,0,0,0,0,0,0,0,1,0,0,0,false,false,true,-264.41998,-2626.8198,17.01,-0.004620643,-0.0012596849,0.9649029,-0.26256302,-352.571,777.67096,8.331,-0.00030999997,-0.00030999997,2.39221
161.475,2000,0,91.24,0.000002697398,0.000002697398,0.000002697398,0.99999994,0,0,0,0,0,0,0,1,0,0,0,false,false,true,-267.36,-2620.3398,17.01,-0.004609853,-0.0013028432,0.9622384,-0.2721658,-349.351,774.15094,8.331,-0.00021,-0.00030999997,2.40761
161.48334,2000,0,91.24,0.000002697398,0.000002697398,0.000002697398,0.99999994,0,0,0,0,0,0,0,1,0,0,0,false,false,true,-270.27,-2613.89,17.01,-0.004599064,-0.0013460018,0.9594593,-0.28180638,-346.011,770.61096,8.331,-0.00010999999,-0.00030999997,2.42121
161.49167,2000,0,91.24,0.000002697398,0.000002697398,0.000002697398,0.99999994,0,0,0,0,0,0,0,1,0,0,0,false,false,true,-273.15,-2607.47,17.01,-0.0045882734,-0.0013891598,0.95656663,-0.2914738,-342.551,767.05096,8.331,-0.00010999999,-0.00021,2.43291
161.5,2000,0,91.24,0.000002697398,0.000002697398,0.000002697398,0.99999994,0,0,0,0,0,0,0,1,0,0,0,false,false,true,-276,-2601.0798,17.01,-0.0045720898,-0.0014323184,0.9535623,-0.30115753,-338.981,763.49097,8.331,0,-0.00010999999,2.44281
161.50833,2000,0,91.24,0.000002697398,0.000002697398,0.000002697398,0.99999994,0,0,0,0,0,0,0,1,0,0,0,false,false,true,-278.82,-2594.72,17.01,-0.004555905,-0.0014808715,0.95044786,-0.3108466,-335.301,759.93097,8.331,0,-0.00010999999,2.4509099
161.51666,2000,0,91.24,0.000002697398,0.000002697398,0.000002697398,0.99999994,0,0,0,0,0,0,0,1,0,0,0,false,false,true,-281.61,-2588.39,17.01,-0.0045397207,-0.0015294247,0.94722426,-0.32053572,-331.511,756.3909,8.331,0,-0.00010999999,2.45721
161.525,2000,0,91.24,0.000002697398,0.000002697398,0.000002697398,0.99999994,0,0,0,0,0,0,0,1,0,0,0,false,false,true,-284.37,-2582.0898,17.01,-0.004523536,-0.0015779779,0.94389385,-0.33021402,-327.621,752.881,8.331,0,-0.00010999999,2.46171
161.53334,2000,0,91.24,0.000002697398,0.000002697398,0.000002697398,0.99999994,0,0,0,0,0,0,0,1,0,0,0,false,false,true,-287.1,-2575.8198,17.01,-0.004507352,-0.001626531,0.94045794,-0.33987615,-323.631,749.40094,8.331,0,-0.00010999999,2.46451
161.54167,2000,0,91.24,0.000002697398,0.000002697398,0.000002697398,0.99999994,0,0,0,0,0,0,0,1,0,0,0,false,false,true,-289.8,-2569.5698,17.01,-0.0044911676,-0.0016750842,0.93691784,-0.3495167,-319.551,745.96094,8.331,0,-0.00010999999,2.46561
161.55,2000,0,91.24,0.000002697398,0.000002697398,0.000002697398,0.99999994,0,0,0,0,0,0,0,1,0,0,0,false,false,true,-292.46,-2563.3499,17.01,-0.004474983,-0.0017236373,0.93327713,-0.35912484,-315.391,742.571,8.331,0,0,2.46501
161.55833,2000,0,91.24,0.000002697398,0.000002697398,0.000002697398,0.99999994,0,0,0,0,0,0,0,1,0,0,0,false,false,true,-295.09,-2557.16,17.01,-0.0044587995,-0.0017667959,0.92954004,-0.36868992,-311.151,739.24097,8.331,0,0,2.46271
161.56667,2000,0,91.24,0.000002697398,0.000002697398,0.000002697398,0.99999994,0,0,0,0,0,0,0,1,0,0,0,false,false,true,-297.68,-2551,17.01,-0.0044426145,-0.0018099541,0.92570883,-0.3782063,-306.851,735.97095,8.331,0,0,2.4588099
161.575,2000,0,91.24,0.000002697398,0.000002697398,0.000002697398,0.99999994,0,0,0,0,0,0,0,1,0,0,0,false,false,true,-300.24,-2544.8699,17.01,-0.0044264304,-0.0018531126,0.9217862,-0.38766885,-302.481,732.77094,8.331,0,0,2.45331
161.58333,2000,0,91.24,0.000002697398,0.000002697398,0.000002697398,0.99999994,0,0,0,0,0,0,0,1,0,0,0,false,false,true,-302.75998,-2538.76,17.01,-0.004404851,-0.0018962709,0.91777486,-0.397072,-298.061,729.65094,8.331,0,0.00010999999,2.44621
161.59166,2000,0,91.24,0.000002697398,0.000002697398,0.000002697398,0.99999994,0,0,0,0,0,0,0,1,0,0,0,false,false,true,-305.24,-2532.68,17.01,-0.004383272,-0.0019394293,0.91368043,-0.40640506,-293.591,726.61096,8.331,0.00010999999,0.00010999999,2.43761
161.6,2000,0,91.24,0.000002697398,0.000002697398,0.000002697398,0.99999994,0,0,0,0,0,0,0,1,0,0,0,false,false,true,-307.69,-2526.6199,17.01,-0.0043616924,-0.0019825874,0.9095062,-0.41566256,-289.081,723.66095,8.331,0.00021,0.00010999999,2.42741
161.60834,2000,0,91.24,0.000002697398,0.000002697398,0.000002697398,0.99999994,0,0,0,0,0,0,0,1,0,0,0,false,false,true,-310.1,-2520.5898,17.01,-0.004340113,-0.0020257458,0.90525615,-0.4248391,-284.54102,720.80096,8.331,0.00030999997,0.00010999999,2.41571
161.61667,2000,0,91.24,0.000002697398,0.000002697398,0.000002697398,0.99999994,0,0,0,0,0,0,0,1,0,0,0,false,false,true,-312.47,-2514.5798,17.01,-0.0043185344,-0.0020689045,0.9009341,-0.43392944,-279.981,718.03094,8.331,0.00030999997,0.00010999999,2.40251
161.625,2000,0,91.24,0.000002697398,0.000002697398,0.000002697398,0.99999994,0,0,0,0,0,0,0,1,0,0,0,false,false,true,-314.8,-2508.5999,17.01,-0.004296955,-0.0021120626,0.89654434,-0.44292793,-275.401,715.36096,8.331,0.00030999997,0.00010999999,2.38791
161.63333,2000,0,91.24,0.000002697398,0.000002697398,0.000002697398,0.99999994,0,0,0,0,0,0,0,1,0,0,0,false,false,true,-317.09,-2502.64,17.01,-0.0042753764,-0.0021552213,0.8920942,-0.45182404,-270.821,712.79095,8.331,0.00030999997,0.00021,2.37181
161.64166,2000,0,91.24,0.000002697398,0.000002697398,0.000002697398,0.99999994,0,0,0,0,0,0,0,1,0,0,0,false,false,true,-319.35,-2496.7,17.01,-0.004253797,-0.0021983793,0.8875857,-0.46061757,-266.241,710.321,8.331,0.00040999998,0.00021,2.35431
161.65,2000,0,91.24,0.000002697398,0.000002697398,0.000002697398,0.99999994,0,0,0,0,0,0,0,1,0,0,0,false,false,true,-321.57,-2490.78,17.01,-0.0042322176,-0.0022415377,0.88302404,-0.4693032,-261.671,707.951,8.331,0.00040999998,0.00021,2.3354099
161.65834,2000,0,91.24,0.000002697398,0.000002697398,0.000002697398,0.99999994,0,0,0,0,0,0,0,1,0,0,0,false,false,true,-323.75,-2484.88,17.01,-0.0042106383,-0.002284696,0.8784144,-0.4778756,-257.121,705.691,8.331,0.00040999998,0.00030999997,2.3152099
161.66667,2000,0,91.24,0.000002697398,0.000002697398,0.000002697398,0.99999994,0,0,0,0,0,0,0,1,0,0,0,false,false,true,-325.88998,-2479,17.01,-0.004189059,-0.0023278545,0.8737624,-0.48632926,-252.601,703.53094,8.331,0.00040999998,0.00030999997,2.2936099
161.675,2000,0,91.24,0.000002697398,0.000002697398,0.000002697398,0.99999994,0,0,0,0,0,0,0,1,0,0,0,false,false,true,-327.99,-2473.14,17.01,-0.0041674795,-0.0023710127,0.86907387,-0.4946588,-248.11101,701.48096,8.331,0.00040999998,0.00030999997,2.27071
161.68333,2000,0,91.24,0.000002697398,0.000002697398,0.000002697398,0.99999994,0,0,0,0,0,0,0,1,0,0,0,false,false,true,-330.06,-2467.29,17.01,-0.0041459007,-0.0024141711,0.8643551,-0.50285894,-243.661,699.53094,8.331,0.00030999997,0.00030999997,2.24651
161.69167,2000,0,91.24,0.000002697398,0.000002697398,0.000002697398,0.99999994,0,0,0,0,0,0,0,1,0,0,0,false,false,true,-332.09,-2461.46,17.01,-0.004124322,-0.002451935,0.8596091,-0.51092964,-239.261,697.68097,8.331,0.00021,0.00030999997,2.22101
161.7,2000,0,91.24,0.000002697398,0.000002697398,0.000002697398,0.99999994,0,0,0,0,0,0,0,1,0,0,0,false,false,true,-334.08,-2455.65,17.01,-0.0041027423,-0.0024896984,0.8548457,-0.51886,-234.921,695.941,8.331,0.00021,0.00040999998,2.19431
161.70833,2000,0,91.24,0.000002697398,0.000002697398,0.000002697398,0.99999994,0,0,0,0,0,0,0,1,0,0,0,false,false,true,-336.03998,-2449.8499,17.01,-0.0040811626,-0.0025274616,0.8500651,-0.52665544,-230.641,694.30096,8.331,0.00021,0.00051,2.16641
161.71666,2000,0,91.24,0.000002697398,0.000002697398,0.000002697398,0.99999994,0,0,0,0,0,0,0,1,0,0,0,false,false,true,-337.96,-2444.06,17.01,-0.004054189,-0.0025652256,0.84527785,-0.53430533,-226.431,692.751,8.331,0.00021,0.00051,2.13731
161.725,2000,0,91.24,0.000002697398,0.000002697398,0.000002697398,0.99999994,0,0,0,0,0,0,0,1,0,0,0,false,false,true,-339.85,-2438.29,17.01,-0.0040272153,-0.002602989,0.84048754,-0.5418095,-222.301,691.30096,8.331,0.00021,0.00051,2.10701
161.73334,2000,0,91.24,0.000002697398,0.000002697398,0.000002697398,0.99999994,0,0,0,0,0,0,0,1,0,0,0,false,false,true,-341.69998,-2432.53,17.01,-0.004000241,-0.0026407526,0.8356981,-0.54916805,-218.251,689.941,8.331,0.00021,0.00051,2.07561
161.74167,2000,0,91.24,0.000002697398,0.000002697398,0.000002697398,0.99999994,0,0,0,0,0,0,0,1,0,0,0,false,false,true,-343.52,-2426.78,17.01,-0.003973267,-0.0026785163,0.83091706,-0.5563755,-214.291,688.67096,8.331,0.00021,0.00051,2.04311
161.75,2000,0,91.24,0.000002697398,0.000002697398,0.000002697398,0.99999994,0,0,0,0,0,0,0,1,0,0,0,false,false,true,-345.31,-2421.04,17.01,-0.003951688,-0.0027162798,0.82615215,-0.56342655,-210.421,687.48096,8.321,0.00021,0.00040999998,2.00951
161.75833,2000,0,91.24,0.000002697398,0.000002697398,0.000002697398,0.99999994,0,0,0,0,0,0,0,1,0,0,0,false,false,true,-347.06,-2415.31,17.01,-0.0039301086,-0.0027486486,0.821404,-0.5703265,-206.651,686.381,8.321,0.00021,0.00040999998,1.97481
161.76666,2000,0,91.24,0.000002697398,0.000002697398,0.000002697398,0.99999994,0,0,0,0,0,0,0,1,0,0,0,false,false,true,-348.78,-2409.5898,17.01,-0.0039085294,-0.0027810175,0.8166843,-0.57706463,-202.981,685.35095,8.321,0.00021,0.00040999998,1.9391099
161.775,2000,0,91.24,0.000002697398,0.000002697398,0.000002697398,0.99999994,0,0,0,0,0,0,0,1,0,0,0,false,false,true,-350.47,-2403.88,17.01,-0.0038869507,-0.0028133863,0.81199366,-0.58364636,-199.421,684.40094,8.321,0.00021,0.00040999998,1.9024099
161.78334,2000,0,91.24,0.000002697398,0.000002697398,0.000002697398,0.99999994,0,0,0,0,0,0,0,1,0,0,0,false,false,true,-352.13,-2398.18,17.01,-0.0038653717,-0.002845755,0.8073405,-0.59006625,-195.961,683.52094,8.321,0.00010999999,0.00040999998,1.86471
161.79167,2000,0,91.24,0.000002697398,0.000002697398,0.000002697398,0.99999994,0,0,0,0,0,0,0,1,0,0,0,false,false,true,-353.75998,-2392.48,17.01,-0.0038437922,-0.0028781237,0.8027333,-0.5963187,-192.621,682.701,8.321,0.00010999999,0.00040999998,1.82611
161.8,2000,0,91.24,0.000002697398,0.000002697398,0.000002697398,0.99999994,0,0,0,0,0,0,0,1,0,0,0,false,false,true,-355.37,-2386.79,17.01,-0.003822213,-0.0029104925,0.79817265,-0.6024095,-189.391,681.951,8.321,0,0.00040999998,1.78661
161.80833,2000,0,91.24,0.000002697398,0.000002697398,0.000002697398,0.99999994,0,0,0,0,0,0,0,1,0,0,0,false,false,true,-356.94998,-2381.1099,17.01,-0.003800634,-0.0029374666,0.7936673,-0.60833305,-186.281,681.251,8.321,0,0.00040999998,1.74621
161.81667,2000,0,91.24,0.000002697398,0.000002697398,0.000002697398,0.99999994,0,0,0,0,0,0,0,1,0,0,0,false,false,true,-358.5,-2375.43,17.01,-0.0037790546,-0.0029644405,0.7892218,-0.6140893,-183.281,680.61096,8.321,0,0.00040999998,1.7050099
161.825,2000,0,91.24,0.000002697398,0.000002697398,0.000002697398,0.99999994,0,0,0,0,0,0,0,1,0,0,0,false,false,true,-360.03,-2369.76,17.01,-0.0037574759,-0.0029914146,0.7848411,-0.6196784,-180.401,680.011,8.321,0,0.00051,1.66301
161.83333,2000,0,91.24,0.000002697398,0.000002697398,0.000002697398,0.99999994,0,0,0,0,0,0,0,1,0,0,0,false,false,true,-361.53,-2364.0898,17.01,-0.0037358964,-0.0030183885,0.7805297,-0.62510014,-177.641,679.46094,8.321,0,0.00051,1.6202099
161.84166,2000,0,91.24,0.000002697398,0.000002697398,0.000002697398,0.99999994,0,0,0,0,0,0,0,1,0,0,0,false,false,true,-363.00998,-2358.43,17.01,-0.0037143172,-0.0030453624,0.7762923,-0.63035464,-175.001,678.951,8.321,0,0.00051,1.57671
161.85,2000,0,91.24,0.000002697398,0.000002697398,0.000002697398,0.99999994,0,0,0,0,0,0,0,1,0,0,0,false,false,true,-364.47,-2352.77,17.01,-0.003692738,-0.0030723363,0.7721336,-0.63544196,-172.481,678.48096,8.321,0,0.00051,1.5325099
161.85834,2000,0,91.24,0.000002697398,0.000002697398,0.000002697398,0.99999994,0,0,0,0,0,0,0,1,0,0,0,false,false,true,-365.91,-2347.1199,17.01,-0.0036711588,-0.0030993104,0.7680581,-0.640362,-170.08101,678.04095,8.321,0,0.00051,1.48771
161.86667,2000,0,91.24,0.000002697398,0.000002697398,0.000002697398,0.99999994,0,0,0,0,0,0,0,1,0,0,0,false,false,true,-367.33,-2341.47,17.01,-0.0036495796,-0.0031208897,0.764075,-0.6451095,-167.80101,677.631,8.321,0,0.00051,1.44231
161.875,2000,0,91.24,0.000002697398,0.000002697398,0.000002697398,0.99999994,0,0,0,0,0,0,0,1,0,0,0,false,false,true,-368.72998,-2335.82,17.01,-0.0036280004,-0.0031424686,0.7601842,-0.6496897,-165.631,677.251,8.321,0,0.00051,1.39641
161.88333,2000,0,91.24,0.000002697398,0.000002697398,0.000002697398,0.99999994,0,0,0,0,0,0,0,1,0,0,0,false,false,true,-370.11,-2330.18,17.01,-0.0036064212,-0.0031640478,0.7563905,-0.6541026,-163.571,676.891,8.321,0,0.00040999998,1.35021
161.89166,2000,0,91.24,0.000002697398,0.000002697398,0.000002697398,0.99999994,0,0,0,0,0,0,0,1,0,0,0,false,false,true,-371.47,-2324.54,17.01,-0.003584842,-0.003185627,0.75269794,-0.6583484,-161.621,676.55096,8.311,0,0.00040999998,1.30371
161.9,2000,0,91.24,0.000002697398,0.000002697398,0.000002697398,0.99999994,0,0,0,0,0,0,0,1,0,0,0,false,false,true,-372.81998,-2318.9,17.01,-0.003568658,-0.0032072065,0.7491112,-0.6624269,-159.771,676.23096,8.311,0,0.00030999997,1.25691
161.90834,2000,0,91.24,0.000002697398,0.000002697398,0.000002697398,0.99999994,0,0,0,0,0,0,0,1,0,0,0,false,false,true,-374.15,-2313.26,17.01,-0.0035524734,-0.0032287855,0.7456294,-0.66634345,-158.021,675.93097,8.311,0,0.00030999997,1.2100099
161.91667,2000,0,91.24,0.000002697398,0.000002697398,0.000002697398,0.99999994,0,0,0,0,0,0,0,1,0,0,0,false,false,true,-375.47,-2307.63,17.01,-0.003536289,-0.00324497,0.74226165,-0.67009294,-156.371,675.641,8.311,0,0.00030999997,1.16301
161.925,2000,0,91.24,0.000002697398,0.000002697398,0.000002697398,0.99999994,0,0,0,0,0,0,0,1,0,0,0,false,false,true,-376.77,-2302,17.01,-0.0035201046,-0.0032611543,0.7390071,-0.6736804,-154.811,675.36096,8.311,0,0.00030999997,1.11601
161.93333,2000,0,91.24,0.000002697398,0.000002697398,0.000002697398,0.99999994,0,0,0,0,0,0,0,1,0,0,0,false,false,true,-378.06,-2296.3699,17.01,-0.00350392,-0.0032773386,0.7358647,-0.6771115,-153.341,675.09094,8.311,0,0.00030999997,1.06911
161.94167,2000,0,91.24,0.000002697398,0.000002697398,0.000002697398,0.99999994,0,0,0,0,0,0,0,1,0,0,0,false,false,true,-379.34,-2290.74,17.01,-0.0034877358,-0.003293523,0.7328429,-0.6803808,-151.951,674.83093,8.311,0,0.00030999997,1.02231
161.95,2000,0,91.24,0.000002697398,0.000002697398,0.000002697398,0.99999994,0,0,0,0,0,0,0,1,0,0,0,false,false,true,-380.61,-2285.1199,17.01,-0.0034715512,-0.0033097074,0.72994065,-0.6834936,-150.651,674.58093,8.311,0,0.00021,0.97571
161.95833,2000,0,91.24,0.000002697398,0.000002697398,0.000002697398,0.99999994,0,0,0,0,0,0,0,1,0,0,0,false,false,true,-381.87,-2279.5,17.01,-0.003455367,-0.003325892,0.727156,-0.68645537,-149.421,674.33093,8.311,0,0.00021,0.92930996
161.96666,2000,0,91.24,0.000002697398,0.000002697398,0.000002697398,0.99999994,0,0,0,0,0,0,0,1,0,0,0,false,false,true,-383.12,-2273.88,17.01,-0.0034391822,-0.0033420757,0.7244924,-0.68926597,-148.27101,674.09094,8.311,0,0.00010999999,0.88311
161.975,2000,0,91.24,0.000002697398,0.000002697398,0.000002697398,0.99999994,0,0,0,0,0,0,0,1,0,0,0,false,false,true,-384.36,-2268.26,17.01,-0.003428393,-0.0033528658,0.7219527,-0.6919257,-147.19101,673.85095,8.311,0,0,0.83721
161.98334,2000,0,91.24,0.000002697398,0.000002697398,0.000002697398,0.99999994,0,0,0,0,0,0,0,1,0,0,0,false,false,true,-385.59,-2262.64,17.01,-0.0034176034,-0.0033636554,0.7195348,-0.6944397,-146.181,673.621,8.311,0,0,0.79161
161.99167,2000,0,91.24,0.000002697398,0.000002697398,0.000002697398,0.99999994,0,0,0,0,0,0,0,1,0,0,0,false,false,true,-386.81,-2257.03,17.01,-0.003406814,-0.0033744453,0.7172416,-0.69680804,-145.231,673.391,8.311,0,0,0.74631
162,2000,0,91.24,0.000002697398,0.000002697398,0.000002697398,0.99999994,0,0,0,0,0,0,0,1,0,0,0,false,false,true,-388.02,-2251.42,17.01,-0.0033960238,-0.0033852342,0.71507025,-0.699036,-144.341,673.16095,8.311,0,0,0.70141
162.00833,2000,0,91.24,0.000002697398,0.000002697398,0.000002697398,0.99999994,0,0,0,0,0,0,0,1,0,0,0,false,false,true,-389.22,-2245.81,17.01,-0.0033852346,-0.0033960242,0.7130233,-0.70112383,-143.511,672.93097,8.311,0,0,0.65691
162.01666,2000,0,91.24,0.000002697398,0.000002697398,0.000002697398,0.99999994,0,0,0,0,0,0,0,1,0,0,0,false,false,true,-390.41998,-2240.2,17.01,-0.003374445,-0.0034068138,0.71110296,-0.7030714,-142.731,672.701,8.311,0,0,0.61271
162.025,2000,0,91.24,0.000002697398,0.000002697398,0.000002697398,0.99999994,0,0,0,0,0,0,0,1,0,0,0,false,false,true,-391.61,-2234.5898,17.01,-0.0033636554,-0.0034176034,0.70930624,-0.70488405,-142.001,672.47095,8.311,0,0,0.56901
162.03334,2000,0,91.24,0.000002697398,0.000002697398,0.000002697398,0.99999994,0,0,0,0,0,0,0,1,0,0,0,false,false,true,-392.78998,-2228.99,17.01,-0.003352866,-0.0034229984,0.7076349,-0.7065619,-141.321,672.24097,8.311,0,0,0.52571
162.04167,2000,0,91.24,0.000002697398,0.000002697398,0.000002697398,0.99999994,0,0,0,0,0,0,0,1,0,0,0,false,false,true,-393.97,-2223.39,17.01,0.003347471,0.003428393,-0.7060871,0.70810866,-140.681,672.011,8.311,0,0,0.48281
162.05,2000,0,91.24,0.000002697398,0.000002697398,0.000002697398,0.99999994,0,0,0,0,0,0,0,1,0,0,0,false,false,true,-395.13998,-2217.79,17.01,0.0033420762,0.0034337877,-0.70466286,0.709526,-140.08101,671.78094,8.311,0,0,0.44041
162.05833,2000,0,91.24,0.000002697398,0.000002697398,0.000002697398,0.99999994,0,0,0,0,0,0,0,1,0,0,0,false,false,true,-396.31,-2212.19,17.01,0.0033366815,0.0034391826,-0.70335734,0.7108202,-139.52101,671.55096,8.311,0,0,0.39841
162.06667,2000,0,91.24,0.000002697398,0.000002697398,0.000002697398,0.99999994,0,0,0,0,0,0,0,1,0,0,0,false,false,true,-397.47,-2206.5898,17.01,0.0033312866,0.0034445773,-0.70217586,0.7119873,-138.991,671.321,8.311,0,0,0.35691
162.075,2000,0,91.24,0.000002697398,0.000002697398,0.000002697398,0.99999994,0,0,0,0,0,0,0,1,0,0,0,false,false,true,-398.63,-2201,17.01,0.003325892,0.0034499723,-0.70111847,0.71302855,-138.491,671.09094,8.311,0,0,0.31581
162.08333,2000,0,91.24,0.000002697398,0.000002697398,0.000002697398,0.99999994,0,0,0,0,0,0,0,1,0,0,0,false,false,true,-399.78,-2195.41,17.01,0.003320497,0.003455367,-0.70017976,0.7139504,-138.02101,670.86096,8.311,0,0,0.27521
162.09166,2000,0,91.24,0.000002697398,0.000002697398,0.000002697398,0.99999994,0,0,0,0,0,0,0,1,0,0,0,false,false,true,-400.93,-2189.82,17.01,0.0033151023,0.0034607616,-0.6993597,0.7147537,-137.571,670.631,8.311,0,0,0.23511
162.1,2000,0,91.24,0.000002697398,0.000002697398,0.000002697398,0.99999994,0,0,0,0,0,0,0,1,0,0,0,false,false,true,-402.08,-2184.23,17.01,0.0033097074,0.0034661565,-0.6986584,0.7154392,-137.151,670.40094,8.311,0,0,0.19551
162.10834,2000,0,91.24,0.000002697398,0.000002697398,0.000002697398,0.99999994,0,0,0,0,0,0,0,1,0,0,0,false,false,true,-403.22,-2178.64,17.01,0.0033043122,0.0034715508,-0.6980757,0.7160077,-136.741,670.17096,8.311,0,0,0.15630999
162.11667,2000,0,91.24,0.000002697398,0.000002697398,0.000002697398,0.99999994,0,0,0,0,0,0,0,1,0,0,0,false,false,true,-404.36,-2173.06,17.01,0.0033043127,0.0034715512,-0.69760644,0.71646506,-136.351,669.951,8.311,0,-0.00010999999,0.11760999
162.125,2000,0,91.24,0.000002697398,0.000002697398,0.000002697398,0.99999994,0,0,0,0,0,0,0,1,0,0,0,false,false,true,-405.5,-2167.48,17.01,0.0033043127,0.0034715512,-0.6972558,0.7168063,-135.97101,669.73096,8.311,0,-0.00010999999,0.079409994
162.13333,2000,0,91.24,0.000002697398,0.000002697398,0.000002697398,0.99999994,0,0,0,0,0,0,0,1,0,0,0,false,false,true,-406.63,-2161.9,17.01,0.0033043127,0.0034715512,-0.6970184,0.71703714,-135.601,669.511,8.311,0,-0.00010999999,0.041709997
162.14166,2000,0,91.24,0.000002697398,0.000002697398,0.000002697398,0.99999994,0,0,0,0,0,0,0,1,0,0,0,false,false,true,-407.75998,-2156.32,17.01,0.0033043127,0.0034715512,-0.6968943,0.7171577,-135.241,669.29095,8.311,0,-0.00010999999,0.00441
162.15,2000,0,91.24,0.000002697398,0.000002697398,0.000002697398,0.99999994,0,0,0,0,0,0,0,1,0,0,0,false,false,true,-408.88998,-2150.74,17.01,0.0033043127,0.0034715512,-0.6968835,0.7171683,-134.881,669.071,8.311,0,-0.00010999999,-0.032309998
162.15834,2000,0,91.24,0.000002697398,0.000002697398,0.000002697398,0.99999994,0,0,0,0,0,0,0,1,0,0,0,false,false,true,-410.00998,-2145.16,17.01,0.0033043122,0.0034715508,-0.6969806,0.7170738,-134.52101,668.86096,8.311,0,-0.00010999999,-0.068509996
162.16667,2000,0,91.24,0.000002697398,0.000002697398,0.000002697398,0.99999994,0,0,0,0,0,0,0,1,0,0,0,false,false,true,-411.13,-2139.5898,17.01,0.0033043122,0.0034715508,-0.6971856,0.7168745,-134.16101,668.65094,8.311,0,-0.00010999999,-0.10431
162.175,2000,0,91.24,0.000002697398,0.000002697398,0.000002697398,0.99999994,0,0,0,0,0,0,0,1,0,0,0,false,false,true,-412.25,-2134.02,17.01,0.0033043127,0.0034715512,-0.69749856,0.7165701,-133.80101,668.441,8.311,0,-0.00010999999,-0.13960999
162.18333,2000,0,91.24,0.000002697398,0.000002697398,0.000002697398,0.99999994,0,0,0,0,0,0,0,1,0,0,0,false,false,true,-413.36,-2128.45,17.01,0.0033043127,0.0034715512,-0.69791394,0.7161655,-133.431,668.24097,8.311,0,-0.00010999999,-0.17441
162.19167,2000,0,91.24,0.000002697398,0.000002697398,0.000002697398,0.99999994,0,0,0,0,0,0,0,1,0,0,0,false,false,true,-414.47,-2122.88,17.01,0.0033097076,0.0034715515,-0.6984319,0.7156604,-133.05101,668.04095,8.311,0,-0.00021,-0.20880999
162.2,2000,0,91.24,0.000002697398,0.000002697398,0.000002697398,0.99999994,0,0,0,0,0,0,0,1,0,0,0,false,false,true,-415.58,-2117.31,17.01,0.0033151023,0.0034661565,-0.6990522,0.71505445,-132.66101,667.85095,8.311,0,-0.00021,-0.24271
162.20833,2000,0,91.24,0.000002697398,0.000002697398,0.000002697398,0.99999994,0,0,0,0,0,0,0,1,0,0,0,false,false,true,-416.69,-2111.74,17.01,0.003320497,0.0034607616,-0.69977516,0.71434695,-132.261,667.66095,8.311,0,-0.00021,-0.27621
162.21666,2000,0,91.24,0.000002697398,0.000002697398,0.000002697398,0.99999994,0,0,0,0,0,0,0,1,0,0,0,false,false,true,-417.78998,-2106.18,17.01,0.003325892,0.003455367,-0.70059514,0.71354276,-131.841,667.48096,8.311,0,-0.00021,-0.30921
162.225,2000,0,91.24,0.000002697398,0.000002697398,0.000002697398,0.99999994,0,0,0,0,0,0,0,1,0,0,0,false,false,true,-418.88998,-2100.6199,17.01,0.0033312866,0.0034499723,-0.7015123,0.7126411,-131.401,667.30096,8.311,0,-0.00021,-0.34171
162.23334,2000,0,91.24,0.000002697398,0.000002697398,0.000002697398,0.99999994,0,0,0,0,0,0,0,1,0,0,0,false,false,true,-419.97998,-2095.06,17.01,0.0033366815,0.0034445773,-0.7025265,0.71164125,-130.94101,667.131,8.311,0,-0.00021,-0.37381
162.24167,2000,0,91.24,0.000002697398,0.000002697398,0.000002697398,0.99999994,0,0,0,0,0,0,0,1,0,0,0,false,false,true,-421.06998,-2089.5,17.01,0.0033420762,0.0034391826,-0.7036325,0.7105478,-130.461,666.96094,8.311,0,-0.00021,-0.40541
162.25,2000,0,91.24,0.000002697398,0.000002697398,0.000002697398,0.99999994,0,0,0,0,0,0,0,1,0,0,0,false,false,true,-422.16,-2083.94,17.01,0.003347471,0.0034337877,-0.7048301,0.7093598,-129.951,666.80096,8.311,0,-0.00021,-0.43651
162.25833,2000,0,91.24,0.000002697398,0.000002697398,0.000002697398,0.99999994,0,0,0,0,0,0,0,1,0,0,0,false,false,true,-423.24,-2078.38,17.01,0.0033528658,0.003428393,-0.7061195,0.70807636,-129.41101,666.641,8.311,0,-0.00021,-0.46721
162.26666,2000,0,91.24,0.000002697398,0.000002697398,0.000002697398,0.99999994,0,0,0,0,0,0,0,1,0,0,0,false,false,true,-424.31998,-2072.82,17.01,-0.0033582605,-0.0034229981,0.70749485,-0.7067021,-128.841,666.49097,8.311,0,-0.00021,-0.49741
162.275,2000,0,91.24,0.000002697398,0.000002697398,0.000002697398,0.99999994,0,0,0,0,0,0,0,1,0,0,0,false,false,true,-425.38998,-2067.27,17.01,-0.0033636554,-0.0034176034,0.70895755,-0.7052347,-128.241,666.34094,8.311,0,-0.00021,-0.52711
162.28334,2000,0,91.24,0.000002697398,0.000002697398,0.000002697398,0.99999994,0,0,0,0,0,0,0,1,0,0,0,false,false,true,-426.46,-2061.72,17.01,-0.0033744453,-0.0034122088,0.71050507,-0.7036757,-127.611,666.201,8.311,0,-0.00021,-0.55631
162.29167,2000,0,91.24,0.000002697398,0.000002697398,0.000002697398,0.99999994,0,0,0,0,0,0,0,1,0,0,0,false,false,true,-427.52,-2056.17,17.01,-0.0033852346,-0.003401419,0.7121362,-0.7020248,-126.940994,666.061,8.311,0,-0.00021,-0.58511
162.3,2000,0,91.24,0.000002697398,0.000002697398,0.000002697398,0.99999994,0,0,0,0,0,0,0,1,0,0,0,false,false,true,-428.58,-2050.6199,17.01,-0.0033960242,-0.0033906293,0.7138446,-0.70028764,-126.241,665.93097,8.311,0,-0.00021,-0.61341
162.30833,2000,0,91.24,0.000002697398,0.000002697398,0.000002697398,0.99999994,0,0,0,0,0,0,0,1,0,0,0,false,false,true,-429.63,-2045.07,17.01,-0.003406814,-0.00337984,0.7156341,-0.69845885,-125.501,665.80096,8.311,0,-0.00021,-0.64121
162.31667,2000,0,91.24,0.000002697398,0.000002697398,0.000002697398,0.99999994,0,0,0,0,0,0,0,1,0,0,0,false,false,true,-430.68,-2039.5199,17.01,-0.0034176034,-0.00336905,0.7174983,-0.69654363,-124.711,665.68097,8.311,0,-0.00010999999,-0.66851
162.325,2000,0,91.24,0.000002697398,0.000002697398,0.000002697398,0.99999994,0,0,0,0,0,0,0,1,0,0,0,false,false,true,-431.72,-2033.97,17.01,-0.003428393,-0.0033582605,0.7194359,-0.69454217,-123.881,665.561,8.311,0,-0.00010999999,-0.69531
162.33333,2000,0,91.24,0.000002697398,0.000002697398,0.000002697398,0.99999994,0,0,0,0,0,0,0,1,0,0,0,false,false,true,-432.75,-2028.4199,17.01,-0.0034391826,-0.003347471,0.7214456,-0.6924544,-123.010994,665.441,8.311,0,-0.00010999999,-0.72161
162.34166,2000,0,91.24,0.000002697398,0.000002697398,0.000002697398,0.99999994,0,0,0,0,0,0,0,1,0,0,0,false,false,true,-433.78,-2022.87,17.01,-0.0034499723,-0.0033366815,0.72352606,-0.69028026,-122.090996,665.33093,8.311,0,-0.00010999999,-0.74741
162.35,2000,0,91.24,0.000002697398,0.000002697398,0.000002697398,0.99999994,0,0,0,0,0,0,0,1,0,0,0,false,false,true,-434.8,-2017.33,17.01,-0.0034607616,-0.003325892,0.72567075,-0.68802524,-121.120995,665.22095,8.311,0,0,-0.77261
162.35834,2000,0,91.24,0.000002697398,0.000002697398,0.000002697398,0.99999994,0,0,0,0,0,0,0,1,0,0,0,false,false,true,-435.81,-2011.7899,17.01,-0.0034715512,-0.0033151023,0.7278835,-0.6856839,-120.101,665.11096,8.311,0,0,-0.79731
162.36667,2000,0,91.24,0.000002697398,0.000002697398,0.000002697398,0.99999994,0,0,0,0,0,0,0,1,0,0,0,false,false,true,-436.81,-2006.25,17.01,-0.0034823408,-0.0033043127,0.7301578,-0.68326163,-119.031,665.001,8.311,0,0,-0.82141
162.375,2000,0,91.24,0.000002697398,0.000002697398,0.000002697398,0.99999994,0,0,0,0,0,0,0,1,0,0,0,false,false,true,-437.8,-2000.71,17.01,-0.0034931304,-0.003293523,0.73249215,-0.6807584,-117.910995,664.891,8.311,0,0,-0.84501
162.38333,2000,0,91.24,0.000002697398,0.000002697398,0.000002697398,0.99999994,0,0,0,0,0,0,0,1,0,0,0,false,false,true,-438.78,-1995.1699,17.01,-0.00350392,-0.0032827335,0.7348853,-0.6781743,-116.741,664.78094,8.311,0,0,-0.86801
162.39166,2000,0,91.24,0.000002697398,0.000002697398,0.000002697398,0.99999994,0,0,0,0,0,0,0,1,0,0,0,false,false,true,-439.75,-1989.63,17.01,-0.0035147096,-0.003271944,0.73733574,-0.6755093,-115.510994,664.67096,8.311,0,0,-0.89050996
162.4,2000,0,91.24,0.000002697398,0.000002697398,0.000002697398,0.99999994,0,0,0,0,0,0,0,1,0,0,0,false,false,true,-440.71,-1984.09,17.01,-0.0035254993,-0.0032611543,0.73983717,-0.6727687,-114.230995,664.55096,8.311,0,-0.00010999999,-0.91240996
162.40834,2000,0,91.24,0.000002697398,0.000002697398,0.000002697398,0.99999994,0,0,0,0,0,0,0,1,0,0,0,false,false,true,-441.66,-1978.5499,17.01,-0.003536289,-0.00324497,0.74238825,-0.6699527,-112.891,664.43097,8.311,0,-0.00021,-0.93371
162.41667,2000,0,91.24,0.000002697398,0.000002697398,0.000002697398,0.99999994,0,0,0,0,0,0,0,1,0,0,0,false,false,true,-442.59998,-1973.01,17.01,-0.0035470785,-0.0032287855,0.74498755,-0.667061,-111.501,664.311,8.311,0,-0.00021,-0.95451
162.425,2000,0,91.24,0.000002697398,0.000002697398,0.000002697398,0.99999994,0,0,0,0,0,0,0,1,0,0,0,false,false,true,-443.53,-1967.47,17.01,-0.003557868,-0.0032126012,0.74763376,-0.66409385,-110.050995,664.18097,8.311,0,-0.00021,-0.97471
162.43333,2000,0,91.24,0.000002697398,0.000002697398,0.000002697398,0.99999994,0,0,0,0,0,0,0,1,0,0,0,false,false,true,-444.44998,-1961.9299,17.01,-0.0035740524,-0.0031964167,0.75032544,-0.66105115,-108.550995,664.04095,8.311,0,-0.00021,-0.99441
162.44167,2000,0,91.24,0.000002697398,0.000002697398,0.000002697398,0.99999994,0,0,0,0,0,0,0,1,0,0,0,false,false,true,-445.34998,-1956.3999,17.01,-0.003590237,-0.0031802324,0.7530564,-0.65793836,-106.991,663.891,8.311,0,-0.00021,-1.01361
162.45,2000,0,91.24,0.000002697398,0.000002697398,0.000002697398,0.99999994,0,0,0,0,0,0,0,1,0,0,0,false,false,true,-446.24,-1950.87,17.01,-0.0036064212,-0.0031640478,0.7558302,-0.65475,-105.370995,663.73096,8.311,0,-0.00021,-1.03231
162.45833,2000,0,91.24,0.000002697398,0.000002697398,0.000002697398,0.99999994,0,0,0,0,0,0,0,1,0,0,0,false,false,true,-447.12,-1945.34,17.01,-0.0036226057,-0.0031478636,0.75864065,-0.6514915,-103.701,663.561,8.311,0,-0.00021,-1.0505099
162.46666,2000,0,91.24,0.000002697398,0.000002697398,0.000002697398,0.99999994,0,0,0,0,0,0,0,1,0,0,0,false,false,true,-447.97998,-1939.8099,17.01,-0.00363879,-0.0031316793,0.7614864,-0.64816296,-101.971,663.381,8.311,0,-0.00010999999,-1.06821
162.475,2000,0,91.24,0.000002697398,0.000002697398,0.000002697398,0.99999994,0,0,0,0,0,0,0,1,0,0,0,false,false,true,-448.83,-1934.2799,17.01,-0.0036549745,-0.0031154947,0.7643618,-0.6447696,-100.190994,663.191,8.311,0,-0.00010999999,-1.08541
162.48334,2000,0,91.24,0.000002697398,0.000002697398,0.000002697398,0.99999994,0,0,0,0,0,0,0,1,0,0,0,false,false,true,-449.66,-1928.75,17.01,-0.003671159,-0.0030993107,0.76727,-0.64130616,-98.351,662.98096,8.311,0,-0.00010999999,-1.10211
162.49167,2000,0,91.24,0.000002697398,0.000002697398,0.000002697398,0.99999994,0,0,0,0,0,0,0,1,0,0,0,false,false,true,-450.47998,-1923.23,17.01,-0.003687343,-0.003083126,0.7702052,-0.6377779,-96.461,662.761,8.311,0,0,-1.11831
162.5,2000,0,91.24,0.000002697398,0.000002697398,0.000002697398,0.99999994,0,0,0,0,0,0,0,1,0,0,0,false,false,true,-451.28,-1917.71,17.01,-0.0037035276,-0.0030669416,0.77317077,-0.63417953,-94.520996,662.52094,8.311,0,0,-1.13411
162.50833,2000,0,91.24,0.000002697398,0.000002697398,0.000002697398,0.99999994,0,0,0,0,0,0,0,1,0,0,0,false,false,true,-452.06998,-1912.19,17.01,-0.003719712,-0.003050757,0.7761609,-0.63051647,-92.520996,662.261,8.311,-0.00010999999,0,-1.14941
162.51666,2000,0,91.24,0.000002697398,0.000002697398,0.000002697398,0.99999994,0,0,0,0,0,0,0,1,0,0,0,false,false,true,-452.84,-1906.6699,17.01,-0.003735896,-0.0030345726,0.7791699,-0.62679404,-90.471,661.98096,8.311,-0.00021,0,-1.16431
162.525,2000,0,91.24,0.000002697398,0.000002697398,0.000002697398,0.99999994,0,0,0,0,0,0,0,1,0,0,0,false,false,true,-453.59,-1901.1499,17.01,-0.003752081,-0.0030183888,0.78220147,-0.62300694,-88.370995,661.68097,8.311,-0.00021,0,-1.17871
162.53334,2000,0,91.24,0.000002697398,0.000002697398,0.000002697398,0.99999994,0,0,0,0,0,0,0,1,0,0,0,false,false,true,-454.33,-1895.64,17.01,-0.0037682652,-0.0029968093,0.78525394,-0.619155,-86.221,661.35095,8.311,-0.00030999997,0,-1.19271
162.54167,2000,0,91.24,0.000002697398,0.000002697398,0.000002697398,0.99999994,0,0,0,0,0,0,0,1,0,0,0,false,false,true,-455.05,-1890.13,17.01,-0.0037844495,-0.00297523,0.7883221,-0.6152438,-84.020996,661.001,8.311,-0.00030999997,0,-1.20631
162.55,2000,0,91.24,0.000002697398,0.000002697398,0.000002697398,0.99999994,0,0,0,0,0,0,0,1,0,0,0,false,false,true,-455.75,-1884.62,17.01,-0.0038006338,-0.002953651,0.79140496,-0.61127317,-81.770996,660.631,8.311,-0.00030999997,0,-1.21951
162.55833,2000,0,91.24,0.000002697398,0.000002697398,0.000002697398,0.99999994,0,0,0,0,0,0,0,1,0,0,0,false,false,true,-456.43,-1879.11,17.01,-0.0038168184,-0.0029320717,0.7945013,-0.60724324,-79.471,660.23096,8.311,-0.00030999997,0,-1.2323099
162.56667,2000,0,91.24,0.000002697398,0.000002697398,0.000002697398,0.99999994,0,0,0,0,0,0,0,1,0,0,0,false,false,true,-457.09,-1873.61,17.01,-0.0038330022,-0.0029104922,0.79761016,-0.6031539,-77.120995,659.80096,8.311,-0.00030999997,0,-1.24471
162.575,2000,0,91.24,0.000002697398,0.000002697398,0.000002697398,0.99999994,0,0,0,0,0,0,0,1,0,0,0,false,false,true,-457.72998,-1868.11,17.01,-0.0038491872,-0.0028889133,0.8007264,-0.59901077,-74.721,659.34094,8.311,-0.00030999997,0,-1.2567099
162.58333,2000,0,91.24,0.000002697398,0.000002697398,0.000002697398,0.99999994,0,0,0,0,0,0,0,1,0,0,0,false,false,true,-458.34998,-1862.62,17.01,-0.0038653715,-0.002867334,0.8038531,-0.5948082,-72.281,658.85095,8.311,-0.00030999997,0,-1.26831
162.59166,2000,0,91.24,0.000002697398,0.000002697398,0.000002697398,0.99999994,0,0,0,0,0,0,0,1,0,0,0,false,false,true,-458.94998,-1857.13,17.01,-0.0038815557,-0.0028457548,0.8069853,-0.59055173,-69.791,658.33093,8.311,-0.00021,0,-1.27951
162.6,2000,0,91.24,0.000002697398,0.000002697398,0.000002697398,0.99999994,0,0,0,0,0,0,0,1,0,0,0,false,false,true,-459.53,-1851.64,17.01,-0.0038977403,-0.0028241756,0.81012213,-0.58624125,-67.261,657.78094,8.311,-0.00021,0.00010999999,-1.29031
162.60834,2000,0,91.24,0.000002697398,0.000002697398,0.000002697398,0.99999994,0,0,0,0,0,0,0,1,0,0,0,false,false,true,-460.09,-1846.1599,17.01,-0.0039139246,-0.0028025967,0.8132626,-0.5818768,-64.690994,657.201,8.311,-0.00021,0.00010999999,-1.30071
162.61667,2000,0,91.24,0.000002697398,0.000002697398,0.000002697398,0.99999994,0,0,0,0,0,0,0,1,0,0,0,false,false,true,-460.63,-1840.6799,17.01,-0.0039301086,-0.0027810175,0.8164058,-0.57745844,-62.080997,656.58093,8.311,-0.00021,0.00010999999,-1.31081
162.625,2000,0,91.24,0.000002697398,0.000002697398,0.000002697398,0.99999994,0,0,0,0,0,0,0,1,0,0,0,false,false,true,-461.15,-1835.21,17.01,-0.003946293,-0.0027594382,0.81954706,-0.57299155,-59.431,655.93097,8.311,-0.00021,0.00021,-1.32051
162.63333,2000,0,91.24,0.000002697398,0.000002697398,0.000002697398,0.99999994,0,0,0,0,0,0,0,1,0,0,0,false,false,true,-461.65,-1829.74,17.01,-0.003962478,-0.0027378593,0.8226856,-0.5684762,-56.740997,655.24097,8.311,-0.00021,0.00021,-1.3299099
162.64166,2000,0,91.24,0.000002697398,0.000002697398,0.000002697398,0.99999994,0,0,0,0,0,0,0,1,0,0,0,false,false,true,-462.12,-1824.2799,17.01,-0.003978662,-0.0027162798,0.8258244,-0.56390667,-54.010998,654.511,8.311,-0.00021,0.00021,-1.33891
162.65,2000,0,91.24,0.000002697398,0.000002697398,0.000002697398,0.99999994,0,0,0,0,0,0,0,1,0,0,0,false,false,true,-462.56998,-1818.83,17.01,-0.0039948463,-0.0026947006,0.82895887,-0.5592887,-51.251,653.74097,8.311,-0.00021,0.00021,-1.34761
162.65834,2000,0,91.24,0.000002697398,0.000002697398,0.000002697398,0.99999994,0,0,0,0,0,0,0,1,0,0,0,false,false,true,-463,-1813.38,17.01,-0.004011031,-0.0026731214,0.83208466,-0.5546276,-48.451,652.93097,8.311,-0.00021,0.00021,-1.35591
162.66667,2000,0,91.24,0.000002697398,0.000002697398,0.000002697398,0.99999994,0,0,0,0,0,0,0,1,0,0,0,false,false,true,-463.4,-1807.94,17.01,-0.004027215,-0.002651542,0.8352046,-0.5499179,-45.621,652.08093,8.311,-0.00021,0.00021,-1.36391
