time,ball_loc_x,ball_loc_y,ball_loc_z,ball_rot_x,ball_rot_y,ball_rot_z,ball_rot_w,ball_vel_x,ball_vel_y,ball_vel_z,ball_ang_x,ball_ang_y,ball_ang_z,player0_throttle,player0_steer,player0_pitch,player0_yaw,player0_roll,player0_jump,player0_boost,player0_handbrake,player0_loc_x,player0_loc_y,player0_loc_z,player0_rot_x,player0_rot_y,player0_rot_z,player0_rot_w,player0_vel_x,player0_vel_y,player0_vel_z,player0_ang_x,player0_ang_y,player0_ang_z
288.65833,2000,0,91.24,0.000002697398,0.000002697398,0.000002697398,0.99999994,0,0,0,0,0,0,1,0,0,0,0,false,true,false,0,-2682.6199,16.99,-0.00336905,0.003374445,0.70711225,0.70708513,-0.040999997,2299.981,8.401,-0.00061,0,0
288.66666,2000,0,91.24,0.000002697398,0.000002697398,0.000002697398,0.99999994,0,0,0,0,0,0,0,1,0,0,0,false,false,true,0,-2663.45,16.99,-0.00336905,0.003374445,0.70711225,0.70708513,-10.561,2299.281,8.461,-0.00061,0.00271,0.29321
288.675,2000,0,91.24,0.000002697398,0.000002697398,0.000002697398,0.99999994,0,0,0,0,0,0,0,1,0,0,0,false,false,true,-0.089999996,-2644.29,16.99,-0.00336905,0.0033798397,0.7079743,0.70622194,-19.960999,2298.6309,8.491,-0.00061,0.00391,0.53391
288.68332,2000,0,91.24,0.000002697398,0.000002697398,0.000002697398,0.99999994,0,0,0,0,0,0,0,1,0,0,0,false,false,true,-0.26,-2625.13,16.99,-0.00336905,0.0033852346,0.70954216,0.7046467,-29.591,2297.941,8.511001,-0.00051,0.0043099998,0.74531
288.69168,2000,0,91.24,0.000002697398,0.000002697398,0.000002697398,0.99999994,0,0,0,0,0,0,0,1,0,0,0,false,false,true,-0.51,-2605.98,16.99,-0.00336905,0.0033906293,0.7117266,0.7024402,-39.911,2297.171,8.531,-0.00051,0.00421,0.93301
288.7,2000,0,91.24,0.000002697398,0.000002697398,0.000002697398,0.99999994,0,0,0,0,0,0,0,1,0,0,0,false,false,true,-0.84,-2586.8398,16.99,-0.00336905,0.0033906293,0.71445274,0.6996673,-51.211,2296.271,8.541,-0.00040999998,0.00381,1.1015099
288.70834,2000,0,91.24,0.000002697398,0.000002697398,0.000002697398,0.99999994,0,0,0,0,0,0,0,1,0,0,0,false,false,true,-1.27,-2567.7,16.99,-0.003374445,0.0033852346,0.7176554,0.69638187,-63.621,2295.201,8.551001,-0.00040999998,0.00321,1.25421
288.71667,2000,0,91.24,0.000002697398,0.000002697398,0.000002697398,0.99999994,0,0,0,0,0,0,0,1,0,0,0,false,false,true,-1.8,-2548.5698,16.99,-0.0033852346,0.0033798397,0.72128516,0.6926216,-77.181,2293.901,8.551001,-0.00040999998,0.00261,1.39381
288.725,2000,0,91.24,0.000002697398,0.000002697398,0.000002697398,0.99999994,0,0,0,0,0,0,0,1,0,0,0,false,false,true,-2.44,-2529.45,16.99,-0.0033960242,0.00336905,0.72529733,0.68841904,-91.851,2292.3408,8.561,-0.00030999997,0.00201,1.5225099
288.73334,2000,0,91.24,0.000002697398,0.000002697398,0.000002697398,0.99999994,0,0,0,0,0,0,0,1,0,0,0,false,false,true,-3.21,-2510.3499,16.99,-0.0034122088,0.003352866,0.72964764,0.68380654,-107.561,2290.471,8.561,-0.00030999997,0.0014099999,1.6418099
288.74167,2000,0,91.24,0.000002697398,0.000002697398,0.000002697398,0.99999994,0,0,0,0,0,0,0,1,0,0,0,false,false,true,-4.11,-2491.26,16.99,-0.0034337877,0.0033366815,0.73430735,0.6788001,-124.181,2288.261,8.561,-0.00030999997,0.00091,1.7530099
288.75,2000,0,91.24,0.000002697398,0.000002697398,0.000002697398,0.99999994,0,0,0,0,0,0,0,1,0,0,0,false,false,true,-5.14,-2472.19,16.99,-0.0034553665,0.0033151018,0.7392481,0.67341596,-141.571,2285.681,8.561,-0.00021,0.00051,1.85711
288.75833,2000,0,91.24,0.000002697398,0.000002697398,0.000002697398,0.99999994,0,0,0,0,0,0,0,1,0,0,0,false,false,true,-6.3199997,-2453.14,16.99,-0.0034823404,0.0032881277,0.7444365,0.6676759,-159.571,2282.711,8.561,-0.00010999999,0.00010999999,1.95481
288.76666,2000,0,91.24,0.000002697398,0.000002697398,0.000002697398,0.99999994,0,0,0,0,0,0,0,1,0,0,0,false,false,true,-7.6499996,-2434.1199,16.99,-0.003509315,0.0032611543,0.7498498,0.66159064,-177.991,2279.3408,8.571,-0.00010999999,0,2.04651
288.775,2000,0,91.24,0.000002697398,0.000002697398,0.000002697398,0.99999994,0,0,0,0,0,0,0,1,0,0,0,false,false,true,-9.13,-2415.13,16.99,-0.0035362889,0.0032341804,0.75546545,0.65517086,-196.631,2275.5808,8.571,0,-0.00021,2.1326098
288.78333,2000,0,91.24,0.000002697398,0.000002697398,0.000002697398,0.99999994,0,0,0,0,0,0,0,1,0,0,0,false,false,true,-10.7699995,-2396.17,16.99,-0.0035632628,0.0032018116,0.7612568,0.6484327,-215.291,2271.451,8.571,0,-0.00040999998,2.2132099
288.79166,2000,0,91.24,0.000002697398,0.000002697398,0.000002697398,0.99999994,0,0,0,0,0,0,0,1,0,0,0,false,false,true,-12.559999,-2377.24,16.99,-0.0035956318,0.003169443,0.76720244,0.6413871,-233.751,2266.981,8.571,0,-0.00061,2.2885098
288.8,2000,0,91.24,0.000002697398,0.000002697398,0.000002697398,0.99999994,0,0,0,0,0,0,0,1,0,0,0,false,false,true,-14.509999,-2358.3499,16.99,-0.0036280006,0.0031316795,0.77328146,0.63404477,-251.771,2262.231,8.571,0,-0.00071,2.35841
288.80832,2000,0,91.24,0.000002697398,0.000002697398,0.000002697398,0.99999994,0,0,0,0,0,0,0,1,0,0,0,false,false,true,-16.609999,-2339.5,16.99,-0.0036603692,0.0030939155,0.7794738,0.6264164,-269.101,2257.261,8.571,0,-0.00081,2.42271
288.81668,2000,0,91.24,0.000002697398,0.000002697398,0.000002697398,0.99999994,0,0,0,0,0,0,0,1,0,0,0,false,false,true,-18.85,-2320.69,16.99,-0.0036927382,0.0030561523,0.7857556,0.6185185,-285.501,2252.171,8.571,0,-0.00091,2.48131
288.825,2000,0,91.24,0.000002697398,0.000002697398,0.000002697398,0.99999994,0,0,0,0,0,0,0,1,0,0,0,false,false,true,-21.23,-2301.92,16.99,-0.0037251068,0.0030129936,0.7921084,0.61036146,-300.701,2247.0808,8.571,0,-0.0010099999,2.53381
288.83334,2000,0,91.24,0.000002697398,0.000002697398,0.000002697398,0.99999994,0,0,0,0,0,0,0,1,0,0,0,false,false,true,-23.74,-2283.19,16.99,-0.0037574756,0.0029698352,0.79850644,0.6019671,-314.431,2242.1309,8.571,0,-0.00111,2.57991
288.84167,2000,0,91.24,0.000002697398,0.000002697398,0.000002697398,0.99999994,0,0,0,0,0,0,0,1,0,0,0,false,false,true,-26.359999,-2264.51,16.99,-0.0037952394,0.002926677,0.804933,0.5933463,-326.421,2237.491,8.571,0.00010999999,-0.0012099999,2.61921
288.85,2000,0,91.24,0.000002697398,0.000002697398,0.000002697398,0.99999994,0,0,0,0,0,0,0,1,0,0,0,false,false,true,-29.08,-2245.8599,16.99,-0.0038330026,0.0028835186,0.81136096,0.58452564,-336.371,2233.3608,8.571,0.00021,-0.0012099999,2.65111
288.85834,2000,0,91.24,0.000002697398,0.000002697398,0.000002697398,0.99999994,0,0,0,0,0,0,0,1,0,0,0,false,false,true,-31.88,-2227.25,16.99,-0.0038707664,0.0028349652,0.8177685,0.57552713,-344.001,2229.981,8.561,0.00030999997,-0.00131,2.6751099
288.86667,2000,0,91.24,0.000002697398,0.000002697398,0.000002697398,0.99999994,0,0,0,0,0,0,0,1,0,0,0,false,false,true,-34.75,-2208.67,16.99,-0.0039031352,0.0027864124,0.8241319,0.5663776,-351.991,2226.221,8.561,0.00030999997,-0.0012099999,2.69871
288.875,2000,0,91.24,0.000002697398,0.000002697398,0.000002697398,0.99999994,0,0,0,0,0,0,0,1,0,0,0,false,false,true,-37.68,-2190.1199,16.99,-0.003935504,0.002737859,0.830447,0.5570768,-360.311,2222.0808,8.561,0.00030999997,-0.0012099999,2.72211
288.88333,2000,0,91.24,0.000002697398,0.000002697398,0.000002697398,0.99999994,0,0,0,0,0,0,0,1,0,0,0,false,false,true,-40.68,-2171.5999,16.99,-0.0039678724,0.002689306,0.8367135,0.54761976,-368.931,2217.531,8.561,0.00030999997,-0.00111,2.7453098
288.89166,2000,0,91.24,0.000002697398,0.000002697398,0.000002697398,0.99999994,0,0,0,0,0,0,0,1,0,0,0,false,false,true,-43.75,-2153.1199,16.99,-0.004000241,0.0026407526,0.84292376,0.53801155,-377.831,2212.571,8.561,0.00030999997,-0.0010099999,2.76821
288.9,2000,0,91.24,0.000002697398,0.000002697398,0.000002697398,0.99999994,0,0,0,0,0,0,0,1,0,0,0,false,false,true,-46.899998,-2134.68,16.99,-0.00403261,0.0025921995,0.84907377,0.52825236,-386.981,2207.191,8.561,0.00030999997,-0.00091,2.79091
288.90833,2000,0,91.24,0.000002697398,0.000002697398,0.000002697398,0.99999994,0,0,0,0,0,0,0,1,0,0,0,false,false,true,-50.12,-2116.29,16.99,-0.0040649786,0.0025436464,0.8551598,0.518342,-396.341,2201.3809,8.561,0.00030999997,-0.00091,2.81341
288.91666,2000,0,91.24,0.000002697398,0.000002697398,0.000002697398,0.99999994,0,0,0,0,0,0,0,1,0,0,0,false,false,true,-53.42,-2097.94,16.99,-0.0040973476,0.0024950933,0.861178,0.50828075,-405.891,2195.1409,8.561,0.00030999997,-0.00081,2.83561
288.925,2000,0,91.24,0.000002697398,0.000002697398,0.000002697398,0.99999994,0,0,0,0,0,0,0,1,0,0,0,false,false,true,-56.8,-2079.65,16.99,-0.004129716,0.0024411452,0.86712444,0.4980684,-415.591,2188.461,8.561,0.00030999997,-0.00071,2.8575099
288.93332,2000,0,91.24,0.000002697398,0.000002697398,0.000002697398,0.99999994,0,0,0,0,0,0,0,1,0,0,0,false,false,true,-60.26,-2061.41,16.99,-0.0041620852,0.0023871972,0.8729923,0.4877103,-425.411,2181.3308,8.561,0.00030999997,-0.00061,2.8791099
288.94168,2000,0,91.24,0.000002697398,0.000002697398,0.000002697398,0.99999994,0,0,0,0,0,0,0,1,0,0,0,false,false,true,-63.809998,-2043.23,16.99,-0.004194454,0.0023332492,0.87878084,0.47720125,-435.331,2173.751,8.561,0.00030999997,-0.00051,2.90031
288.95,2000,0,91.24,0.000002697398,0.000002697398,0.000002697398,0.99999994,0,0,0,0,0,0,0,1,0,0,0,false,false,true,-67.439995,-2025.12,16.99,-0.0042214277,0.0022793014,0.88448364,0.46654645,-445.311,2165.731,8.561,0.00030999997,-0.00040999998,2.92111
288.95834,2000,0,91.24,0.000002697398,0.000002697398,0.000002697398,0.99999994,0,0,0,0,0,0,0,1,0,0,0,false,false,true,-71.15,-2007.07,16.99,-0.0042484016,0.0022253534,0.89009684,0.45574605,-455.32098,2157.261,8.561,0.00030999997,-0.00040999998,2.94151
288.96667,2000,0,91.24,0.000002697398,0.000002697398,0.000002697398,0.99999994,0,0,0,0,0,0,0,1,0,0,0,false,false,true,-74.939995,-1989.09,16.99,-0.004275376,0.0021714054,0.8956144,0.44480532,-465.331,2148.3508,8.561,0.00021,-0.00040999998,2.96141
288.975,2000,0,91.24,0.000002697398,0.000002697398,0.000002697398,0.99999994,0,0,0,0,0,0,0,1,0,0,0,false,false,true,-78.82,-1971.19,16.99,-0.00430235,0.0021174573,0.90103537,0.433719,-475.301,2139.001,8.561,0.00021,-0.00040999998,2.98081
288.98334,2000,0,91.24,0.000002697398,0.000002697398,0.000002697398,0.99999994,0,0,0,0,0,0,0,1,0,0,0,false,false,true,-82.78,-1953.36,16.99,-0.0043293233,0.0020635093,0.90635365,0.4224923,-485.211,2129.211,8.561,0.00021,-0.00030999997,2.99961
288.99167,2000,0,91.24,0.000002697398,0.000002697398,0.000002697398,0.99999994,0,0,0,0,0,0,0,1,0,0,0,false,false,true,-86.82,-1935.62,16.99,-0.0043562977,0.0020095615,0.91156363,0.41113093,-495.031,2119.001,8.561,0.00021,-0.00030999997,3.0178099
289,2000,0,91.24,0.000002697398,0.000002697398,0.000002697398,0.99999994,0,0,0,0,0,0,0,1,0,0,0,false,false,true,-90.95,-1917.96,16.99,-0.0043832716,0.0019556135,0.9166619,0.39963454,-504.731,2108.3708,8.561,0.00021,-0.00030999997,3.03531
289.00833,2000,0,91.24,0.000002697398,0.000002697398,0.000002697398,0.99999994,0,0,0,0,0,0,0,1,0,0,0,false,false,true,-95.159996,-1900.39,16.99,-0.004410245,0.0018962707,0.921643,0.3880087,-514.27094,2097.3408,8.561,0.00021,-0.00030999997,3.0520098
289.01666,2000,0,91.24,0.000002697398,0.000002697398,0.000002697398,0.99999994,0,0,0,0,0,0,0,1,0,0,0,false,false,true,-99.45,-1882.9099,16.99,-0.00443722,0.0018369281,0.9265021,0.3762588,-523.631,2085.921,8.561,0.00021,-0.00021,3.06791
289.025,2000,0,91.24,0.000002697398,0.000002697398,0.000002697398,0.99999994,0,0,0,0,0,0,0,1,0,0,0,false,false,true,-103.81,-1865.5299,16.99,-0.004458799,0.0017775854,0.931236,0.36438477,-532.79095,2074.1208,8.561,0.00021,-0.00010999999,3.08301
289.03333,2000,0,91.24,0.000002697398,0.000002697398,0.000002697398,0.99999994,0,0,0,0,0,0,0,1,0,0,0,false,false,true,-108.25,-1848.25,16.99,-0.0044803787,0.0017182427,0.9358401,0.35239217,-541.71094,2061.961,8.561,0.00021,-0.00010999999,3.09711
289.04166,2000,0,91.24,0.000002697398,0.000002697398,0.000002697398,0.99999994,0,0,0,0,0,0,0,1,0,0,0,false,false,true,-112.759995,-1831.07,16.99,-0.0045019574,0.0016588998,0.94030964,0.3402861,-550.371,2049.461,8.561,0.00021,-0.00010999999,3.11021
289.05,2000,0,91.24,0.000002697398,0.000002697398,0.000002697398,0.99999994,0,0,0,0,0,0,0,1,0,0,0,false,false,true,-117.35,-1813.99,16.99,-0.0045235357,0.0015995569,0.9446403,0.32807228,-558.751,2036.641,8.561,0.00021,-0.00010999999,3.12221
289.05832,2000,0,91.24,0.000002697398,0.000002697398,0.000002697398,0.99999994,0,0,0,0,0,0,0,1,0,0,0,false,false,true,-122.009995,-1797.02,16.99,-0.004545116,0.0015402144,0.9488283,0.31575593,-566.821,2023.5309,8.561,0.00021,-0.00010999999,3.13311
289.06668,2000,0,91.24,0.000002697398,0.000002697398,0.000002697398,0.99999994,0,0,0,0,0,0,0,1,0,0,0,false,false,true,-126.729996,-1780.1599,16.99,-0.004566694,0.0014808715,0.95286936,0.30334243,-574.561,2010.141,8.571,0.00021,-0.00010999999,3.14271
289.075,2000,0,91.24,0.000002697398,0.000002697398,0.000002697398,0.99999994,0,0,0,0,0,0,0,1,0,0,0,false,false,true,-131.52,-1763.4099,16.99,-0.004588274,0.0014215288,0.9567604,0.29083726,-581.951,1996.511,8.571,0.00021,-0.00010999999,3.15101
289.08334,2000,0,91.24,0.000002697398,0.000002697398,0.000002697398,0.99999994,0,0,0,0,0,0,0,1,0,0,0,false,false,true,-136.37,-1746.77,16.99,-0.0046044583,0.001362186,0.96049625,0.27825117,-588.98096,1982.6509,8.571,0.00021,0,3.1579099
289.09167,2000,0,91.24,0.000002697398,0.000002697398,0.000002697398,0.99999994,0,0,0,0,0,0,0,1,0,0,0,false,false,true,-141.28,-1730.25,16.99,-0.004620643,0.0013028432,0.9640742,0.2655895,-595.621,1968.601,8.571,0.00021,0,3.16331
289.1,2000,0,91.24,0.000002697398,0.000002697398,0.000002697398,0.99999994,0,0,0,0,0,0,0,1,0,0,0,false,false,true,-146.23999,-1713.85,16.99,-0.004636827,0.0012435005,0.9674915,0.2528577,-601.871,1954.391,8.571,0.00030999997,0,3.16711
289.10834,2000,0,91.24,0.000002697398,0.000002697398,0.000002697398,0.99999994,0,0,0,0,0,0,0,1,0,0,0,false,false,true,-151.26,-1697.5599,16.99,-0.0046530114,0.0011787629,0.9707445,0.24006666,-607.71094,1940.0509,8.571,0.00040999998,0,3.1693099
289.11667,2000,0,91.24,0.000002697398,0.000002697398,0.000002697398,0.99999994,0,0,0,0,0,0,0,1,0,0,0,false,false,true,-156.31999,-1681.39,16.99,-0.004669196,0.0011140254,0.9738299,0.22722696,-613.131,1925.601,8.571,0.00040999998,0,3.16971
289.125,2000,0,91.24,0.000002697398,0.000002697398,0.000002697398,0.99999994,0,0,0,0,0,0,0,1,0,0,0,false,false,true,-161.43,-1665.34,16.99,-0.00468538,0.0010492877,0.97674626,0.21434416,-618.121,1911.0809,8.571,0.00040999998,0,3.16831
289.13333,2000,0,91.24,0.000002697398,0.000002697398,0.000002697398,0.99999994,0,0,0,0,0,0,0,1,0,0,0,false,false,true,-166.58,-1649.4099,16.99,-0.00469617,0.0009845502,0.9794913,0.20142896,-622.68097,1896.5309,8.571,0.00040999998,0,3.1649098
289.14166,2000,0,91.24,0.000002697398,0.000002697398,0.000002697398,0.99999994,0,0,0,0,0,0,0,1,0,0,0,false,false,true,-171.76999,-1633.61,16.99,-0.00470696,0.0009198128,0.9820619,0.18849765,-626.80096,1881.971,8.571,0.00040999998,0,3.15951
289.15,2000,0,91.24,0.000002697398,0.000002697398,0.000002697398,0.99999994,0,0,0,0,0,0,0,1,0,0,0,false,false,true,-176.98999,-1617.9299,16.99,-0.0047177486,0.0008550751,0.98445773,0.17555541,-630.49097,1867.4509,8.571,0.00040999998,0,3.1519098
289.15833,2000,0,91.24,0.000002697398,0.000002697398,0.000002697398,0.99999994,0,0,0,0,0,0,0,1,0,0,0,false,false,true,-182.23999,-1602.37,16.99,-0.0047285384,0.0007903376,0.9866782,0.16261323,-633.74097,1852.991,8.571,0.00040999998,-0.00010999999,3.1421099
289.16666,2000,0,91.24,0.000002697398,0.000002697398,0.000002697398,0.99999994,0,0,0,0,0,0,0,1,0,0,0,false,false,true,-187.51999,-1586.9299,16.99,-0.0047393283,0.00072560005,0.9887225,0.1496819,-636.571,1838.631,8.571,0.00040999998,-0.00010999999,3.13001
289.175,2000,0,91.24,0.000002697398,0.000002697398,0.000002697398,0.99999994,0,0,0,0,0,0,0,1,0,0,0,false,false,true,-192.81999,-1571.61,16.99,-0.004750117,0.0006608625,0.99059004,0.13677745,-638.97095,1824.4009,8.571,0.00040999998,-0.00010999999,3.11551
289.18332,2000,0,91.24,0.000002697398,0.000002697398,0.000002697398,0.99999994,0,0,0,0,0,0,0,1,0,0,0,false,false,true,-198.14,-1556.4099,16.99,-0.0047609075,0.00059612497,0.9922824,0.12390549,-640.96094,1810.3309,8.571,0.00040999998,-0.00010999999,3.09841
289.19168,2000,0,91.24,0.000002697398,0.000002697398,0.000002697398,0.99999994,0,0,0,0,0,0,0,1,0,0,0,false,false,true,-203.48,-1541.32,16.99,-0.0047663026,0.00053138746,0.99379903,0.111087374,-642.55096,1796.4609,8.571,0.00040999998,-0.00010999999,3.0787098
289.2,2000,0,91.24,0.000002697398,0.000002697398,0.000002697398,0.99999994,0,0,0,0,0,0,0,1,0,0,0,false,false,true,-208.83,-1526.35,16.99,-0.004771697,0.00046664986,0.9951424,0.09832859,-643.751,1782.8109,8.571,0.00040999998,-0.00010999999,3.05631
289.20834,2000,0,91.24,0.000002697398,0.000002697398,0.000002697398,0.99999994,0,0,0,0,0,0,0,1,0,0,0,false,false,true,-214.19,-1511.49,16.99,-0.004777092,0.00040191232,0.99631363,0.08565082,-644.59094,1769.4209,8.571,0.00040999998,-0.00010999999,3.03111
289.21667,2000,0,91.24,0.000002697398,0.000002697398,0.000002697398,0.99999994,0,0,0,0,0,0,0,1,0,0,0,false,false,true,-219.56,-1496.74,16.99,-0.0047824867,0.00033717474,0.997316,0.073059276,-645.071,1756.3209,8.571,0.00040999998,-0.00010999999,3.00291
289.225,2000,0,91.24,0.000002697398,0.000002697398,0.000002697398,0.99999994,0,0,0,0,0,0,0,1,0,0,0,false,false,true,-224.94,-1482.1,16.99,-0.0047878814,0.000277832,0.998152,0.060575724,-645.22095,1743.5309,8.571,0.00040999998,-0.00010999999,2.97171
289.23334,2000,0,91.24,0.000002697398,0.000002697398,0.000002697398,0.99999994,0,0,0,0,0,0,0,1,0,0,0,false,false,true,-230.31999,-1467.57,16.99,-0.004793276,0.00021848925,0.9988256,0.048210762,-645.071,1731.0809,8.571,0.00040999998,0,2.9374099
289.24167,2000,0,91.24,0.000002697398,0.000002697398,0.000002697398,0.99999994,0,0,0,0,0,0,0,1,0,0,0,false,false,true,-235.7,-1453.14,16.99,-0.0047932756,0.00015914647,0.99934083,0.035980757,-644.631,1718.991,8.571,0.00051,0,2.8998098
289.25,2000,0,91.24,0.000002697398,0.000002697398,0.000002697398,0.99999994,0,0,0,0,0,0,0,1,0,0,0,false,false,true,-241.06999,-1438.8099,16.99,-0.004793276,0.00009980373,0.99970275,0.023901729,-643.93097,1707.2909,8.571,0.00051,0,2.8589098
289.25833,2000,0,91.24,0.000002697398,0.000002697398,0.000002697398,0.99999994,0,0,0,0,0,0,0,1,0,0,0,false,false,true,-246.43999,-1424.58,16.99,-0.0047932765,0.000040460975,0.9999166,0.011990019,-643.001,1696.001,8.571,0.00061,0,2.8145099
289.26666,2000,0,91.24,0.000002697398,0.000002697398,0.000002697398,0.99999994,0,0,0,0,0,0,0,1,0,0,0,false,false,true,-251.79999,-1410.45,16.99,-0.004793276,-0.000018881787,0.99998844,0.0002616476,-641.871,1685.141,8.571,0.00061,0,2.76651
289.275,2000,0,91.24,0.000002697398,0.000002697398,0.000002697398,0.99999994,0,0,0,0,0,0,0,1,0,0,0,false,false,true,-257.15,-1396.4099,16.99,-0.004793276,-0.00007822454,0.99992496,-0.011267073,-640.571,1674.721,8.571,0.00071,0,2.71481
289.28333,2000,0,91.24,0.000002697398,0.000002697398,0.000002697398,0.99999994,0,0,0,0,0,0,0,1,0,0,0,false,false,true,-262.49,-1382.45,16.99,-0.004793276,-0.0001375673,0.9997336,-0.02257461,-639.131,1664.761,8.571,0.00071,0,2.65921
289.29166,2000,0,91.24,0.000002697398,0.000002697398,0.000002697398,0.99999994,0,0,0,0,0,0,0,1,0,0,0,false,false,true,-267.82,-1368.58,16.99,-0.0047932756,-0.00019151525,0.999422,-0.033650164,-637.49097,1655.0709,8.571,0.00061,0,2.60651
289.3,2000,0,91.24,0.000002697398,0.000002697398,0.000002697398,0.99999994,0,0,0,0,0,0,0,1,0,0,0,false,false,true,-273.13,-1354.7899,16.99,-0.004793276,-0.00024546322,0.9989976,-0.04450454,-635.67096,1645.6609,8.571,0.00051,0,2.5566099
289.30832,2000,0,91.24,0.000002697398,0.000002697398,0.000002697398,0.99999994,0,0,0,0,0,0,0,1,0,0,0,false,false,true,-278.43,-1341.08,16.99,-0.004787882,-0.00029941121,0.9984669,-0.05514312,-633.68097,1636.5309,8.571,0.00040999998,0,2.5097098
289.31668,2000,0,91.24,0.000002697398,0.000002697398,0.000002697398,0.99999994,0,0,0,0,0,0,0,1,0,0,0,false,false,true,-283.71,-1327.44,16.99,-0.0047824867,-0.00035335915,0.9978356,-0.06558209,-631.41095,1627.4309,8.571,0.00030999997,0,2.47201
289.325,2000,0,91.24,0.000002697398,0.000002697398,0.000002697398,0.99999994,0,0,0,0,0,0,0,1,0,0,0,false,false,true,-288.97,-1313.88,16.99,-0.0047770925,-0.00040191234,0.9971074,-0.07585383,-628.871,1618.401,8.571,0.00010999999,0,2.44291
289.33334,2000,0,91.24,0.000002697398,0.000002697398,0.000002697398,0.99999994,0,0,0,0,0,0,0,1,0,0,0,false,false,true,-294.21,-1300.39,16.99,-0.004771697,-0.00045046548,0.9962834,-0.08600148,-626.08093,1609.4609,8.571,0,0,2.4221098
289.34167,2000,0,91.24,0.000002697398,0.000002697398,0.000002697398,0.99999994,0,0,0,0,0,0,0,1,0,0,0,false,false,true,-299.43,-1286.98,16.99,-0.0047663026,-0.0004990187,0.9953648,-0.096052036,-623.04095,1600.641,8.571,-0.00010999999,0,2.4093099
289.35,2000,0,91.24,0.000002697398,0.000002697398,0.000002697398,0.99999994,0,0,0,0,0,0,0,1,0,0,0,false,false,true,-304.62,-1273.64,16.99,-0.004760908,-0.00054757186,0.99435055,-0.10603785,-619.77094,1591.9609,8.571,-0.00030999997,-0.00010999999,2.4042099
289.35834,2000,0,91.24,0.000002697398,0.000002697398,0.000002697398,0.99999994,0,0,0,0,0,0,0,1,0,0,0,false,false,true,-309.78,-1260.37,16.99,-0.004755513,-0.00059612497,0.9932386,-0.115991235,-616.28094,1583.4409,8.571,-0.00051,-0.00021,2.4065099
289.36667,2000,0,91.24,0.000002697398,0.000002697398,0.000002697398,0.99999994,0,0,0,0,0,0,0,1,0,0,0,false,false,true,-314.91998,-1247.1699,16.99,-0.004750118,-0.0006392834,0.9920257,-0.12594469,-612.59094,1575.111,8.571,-0.00071,-0.00021,2.41611
289.375,2000,0,91.24,0.000002697398,0.000002697398,0.000002697398,0.99999994,0,0,0,0,0,0,0,1,0,0,0,false,false,true,-320.02,-1234.0399,16.99,-0.004744723,-0.0006824417,0.99070746,-0.13592508,-608.71094,1566.991,8.571,-0.00081,-0.00030999997,2.43281
289.38333,2000,0,91.24,0.000002697398,0.000002697398,0.000002697398,0.99999994,0,0,0,0,0,0,0,1,0,0,0,false,false,true,-325.09,-1220.98,16.99,-0.0047393288,-0.0007256001,0.9892789,-0.14595947,-604.65094,1559.111,8.571,-0.00091,-0.00030999997,2.45651
289.39166,2000,0,91.24,0.000002697398,0.000002697398,0.000002697398,0.99999994,0,0,0,0,0,0,0,1,0,0,0,false,false,true,-330.13,-1207.99,16.99,-0.0047339336,-0.0007687585,0.98773354,-0.15607473,-600.43097,1551.481,8.571,-0.0010099999,-0.00030999997,2.48721
289.4,2000,0,91.24,0.000002697398,0.000002697398,0.000002697398,0.99999994,0,0,0,0,0,0,0,1,0,0,0,false,false,true,-335.13,-1195.0599,16.99,-0.004728538,-0.0008119168,0.9860628,-0.16630329,-596.061,1544.131,8.571,-0.00111,-0.00030999997,2.52471
289.40833,2000,0,91.24,0.000002697398,0.000002697398,0.000002697398,0.99999994,0,0,0,0,0,0,0,1,0,0,0,false,false,true,-340.1,-1182.19,16.99,-0.0047177486,-0.0008550751,0.9842589,-0.17666674,-591.52094,1536.971,8.571,-0.00111,-0.00030999997,2.56671
289.41666,2000,0,91.24,0.000002697398,0.000002697398,0.000002697398,0.99999994,0,0,0,0,0,0,0,1,0,0,0,false,false,true,-345.03,-1169.38,16.99,-0.0047069597,-0.00089823356,0.98231363,-0.18718126,-586.78094,1529.851,8.571,-0.00111,-0.00040999998,2.6103098
289.425,2000,0,91.24,0.000002697398,0.000002697398,0.000002697398,0.99999994,0,0,0,0,0,0,0,1,0,0,0,false,false,true,-349.91998,-1156.63,16.99,-0.00469617,-0.0009467867,0.9802201,-0.19785221,-581.86096,1522.8009,8.571,-0.0010099999,-0.00040999998,2.65541
289.43332,2000,0,91.24,0.000002697398,0.000002697398,0.000002697398,0.99999994,0,0,0,0,0,0,0,1,0,0,0,false,false,true,-354.77,-1143.94,16.99,-0.0046853805,-0.0009953398,0.97797114,-0.208685,-576.80096,1515.851,8.571,-0.00091,-0.00040999998,2.70151
289.44168,2000,0,91.24,0.000002697398,0.000002697398,0.000002697398,0.99999994,0,0,0,0,0,0,0,1,0,0,0,false,false,true,-359.58,-1131.3099,16.99,-0.0046745907,-0.001043893,0.97556025,-0.21967964,-571.571,1508.9509,8.571,-0.00081,-0.00040999998,2.74711
289.45,2000,0,91.24,0.000002697398,0.000002697398,0.000002697398,0.99999994,0,0,0,0,0,0,0,1,0,0,0,false,false,true,-364.34,-1118.74,16.99,-0.0046638013,-0.0010924462,0.97298205,-0.23083073,-566.081,1501.9309,8.571,-0.00071,-0.00040999998,2.78861
289.45834,2000,0,91.24,0.000002697398,0.000002697398,0.000002697398,0.99999994,0,0,0,0,0,0,0,1,0,0,0,false,false,true,-369.06,-1106.22,16.99,-0.0046530114,-0.0011409994,0.9702339,-0.24212208,-560.331,1494.8209,8.571,-0.00061,-0.00040999998,2.82611
289.46667,2000,0,91.24,0.000002697398,0.000002697398,0.000002697398,0.99999994,0,0,0,0,0,0,0,1,0,0,0,false,false,true,-373.72998,-1093.76,16.99,-0.004642222,-0.0011949473,0.967315,-0.2535321,-554.321,1487.641,8.571,-0.00040999998,-0.00030999997,2.8596098
289.475,2000,0,91.24,0.000002697398,0.000002697398,0.000002697398,0.99999994,0,0,0,0,0,0,0,1,0,0,0,false,false,true,-378.35,-1081.36,16.99,-0.004626038,-0.0012488954,0.9642257,-0.26503927,-548.061,1480.4209,8.571,-0.00030999997,-0.00021,2.88921
289.48334,2000,0,91.24,0.000002697398,0.000002697398,0.000002697398,0.99999994,0,0,0,0,0,0,0,1,0,0,0,false,false,true,-382.91998,-1069.02,16.99,-0.004609853,-0.0013028432,0.9609653,-0.2766273,-541.55096,1473.1809,8.571,-0.00021,-0.00021,2.91501
289.49167,2000,0,91.24,0.000002697398,0.000002697398,0.000002697398,0.99999994,0,0,0,0,0,0,0,1,0,0,0,false,false,true,-387.43,-1056.74,16.99,-0.004593669,-0.0013567912,0.9575341,-0.2882801,-534.80096,1465.9509,8.571,-0.00010999999,-0.00010999999,2.93711
289.5,2000,0,91.24,0.000002697398,0.000002697398,0.000002697398,0.99999994,0,0,0,0,0,0,0,1,0,0,0,false,false,true,-391.88998,-1044.52,16.99,-0.004577485,-0.0014107393,0.95393467,-0.2999761,-527.811,1458.751,8.571,0,-0.00010999999,2.95561
289.50833,2000,0,91.24,0.000002697398,0.000002697398,0.000002697398,0.99999994,0,0,0,0,0,0,0,1,0,0,0,false,false,true,-396.28998,-1032.36,16.99,-0.0045613004,-0.0014646873,0.9501688,-0.31169903,-520.60095,1451.601,8.571,0.00010999999,0,2.97061
289.51666,2000,0,91.24,0.000002697398,0.000002697398,0.000002697398,0.99999994,0,0,0,0,0,0,0,1,0,0,0,false,false,true,-400.63,-1020.25995,16.99,-0.0045451154,-0.0015240299,0.9462371,-0.32343814,-513.17096,1444.5309,8.571,0.00021,0,2.98211
289.525,2000,0,91.24,0.000002697398,0.000002697398,0.000002697398,0.99999994,0,0,0,0,0,0,0,1,0,0,0,false,false,true,-404.91,-1008.22,16.99,-0.004523536,-0.0015833727,0.94214475,-0.33517185,-505.541,1437.5609,8.571,0.00021,0,2.99031
289.53333,2000,0,91.24,0.000002697398,0.000002697398,0.000002697398,0.99999994,0,0,0,0,0,0,0,1,0,0,0,false,false,true,-409.12,-996.24,16.99,-0.004501957,-0.0016427152,0.93789566,-0.34688395,-497.731,1430.7109,8.571,0.00021,0,2.99521
289.54166,2000,0,91.24,0.000002697398,0.000002697398,0.000002697398,0.99999994,0,0,0,0,0,0,0,1,0,0,0,false,false,true,-413.27,-984.32,16.99,-0.0044803787,-0.0017020582,0.9334929,-0.3585638,-489.751,1424.001,8.571,0.00021,0,2.9969099
289.55,2000,0,91.24,0.000002697398,0.000002697398,0.000002697398,0.99999994,0,0,0,0,0,0,0,1,0,0,0,false,false,true,-417.34998,-972.44995,16.99,-0.0044587995,-0.0017560063,0.9289438,-0.37018967,-481.611,1417.4509,8.571,0.00021,0,2.9955099
289.55832,2000,0,91.24,0.000002697398,0.000002697398,0.000002697398,0.99999994,0,0,0,0,0,0,0,1,0,0,0,false,false,true,-421.36,-960.63995,16.99,-0.0044372194,-0.0018099538,0.92425054,-0.38175607,-473.341,1411.0709,8.571,0.00030999997,0.00010999999,2.99101
289.56668,2000,0,91.24,0.000002697398,0.000002697398,0.000002697398,0.99999994,0,0,0,0,0,0,0,1,0,0,0,false,false,true,-425.3,-948.88,16.99,-0.0044156406,-0.0018639021,0.9194203,-0.3932471,-464.951,1404.881,8.571,0.00030999997,0.00021,2.98361
289.575,2000,0,91.24,0.000002697398,0.000002697398,0.000002697398,0.99999994,0,0,0,0,0,0,0,1,0,0,0,false,false,true,-429.16998,-937.17,16.99,-0.0043940614,-0.00191785,0.9144606,-0.4046463,-456.461,1398.901,8.571,0.00040999998,0.00030999997,2.97331
289.58334,2000,0,91.24,0.000002697398,0.000002697398,0.000002697398,0.99999994,0,0,0,0,0,0,0,1,0,0,0,false,false,true,-432.97,-925.51,16.99,-0.004367088,-0.001971798,0.909378,-0.41594312,-447.901,1393.131,8.571,0.00040999998,0.00040999998,2.9602098
289.59167,2000,0,91.24,0.000002697398,0.000002697398,0.000002697398,0.99999994,0,0,0,0,0,0,0,1,0,0,0,false,false,true,-436.69998,-913.89996,16.99,-0.0043401136,-0.002025746,0.90417916,-0.42712653,-439.281,1387.591,8.571,0.00051,0.00040999998,2.94431
289.6,2000,0,91.24,0.000002697398,0.000002697398,0.000002697398,0.99999994,0,0,0,0,0,0,0,1,0,0,0,false,false,true,-440.36,-902.33997,16.99,-0.0043131392,-0.0020796938,0.89887154,-0.4381859,-430.621,1382.281,8.571,0.00051,0.00040999998,2.92571
289.60834,2000,0,91.24,0.000002697398,0.000002697398,0.000002697398,0.99999994,0,0,0,0,0,0,0,1,0,0,0,false,false,true,-443.94998,-890.82,16.99,-0.004286165,-0.0021336416,0.8934633,-0.44911033,-421.951,1377.2109,8.571,0.00061,0.00051,2.90451
289.61667,2000,0,91.24,0.000002697398,0.000002697398,0.000002697398,0.99999994,0,0,0,0,0,0,0,1,0,0,0,false,false,true,-447.47,-879.33997,16.99,-0.0042591915,-0.0021875896,0.8879633,-0.45988926,-413.291,1372.391,8.571,0.00061,0.00051,2.88081
289.625,2000,0,91.24,0.000002697398,0.000002697398,0.000002697398,0.99999994,0,0,0,0,0,0,0,1,0,0,0,false,false,true,-450.91,-867.89996,16.99,-0.0042322176,-0.0022415377,0.88237786,-0.470517,-404.661,1367.8209,8.571,0.00061,0.00051,2.85461
289.63333,2000,0,91.24,0.000002697398,0.000002697398,0.000002697398,0.99999994,0,0,0,0,0,0,0,1,0,0,0,false,false,true,-454.28,-856.5,16.99,-0.0042052437,-0.002295486,0.8767198,-0.48097762,-396.081,1363.501,8.571,0.00061,0.00061,2.82601
289.64166,2000,0,91.24,0.000002697398,0.000002697398,0.000002697398,0.99999994,0,0,0,0,0,0,0,1,0,0,0,false,false,true,-457.58,-845.13995,16.99,-0.0041782693,-0.0023494337,0.8709966,-0.49126548,-387.57098,1359.4409,8.571,0.00061,0.00061,2.7950099
289.65,2000,0,91.24,0.000002697398,0.000002697398,0.000002697398,0.99999994,0,0,0,0,0,0,0,1,0,0,0,false,false,true,-460.81,-833.81,16.99,-0.0041512954,-0.0024033815,0.8652165,-0.5013754,-379.161,1355.631,8.571,0.00051,0.00061,2.76171
289.65833,2000,0,91.24,0.000002697398,0.000002697398,0.000002697398,0.99999994,0,0,0,0,0,0,0,1,0,0,0,false,false,true,-463.97,-822.51,16.99,-0.0041243215,-0.0024519349,0.859391,-0.5112964,-370.861,1352.0709,8.571,0.00040999998,0.00061,2.72611
289.66666,2000,0,91.24,0.000002697398,0.000002697398,0.000002697398,0.99999994,0,0,0,0,0,0,0,1,0,0,0,false,false,true,-467.06,-811.24,16.99,-0.0040973476,-0.002500488,0.85352886,-0.5210233,-362.691,1348.751,8.561,0.00040999998,0.00071,2.68841
289.675,2000,0,91.24,0.000002697398,0.000002697398,0.000002697398,0.99999994,0,0,0,0,0,0,0,1,0,0,0,false,false,true,-470.08,-800,16.99,-0.0040649786,-0.002549041,0.8476396,-0.53055054,-354.671,1345.6709,8.561,0.00030999997,0.00071,2.64851
289.68332,2000,0,91.24,0.000002697398,0.000002697398,0.000002697398,0.99999994,0,0,0,0,0,0,0,1,0,0,0,false,false,true,-473.03998,-788.79,16.99,-0.00403261,-0.0025975944,0.84173286,-0.53987277,-346.821,1342.8309,8.561,0.00030999997,0.00071,2.60651
289.69168,2000,0,91.24,0.000002697398,0.000002697398,0.000002697398,0.99999994,0,0,0,0,0,0,0,1,0,0,0,false,false,true,-475.93,-777.6,16.99,-0.004000241,-0.0026461475,0.8358186,-0.54898465,-339.151,1340.2109,8.561,0.00030999997,0.00071,2.56251
289.7,2000,0,91.24,0.000002697398,0.000002697398,0.000002697398,0.99999994,0,0,0,0,0,0,0,1,0,0,0,false,false,true,-478.75998,-766.43,16.99,-0.0039678724,-0.002689306,0.8299109,-0.5578753,-331.681,1337.8109,8.561,0.00030999997,0.00071,2.51651
289.70834,2000,0,91.24,0.000002697398,0.000002697398,0.000002697398,0.99999994,0,0,0,0,0,0,0,1,0,0,0,false,false,true,-481.52,-755.27997,16.99,-0.003935504,-0.002732464,0.824017,-0.5665447,-324.421,1335.621,8.561,0.00030999997,0.00071,2.46861
289.71667,2000,0,91.24,0.000002697398,0.000002697398,0.000002697398,0.99999994,0,0,0,0,0,0,0,1,0,0,0,false,false,true,-484.22,-744.14996,16.99,-0.003903135,-0.0027756225,0.81814796,-0.57498765,-317.391,1333.631,8.561,0.00030999997,0.00061,2.41881
289.725,2000,0,91.24,0.000002697398,0.000002697398,0.000002697398,0.99999994,0,0,0,0,0,0,0,1,0,0,0,false,false,true,-486.86,-733.04,16.99,-0.003876161,-0.002818781,0.81231153,-0.583204,-310.601,1331.8309,8.551001,0.00030999997,0.00061,2.36721
289.73334,2000,0,91.24,0.000002697398,0.000002697398,0.000002697398,0.99999994,0,0,0,0,0,0,0,1,0,0,0,false,false,true,-489.44998,-721.94,16.99,-0.0038491872,-0.0028619394,0.8065192,-0.5911883,-304.061,1330.2009,8.551001,0.00030999997,0.00061,2.31391
289.74167,2000,0,91.24,0.000002697398,0.000002697398,0.000002697398,0.99999994,0,0,0,0,0,0,0,1,0,0,0,false,false,true,-491.97998,-710.85,16.99,-0.003822213,-0.0028997029,0.800783,-0.59893525,-297.771,1328.741,8.551001,0.00021,0.00061,2.25891
289.75,2000,0,91.24,0.000002697398,0.000002697398,0.000002697398,0.99999994,0,0,0,0,0,0,0,1,0,0,0,false,false,true,-494.46,-699.77997,16.99,-0.0037952391,-0.0029374664,0.795111,-0.60644484,-291.751,1327.4309,8.551001,0.00010999999,0.00061,2.20221
289.75833,2000,0,91.24,0.000002697398,0.000002697398,0.000002697398,0.99999994,0,0,0,0,0,0,0,1,0,0,0,false,false,true,-496.88998,-688.72,16.99,-0.0037682652,-0.00297523,0.7895113,-0.6137171,-286.001,1326.261,8.551001,0.00010999999,0.00061,2.14391
289.76666,2000,0,91.24,0.000002697398,0.000002697398,0.000002697398,0.99999994,0,0,0,0,0,0,0,1,0,0,0,false,false,true,-499.27,-677.67,16.99,-0.0037412911,-0.0030129936,0.7839965,-0.6207465,-280.521,1325.221,8.551001,0,0.00061,2.08411
289.775,2000,0,91.24,0.000002697398,0.000002697398,0.000002697398,0.99999994,0,0,0,0,0,0,0,1,0,0,0,false,false,true,-501.61,-666.63,16.99,-0.0037143172,-0.0030453624,0.77857494,-0.62753314,-275.321,1324.3009,8.551001,0,0.00061,2.02281
289.78333,2000,0,91.24,0.000002697398,0.000002697398,0.000002697398,0.99999994,0,0,0,0,0,0,0,1,0,0,0,false,false,true,-503.9,-655.58997,16.99,-0.003687343,-0.0030777312,0.7732593,-0.63407165,-270.401,1323.491,8.551001,0,0.00061,1.96011
289.79166,2000,0,91.24,0.000002697398,0.000002697398,0.000002697398,0.99999994,0,0,0,0,0,0,0,1,0,0,0,false,false,true,-506.15,-644.56,16.99,-0.0036603692,-0.0031101,0.7680536,-0.64036745,-265.771,1322.771,8.551001,0,0.00061,1.8961099
289.8,2000,0,91.24,0.000002697398,0.000002697398,0.000002697398,0.99999994,0,0,0,0,0,0,0,1,0,0,0,false,false,true,-508.36,-633.54,16.99,-0.0036333953,-0.0031424686,0.76297075,-0.646415,-261.421,1322.131,8.541,0,0.00061,1.83091
289.80832,2000,0,91.24,0.000002697398,0.000002697398,0.000002697398,0.99999994,0,0,0,0,0,0,0,1,0,0,0,false,false,true,-510.53998,-622.51996,16.99,-0.0036064212,-0.0031694428,0.7580192,-0.65221447,-257.351,1321.5709,8.541,0,0.00061,1.7645099
289.81668,2000,0,91.24,0.000002697398,0.000002697398,0.000002697398,0.99999994,0,0,0,0,0,0,0,1,0,0,0,false,false,true,-512.68,-611.51,16.99,-0.0035794473,-0.0031964167,0.7532025,-0.6577711,-253.551,1321.0709,8.541,0,0.00061,1.6970099
289.825,2000,0,91.24,0.000002697398,0.000002697398,0.000002697398,0.99999994,0,0,0,0,0,0,0,1,0,0,0,false,false,true,-514.79,-600.5,16.99,-0.0035524734,-0.0032233908,0.74853337,-0.6630796,-250.021,1320.621,8.541,0,0.00051,1.62851
289.83334,2000,0,91.24,0.000002697398,0.000002697398,0.000002697398,0.99999994,0,0,0,0,0,0,0,1,0,0,0,false,false,true,-516.87,-589.49,16.99,-0.0035308944,-0.003250365,0.7440153,-0.66814536,-246.761,1320.2109,8.541,0,0.00040999998,1.5591099
289.84167,2000,0,91.24,0.000002697398,0.000002697398,0.000002697398,0.99999994,0,0,0,0,0,0,0,1,0,0,0,false,false,true,-518.93,-578.49,16.99,-0.003509315,-0.003271944,0.73966056,-0.6729629,-243.751,1319.841,8.541,0,0.00040999998,1.48911
289.85,2000,0,91.24,0.000002697398,0.000002697398,0.000002697398,0.99999994,0,0,0,0,0,0,0,1,0,0,0,false,false,true,-520.95996,-567.49,16.99,-0.0034877358,-0.003293523,0.7354723,-0.6775377,-240.981,1319.501,8.541,0,0.00040999998,1.41871
289.85834,2000,0,91.24,0.000002697398,0.000002697398,0.000002697398,0.99999994,0,0,0,0,0,0,0,1,0,0,0,false,false,true,-522.97,-556.49,16.99,-0.0034661565,-0.0033151023,0.7314527,-0.68187517,-238.441,1319.1809,8.541,0,0.00040999998,1.34801
289.875,2000,0,91.24,0.000002697398,0.000002697398,0.000002697398,0.99999994,0,0,0,0,0,0,0,1,0,0,0,false,false,true,-526.93,-534.51,16.99,-0.0034229981,-0.0033582605,0.7239479,-0.6898379,-234.001,1318.601,8.541,0,0.00030999997,1.20661
289.89166,2000,0,91.24,0.000002697398,0.000002697398,0.000002697398,0.99999994,0,0,0,0,0,0,0,1,0,0,0,false,false,true,-530.81,-512.52997,16.99,-0.0033906293,-0.0033906293,0.7171787,-0.6968727,-230.341,1318.0609,8.541,0,0.00021,1.06591
289.9,2000,0,91.24,0.000002697398,0.000002697398,0.000002697398,0.99999994,0,0,0,0,0,0,0,1,0,0,0,false,false,true,-532.73,-501.55,16.99,-0.003374445,-0.0034068138,0.71407735,-0.7000503,-228.771,1317.8009,8.541,0,0.00021,0.99610996
289.90833,2000,0,91.24,0.000002697398,0.000002697398,0.000002697398,0.99999994,0,0,0,0,0,0,0,1,0,0,0,false,false,true,-534.64,-490.56998,16.99,-0.0033582605,-0.0034229981,0.711167,-0.7030067,-227.36101,1317.5409,8.541,0,0.00021,0.92671
289.91666,2000,0,91.24,0.000002697398,0.000002697398,0.000002697398,0.99999994,0,0,0,0,0,0,0,1,0,0,0,false,false,true,-536.52997,-479.59,16.99,-0.0033420757,-0.0034391822,0.70844734,-0.7057472,-226.101,1317.271,8.541,0,0.00010999999,0.85791
289.925,2000,0,91.24,0.000002697398,0.000002697398,0.000002697398,0.99999994,0,0,0,0,0,0,0,1,0,0,0,false,false,true,-538.41,-468.61,16.99,0.0033312866,0.0034499723,-0.70591986,0.7082753,-224.981,1317.001,8.541,0,0,0.78960997
289.93332,2000,0,91.24,0.000002697398,0.000002697398,0.000002697398,0.99999994,0,0,0,0,0,0,0,1,0,0,0,false,false,true,-540.27997,-457.63,16.99,0.003320497,0.0034607616,-0.7035839,0.7105959,-223.981,1316.731,8.541,0,0,0.72201
289.94168,2000,0,91.24,0.000002697398,0.000002697398,0.000002697398,0.99999994,0,0,0,0,0,0,0,1,0,0,0,false,false,true,-542.14996,-446.66,16.99,0.0033097074,0.0034715512,-0.7014421,0.71271014,-223.101,1316.4509,8.541,0,0,0.65511
289.95,2000,0,91.24,0.000002697398,0.000002697398,0.000002697398,0.99999994,0,0,0,0,0,0,0,1,0,0,0,false,false,true,-544.01,-435.69,16.99,0.0032989173,0.0034823404,-0.69949454,0.71462166,-222.33101,1316.1709,8.541,0,0,0.58891
289.95834,2000,0,91.24,0.000002697398,0.000002697398,0.000002697398,0.99999994,0,0,0,0,0,0,0,1,0,0,0,false,false,true,-545.86,-424.72,16.99,0.0032881282,0.0034931304,-0.6977413,0.7163336,-221.651,1315.891,8.541,0,0,0.52341
289.96667,2000,0,91.24,0.000002697398,0.000002697398,0.000002697398,0.99999994,0,0,0,0,0,0,0,1,0,0,0,false,false,true,-547.70996,-413.75,16.99,0.0032827335,0.0034985254,-0.6961768,0.7178542,-221.061,1315.601,8.541,0,0,0.45871
289.975,2000,0,91.24,0.000002697398,0.000002697398,0.000002697398,0.99999994,0,0,0,0,0,0,0,1,0,0,0,false,false,true,-549.55,-402.78998,16.99,0.0032773386,0.00350392,-0.69480115,0.71918577,-220.541,1315.3109,8.541,0,0,0.39471
289.98334,2000,0,91.24,0.000002697398,0.000002697398,0.000002697398,0.99999994,0,0,0,0,0,0,0,1,0,0,0,false,false,true,-551.39,-391.83,16.99,0.0032719441,0.0035093152,-0.6936197,0.7203253,-220.08101,1315.011,8.541,0,0,0.33151
289.99167,2000,0,91.24,0.000002697398,0.000002697398,0.000002697398,0.99999994,0,0,0,0,0,0,0,1,0,0,0,false,false,true,-553.22,-380.87,16.99,0.0032665485,0.0035147092,-0.6926216,0.721285,-219.681,1314.7109,8.541,0,0,0.26911
290,2000,0,91.24,0.000002697398,0.000002697398,0.000002697398,0.99999994,0,0,0,0,0,0,0,1,0,0,0,false,false,true,-555.05,-369.91,16.99,0.0032611543,0.0035201046,-0.6918124,0.7220613,-219.321,1314.4109,8.541,0,0,0.20751
290.00833,2000,0,91.24,0.000002697398,0.000002697398,0.000002697398,0.99999994,0,0,0,0,0,0,0,1,0,0,0,false,false,true,-556.88,-358.96,16.99,0.0032557596,0.0035254995,-0.69118667,0.7226603,-219.001,1314.111,8.541,0,0,0.14671
290.01666,2000,0,91.24,0.000002697398,0.000002697398,0.000002697398,0.99999994,0,0,0,0,0,0,0,1,0,0,0,false,false,true,-558.7,-348.00998,16.99,0.0032557596,0.0035254995,-0.6907443,0.72308314,-218.701,1313.8109,8.541,0,-0.00010999999,0.08671
290.025,2000,0,91.24,0.000002697398,0.000002697398,0.000002697398,0.99999994,0,0,0,0,0,0,0,1,0,0,0,false,false,true,-560.51996,-337.06,16.99,0.0032557596,0.0035254995,-0.6904853,0.72333044,-218.421,1313.511,8.541,0,-0.00010999999,0.02751
290.03333,2000,0,91.24,0.000002697398,0.000002697398,0.000002697398,0.99999994,0,0,0,0,0,0,0,1,0,0,0,false,false,true,-562.33997,-326.11,16.99,0.0032557594,0.0035254993,-0.69040436,0.7234076,-218.141,1313.221,8.541,0,-0.00010999999,-0.03081
290.04166,2000,0,91.24,0.000002697398,0.000002697398,0.000002697398,0.99999994,0,0,0,0,0,0,0,1,0,0,0,false,false,true,-564.16,-315.16998,16.99,0.0032557596,0.0035254995,-0.6904961,0.7233201,-217.86101,1312.9309,8.541,0,-0.00010999999,-0.08841
290.05,2000,0,91.24,0.000002697398,0.000002697398,0.000002697398,0.99999994,0,0,0,0,0,0,0,1,0,0,0,false,false,true,-565.98,-304.22998,16.99,0.0032557594,0.0035254993,-0.69076043,0.72306764,-217.571,1312.651,8.541,0,-0.00010999999,-0.14521
290.05832,2000,0,91.24,0.000002697398,0.000002697398,0.000002697398,0.99999994,0,0,0,0,0,0,0,1,0,0,0,false,false,true,-567.79,-293.29,16.99,0.0032557596,0.0035254995,-0.69119745,0.72265,-217.261,1312.371,8.541,0,-0.00021,-0.20120999
290.06668,2000,0,91.24,0.000002697398,0.000002697398,0.000002697398,0.99999994,0,0,0,0,0,0,0,1,0,0,0,false,false,true,-569.6,-282.35,16.99,0.0032611543,0.0035201046,-0.6918016,0.7220716,-216.921,1312.101,8.541,0,-0.00030999997,-0.25641
290.075,2000,0,91.24,0.000002697398,0.000002697398,0.000002697398,0.99999994,0,0,0,0,0,0,0,1,0,0,0,false,false,true,-571.41,-271.41998,16.99,0.003266549,0.0035147096,-0.6925731,0.72133166,-216.551,1311.841,8.541,0,-0.00030999997,-0.31091002
290.08334,2000,0,91.24,0.000002697398,0.000002697398,0.000002697398,0.99999994,0,0,0,0,0,0,0,1,0,0,0,false,false,true,-573.20996,-260.49,16.99,0.0032719441,0.0035093152,-0.6935064,0.7204344,-216.131,1311.591,8.541,0,-0.00030999997,-0.36461002
290.09167,2000,0,91.24,0.000002697398,0.000002697398,0.000002697398,0.99999994,0,0,0,0,0,0,0,1,0,0,0,false,false,true,-575.01,-249.56,16.99,0.0032773386,0.00350392,-0.69460154,0.7193786,-215.661,1311.351,8.541,0,-0.00030999997,-0.41751
290.1,2000,0,91.24,0.000002697398,0.000002697398,0.000002697398,0.99999994,0,0,0,0,0,0,0,1,0,0,0,false,false,true,-576.81,-238.62999,16.99,0.0032827335,0.0034985254,-0.6958531,0.71816796,-215.131,1311.121,8.541,0,-0.00030999997,-0.46961
290.10834,2000,0,91.24,0.000002697398,0.000002697398,0.000002697398,0.99999994,0,0,0,0,0,0,0,1,0,0,0,false,false,true,-578.6,-227.7,16.99,0.0032881282,0.0034931304,-0.6972558,0.71680623,-214.531,1310.901,8.541,0,-0.00030999997,-0.52101
290.11667,2000,0,91.24,0.000002697398,0.000002697398,0.000002697398,0.99999994,0,0,0,0,0,0,0,1,0,0,0,false,false,true,-580.39,-216.78,16.99,0.003298918,0.003487736,-0.6988095,0.7152917,-213.86101,1310.6909,8.541,0,-0.00030999997,-0.57161
290.125,2000,0,91.24,0.000002697398,0.000002697398,0.000002697398,0.99999994,0,0,0,0,0,0,0,1,0,0,0,false,false,true,-582.17,-205.86,16.99,0.0033097074,0.0034769461,-0.70050883,0.71362746,-213.11101,1310.501,8.541,0,-0.00030999997,-0.62141
290.13333,2000,0,91.24,0.000002697398,0.000002697398,0.000002697398,0.99999994,0,0,0,0,0,0,0,1,0,0,0,false,false,true,-583.95,-194.94,16.99,0.0033204972,0.0034661568,-0.70235395,0.71181166,-212.271,1310.3209,8.541,0,-0.00030999997,-0.67031
290.14166,2000,0,91.24,0.000002697398,0.000002697398,0.000002697398,0.99999994,0,0,0,0,0,0,0,1,0,0,0,false,false,true,-585.72,-184.01999,16.99,0.0033312866,0.003455367,-0.7043392,0.7098472,-211.33101,1310.151,8.541,0,-0.00030999997,-0.71841
290.15,2000,0,91.24,0.000002697398,0.000002697398,0.000002697398,0.99999994,0,0,0,0,0,0,0,1,0,0,0,false,false,true,-587.48,-173.09999,16.99,0.0033420762,0.0034445773,-0.70645934,0.70773727,-210.291,1309.991,8.541,0,-0.00030999997,-0.76571
290.15833,2000,0,91.24,0.000002697398,0.000002697398,0.000002697398,0.99999994,0,0,0,0,0,0,0,1,0,0,0,false,false,true,-589.23,-162.18,16.99,-0.0033528658,-0.0034337877,0.708716,-0.7054775,-209.141,1309.841,8.541,0,-0.00030999997,-0.81211
290.16666,2000,0,91.24,0.000002697398,0.000002697398,0.000002697398,0.99999994,0,0,0,0,0,0,0,1,0,0,0,false,false,true,-590.97,-151.26,16.99,-0.0033636556,-0.0034229984,0.71109766,-0.70307684,-207.881,1309.6909,8.541,0,-0.00030999997,-0.85761
290.175,2000,0,91.24,0.000002697398,0.000002697398,0.000002697398,0.99999994,0,0,0,0,0,0,0,1,0,0,0,false,false,true,-592.7,-140.34999,16.99,-0.003374445,-0.0034122085,0.7136063,-0.7005304,-206.501,1309.5509,8.541,0,-0.00030999997,-0.90221
290.18332,2000,0,91.24,0.000002697398,0.000002697398,0.000002697398,0.99999994,0,0,0,0,0,0,0,1,0,0,0,false,false,true,-594.42,-129.44,16.99,-0.0033906293,-0.0033960242,0.7162338,-0.6978438,-204.991,1309.4209,8.541,0,-0.00030999997,-0.94580996
290.19168,2000,0,91.24,0.000002697398,0.000002697398,0.000002697398,0.99999994,0,0,0,0,0,0,0,1,0,0,0,false,false,true,-596.13,-118.53,16.99,-0.003406814,-0.00337984,0.7189773,-0.695017,-203.351,1309.2909,8.541,0,-0.00030999997,-0.98841
290.2,2000,0,91.24,0.000002697398,0.000002697398,0.000002697398,0.99999994,0,0,0,0,0,0,0,1,0,0,0,false,false,true,-597.82,-107.619995,16.99,-0.0034229984,-0.0033636556,0.7218337,-0.69204986,-201.58101,1309.1609,8.541,0,-0.00030999997,-1.03001
290.20834,2000,0,91.24,0.000002697398,0.000002697398,0.000002697398,0.99999994,0,0,0,0,0,0,0,1,0,0,0,false,false,true,-599.5,-96.71,16.99,-0.0034391826,-0.003347471,0.72479504,-0.68894774,-199.671,1309.031,8.541,0,-0.00021,-1.07051
290.21667,2000,0,91.24,0.000002697398,0.000002697398,0.000002697398,0.99999994,0,0,0,0,0,0,0,1,0,0,0,false,false,true,-601.16,-85.799995,16.99,-0.003455367,-0.0033312866,0.7278632,-0.6857055,-197.61101,1308.891,8.541,0,-0.00021,-1.10991
290.225,2000,0,91.24,0.000002697398,0.000002697398,0.000002697398,0.99999994,0,0,0,0,0,0,0,1,0,0,0,false,false,true,-602.81,-74.89,16.99,-0.0034715512,-0.0033151023,0.731025,-0.6823337,-195.401,1308.751,8.541,0,-0.00021,-1.1482099
290.23334,2000,0,91.24,0.000002697398,0.000002697398,0.000002697398,0.99999994,0,0,0,0,0,0,0,1,0,0,0,false,false,true,-604.44,-63.98,16.99,-0.0034877358,-0.0032989178,0.7342824,-0.67882705,-193.041,1308.601,8.541,0,-0.00021,-1.18531
290.24167,2000,0,91.24,0.000002697398,0.000002697398,0.000002697398,0.99999994,0,0,0,0,0,0,0,1,0,0,0,false,false,true,-606.05,-53.07,16.99,-0.00350392,-0.0032827335,0.7376272,-0.675191,-190.521,1308.4309,8.541,0,-0.00021,-1.22131
290.25,2000,0,91.24,0.000002697398,0.000002697398,0.000002697398,0.99999994,0,0,0,0,0,0,0,1,0,0,0,false,false,true,-607.64,-42.17,16.99,-0.0035201046,-0.003266549,0.7410516,-0.67143077,-187.851,1308.241,8.541,0,-0.00021,-1.25621
290.25833,2000,0,91.24,0.000002697398,0.000002697398,0.000002697398,0.99999994,0,0,0,0,0,0,0,1,0,0,0,false,false,true,-609.20996,-31.269999,16.99,-0.003536289,-0.00324497,0.74455744,-0.66754115,-185.021,1308.031,8.541,0,-0.00021,-1.29011
290.26666,2000,0,91.24,0.000002697398,0.000002697398,0.000002697398,0.99999994,0,0,0,0,0,0,0,1,0,0,0,false,false,true,-610.75,-20.369999,16.99,-0.0035524734,-0.0032233908,0.7481365,-0.66352737,-182.041,1307.7909,8.541,0,-0.00021,-1.32291
290.275,2000,0,91.24,0.000002697398,0.000002697398,0.000002697398,0.99999994,0,0,0,0,0,0,0,1,0,0,0,false,false,true,-612.26996,-9.469999,16.99,-0.0035686577,-0.0032018116,0.7517813,-0.659395,-178.901,1307.521,8.541,0,-0.00021,-1.35471
290.28333,2000,0,91.24,0.000002697398,0.000002697398,0.000002697398,0.99999994,0,0,0,0,0,0,0,1,0,0,0,false,false,true,-613.76,1.43,16.99,-0.0035848422,-0.0031802326,0.7554936,-0.6551385,-175.61101,1307.221,8.541,0,-0.00021,-1.38541
290.29166,2000,0,91.24,0.000002697398,0.000002697398,0.000002697398,0.99999994,0,0,0,0,0,0,0,1,0,0,0,false,false,true,-615.22,12.32,16.99,-0.0036064207,-0.003158653,0.75926083,-0.6507686,-172.171,1306.881,8.541,0,-0.00030999997,-1.41521
290.3,2000,0,91.24,0.000002697398,0.000002697398,0.000002697398,0.99999994,0,0,0,0,0,0,0,1,0,0,0,false,false,true,-616.64996,23.21,16.99,-0.0036280004,-0.003137074,0.76308507,-0.6462801,-168.571,1306.491,8.541,0,-0.00030999997,-1.44401
290.30832,2000,0,91.24,0.000002697398,0.000002697398,0.000002697398,0.99999994,0,0,0,0,0,0,0,1,0,0,0,false,false,true,-618.05,34.1,16.99,-0.0036495796,-0.0031154947,0.7669587,-0.6416784,-164.821,1306.0609,8.541,0,-0.00030999997,-1.47181
290.31668,2000,0,91.24,0.000002697398,0.000002697398,0.000002697398,0.99999994,0,0,0,0,0,0,0,1,0,0,0,false,false,true,-619.42,44.98,16.99,-0.003671159,-0.0030939158,0.7708791,-0.63696337,-160.921,1305.5709,8.541,0,-0.00030999997,-1.4987099
290.325,2000,0,91.24,0.000002697398,0.000002697398,0.000002697398,0.99999994,0,0,0,0,0,0,0,1,0,0,0,false,false,true,-620.76,55.86,16.99,-0.003692738,-0.0030723363,0.77484334,-0.6321349,-156.871,1305.021,8.541,0,-0.00030999997,-1.5247099
290.33334,2000,0,91.24,0.000002697398,0.000002697398,0.000002697398,0.99999994,0,0,0,0,0,0,0,1,0,0,0,false,false,true,-622.07,66.74,16.99,-0.0037143172,-0.0030453624,0.77884436,-0.6271987,-152.681,1304.4109,8.541,0,-0.00030999997,-1.5498099
290.34167,2000,0,91.24,0.000002697398,0.000002697398,0.000002697398,0.99999994,0,0,0,0,0,0,0,1,0,0,0,false,false,true,-623.33997,77.61,16.99,-0.0037358964,-0.0030183885,0.78287965,-0.62215453,-148.351,1303.741,8.541,0,-0.00021,-1.57401
290.35,2000,0,91.24,0.000002697398,0.000002697398,0.000002697398,0.99999994,0,0,0,0,0,0,0,1,0,0,0,false,false,true,-624.57996,88.47,16.99,-0.0037574756,-0.0029914144,0.78694224,-0.61700785,-143.881,1303.001,8.541,0,-0.00021,-1.59731
290.35834,2000,0,91.24,0.000002697398,0.000002697398,0.000002697398,0.99999994,0,0,0,0,0,0,0,1,0,0,0,false,false,true,-625.77997,99.329994,16.99,-0.0037790546,-0.0029644405,0.79102975,-0.6117587,-139.27101,1302.1809,8.541,0,-0.00010999999,-1.61981
290.36667,2000,0,91.24,0.000002697398,0.000002697398,0.000002697398,0.99999994,0,0,0,0,0,0,0,1,0,0,0,false,false,true,-626.94,110.18,16.99,-0.003800634,-0.0029374666,0.7951398,-0.6064071,-134.531,1301.281,8.541,0,-0.00010999999,-1.64151
290.375,2000,0,91.24,0.000002697398,0.000002697398,0.000002697398,0.99999994,0,0,0,0,0,0,0,1,0,0,0,false,false,true,-628.06,121.02,16.99,-0.003822213,-0.0029104925,0.7992699,-0.60095286,-129.66101,1300.3009,8.541,0,-0.00010999999,-1.66231
290.38333,2000,0,91.24,0.000002697398,0.000002697398,0.000002697398,0.99999994,0,0,0,0,0,0,0,1,0,0,0,false,false,true,-629.14,131.86,16.99,-0.0038437922,-0.0028835186,0.80341375,-0.59540164,-124.660995,1299.231,8.541,0,0,-1.68231
290.39166,2000,0,91.24,0.000002697398,0.000002697398,0.000002697398,0.99999994,0,0,0,0,0,0,0,1,0,0,0,false,false,true,-630.18,142.69,16.99,-0.0038653715,-0.0028565445,0.8075691,-0.58975327,-119.541,1298.0709,8.541,0,0,-1.70161
290.4,2000,0,91.24,0.000002697398,0.000002697398,0.000002697398,0.99999994,0,0,0,0,0,0,0,1,0,0,0,false,false,true,-631.18,153.51,16.99,-0.0038869502,-0.0028295703,0.81172985,-0.5840131,-114.300995,1296.8109,8.541,-0.00010999999,0,-1.7201099
290.40833,2000,0,91.24,0.000002697398,0.000002697398,0.000002697398,0.99999994,0,0,0,0,0,0,0,1,0,0,0,false,false,true,-632.13,164.31999,16.99,-0.0039085294,-0.0028025967,0.815894,-0.5781814,-108.940994,1295.4509,8.541,-0.00010999999,0,-1.73781
290.41666,2000,0,91.24,0.000002697398,0.000002697398,0.000002697398,0.99999994,0,0,0,0,0,0,0,1,0,0,0,false,false,true,-633.04,175.12,16.99,-0.0039301086,-0.0027756225,0.82005954,-0.5722579,-103.471,1293.991,8.541,-0.00010999999,0,-1.75481
290.425,2000,0,91.24,0.000002697398,0.000002697398,0.000002697398,0.99999994,0,0,0,0,0,0,0,1,0,0,0,false,false,true,-633.89996,185.9,16.99,-0.003951688,-0.0027486486,0.8242208,-0.566248,-97.901,1292.4209,8.541,-0.00021,0,-1.7710099
290.43332,2000,0,91.24,0.000002697398,0.000002697398,0.000002697398,0.99999994,0,0,0,0,0,0,0,1,0,0,0,false,false,true,-634.72,196.67,16.99,-0.0039732675,-0.00271628,0.8283759,-0.56015193,-92.230995,1290.741,8.541,-0.00030999997,0,-1.78651
290.44168,2000,0,91.24,0.000002697398,0.000002697398,0.000002697398,0.99999994,0,0,0,0,0,0,0,1,0,0,0,false,false,true,-635.49,207.43,16.99,-0.0039948463,-0.002683911,0.832523,-0.55396944,-86.471,1288.9509,8.541,-0.00030999997,0,-1.80131
290.45,2000,0,91.24,0.000002697398,0.000002697398,0.000002697398,0.99999994,0,0,0,0,0,0,0,1,0,0,0,false,false,true,-636.20996,218.17,16.99,-0.0040164255,-0.0026515422,0.83665687,-0.54770607,-80.620995,1287.0409,8.541,-0.00030999997,0,-1.81541
290.45834,2000,0,91.24,0.000002697398,0.000002697398,0.000002697398,0.99999994,0,0,0,0,0,0,0,1,0,0,0,false,false,true,-636.88,228.9,16.99,-0.004038005,-0.0026191736,0.8407759,-0.5413618,-74.681,1285.011,8.541,-0.00030999997,0,-1.82881
290.46667,2000,0,91.24,0.000002697398,0.000002697398,0.000002697398,0.99999994,0,0,0,0,0,0,0,1,0,0,0,false,false,true,-637.5,239.61,16.99,-0.004059584,-0.0025868048,0.8448785,-0.5349365,-68.660995,1282.861,8.541,-0.00030999997,0,-1.8415099
290.475,2000,0,91.24,0.000002697398,0.000002697398,0.000002697398,0.99999994,0,0,0,0,0,0,0,1,0,0,0,false,false,true,-638.07,250.29999,16.99,-0.004081163,-0.002554436,0.84895957,-0.52843577,-62.571,1280.591,8.541,-0.00030999997,0,-1.85351
290.48334,2000,0,91.24,0.000002697398,0.000002697398,0.000002697398,0.99999994,0,0,0,0,0,0,0,1,0,0,0,false,false,true,-638.58997,260.97,16.99,-0.0041027423,-0.0025220672,0.85301447,-0.5218649,-56.411,1278.1909,8.541,-0.00030999997,0,-1.86481
290.49167,2000,0,91.24,0.000002697398,0.000002697398,0.000002697398,0.99999994,0,0,0,0,0,0,0,1,0,0,0,false,false,true,-639.06,271.62,16.99,-0.004118927,-0.0024896984,0.8570453,-0.51521844,-50.190998,1275.6609,8.541,-0.00030999997,0,-1.87551
290.5,2000,0,91.24,0.000002697398,0.000002697398,0.000002697398,0.99999994,0,0,0,0,0,0,0,1,0,0,0,false,false,true,-639.48,282.25,16.99,-0.004135111,-0.0024573295,0.86104417,-0.5085073,-43.911,1273.011,8.541,-0.00030999997,0,-1.88551
290.50833,2000,0,91.24,0.000002697398,0.000002697398,0.000002697398,0.99999994,0,0,0,0,0,0,0,1,0,0,0,false,false,true,-639.85,292.86,16.99,-0.0041512954,-0.0024249607,0.8650131,-0.50172603,-37.580997,1270.221,8.541,-0.00021,0,-1.89491
290.51666,2000,0,91.24,0.000002697398,0.000002697398,0.000002697398,0.99999994,0,0,0,0,0,0,0,1,0,0,0,false,false,true,-640.16,303.44998,16.99,-0.0041674804,-0.0023925921,0.868948,-0.49488008,-31.210999,1267.3009,8.551001,-0.00021,0,-1.90361
290.525,2000,0,91.24,0.000002697398,0.000002697398,0.000002697398,0.99999994,0,0,0,0,0,0,0,1,0,0,0,false,false,true,-640.42,314.00998,16.99,-0.0041836645,-0.0023602233,0.8728445,-0.48797464,-24.800999,1264.251,8.551001,-0.00021,0,-1.91171
290.53333,2000,0,91.24,0.000002697398,0.000002697398,0.000002697398,0.99999994,0,0,0,0,0,0,0,1,0,0,0,false,false,true,-640.63,324.55,16.99,-0.0041998485,-0.0023278545,0.8767049,-0.48100457,-18.360998,1261.0709,8.551001,-0.00021,0,-1.91921
290.54166,2000,0,91.24,0.000002697398,0.000002697398,0.000002697398,0.99999994,0,0,0,0,0,0,0,1,0,0,0,false,false,true,-640.77997,335.06,16.99,-0.0042160326,-0.0022954855,0.8805221,-0.47398046,-11.891,1257.751,8.551001,-0.00021,0,-1.9261099
290.55,2000,0,91.24,0.000002697398,0.000002697398,0.000002697398,0.99999994,0,0,0,0,0,0,0,1,0,0,0,false,false,true,-640.88,345.53998,16.99,-0.004232218,-0.002263117,0.88429856,-0.46689713,-5.401,1254.3009,8.551001,-0.00021,-0.00010999999,-1.93231
290.55832,2000,0,91.24,0.000002697398,0.000002697398,0.000002697398,0.99999994,0,0,0,0,0,0,0,1,0,0,0,false,false,true,-640.93,355.99,16.99,-0.0042484016,-0.0022253534,0.8880303,-0.45975977,1.1010001,1250.7109,8.551001,-0.00021,-0.00010999999,-1.93791
290.56668,2000,0,91.24,0.000002697398,0.000002697398,0.000002697398,0.99999994,0,0,0,0,0,0,0,1,0,0,0,false,false,true,-640.92,366.41,16.99,-0.004264586,-0.0021875896,0.891714,-0.45257387,7.6109996,1246.991,8.551001,-0.00010999999,-0.00021,-1.94291
290.575,2000,0,91.24,0.000002697398,0.000002697398,0.000002697398,0.99999994,0,0,0,0,0,0,0,1,0,0,0,false,false,true,-640.86,376.8,16.99,-0.004280771,-0.0021498264,0.89534897,-0.44533944,14.121,1243.141,8.551001,-0.00010999999,-0.00021,-1.94731
290.58334,2000,0,91.24,0.000002697398,0.000002697398,0.000002697398,0.99999994,0,0,0,0,0,0,0,1,0,0,0,false,false,true,-640.74,387.16,16.99,-0.0042969547,-0.0021120624,0.8989319,-0.43806177,20.630999,1239.151,8.551001,0,-0.00021,-1.95111
290.59167,2000,0,91.24,0.000002697398,0.000002697398,0.000002697398,0.99999994,0,0,0,0,0,0,0,1,0,0,0,false,false,true,-640.57,397.49,16.99,-0.0043131392,-0.002074299,0.90246284,-0.43074104,27.130999,1235.031,8.551001,0,-0.00021,-1.9543099
290.6,2000,0,91.24,0.000002697398,0.000002697398,0.000002697398,0.99999994,0,0,0,0,0,0,0,1,0,0,0,false,false,true,-640.33997,407.78,16.99,-0.004329324,-0.0020365354,0.90594083,-0.4233771,33.621,1230.781,8.551001,0,-0.00021,-1.9570099
290.60834,2000,0,91.24,0.000002697398,0.000002697398,0.000002697398,0.99999994,0,0,0,0,0,0,0,1,0,0,0,false,false,true,-640.06,418.03998,16.99,-0.0043455088,-0.0019987721,0.9093632,-0.41597548,40.091,1226.401,8.551001,0,-0.00021,-1.95911
290.61667,2000,0,91.24,0.000002697398,0.000002697398,0.000002697398,0.99999994,0,0,0,0,0,0,0,1,0,0,0,false,false,true,-639.73,428.25998,16.99,-0.004361693,-0.0019610086,0.9127296,-0.40853602,46.531,1221.891,8.551001,0,-0.00021,-1.9606099
290.625,2000,0,91.24,0.000002697398,0.000002697398,0.000002697398,0.99999994,0,0,0,0,0,0,0,1,0,0,0,false,false,true,-639.33997,438.44,16.99,-0.004377877,-0.0019232448,0.9160374,-0.40106416,52.940998,1217.251,8.551001,0,-0.00021,-1.96151
290.63333,2000,0,91.24,0.000002697398,0.000002697398,0.000002697398,0.99999994,0,0,0,0,0,0,0,1,0,0,0,false,false,true,-638.89996,448.58,16.99,-0.0043940614,-0.0018854813,0.9192841,-0.3935654,59.321,1212.491,8.551001,0,-0.00021,-1.96191
290.64166,2000,0,91.24,0.000002697398,0.000002697398,0.000002697398,0.99999994,0,0,0,0,0,0,0,1,0,0,0,false,false,true,-638.41,458.68,16.99,-0.004410245,-0.0018477174,0.9224697,-0.38603956,65.660995,1207.601,8.551001,0,-0.00021,-1.96171
290.65,2000,0,91.24,0.000002697398,0.000002697398,0.000002697398,0.99999994,0,0,0,0,0,0,0,1,0,0,0,false,false,true,-637.86,468.74,16.99,-0.0044264304,-0.0018099542,0.9255943,-0.37848687,71.951,1202.591,8.551001,0,-0.00021,-1.96101
290.65833,2000,0,91.24,0.000002697398,0.000002697398,0.000002697398,0.99999994,0,0,0,0,0,0,0,1,0,0,0,false,false,true,-637.26,478.75998,16.99,-0.0044426145,-0.0017721906,0.9286554,-0.37091255,78.190994,1197.471,8.551001,0,-0.00021,-1.95971
290.66666,2000,0,91.24,0.000002697398,0.000002697398,0.000002697398,0.99999994,0,0,0,0,0,0,0,1,0,0,0,false,false,true,-636.61,488.74,16.99,-0.004458799,-0.001734427,0.9316534,-0.36331663,84.381,1192.231,8.551001,0,-0.00021,-1.95791
290.675,2000,0,91.24,0.000002697398,0.000002697398,0.000002697398,0.99999994,0,0,0,0,0,0,0,1,0,0,0,false,false,true,-635.91,498.68,16.99,-0.0044749836,-0.0016966636,0.93458617,-0.35570455,90.510994,1186.881,8.551001,0,-0.00021,-1.95551
290.68332,2000,0,91.24,0.000002697398,0.000002697398,0.000002697398,0.99999994,0,0,0,0,0,0,0,1,0,0,0,false,false,true,-635.16,508.56998,16.99,-0.004491167,-0.0016588996,0.9374538,-0.34807625,96.58099,1181.4209,8.551001,0,-0.00010999999,-1.95261
290.69168,2000,0,91.24,0.000002697398,0.000002697398,0.000002697398,0.99999994,0,0,0,0,0,0,0,1,0,0,0,false,false,true,-634.36,518.42,16.99,-0.004507352,-0.0016211362,0.940255,-0.3404372,102.58099,1175.851,8.551001,0,-0.00010999999,-1.9491099
290.7,2000,0,91.24,0.000002697398,0.000002697398,0.000002697398,0.99999994,0,0,0,0,0,0,0,1,0,0,0,false,false,true,-633.51,528.22,16.99,-0.004518141,-0.0015833726,0.9429896,-0.33278733,108.510994,1170.1809,8.551001,0,0,-1.94511
290.70834,2000,0,91.24,0.000002697398,0.000002697398,0.000002697398,0.99999994,0,0,0,0,0,0,0,1,0,0,0,false,false,true,-632.61,537.97,16.99,-0.0045289313,-0.0015456091,0.9456564,-0.3251321,114.361,1164.411,8.551001,0.00010999999,0,-1.9406099
290.71667,2000,0,91.24,0.000002697398,0.000002697398,0.000002697398,0.99999994,0,0,0,0,0,0,0,1,0,0,0,false,false,true,-631.66,547.67,16.99,-0.0045397207,-0.0015078455,0.94825387,-0.31747687,120.131,1158.5409,8.561,0.00010999999,0,-1.9356099
290.725,2000,0,91.24,0.000002697398,0.000002697398,0.000002697398,0.99999994,0,0,0,0,0,0,0,1,0,0,0,false,false,true,-630.66,557.32,16.99,-0.0045505106,-0.001470082,0.9507844,-0.3098162,125.821,1152.5809,8.561,0.00010999999,0,-1.93001
290.73334,2000,0,91.24,0.000002697398,0.000002697398,0.000002697398,0.99999994,0,0,0,0,0,0,0,1,0,0,0,false,false,true,-629.61,566.92,16.99,-0.0045613,-0.0014323184,0.95324486,-0.30216098,131.431,1146.531,8.561,0.00010999999,-0.00010999999,-1.92391
