time,ball_loc_x,ball_loc_y,ball_loc_z,ball_rot_x,ball_rot_y,ball_rot_z,ball_rot_w,ball_vel_x,ball_vel_y,ball_vel_z,ball_ang_x,ball_ang_y,ball_ang_z,player0_throttle,player0_steer,player0_pitch,player0_yaw,player0_roll,player0_jump,player0_boost,player0_handbrake,player0_loc_x,player0_loc_y,player0_loc_z,player0_rot_x,player0_rot_y,player0_rot_z,player0_rot_w,player0_vel_x,player0_vel_y,player0_vel_z,player0_ang_x,player0_ang_y,player0_ang_z
13.825,2000,0,91.24,0.000002697398,0.000002697398,0.000002697398,0.99999994,0,0,0,0,0,0,0,0,0,0,0,false,false,false,0,-4999.86,17.01,-0.003374445,0.003374445,0.70708513,0.7071122,0,0.011,8.321,-0.00051,0,0
13.833333,2000,0,73,0.000002697398,0.000002697398,0.000002697398,0.99999994,0,0,0,0,0,0,1,1,0,0,0,false,false,true,0,-5000,-0.06,-0.000002697398,-0.00035335915,0.7071121,0.7071013,-3.3009999,12.191,134.261,0.07841,-0.025009999,0.092709996
13.841666,2000,0,87.6,0.000002697398,0.000002697398,0.000002697398,0.99999994,0,0,0,0,0,0,1,1,0,0,0,false,false,true,-0.03,-4999.9,0.98999995,0.00015375168,-0.00065546774,0.70738685,0.70682615,-6.4009995,24.050999,176.461,-0.047509998,-0.00291,0.17851
13.85,2000,0,90.52,0.000002697398,0.000002697398,0.000002697398,0.99999994,0,0,0,0,0,0,1,1,0,0,0,false,false,true,-0.08,-4999.6997,2.3899999,0.000008092193,-0.00052599254,0.70791477,0.70629746,-9.291,35.621,181.851,-0.09520999,0.00331,0.25851
13.858334,2000,0,91.1,0.000002697398,0.000002697398,0.000002697398,0.99999994,0,0,0,0,0,0,1,1,0,0,0,false,false,true,-0.16,-4999.4,3.84,-0.0002616476,-0.00023467363,0.708673,0.70553684,-12.011,46.900997,178.901,-0.104609996,0.00501,0.33321
13.866667,2000,0,91.22,0.000002697398,0.000002697398,0.000002697398,0.99999994,0,0,0,0,0,0,1,1,0,0,0,false,false,true,-0.26,-4999.01,5.2599998,-0.0005529666,0.00008901414,0.70965445,0.70454955,-14.611,57.900997,170.991,-0.10521,0.00591,0.40351
13.875,2000,0,91.24,0.000002697398,0.000002697398,0.000002697398,0.99999994,0,0,0,0,0,0,1,1,0,0,0,false,false,true,-0.38,-4998.53,6.62,-0.0008442856,0.0004180967,0.7108357,0.70335734,-17.101,68.601,162.86101,-0.10511,0.00601,0.46921
13.883333,2000,0,91.24,0.000002697398,0.000002697398,0.000002697398,0.99999994,0,0,0,0,0,0,1,1,0,0,0,false,false,true,-0.52,-4997.96,7.91,-0.0011356046,0.00074717926,0.7122096,0.70196545,-19.501,79.010994,154.731,-0.10490999,0.00611,0.53071
13.891666,2000,0,91.24,0.000002697398,0.000002697398,0.000002697398,0.99999994,0,0,0,0,0,0,1,1,0,0,0,false,false,true,-0.68,-4997.3,9.13,-0.0014269236,0.0010762617,0.7137579,0.70039016,-21.821,89.111,146.601,-0.10471,0.00631,0.58831
13.9,2000,0,91.24,0.000002697398,0.000002697398,0.000002697398,0.99999994,0,0,0,0,0,0,1,1,0,0,0,false,false,true,-0.85999995,-4996.56,10.28,-0.0017182425,0.0013999495,0.7154729,0.6986369,-24.091,98.910995,138.47101,-0.10440999,0.0065099997,0.64231
13.908334,2000,0,91.24,0.000002697398,0.000002697398,0.000002697398,0.99999994,0,0,0,0,0,0,1,1,0,0,0,false,false,true,-1.06,-4995.7397,11.37,-0.0020041666,0.0017236373,0.7173418,0.6967163,-26.321,108.410995,130.341,-0.104109995,0.00671,0.69291
13.916667,2000,0,91.24,0.000002697398,0.000002697398,0.000002697398,0.99999994,0,0,0,0,0,0,1,1,0,0,0,false,false,true,-1.28,-4994.84,12.389999,-0.0022900908,0.002047325,0.7193516,0.69463927,-28.520998,117.601,122.211,-0.10381,0.00701,0.74051
13.925,2000,0,91.24,0.000002697398,0.000002697398,0.000002697398,0.99999994,0,0,0,0,0,0,1,1,0,0,0,false,false,true,-1.52,-4993.86,13.34,-0.0025760152,0.002371013,0.7214893,0.6924166,-30.700998,126.491,114.08099,-0.10341,0.00731,0.78531
13.933333,2000,0,91.24,0.000002697398,0.000002697398,0.000002697398,0.99999994,0,0,0,0,0,0,1,1,0,0,0,false,false,true,-1.78,-4992.81,14.219999,-0.0028619391,0.0026947004,0.72375256,0.6900482,-32.871,135.08101,105.951,-0.10301,0.0076099997,0.82751
13.941667,2000,0,91.24,0.000002697398,0.000002697398,0.000002697398,0.99999994,0,0,0,0,0,0,1,1,0,0,0,false,false,true,-2.05,-4991.6797,15.04,-0.0031424686,0.0030183885,0.7261284,0.6875451,-35.031,143.36101,97.821,-0.10261,0.007909999,0.86741
13.95,2000,0,91.24,0.000002697398,0.000002697398,0.000002697398,0.99999994,0,0,0,0,0,0,1,1,0,0,0,false,false,true,-2.34,-4990.48,15.79,-0.0034229981,0.0033420762,0.72860956,0.68491244,-37.190998,151.341,89.690994,-0.10220999,0.0083099995,0.90511
13.958333,2000,0,91.24,0.000002697398,0.000002697398,0.000002697398,0.99999994,0,0,0,0,0,0,1,1,0,0,0,false,false,true,-2.6499999,-4989.2197,16.47,-0.0037035276,0.003665764,0.7311883,0.68215567,-39.341,159.031,81.561,-0.10180999,0.00871,0.94091
13.966666,2000,0,91.24,0.000002697398,0.000002697398,0.000002697398,0.99999994,0,0,0,0,0,0,1,1,0,0,0,false,false,true,-2.98,-4987.8896,17.08,-0.003978662,0.003984057,0.7338572,0.6792803,-41.490997,166.421,73.431,-0.10131,0.009109999,0.97490996
13.975,2000,0,91.24,0.000002697398,0.000002697398,0.000002697398,0.99999994,0,0,0,0,0,0,1,1,0,0,0,false,false,true,-3.33,-4986.5,17.619999,-0.0042537972,0.0043023503,0.7366091,0.6762916,-43.630997,173.521,65.300995,-0.10081,0.009509999,1.00731
13.983334,2000,0,91.24,0.000002697398,0.000002697398,0.000002697398,0.99999994,0,0,0,0,0,0,1,1,0,0,0,false,false,true,-3.6899998,-4985.05,18.1,-0.0045289313,0.004620643,0.73944163,0.67318946,-45.760998,180.381,57.170998,-0.10031,0.00991,1.03821
13.991667,2000,0,91.24,0.000002697398,0.000002697398,0.000002697398,0.99999994,0,0,0,0,0,0,1,1,0,0,0,false,false,true,-4.0699997,-4983.55,18.51,-0.004798671,0.004938936,0.7423475,0.6699796,-47.880997,186.97101,49.040997,-0.09981,0.01041,1.0678099
14,2000,0,91.24,0.000002697398,0.000002697398,0.000002697398,0.99999994,0,0,0,0,0,0,1,1,0,0,0,false,false,true,-4.47,-4981.9897,18.85,-0.0050684107,0.005257229,0.74531966,0.66666716,-49.981,193.311,40.911,-0.099309996,0.01091,1.09671
14.008333,2000,0,91.24,0.000002697398,0.000002697398,0.000002697398,0.99999994,0,0,0,0,0,0,1,1,0,0,0,false,false,true,-4.89,-4980.38,19.119999,-0.0053327563,0.0055701276,0.7483561,0.6632523,-52.060997,199.381,32.781,-0.098809995,0.011409999,1.12471
14.016666,2000,0,91.24,0.000002697398,0.000002697398,0.000002697398,0.99999994,0,0,0,0,0,0,1,1,0,0,0,false,false,true,-5.3199997,-4978.7197,19.33,-0.005597143,0.005883025,0.7514545,0.65973485,-54.100998,205.201,24.651,-0.098309994,0.011909999,1.1518099
14.025,2000,0,91.24,0.000002697398,0.000002697398,0.000002697398,0.99999994,0,0,0,0,0,0,1,1,0,0,0,false,false,true,-5.77,-4977.01,19.47,-0.0058560935,0.0061959233,0.7546081,0.6561203,-56.080997,210.771,16.521,-0.09780999,0.012409999,1.17821
14.033334,2000,0,91.24,0.000002697398,0.000002697398,0.000002697398,0.99999994,0,0,0,0,0,0,1,1,0,0,0,false,false,true,-6.24,-4975.25,19.539999,-0.0061150435,0.0065088216,0.7578193,0.6524033,-58.141,216.301,8.391,-0.09731,0.012909999,1.20451
14.041667,2000,0,91.24,0.000002697398,0.000002697398,0.000002697398,0.99999994,0,0,0,0,0,0,1,1,0,0,0,false,false,true,-6.72,-4973.4497,19.539999,-0.0063739936,0.00682172,0.7610814,0.6485891,-60.271,221.791,0.471,-0.08811,0.009609999,1.23091
14.05,2000,0,91.24,0.000002697398,0.000002697398,0.000002697398,0.99999994,0,0,0,0,0,0,1,1,0,0,0,false,false,true,-7.22,-4971.6,19.48,-0.0066167596,0.0070968545,0.7643972,0.64467245,-62.481,227.231,-6.6509995,-0.04931,0.01151,1.25731
14.058333,2000,0,91.24,0.000002697398,0.000002697398,0.000002697398,0.99999994,0,0,0,0,0,0,1,1,0,0,0,false,false,true,-7.74,-4969.71,19.359999,-0.0067516295,0.0072479085,0.76776177,0.64065874,-64.770996,232.621,-13.071,0.01321,0.01651,1.28371
14.066667,2000,0,91.24,0.000002697398,0.000002697398,0.000002697398,0.99999994,0,0,0,0,0,0,1,1,0,0,0,false,false,true,-8.28,-4967.77,19.18,-0.0067030764,0.00721554,0.77117866,0.6365425,-67.141,237.961,-17.640999,0.06461,0.012509999,1.31021
14.075,2000,0,91.24,0.000002697398,0.000002697398,0.000002697398,0.99999994,0,0,0,0,0,0,1,1,0,0,0,false,false,true,-8.84,-4965.79,18.97,-0.006530442,0.007005142,0.7746449,0.63232374,-69.601,243.241,-20.351,0.09891,0.008909999,1.33661
14.083333,2000,0,91.24,0.000002697398,0.000002697398,0.000002697398,0.99999994,0,0,0,0,0,0,1,1,0,0,0,false,false,true,-9.42,-4963.76,18.73,-0.006282282,0.0066706655,0.7781573,0.62800246,-72.141,248.47101,-21.521,0.11931,0.0057099997,1.36291
14.091666,2000,0,91.24,0.000002697398,0.000002697398,0.000002697398,0.99999994,0,0,0,0,0,0,1,1,0,0,0,false,false,true,-10.0199995,-4961.69,18.48,-0.0059909634,0.006260661,0.7817124,0.6235787,-74.761,253.631,-21.401,0.12871,0.00301,1.38921
14.1,2000,0,91.24,0.000002697398,0.000002697398,0.000002697398,0.99999994,0,0,0,0,0,0,1,1,0,0,0,false,false,true,-10.639999,-4959.58,18.23,-0.00568346,0.0058128927,0.78531164,0.6190471,-77.471,258.741,-20.271,0.12980999,0.00081,1.4154099
14.108334,2000,0,91.24,0.000002697398,0.000002697398,0.000002697398,0.99999994,0,0,0,0,0,0,1,1,0,0,0,false,false,true,-11.29,-4957.42,17.99,-0.005381309,0.005354335,0.7889522,0.6144076,-80.270996,263.79102,-18.370998,0.12491,-0.00081,1.44151
14.116667,2000,0,91.24,0.000002697398,0.000002697398,0.000002697398,0.99999994,0,0,0,0,0,0,1,1,0,0,0,false,false,true,-11.96,-4955.2197,17.77,-0.0050953855,0.0049119624,0.79263127,0.6096602,-83.160995,268.79102,-15.931,0.11581,-0.00211,1.46751
14.125,2000,0,91.24,0.000002697398,0.000002697398,0.000002697398,0.99999994,0,0,0,0,0,0,1,1,0,0,0,false,false,true,-12.65,-4952.98,17.57,-0.0048364345,0.0044911676,0.79634637,0.60480475,-86.141,273.731,-13.1710005,0.10421,-0.00301,1.49341
14.133333,2000,0,91.24,0.000002697398,0.000002697398,0.000002697398,0.99999994,0,0,0,0,0,0,1,1,0,0,0,false,false,true,-13.37,-4950.6997,17.39,-0.004609853,0.004108137,0.8000949,0.59984154,-89.230995,278.631,-10.251,0.09120999,-0.00361,1.51911
14.141666,2000,0,91.24,0.000002697398,0.000002697398,0.000002697398,0.99999994,0,0,0,0,0,0,1,1,0,0,0,false,false,true,-14.11,-4948.38,17.24,-0.0044210353,0.0037682652,0.8038785,0.59476507,-92.421,283.471,-7.291,0.07781,-0.00391,1.5447099
14.15,2000,0,91.24,0.000002697398,0.000002697398,0.000002697398,0.99999994,0,0,0,0,0,0,1,1,0,0,0,false,false,true,-14.88,-4946.02,17.109999,-0.0042645866,0.0034715515,0.80769074,0.5895807,-95.711,288.251,-4.421,0.06471,-0.00391,1.57021
14.158334,2000,0,91.24,0.000002697398,0.000002697398,0.000002697398,0.99999994,0,0,0,0,0,0,1,1,0,0,0,false,false,true,-15.679999,-4943.62,17.01,-0.0041405065,0.003217996,0.81153303,0.58428293,-99.101,292.971,-1.711,0.05241,-0.00381,1.59551
14.166667,2000,0,91.24,0.000002697398,0.000002697398,0.000002697398,0.99999994,0,0,0,0,0,0,1,1,0,0,0,false,false,true,-16.51,-4941.1797,16.93,-0.0040487945,0.003002204,0.815399,0.5788773,-102.590996,297.621,0.751,0.041109998,-0.00351,1.62071
14.175,2000,0,91.24,0.000002697398,0.000002697398,0.000002697398,0.99999994,0,0,0,0,0,0,1,1,0,0,0,false,false,true,-17.359999,-4938.6997,16.869999,-0.0039840573,0.0028241759,0.81929004,0.5733585,-106.181,302.211,2.951,0.03111,-0.00311,1.64581
14.183333,2000,0,91.24,0.000002697398,0.000002697398,0.000002697398,0.99999994,0,0,0,0,0,0,1,1,0,0,0,false,false,true,-18.24,-4936.1797,16.83,-0.003940899,0.0026839112,0.8232035,0.5677263,-109.870995,306.721,4.8609996,0.02251,-0.00251,1.67081
14.191667,2000,0,91.24,0.000002697398,0.000002697398,0.000002697398,0.99999994,0,0,0,0,0,0,1,1,0,0,0,false,false,true,-19.16,-4933.62,16.8,-0.0039139246,0.0025706203,0.827137,0.5619807,-113.671,311.161,6.4709997,0.015209999,-0.0019099999,1.69571
14.2,2000,0,91.24,0.000002697398,0.000002697398,0.000002697398,0.99999994,0,0,0,0,0,0,1,1,0,0,0,false,false,true,-20.109999,-4931.03,16.789999,-0.0039031352,0.002484304,0.83108777,0.556122,-117.571,315.521,7.8209996,0.00921,-0.00131,1.72051
14.208333,2000,0,91.24,0.000002697398,0.000002697398,0.000002697398,0.99999994,0,0,0,0,0,0,1,1,0,0,0,false,false,true,-21.09,-4928.4,16.789999,-0.0039031352,0.0024195663,0.8350532,0.55015,-121.571,319.801,8.871,0.00411,-0.00071,1.74531
14.216666,2000,0,91.24,0.000002697398,0.000002697398,0.000002697398,0.99999994,0,0,0,0,0,0,1,1,0,0,0,false,false,true,-22.1,-4925.73,16.8,-0.0039139246,0.0023764076,0.83903074,0.5440646,-125.671,323.991,9.581,-0.00010999999,-0.00021,1.77001
14.225,2000,0,91.24,0.000002697398,0.000002697398,0.000002697398,0.99999994,0,0,0,0,0,0,1,1,0,0,0,false,false,true,-23.15,-4923.03,16.81,-0.0039301086,0.0023494337,0.84302133,0.53786045,-129.871,328.091,9.991,-0.00251,0.00021,1.79461
14.233334,2000,0,91.24,0.000002697398,0.000002697398,0.000002697398,0.99999994,0,0,0,0,0,0,1,1,0,0,0,false,false,true,-24.23,-4920.3,16.83,-0.003951688,0.0023278545,0.84701866,0.5315432,-134.171,332.101,10.211,-0.00381,0.00051,1.8191099
14.241667,2000,0,91.24,0.000002697398,0.000002697398,0.000002697398,0.99999994,0,0,0,0,0,0,1,1,0,0,0,false,false,true,-25.35,-4917.53,16.85,-0.003973267,0.00231167,0.85102355,0.5251072,-138.571,336.021,10.261001,-0.00441,0.00071,1.8435099
14.25,2000,0,91.24,0.000002697398,0.000002697398,0.000002697398,0.99999994,0,0,0,0,0,0,1,1,0,0,0,false,false,true,-26.5,-4914.73,16.869999,-0.004000241,0.0023008804,0.85503334,0.5185524,-143.08101,339.841,10.211,-0.00461,0.00081,1.86781
14.258333,2000,0,91.24,0.000002697398,0.000002697398,0.000002697398,0.99999994,0,0,0,0,0,0,1,1,0,0,0,false,false,true,-27.689999,-4911.9,16.89,-0.0040272153,0.0022900908,0.85904175,0.51188445,-147.69101,343.551,10.091001,-0.00451,0.00081,1.89201
14.266666,2000,0,91.24,0.000002697398,0.000002697398,0.000002697398,0.99999994,0,0,0,0,0,0,1,1,0,0,0,false,false,true,-28.92,-4909.04,16.91,-0.004054189,0.0022739065,0.8630495,0.5050978,-152.391,347.161,9.941,-0.00421,0.00081,1.9161099
14.275,2000,0,91.24,0.000002697398,0.000002697398,0.000002697398,0.99999994,0,0,0,0,0,0,1,1,0,0,0,false,false,true,-30.189999,-4906.15,16.93,-0.0040757684,0.0022577222,0.86705387,0.4981925,-157.19101,350.661,9.761001,-0.00391,0.00081,1.94011
14.283334,2000,0,91.24,0.000002697398,0.000002697398,0.000002697398,0.99999994,0,0,0,0,0,0,1,1,0,0,0,false,false,true,-31.5,-4903.23,16.94,-0.004097348,0.002241538,0.8710521,0.4911684,-162.091,354.041,9.561,-0.00361,0.00071,1.96411
14.291667,2000,0,91.24,0.000002697398,0.000002697398,0.000002697398,0.99999994,0,0,0,0,0,0,1,1,0,0,0,false,false,true,-32.85,-4900.28,16.949999,-0.0041189273,0.0022199587,0.87504125,0.4840257,-167.091,357.311,9.391,-0.00331,0.00061,1.9880099
14.3,2000,0,91.24,0.000002697398,0.000002697398,0.000002697398,0.99999994,0,0,0,0,0,0,1,1,0,0,0,false,false,true,-34.239998,-4897.3,16.96,-0.004140506,0.0021983793,0.8790215,0.47675887,-172.181,360.461,9.241,-0.00301,0.00051,2.01181
14.308333,2000,0,91.24,0.000002697398,0.000002697398,0.000002697398,0.99999994,0,0,0,0,0,0,1,1,0,0,0,false,false,true,-35.67,-4894.3,16.97,-0.0041620852,0.0021768003,0.88298726,0.46937332,-177.36101,363.481,9.111,-0.00271,0.00040999998,2.03551
14.316667,2000,0,91.24,0.000002697398,0.000002697398,0.000002697398,0.99999994,0,0,0,0,0,0,1,1,0,0,0,false,false,true,-37.149998,-4891.27,16.98,-0.0041836645,0.0021498261,0.88693553,0.46186915,-182.631,366.371,8.981,-0.00241,0.00030999997,2.05911
14.325,2000,0,91.24,0.000002697398,0.000002697398,0.000002697398,0.99999994,0,0,0,0,0,0,1,1,0,0,0,false,false,true,-38.67,-4888.2197,16.99,-0.0042052437,0.0021228525,0.8908664,0.45424095,-187.991,369.131,8.861,-0.00211,0.00021,2.08261
14.333333,2000,0,91.24,0.000002697398,0.000002697398,0.000002697398,0.99999994,0,0,0,0,0,0,1,1,0,0,0,false,false,true,-40.239998,-4885.1396,17,-0.004226823,0.0020958784,0.8947742,0.44649392,-193.44101,371.761,8.741,-0.0019099999,0.00010999999,2.10601
14.341666,2000,0,91.24,0.000002697398,0.000002697398,0.000002697398,0.99999994,0,0,0,0,0,0,1,1,0,0,0,false,false,true,-41.85,-4882.04,17.01,-0.0042484016,0.0020635095,0.89865875,0.4386229,-198.981,374.251,8.6310005,-0.0017099999,0,2.12931
14.35,2000,0,91.24,0.000002697398,0.000002697398,0.000002697398,0.99999994,0,0,0,0,0,0,1,1,0,0,0,false,false,true,-43.51,-4878.92,17.01,-0.004269981,0.0020311407,0.90251464,0.4306331,-204.601,376.601,8.511001,-0.00151,0,2.15251
14.358334,2000,0,91.24,0.000002697398,0.000002697398,0.000002697398,0.99999994,0,0,0,0,0,0,1,1,0,0,0,false,false,true,-45.219997,-4875.78,17.01,-0.00429156,0.001998772,0.9063415,0.42251933,-210.311,378.811,8.441,-0.00131,0,2.17561
14.366667,2000,0,91.24,0.000002697398,0.000002697398,0.000002697398,0.99999994,0,0,0,0,0,0,1,1,0,0,0,false,false,true,-46.969997,-4872.62,17.01,-0.0043131397,0.0019664033,0.91013396,0.4142869,-216.091,380.871,8.391,-0.0012099999,0,2.19861
14.375,2000,0,91.24,0.000002697398,0.000002697398,0.000002697398,0.99999994,0,0,0,0,0,0,1,1,0,0,0,false,false,true,-48.77,-4869.4497,17.01,-0.0043347185,0.0019340344,0.9138917,0.40593025,-221.951,382.781,8.361,-0.0010099999,0,2.22151
14.383333,2000,0,91.24,0.000002697398,0.000002697398,0.000002697398,0.99999994,0,0,0,0,0,0,1,1,0,0,0,false,false,true,-50.62,-4866.26,17.01,-0.0043562977,0.0018962709,0.9176093,0.39745504,-227.891,384.531,8.341001,-0.00081,0,2.24431
14.391666,2000,0,91.24,0.000002697398,0.000002697398,0.000002697398,0.99999994,0,0,0,0,0,0,1,1,0,0,0,false,false,true,-52.52,-4863.06,17.01,-0.004372482,0.0018585073,0.92128634,0.38885573,-233.901,386.131,8.331,-0.00071,0,2.26701
14.4,2000,0,91.24,0.000002697398,0.000002697398,0.000002697398,0.99999994,0,0,0,0,0,0,1,1,0,0,0,false,false,true,-54.469997,-4859.84,17.01,-0.0043886667,0.0018207437,0.92491764,0.38013765,-239.981,387.57098,8.331,-0.00061,0,2.28961
14.408334,2000,0,91.24,0.000002697398,0.000002697398,0.000002697398,0.99999994,0,0,0,0,0,0,1,1,0,0,0,false,false,true,-56.469997,-4856.61,17.01,-0.004404851,0.0017829802,0.9285025,0.37129557,-246.121,388.841,8.331,-0.00051,0,2.3122098
14.416667,2000,0,91.24,0.000002697398,0.000002697398,0.000002697398,0.99999994,0,0,0,0,0,0,1,1,0,0,0,false,false,true,-58.52,-4853.37,17.01,-0.0044210353,0.0017398217,0.93203586,0.36233473,-252.321,389.951,8.331,-0.00040999998,0,2.33471
14.425,2000,0,91.24,0.000002697398,0.000002697398,0.000002697398,0.99999994,0,0,0,0,0,0,1,1,0,0,0,false,false,true,-60.62,-4850.12,17.01,-0.0044372194,0.0016966632,0.9355168,0.35324988,-258.581,390.891,8.331,-0.00040999998,0,2.35711
14.433333,2000,0,91.24,0.000002697398,0.000002697398,0.000002697398,0.99999994,0,0,0,0,0,0,1,1,0,0,0,false,false,true,-62.77,-4846.86,17.01,-0.0044534034,0.0016535048,0.93894047,0.34404635,-264.901,391.661,8.331,-0.00040999998,-0.00010999999,2.37941
14.441667,2000,0,91.24,0.000002697398,0.000002697398,0.000002697398,0.99999994,0,0,0,0,0,0,1,1,0,0,0,false,false,true,-64.979996,-4843.6,17.01,-0.004469589,0.0016103467,0.9423061,0.3347187,-271.271,392.251,8.331,-0.00040999998,-0.00010999999,2.40161
14.45,2000,0,91.24,0.000002697398,0.000002697398,0.000002697398,0.99999994,0,0,0,0,0,0,1,1,0,0,0,false,false,true,-67.24,-4840.33,17.01,-0.004485773,0.0015671883,0.9456083,0.3252724,-277.681,392.671,8.331,-0.00040999998,-0.00010999999,2.4237099
14.458333,2000,0,91.24,0.000002697398,0.000002697398,0.000002697398,0.99999994,0,0,0,0,0,0,1,1,0,0,0,false,false,true,-69.549995,-4837.06,17.01,-0.004501957,0.0015240298,0.94884455,0.3157073,-284.141,392.911,8.331,-0.00030999997,-0.00010999999,2.44571
14.466666,2000,0,91.24,0.000002697398,0.000002697398,0.000002697398,0.99999994,0,0,0,0,0,0,1,1,0,0,0,false,false,true,-71.92,-4833.79,17.01,-0.004518142,0.0014808717,0.952012,0.30602372,-290.641,392.971,8.331,-0.00030999997,-0.00010999999,2.46761
14.475,2000,0,91.24,0.000002697398,0.000002697398,0.000002697398,0.99999994,0,0,0,0,0,0,1,1,0,0,0,false,false,true,-74.34,-4830.51,17.01,-0.0045343256,0.001437713,0.95510733,0.29622123,-297.171,392.841,8.331,-0.00021,-0.00010999999,2.48941
14.483334,2000,0,91.24,0.000002697398,0.000002697398,0.000002697398,0.99999994,0,0,0,0,0,0,1,1,0,0,0,false,false,true,-76.82,-4827.2397,17.01,-0.0045505106,0.0013891599,0.9581281,0.2863002,-303.731,392.531,8.331,-0.00010999999,-0.00010999999,2.51111
14.491667,2000,0,91.24,0.000002697398,0.000002697398,0.000002697398,0.99999994,0,0,0,0,0,0,1,1,0,0,0,false,false,true,-79.35,-4823.9697,17.01,-0.0045666946,0.0013406068,0.96107095,0.2762605,-310.321,392.031,8.331,-0.00010999999,-0.00010999999,2.5327098
14.5,2000,0,91.24,0.000002697398,0.000002697398,0.000002697398,0.99999994,0,0,0,0,0,0,1,1,0,0,0,false,false,true,-81.939995,-4820.6997,17.01,-0.004582879,0.0012920536,0.96393305,0.26610202,-316.931,391.341,8.331,-0.00010999999,-0.00010999999,2.55421
14.508333,2000,0,91.24,0.000002697398,0.000002697398,0.000002697398,0.99999994,0,0,0,0,0,0,1,1,0,0,0,false,false,true,-84.58,-4817.44,17.01,-0.0045990637,0.0012435005,0.9667099,0.25583032,-323.561,390.461,8.331,-0.00010999999,-0.00010999999,2.57561
14.516666,2000,0,91.24,0.000002697398,0.000002697398,0.000002697398,0.99999994,0,0,0,0,0,0,1,1,0,0,0,false,false,true,-87.28,-4814.19,17.01,-0.004615248,0.0011949473,0.96940005,0.24543987,-330.201,389.391,8.331,-0.00010999999,-0.00010999999,2.59691
14.525,2000,0,91.24,0.000002697398,0.000002697398,0.000002697398,0.99999994,0,0,0,0,0,0,1,1,0,0,0,false,false,true,-90.03,-4810.9497,17.01,-0.0046260376,0.0011463942,0.97199905,0.23493621,-336.851,388.121,8.331,0,0,2.6182098
14.533334,2000,0,91.24,0.000002697398,0.000002697398,0.000002697398,0.99999994,0,0,0,0,0,0,1,1,0,0,0,false,false,true,-92.84,-4807.7197,17.01,-0.0046368265,0.0010978408,0.97450393,0.22431913,-343.501,386.661,8.331,0,0,2.63941
14.541667,2000,0,91.24,0.000002697398,0.000002697398,0.000002697398,0.99999994,0,0,0,0,0,0,1,1,0,0,0,false,false,true,-95.7,-4804.5,17.01,-0.0046476168,0.0010492879,0.97691196,0.21358891,-350.151,385.001,8.331,0,0,2.66051
14.55,2000,0,91.24,0.000002697398,0.000002697398,0.000002697398,0.99999994,0,0,0,0,0,0,1,1,0,0,0,false,false,true,-98.619995,-4801.29,17.01,-0.004658406,0.0009953398,0.97921985,0.20274529,-356.791,383.141,8.331,0,0,2.68151
14.558333,2000,0,91.24,0.000002697398,0.000002697398,0.000002697398,0.99999994,0,0,0,0,0,0,1,1,0,0,0,false,false,true,-101.59,-4798.1,17.01,-0.004669196,0.0009413919,0.9814236,0.19179386,-363.421,381.081,8.331,0,0,2.70241
14.566667,2000,0,91.24,0.000002697398,0.000002697398,0.000002697398,0.99999994,0,0,0,0,0,0,1,1,0,0,0,false,false,true,-104.619995,-4794.92,17.01,-0.004679985,0.00088744384,0.9835212,0.18072903,-370.031,378.831,8.331,0,0,2.7232099
14.575,2000,0,91.24,0.000002697398,0.000002697398,0.000002697398,0.99999994,0,0,0,0,0,0,1,1,0,0,0,false,false,true,-107.7,-4791.76,17.01,-0.0046907756,0.00083349604,0.9855089,0.16955644,-376.621,376.381,8.331,0,0,2.7439098
14.583333,2000,0,91.24,0.000002697398,0.000002697398,0.000002697398,0.99999994,0,0,0,0,0,0,1,1,0,0,0,false,false,true,-110.84,-4788.62,17.01,-0.0047015646,0.000779548,0.98738337,0.15827581,-383.181,373.731,8.331,0,0,2.76451
14.591666,2000,0,91.24,0.000002697398,0.000002697398,0.000002697398,0.99999994,0,0,0,0,0,0,1,1,0,0,0,false,false,true,-114.03,-4785.51,17.01,-0.004712355,0.0007256001,0.9891409,0.1468928,-389.711,370.881,8.331,0,0,2.78511
14.6,2000,0,91.24,0.000002697398,0.000002697398,0.000002697398,0.99999994,0,0,0,0,0,0,1,1,0,0,0,false,false,true,-117.28,-4782.42,17.01,-0.004717749,0.0006716521,0.9907785,0.13540718,-396.201,367.831,8.331,0,0,2.80561
14.608334,2000,0,91.24,0.000002697398,0.000002697398,0.000002697398,0.99999994,0,0,0,0,0,0,1,1,0,0,0,false,false,true,-120.579994,-4779.35,17.01,-0.0047231433,0.00061770406,0.9922939,0.12381376,-402.651,364.581,8.331,0,0,2.82601
14.616667,2000,0,91.24,0.000002697398,0.000002697398,0.000002697398,0.99999994,0,0,0,0,0,0,1,1,0,0,0,false,false,true,-123.939995,-4776.31,17.01,-0.0047285384,0.00056375616,0.99368286,0.11212317,-409.051,361.131,8.331,0,0,2.84631
14.625,2000,0,91.24,0.000002697398,0.000002697398,0.000002697398,0.99999994,0,0,0,0,0,0,1,1,0,0,0,false,false,true,-127.35,-4773.3,17.01,-0.004733934,0.00050980825,0.9949428,0.10033015,-415.401,357.481,8.331,0,0,2.86651
14.633333,2000,0,91.24,0.000002697398,0.000002697398,0.000002697398,0.99999994,0,0,0,0,0,0,1,1,0,0,0,false,false,true,-130.81,-4770.32,17.01,-0.0047393283,0.00045586028,0.9960701,0.08843993,-421.691,353.641,8.331,0,0,2.88671
14.641666,2000,0,91.24,0.000002697398,0.000002697398,0.000002697398,0.99999994,0,0,0,0,0,0,1,1,0,0,0,false,false,true,-134.31999,-4767.37,17.01,-0.004744723,0.0003965175,0.9970618,0.076452605,-427.911,349.601,8.331,0,0,2.90681
14.65,2000,0,91.24,0.000002697398,0.000002697398,0.000002697398,0.99999994,0,0,0,0,0,0,1,1,0,0,0,false,false,true,-137.89,-4764.46,17.01,-0.004750118,0.00033717477,0.9979145,0.064373665,-434.061,345.371,8.331,0,0,2.92681
14.658334,2000,0,91.24,0.000002697398,0.000002697398,0.000002697398,0.99999994,0,0,0,0,0,0,1,1,0,0,0,false,false,true,-141.51,-4761.58,17.01,-0.0047555123,0.00027783198,0.9986253,0.052197512,-440.131,340.941,8.331,0,0,2.9467099
14.666667,2000,0,91.24,0.000002697398,0.000002697398,0.000002697398,0.99999994,0,0,0,0,0,0,1,1,0,0,0,false,false,true,-145.18,-4758.7397,17.01,-0.0047609075,0.00021848925,0.99919087,0.039935146,-446.121,336.321,8.331,0,0,2.96661
14.675,2000,0,91.24,0.000002697398,0.000002697398,0.000002697398,0.99999994,0,0,0,0,0,0,1,1,0,0,0,false,false,true,-148.9,-4755.94,17.01,-0.0047609075,0.00015914648,0.99960816,0.02758098,-452.031,331.511,8.331,0,0,2.98641
14.683333,2000,0,91.24,0.000002697398,0.000002697398,0.000002697398,0.99999994,0,0,0,0,0,0,1,1,0,0,0,false,false,true,-152.67,-4753.1797,17.01,-0.0047609075,0.00009980373,0.999874,0.01514058,-457.85098,326.511,8.331,0,0,3.00611
14.691667,2000,0,91.24,0.000002697398,0.000002697398,0.000002697398,0.99999994,0,0,0,0,0,0,1,1,0,0,0,false,false,true,-156.48999,-4750.46,17.01,-0.004760908,0.000040460975,0.9999852,0.002613779,-463.57098,321.321,8.331,0,0,3.0257099
14.7,2000,0,91.24,0.000002697398,0.000002697398,0.000002697398,0.99999994,0,0,0,0,0,0,1,1,0,0,0,false,false,true,-160.34999,-4747.78,17.01,-0.0047609075,-0.000018881787,0.99993867,-0.0099939015,-469.191,315.951,8.331,0,0,3.04531
14.708333,2000,0,91.24,0.000002697398,0.000002697398,0.000002697398,0.99999994,0,0,0,0,0,0,1,1,0,0,0,false,false,true,-164.26,-4745.15,17.01,-0.004760908,-0.00007822455,0.99973136,-0.022682507,-474.701,310.401,8.331,0,0,3.06481
14.716666,2000,0,91.24,0.000002697398,0.000002697398,0.000002697398,0.99999994,0,0,0,0,0,0,1,1,0,0,0,false,false,true,-168.22,-4742.56,17.01,-0.004760907,-0.00013756729,0.9993601,-0.03544663,-480.10098,304.671,8.331,0,0,3.08431
14.725,2000,0,91.24,0.000002697398,0.000002697398,0.000002697398,0.99999994,0,0,0,0,0,0,1,1,0,0,0,false,false,true,-172.22,-4740.02,17.01,-0.004760908,-0.00019691007,0.99882215,-0.048286296,-485.38098,298.761,8.331,0,0,3.10371
14.733334,2000,0,91.24,0.000002697398,0.000002697398,0.000002697398,0.99999994,0,0,0,0,0,0,1,1,0,0,0,false,false,true,-176.26,-4737.53,17.01,-0.0047555123,-0.00025625277,0.9981142,-0.061196115,-490.541,292.681,8.331,0,0,3.12301
14.741667,2000,0,91.24,0.000002697398,0.000002697398,0.000002697398,0.99999994,0,0,0,0,0,0,1,1,0,0,0,false,false,true,-180.34999,-4735.09,17.01,-0.004750118,-0.0003155956,0.99723375,-0.07417605,-495.581,286.421,8.331,0,0,3.14231
14.75,2000,0,91.24,0.000002697398,0.000002697398,0.000002697398,0.99999994,0,0,0,0,0,0,1,1,0,0,0,false,false,true,-184.48,-4732.6997,17.01,-0.0047447234,-0.00038033316,0.99617714,-0.08722611,-500.491,279.991,8.331,0,0,3.16151
14.758333,2000,0,91.24,0.000002697398,0.000002697398,0.000002697398,0.99999994,0,0,0,0,0,0,1,1,0,0,0,false,false,true,-188.65,-4730.37,17.01,-0.0047393288,-0.0004450707,0.9949417,-0.100340895,-505.261,273.401,8.331,0,0,3.1807098
14.766666,2000,0,91.24,0.000002697398,0.000002697398,0.000002697398,0.99999994,0,0,0,0,0,0,1,1,0,0,0,false,false,true,-192.86,-4728.09,17.01,-0.004733934,-0.00050980825,0.99352485,-0.113515034,-509.891,266.651,8.331,0,0,3.19981
14.775,2000,0,91.24,0.000002697398,0.000002697398,0.000002697398,0.99999994,0,0,0,0,0,0,1,1,0,0,0,false,false,true,-197.11,-4725.87,17.01,-0.0047285384,-0.00057454576,0.9919234,-0.1267485,-514.381,259.741,8.331,0,0,3.2188098
14.783334,2000,0,91.24,0.000002697398,0.000002697398,0.000002697398,0.99999994,0,0,0,0,0,0,1,1,0,0,0,false,false,true,-201.4,-4723.71,17.01,-0.004717749,-0.00063928333,0.9901342,-0.14004135,-518.72095,252.671,8.331,0,0,3.23781
14.791667,2000,0,91.24,0.000002697398,0.000002697398,0.000002697398,0.99999994,0,0,0,0,0,0,1,1,0,0,0,false,false,true,-205.72,-4721.6,17.01,-0.00470696,-0.00070402096,0.98815453,-0.15338814,-522.91095,245.451,8.331,0,0,3.25681
14.8,2000,0,91.24,0.000002697398,0.000002697398,0.000002697398,0.99999994,0,0,0,0,0,0,1,1,0,0,0,false,false,true,-210.08,-4719.55,17.01,-0.00469617,-0.0007687585,0.985982,-0.16678345,-526.941,238.08101,8.331,0,0,3.2757099
14.808333,2000,0,91.24,0.000002697398,0.000002697398,0.000002697398,0.99999994,0,0,0,0,0,0,1,1,0,0,0,false,false,true,-214.47,-4717.57,17.01,-0.0046853805,-0.000833496,0.98361343,-0.18022732,-530.811,230.571,8.331,0,0,3.29461
14.816667,2000,0,91.24,0.000002697398,0.000002697398,0.000002697398,0.99999994,0,0,0,0,0,0,1,1,0,0,0,false,false,true,-218.89,-4715.65,17.01,-0.004674591,-0.0008982336,0.9810464,-0.19371441,-534.52094,222.911,8.331,0,0,3.31341
14.825,2000,0,91.24,0.000002697398,0.000002697398,0.000002697398,0.99999994,0,0,0,0,0,0,1,1,0,0,0,false,false,true,-223.34,-4713.79,17.01,-0.0046638018,-0.0009629712,0.9782787,-0.20723921,-538.061,215.121,8.331,0,0,3.3322098
14.833333,2000,0,91.24,0.000002697398,0.000002697398,0.000002697398,0.99999994,0,0,0,0,0,0,1,1,0,0,0,false,false,true,-227.81999,-4712,17.01,-0.0046476168,-0.0010277086,0.97530705,-0.22080176,-541.43097,207.19101,8.331,0,0,3.35091
14.841666,2000,0,91.24,0.000002697398,0.000002697398,0.000002697398,0.99999994,0,0,0,0,0,0,1,1,0,0,0,false,false,true,-232.33,-4710.27,17.01,-0.0046314327,-0.0010924463,0.97212934,-0.2343967,-544.621,199.131,8.331,0,0,3.3696098
14.85,2000,0,91.24,0.000002697398,0.000002697398,0.000002697398,0.99999994,0,0,0,0,0,0,1,1,0,0,0,false,false,true,-236.87,-4708.61,17.01,-0.004615248,-0.0011571838,0.96874213,-0.24802399,-547.641,190.951,8.331,0,0,3.38831
14.858334,2000,0,91.24,0.000002697398,0.000002697398,0.000002697398,0.99999994,0,0,0,0,0,0,1,1,0,0,0,false,false,true,-241.43,-4707.02,17.01,-0.0045990637,-0.0012219213,0.9651448,-0.26167288,-550.47095,182.651,8.331,0,0,3.40691
14.866667,2000,0,91.24,0.000002697398,0.000002697398,0.000002697398,0.99999994,0,0,0,0,0,0,1,1,0,0,0,false,false,true,-246.01999,-4705.5,17.01,-0.004582879,-0.0012866588,0.96133256,-0.27534875,-553.121,174.231,8.331,0,0,3.42551
14.875,2000,0,91.24,0.000002697398,0.000002697398,0.000002697398,0.99999994,0,0,0,0,0,0,1,1,0,0,0,false,false,true,-250.62999,-4704.05,17.01,-0.0045666946,-0.0013513964,0.95730484,-0.28904077,-555.581,165.69101,8.331,0,0,3.44411
14.883333,2000,0,91.24,0.000002697398,0.000002697398,0.000002697398,0.99999994,0,0,0,0,0,0,1,1,0,0,0,false,false,true,-255.26,-4702.67,17.01,-0.0045451154,-0.001416134,0.95305836,-0.302749,-557.85095,157.05101,8.331,0,0,3.46261
14.891666,2000,0,91.24,0.000002697398,0.000002697398,0.000002697398,0.99999994,0,0,0,0,0,0,1,1,0,0,0,false,false,true,-259.91,-4701.36,17.01,-0.004523536,-0.0014808716,0.9485912,-0.31646806,-559.93097,148.30101,8.331,0,0,3.4811099
14.9,2000,0,91.24,0.000002697398,0.000002697398,0.000002697398,0.99999994,0,0,0,0,0,0,1,1,0,0,0,false,false,true,-264.58,-4700.12,17.01,-0.004501958,-0.0015456092,0.9439016,-0.33019248,-561.811,139.451,8.331,0,0,3.49961
14.908334,2000,0,91.24,0.000002697398,0.000002697398,0.000002697398,0.99999994,0,0,0,0,0,0,1,1,0,0,0,false,false,true,-269.25998,-4698.96,17.01,-0.0044803787,-0.0016103467,0.938986,-0.3439223,-563.49097,130.501,8.331,0,0,3.51811
14.916667,2000,0,91.24,0.000002697398,0.000002697398,0.000002697398,0.99999994,0,0,0,0,0,0,1,1,0,0,0,false,false,true,-273.96,-4697.87,17.01,-0.004458799,-0.0016750842,0.93384475,-0.35764664,-564.97095,121.461,8.331,0,0,3.53651
14.925,2000,0,91.24,0.000002697398,0.000002697398,0.000002697398,0.99999994,0,0,0,0,0,0,1,1,0,0,0,false,false,true,-278.66998,-4696.86,17.01,-0.004431825,-0.0017398219,0.9284744,-0.37136573,-566.251,112.33099,8.331,0,0,3.55491
14.933333,2000,0,91.24,0.000002697398,0.000002697398,0.000002697398,0.99999994,0,0,0,0,0,0,1,1,0,0,0,false,false,true,-283.38998,-4695.92,17.01,-0.0044048512,-0.0018045595,0.9228712,-0.38507935,-567.321,103.111,8.331,0,0,3.57331
14.941667,2000,0,91.24,0.000002697398,0.000002697398,0.000002697398,0.99999994,0,0,0,0,0,0,1,1,0,0,0,false,false,true,-288.12,-4695.06,17.01,-0.0043778773,-0.001869297,0.91703564,-0.39877677,-568.18097,93.811,8.331,0,0,3.5917099
14.95,2000,0,91.24,0.000002697398,0.000002697398,0.000002697398,0.99999994,0,0,0,0,0,0,1,1,0,0,0,false,false,true,-292.85,-4694.28,17.01,-0.0043509034,-0.0019340345,0.91096413,-0.41245806,-568.831,84.440994,8.331,0,0,3.61001
14.958333,2000,0,91.24,0.000002697398,0.000002697398,0.000002697398,0.99999994,0,0,0,0,0,0,1,1,0,0,0,false,false,true,-297.59,-4693.58,17.01,-0.004323929,-0.001998772,0.90465766,-0.42611226,-569.27094,74.991,8.331,0,0,3.62831
14.966666,2000,0,91.24,0.000002697398,0.000002697398,0.000002697398,0.99999994,0,0,0,0,0,0,1,1,0,0,0,false,false,true,-302.33,-4692.9497,17.01,-0.0042915596,-0.0020635093,0.89811254,-0.43973956,-569.49097,65.480995,8.331,0,0,3.64661
14.975,2000,0,91.24,0.000002697398,0.000002697398,0.000002697398,0.99999994,0,0,0,0,0,0,1,1,0,0,0,false,false,true,-307.08,-4692.4,17.01,-0.0042591915,-0.002128247,0.8913277,-0.45333454,-569.49097,55.900997,8.331,0,0,3.66481
14.983334,2000,0,91.24,0.000002697398,0.000002697398,0.000002697398,0.99999994,0,0,0,0,0,0,1,1,0,0,0,false,false,true,-311.83,-4691.9297,17.01,-0.0042268224,-0.0021929846,0.8843016,-0.4668917,-569.27094,46.260998,8.331,0,0,3.6830099
14.991667,2000,0,91.24,0.000002697398,0.000002697398,0.000002697398,0.99999994,0,0,0,0,0,0,1,1,0,0,0,false,false,true,-316.57,-4691.54,17.01,-0.004194454,-0.0022577222,0.87703335,-0.48040575,-568.831,36.560997,8.331,0,0,3.70121
15,2000,0,91.24,0.000002697398,0.000002697398,0.000002697398,0.99999994,0,0,0,0,0,0,1,1,0,0,0,false,false,true,-321.31,-4691.23,17.01,-0.00415669,-0.0023224596,0.869522,-0.49387118,-568.17096,26.810999,8.331,-0.00010999999,0,3.7193098
15.008333,2000,0,91.24,0.000002697398,0.000002697398,0.000002697398,0.99999994,0,0,0,0,0,0,1,1,0,0,0,false,false,true,-326.03998,-4691.01,17.01,-0.0041189273,-0.0023871975,0.8617633,-0.50728816,-567.28094,17.011,8.331,-0.00010999999,0,3.7374098
15.016666,2000,0,91.24,0.000002697398,0.000002697398,0.000002697398,0.99999994,0,0,0,0,0,0,1,1,0,0,0,false,false,true,-330.77,-4690.87,17.01,-0.004081163,-0.0024519349,0.8537595,-0.5206456,-566.16095,7.161,8.331,-0.00010999999,0,3.75541
15.025,2000,0,91.24,0.000002697398,0.000002697398,0.000002697398,0.99999994,0,0,0,0,0,0,1,1,0,0,0,false,false,true,-335.49,-4690.81,17.01,-0.004043399,-0.002516672,0.84550977,-0.5339384,-564.80096,-2.721,8.331,-0.00010999999,0,3.7734098
15.033334,2000,0,91.24,0.000002697398,0.000002697398,0.000002697398,0.99999994,0,0,0,0,0,0,1,1,0,0,0,false,false,true,-340.19998,-4690.83,17.01,-0.004005636,-0.0025814099,0.8370101,-0.5471666,-563.21094,-12.641,8.331,-0.00021,0,3.7913098
15.041667,2000,0,91.24,0.000002697398,0.000002697398,0.000002697398,0.99999994,0,0,0,0,0,0,1,1,0,0,0,false,false,true,-344.88998,-4690.9297,17.01,-0.003962477,-0.0026461473,0.828263,-0.56031907,-561.381,-22.591,8.331,-0.00030999997,0,3.80911
15.05,2000,0,91.24,0.000002697398,0.000002697398,0.000002697398,0.99999994,0,0,0,0,0,0,1,1,0,0,0,false,false,true,-349.57,-4691.12,17.01,-0.0039193192,-0.0027054902,0.8192643,-0.57339615,-559.311,-32.571,8.331,-0.00030999997,0,3.82681
15.058333,2000,0,91.24,0.000002697398,0.000002697398,0.000002697398,0.99999994,0,0,0,0,0,0,1,1,0,0,0,false,false,true,-354.22998,-4691.39,17.01,-0.003876161,-0.002764833,0.81001705,-0.58638686,-556.97095,-42.531,8.331,-0.00030999997,0,3.8457098
15.066667,2000,0,91.24,0.000002697398,0.000002697398,0.000002697398,0.99999994,0,0,0,0,0,0,1,1,0,0,0,false,false,true,-358.87,-4691.7397,17.01,-0.0038330026,-0.0028241756,0.80051684,-0.59929127,-554.34094,-52.461,8.331,-0.00030999997,0,3.8659098
15.075,2000,0,91.24,0.000002697398,0.000002697398,0.000002697398,0.99999994,0,0,0,0,0,0,1,1,0,0,0,false,false,true,-363.49,-4692.1797,17.01,-0.0037844495,-0.0028835186,0.79075867,-0.6121094,-551.43097,-62.341,8.331,-0.00030999997,0,3.8875098
15.083333,2000,0,91.24,0.000002697398,0.000002697398,0.000002697398,0.99999994,0,0,0,0,0,0,1,1,0,0,0,false,false,true,-368.09,-4692.6997,17.01,-0.0037358967,-0.0029428615,0.7807417,-0.6248358,-548.24097,-72.171,8.331,-0.00021,0,3.91041
15.091666,2000,0,91.24,0.000002697398,0.000002697398,0.000002697398,0.99999994,0,0,0,0,0,0,1,1,0,0,0,false,false,true,-372.66,-4693.3,17.01,-0.003687343,-0.003002204,0.77046007,-0.6374704,-544.78094,-81.940994,8.331,-0.00010999999,0,3.93461
15.1,2000,0,91.24,0.000002697398,0.000002697398,0.000002697398,0.99999994,0,0,0,0,0,0,1,1,0,0,0,false,false,true,-377.19998,-4693.98,17.01,-0.00363879,-0.0030615467,0.7599078,-0.6500134,-541.04095,-91.651,8.331,-0.00010999999,0,3.96011
15.108334,2000,0,91.24,0.000002697398,0.000002697398,0.000002697398,0.99999994,0,0,0,0,0,0,1,1,0,0,0,false,false,true,-381.71,-4694.7397,17.01,-0.0035848422,-0.00312089,0.74907804,-0.6624647,-537.03094,-101.291,8.331,0,0,3.9869099
15.116667,2000,0,91.24,0.000002697398,0.000002697398,0.000002697398,0.99999994,0,0,0,0,0,0,1,1,0,0,0,false,false,true,-386.19,-4695.58,17.01,-0.0035308942,-0.0031802324,0.7379681,-0.67481875,-532.74097,-110.851,8.331,0,0,4.01501
15.125,2000,0,91.24,0.000002697398,0.000002697398,0.000002697398,0.99999994,0,0,0,0,0,0,1,1,0,0,0,false,false,true,-390.63,-4696.5,17.01,-0.0034769461,-0.003239575,0.72657526,-0.68707037,-528.18097,-120.33099,8.331,0,-0.00010999999,4.0444098
15.133333,2000,0,91.24,0.000002697398,0.000002697398,0.000002697398,0.99999994,0,0,0,0,0,0,1,1,0,0,0,false,false,true,-395.03,-4697.5,17.01,-0.0034229981,-0.0032989178,0.7148964,-0.6992141,-523.35095,-129.711,8.331,0,-0.00010999999,4.07511
15.141666,2000,0,91.24,0.000002697398,0.000002697398,0.000002697398,0.99999994,0,0,0,0,0,0,1,1,0,0,0,false,false,true,-399.38998,-4698.58,17.01,0.0033690496,0.00335826,-0.70292026,0.71125257,-518.251,-138.991,8.331,0,-0.00010999999,4.10701
15.15,2000,0,91.24,0.000002697398,0.000002697398,0.000002697398,0.99999994,0,0,0,0,0,0,1,1,0,0,0,false,false,true,-403.71,-4699.7397,17.01,0.0033097076,0.0034176037,-0.6906472,0.7231762,-512.891,-148.171,8.331,0,-0.00010999999,4.1402097
15.158334,2000,0,91.24,0.000002697398,0.000002697398,0.000002697398,0.99999994,0,0,0,0,0,0,1,1,0,0,0,false,false,true,-407.97998,-4700.9697,17.01,0.0032503647,0.0034715512,-0.6780718,0.73498017,-507.261,-157.241,8.331,0,-0.00021,4.17461
15.166667,2000,0,91.24,0.000002697398,0.000002697398,0.000002697398,0.99999994,0,0,0,0,0,0,1,1,0,0,0,false,false,true,-412.21,-4702.28,17.01,0.003191022,0.0035254993,-0.6651836,0.7466646,-501.35098,-166.181,8.331,0,-0.00021,4.2101097
15.175,2000,0,91.24,0.000002697398,0.000002697398,0.000002697398,0.99999994,0,0,0,0,0,0,1,1,0,0,0,false,false,true,-416.38998,-4703.6597,17.01,0.0031316795,0.0035794475,-0.65198255,0.758219,-495.111,-174.94101,8.331,0,-0.00021,4.24601
15.183333,2000,0,91.24,0.000002697398,0.000002697398,0.000002697398,0.99999994,0,0,0,0,0,0,1,1,0,0,0,false,false,true,-420.52,-4705.12,17.01,0.0030669416,0.0036333953,-0.63846844,0.7696332,-488.551,-183.521,8.331,0,-0.00010999999,4.2824097
15.191667,2000,0,91.24,0.000002697398,0.000002697398,0.000002697398,0.99999994,0,0,0,0,0,0,1,1,0,0,0,false,false,true,-424.59,-4706.65,17.01,0.003002204,0.003687343,-0.6246361,0.7809014,-481.671,-191.901,8.331,0,-0.00010999999,4.31921
15.2,2000,0,91.24,0.000002697398,0.000002697398,0.000002697398,0.99999994,0,0,0,0,0,0,1,1,0,0,0,false,false,true,-428.59998,-4708.25,17.01,0.0029374666,0.0037412914,-0.6104802,0.7920172,-474.471,-200.071,8.331,0,0,4.3565097
15.208333,2000,0,91.24,0.000002697398,0.000002697398,0.000002697398,0.99999994,0,0,0,0,0,0,1,1,0,0,0,false,false,true,-432.55,-4709.92,17.01,0.002867334,0.0037952391,-0.59600586,0.8029659,-466.961,-208.021,8.331,0,0,4.39421
15.216666,2000,0,91.24,0.000002697398,0.000002697398,0.000002697398,0.99999994,0,0,0,0,0,0,1,1,0,0,0,false,false,true,-436.44,-4711.65,17.01,0.0027972015,0.0038491867,-0.5812024,0.81374496,-459.151,-215.731,8.331,0,0,4.43241
15.225,2000,0,91.24,0.000002697398,0.000002697398,0.000002697398,0.99999994,0,0,0,0,0,0,1,1,0,0,0,false,false,true,-440.27,-4713.4497,17.01,0.0027270694,0.0038977403,-0.5660754,0.8243397,-451.051,-223.201,8.331,0,0,4.47111
15.233334,2000,0,91.24,0.000002697398,0.000002697398,0.000002697398,0.99999994,0,0,0,0,0,0,1,1,0,0,0,false,false,true,-444.03,-4715.31,17.01,0.0026515422,0.003946293,-0.55061924,0.8347429,-442.661,-230.411,8.331,0,0,4.5103097
15.241667,2000,0,91.24,0.000002697398,0.000002697398,0.000002697398,0.99999994,0,0,0,0,0,0,1,1,0,0,0,false,false,true,-447.72,-4717.23,17.01,0.0025760154,0.0039948467,-0.5348341,0.8449437,-434.001,-237.351,8.331,0,0,4.54991
15.25,2000,0,91.24,0.000002697398,0.000002697398,0.000002697398,0.99999994,0,0,0,0,0,0,1,1,0,0,0,false,false,true,-451.34,-4719.21,17.01,0.0025004882,0.0040434,-0.51871973,0.8549311,-425.07098,-244.001,8.331,0,0,4.5900097
15.258333,2000,0,91.24,0.000002697398,0.000002697398,0.000002697398,0.99999994,0,0,0,0,0,0,1,1,0,0,0,false,false,true,-454.88,-4721.2397,17.01,0.0024249607,0.0040919525,-0.5022763,0.864694,-415.881,-250.36101,8.331,0,0,4.63061
15.266666,2000,0,91.24,0.000002697398,0.000002697398,0.000002697398,0.99999994,0,0,0,0,0,0,1,1,0,0,0,false,false,true,-458.34998,-4723.33,17.01,0.0023440388,0.004140506,-0.48549846,0.8742245,-406.511,-256.351,8.321,0,0.00010999999,4.67101
15.275,2000,0,91.24,0.000002697398,0.000002697398,0.000002697398,0.99999994,0,0,0,0,0,0,1,1,0,0,0,false,false,true,-461.74,-4725.4697,17.01,0.002263117,0.004183665,-0.46839148,0.8835082,-396.991,-261.951,8.321,0,0.00010999999,4.71091
15.283334,2000,0,91.24,0.000002697398,0.000002697398,0.000002697398,0.99999994,0,0,0,0,0,0,1,1,0,0,0,false,false,true,-465.05,-4727.65,17.01,0.002182195,0.0042268224,-0.45096084,0.892531,-387.341,-267.161,8.321,0,0.00021,4.75041
15.291667,2000,0,91.24,0.000002697398,0.000002697398,0.000002697398,0.99999994,0,0,0,0,0,0,1,1,0,0,0,false,false,true,-468.28,-4729.88,17.01,0.0020958781,0.004269981,-0.43320647,0.9012821,-377.57098,-271.981,8.321,-0.00010999999,0.00021,4.78951
15.3,2000,0,91.24,0.000002697398,0.000002697398,0.000002697398,0.99999994,0,0,0,0,0,0,1,1,0,0,0,false,false,true,-471.43,-4732.15,17.01,0.0020095615,0.0043131392,-0.41513386,0.90974784,-367.701,-276.411,8.321,-0.00010999999,0.00030999997,4.82821
15.308333,2000,0,91.24,0.000002697398,0.000002697398,0.000002697398,0.99999994,0,0,0,0,0,0,1,1,0,0,0,false,false,true,-474.49,-4734.4497,17.01,0.0019232446,0.004356297,-0.39674827,0.9179149,-357.751,-280.431,8.321,-0.00021,0.00030999997,4.86641
15.316667,2000,0,91.24,0.000002697398,0.000002697398,0.000002697398,0.99999994,0,0,0,0,0,0,1,1,0,0,0,false,false,true,-477.47,-4736.79,17.01,0.0018315334,0.004394062,-0.37805527,0.92577076,-347.761,-284.011,8.321,-0.00030999997,0.00030999997,4.90381
15.325,2000,0,91.24,0.000002697398,0.000002697398,0.000002697398,0.99999994,0,0,0,0,0,0,1,1,0,0,0,false,false,true,-480.37,-4739.1597,17.01,0.0017398217,0.0044318247,-0.35906008,0.9333022,-337.751,-287.161,8.321,-0.00030999997,0.00030999997,4.94031
15.333333,2000,0,91.24,0.000002697398,0.000002697398,0.000002697398,0.99999994,0,0,0,0,0,0,1,1,0,0,0,false,false,true,-483.18,-4741.55,17.01,0.0016481103,0.004469589,-0.33977368,0.94049513,-327.741,-289.881,8.321,-0.00030999997,0.00030999997,4.97581
15.341666,2000,0,91.24,0.000002697398,0.000002697398,0.000002697398,0.99999994,0,0,0,0,0,0,1,1,0,0,0,false,false,true,-485.91,-4743.9697,17.01,0.0015510039,0.0045019574,-0.32020125,0.9473375,-317.761,-292.181,8.321,-0.00030999997,0.00030999997,5.0103097
15.35,2000,0,91.24,0.000002697398,0.000002697398,0.000002697398,0.99999994,0,0,0,0,0,0,1,1,0,0,0,false,false,true,-488.56,-4746.4,17.01,0.0014538976,0.004534326,-0.3003537,0.95381594,-307.821,-294.061,8.321,-0.00030999997,0.00030999997,5.0437098
15.358334,2000,0,91.24,0.000002697398,0.000002697398,0.000002697398,0.99999994,0,0,0,0,0,0,1,1,0,0,0,false,false,true,-491.12997,-4748.85,17.01,0.0013567912,0.0045666946,-0.28024182,0.95991755,-297.951,-295.54102,8.321,-0.00030999997,0.00040999998,5.07591
15.366667,2000,0,91.24,0.000002697398,0.000002697398,0.000002697398,0.99999994,0,0,0,0,0,0,1,1,0,0,0,false,false,true,-493.61,-4751.31,17.01,0.0012596849,0.004593669,-0.25987643,0.96563005,-288.161,-296.631,8.321,-0.00030999997,0.00040999998,5.10681
15.375,2000,0,91.24,0.000002697398,0.000002697398,0.000002697398,0.99999994,0,0,0,0,0,0,1,1,0,0,0,false,false,true,-496.00998,-4753.78,17.01,0.0011625786,0.004620643,-0.23927362,0.9709404,-278.481,-297.341,8.321,-0.00030999997,0.00040999998,5.13631
15.383333,2000,0,91.24,0.000002697398,0.000002697398,0.000002697398,0.99999994,0,0,0,0,0,0,1,1,0,0,0,false,false,true,-498.33,-4756.26,17.01,0.0010600775,0.0046476168,-0.21843883,0.97583896,-268.921,-297.681,8.321,-0.00030999997,0.00040999998,5.16431
15.391666,2000,0,91.24,0.000002697398,0.000002697398,0.000002697398,0.99999994,0,0,0,0,0,0,1,1,0,0,0,false,false,true,-500.56998,-4758.7397,17.01,0.0009575763,0.004669196,-0.19739366,0.98031265,-259.501,-297.671,8.321,-0.00030999997,0.00040999998,5.19071
15.4,2000,0,91.24,0.000002697398,0.000002697398,0.000002697398,0.99999994,0,0,0,0,0,0,1,1,0,0,0,false,false,true,-502.72998,-4761.2197,17.01,0.0008550752,0.004690775,-0.17614886,0.98435193,-250.241,-297.331,8.321,-0.00030999997,0.00051,5.21531
15.408334,2000,0,91.24,0.000002697398,0.000002697398,0.000002697398,0.99999994,0,0,0,0,0,0,1,1,0,0,0,false,false,true,-504.81998,-4763.6997,17.01,0.0007525741,0.004712355,-0.15472066,0.9879467,-241.11101,-296.671,8.321,-0.00040999998,0.00051,5.23771
15.416667,2000,0,91.24,0.000002697398,0.000002697398,0.000002697398,0.99999994,0,0,0,0,0,0,1,1,0,0,0,false,false,true,-506.83,-4766.17,17.01,0.00065007294,0.0047285384,-0.13312519,0.9910877,-232.071,-295.691,8.321,-0.00040999998,0.00051,5.25781
15.425,2000,0,91.24,0.000002697398,0.000002697398,0.000002697398,0.99999994,0,0,0,0,0,0,1,1,0,0,0,false,false,true,-508.75998,-4768.63,17.01,0.000542177,0.004744723,-0.11138408,0.9937659,-223.151,-294.411,8.321,-0.00040999998,0.00040999998,5.2754097
15.433333,2000,0,91.24,0.000002697398,0.000002697398,0.000002697398,0.99999994,0,0,0,0,0,0,1,1,0,0,0,false,false,true,-510.62,-4771.08,17.01,0.0004342811,0.004755513,-0.08951349,0.9959741,-214.371,-292.841,8.321,-0.00040999998,0.00040999998,5.29031
15.441667,2000,0,91.24,0.000002697398,0.000002697398,0.000002697398,0.99999994,0,0,0,0,0,0,1,1,0,0,0,false,false,true,-512.41,-4773.52,17.01,0.00032638517,0.004766302,-0.0675404,0.99770504,-205.761,-290.991,8.321,-0.00040999998,0.00040999998,5.30201
15.45,2000,0,91.24,0.000002697398,0.000002697398,0.000002697398,0.99999994,0,0,0,0,0,0,1,1,0,0,0,false,false,true,-514.12,-4775.94,17.01,0.00021848927,0.0047716973,-0.045486394,0.9989535,-197.36101,-288.891,8.321,-0.00040999998,0.00040999998,5.3098097
15.458333,2000,0,91.24,0.000002697398,0.000002697398,0.000002697398,0.99999994,0,0,0,0,0,0,1,1,0,0,0,false,false,true,-515.76,-4778.35,17.01,0.00011059332,0.004777092,-0.023378434,0.9997152,-189.231,-286.531,8.321,-0.00030999997,0.00040999998,5.31141
15.466666,2000,0,91.24,0.000002697398,0.000002697398,0.000002697398,0.99999994,0,0,0,0,0,0,1,1,0,0,0,false,false,true,-517.33997,-4780.7397,17.01,0.000002697398,0.0047824867,-0.0012488953,0.9999877,-181.36101,-283.941,8.311,-0.00030999997,0.00040999998,5.30711
15.475,2000,0,91.24,0.000002697398,0.000002697398,0.000002697398,0.99999994,0,0,0,0,0,0,1,1,0,0,0,false,false,true,-518.85,-4783.11,17.01,-0.000105198524,0.0047824867,0.020864459,0.9997708,-173.381,-280.961,8.311,-0.00030999997,0.00030999997,5.30691
15.483334,2000,0,91.24,0.000002697398,0.000002697398,0.000002697398,0.99999994,0,0,0,0,0,0,1,1,0,0,0,false,false,true,-520.29,-4785.4497,17.01,-0.00021309446,0.004782487,0.042967025,0.999065,-165.421,-277.631,8.311,-0.00030999997,0.00010999999,5.30831
15.491667,2000,0,91.24,0.000002697398,0.000002697398,0.000002697398,0.99999994,0,0,0,0,0,0,1,1,0,0,0,false,false,true,-521.67,-4787.76,17.01,-0.0003209904,0.0047770925,0.0650534,0.99787027,-157.521,-273.961,8.311,-0.00030999997,0,5.31081
15.5,2000,0,91.24,0.000002697398,0.000002697398,0.000002697398,0.99999994,0,0,0,0,0,0,1,1,0,0,0,false,false,true,-522.98,-4790.04,17.01,-0.0004288863,0.004766302,0.0871182,0.99618644,-149.701,-269.951,8.311,-0.00021,-0.00010999999,5.31431
15.508333,2000,0,91.24,0.000002697398,0.000002697398,0.000002697398,0.99999994,0,0,0,0,0,0,1,1,0,0,0,false,false,true,-524.23,-4792.29,17.01,-0.0005367822,0.004755513,0.10915603,0.9940131,-142.001,-265.611,8.311,-0.00021,-0.00010999999,5.3186097
15.516666,2000,0,91.24,0.000002697398,0.000002697398,0.000002697398,0.99999994,0,0,0,0,0,0,1,1,0,0,0,false,false,true,-525.41,-4794.5,17.01,-0.00064467813,0.004744723,0.13115609,0.9913501,-134.421,-260.941,8.311,-0.00010999999,-0.00021,5.32381
15.525,2000,0,91.24,0.000002697398,0.000002697398,0.000002697398,0.99999994,0,0,0,0,0,0,1,1,0,0,0,false,false,true,-526.52997,-4796.67,17.01,-0.00075257407,0.0047285384,0.153113,0.988197,-126.991,-255.951,8.311,0,-0.00030999997,5.33001
15.533334,2000,0,91.24,0.000002697398,0.000002697398,0.000002697398,0.99999994,0,0,0,0,0,0,1,1,0,0,0,false,false,true,-527.58997,-4798.8,17.01,-0.00085507525,0.00470696,0.17502137,0.984553,-119.72099,-250.641,8.311,0,-0.00030999997,5.33731
15.541667,2000,0,91.24,0.000002697398,0.000002697398,0.000002697398,0.99999994,0,0,0,0,0,0,1,1,0,0,0,false,false,true,-528.58997,-4800.89,17.01,-0.0009575762,0.00468538,0.19687034,0.9804177,-112.631,-245.011,8.311,0,-0.00030999997,5.34581
15.55,2000,0,91.24,0.000002697398,0.000002697398,0.000002697398,0.99999994,0,0,0,0,0,0,1,1,0,0,0,false,false,true,-529.52997,-4802.9297,17.01,-0.0010600775,0.0046638013,0.21866003,0.9757893,-105.730995,-239.071,8.311,0,-0.00030999997,5.35571
15.558333,2000,0,91.24,0.000002697398,0.000002697398,0.000002697398,0.99999994,0,0,0,0,0,0,1,1,0,0,0,false,false,true,-530.41,-4804.92,17.01,-0.0011625787,0.0046368274,0.24037957,0.9706672,-99.031,-232.811,8.311,0,-0.00040999998,5.36721
15.566667,2000,0,91.24,0.000002697398,0.000002697398,0.000002697398,0.99999994,0,0,0,0,0,0,1,1,0,0,0,false,false,true,-531.24,-4806.86,17.01,-0.0012650797,0.004609853,0.26202354,0.96504956,-92.541,-226.241,8.311,0,-0.00040999998,5.38051
15.575,2000,0,91.24,0.000002697398,0.000002697398,0.000002697398,0.99999994,0,0,0,0,0,0,1,1,0,0,0,false,false,true,-532.01,-4808.7397,17.01,-0.0013675808,0.0045774844,0.28359205,0.95893306,-86.281,-219.36101,8.311,0,-0.00040999998,5.3958097
15.583333,2000,0,91.24,0.000002697398,0.000002697398,0.000002697398,0.99999994,0,0,0,0,0,0,1,1,0,0,0,false,false,true,-532.73,-4810.57,17.01,-0.0014700821,0.004545116,0.3050796,0.95231485,-80.260994,-212.161,8.311,0,-0.00040999998,5.41351
15.591666,2000,0,91.24,0.000002697398,0.000002697398,0.000002697398,0.99999994,0,0,0,0,0,0,1,1,0,0,0,false,false,true,-533.39996,-4812.34,17.01,-0.001572583,0.0045073517,0.3264808,0.9451916,-74.501,-204.661,8.311,0,-0.00040999998,5.43361
15.6,2000,0,91.24,0.000002697398,0.000002697398,0.000002697398,0.99999994,0,0,0,0,0,0,1,1,0,0,0,false,false,true,-534.01996,-4814.05,17.01,-0.0016750842,0.0044695884,0.34779575,0.9375581,-69.011,-196.961,8.311,0,-0.00040999998,5.45291
15.608334,2000,0,91.24,0.000002697398,0.000002697398,0.000002697398,0.99999994,0,0,0,0,0,0,1,1,0,0,0,false,false,true,-534.6,-4815.69,17.01,-0.0017775854,0.00442643,0.36900818,0.92941386,-63.790997,-189.071,8.311,0,-0.00040999998,5.4717097
15.616667,2000,0,91.24,0.000002697398,0.000002697398,0.000002697398,0.99999994,0,0,0,0,0,0,1,1,0,0,0,false,false,true,-535.13,-4817.26,17.01,-0.0018800865,0.0043832716,0.3901019,0.92075926,-58.841,-180.981,8.311,0,-0.00030999997,5.49041
15.625,2000,0,91.24,0.000002697398,0.000002697398,0.000002697398,0.99999994,0,0,0,0,0,0,1,1,0,0,0,false,false,true,-535.62,-4818.77,17.01,-0.0019825876,0.0043401136,0.4110608,0.9115954,-54.170998,-172.69101,8.311,0.00010999999,-0.00021,5.50001
15.633333,2000,0,91.24,0.000002697398,0.000002697398,0.000002697398,0.99999994,0,0,0,0,0,0,1,1,0,0,0,false,false,true,-536.07,-4820.21,17.01,-0.0020796938,0.00429156,0.43184164,0.90193677,-49.841,-164.211,8.311,0.00021,-0.00010999999,5.50001
15.641666,2000,0,91.24,0.000002697398,0.000002697398,0.000002697398,0.99999994,0,0,0,0,0,0,1,1,0,0,0,false,false,true,-536.49,-4821.58,17.01,-0.0021768003,0.004243007,0.4523958,0.89180446,-45.880997,-155.55101,8.311,0.00021,-0.00010999999,5.49991
15.65,2000,0,91.24,0.000002697398,0.000002697398,0.000002697398,0.99999994,0,0,0,0,0,0,1,1,0,0,0,false,false,true,-536.87,-4822.88,17.01,-0.0022739065,0.004189059,0.4727127,0.88120365,-42.291,-146.72101,8.311,0.00021,-0.00010999999,5.50001
15.658334,2000,0,91.24,0.000002697398,0.000002697398,0.000002697398,0.99999994,0,0,0,0,0,0,1,1,0,0,0,false,false,true,-537.22,-4824.1,17.01,-0.002371013,0.004135111,0.49278143,0.87014,-39.091,-137.741,8.311,0.00021,0,5.50001
15.666667,2000,0,91.24,0.000002697398,0.000002697398,0.000002697398,0.99999994,0,0,0,0,0,0,1,1,0,0,0,false,false,true,-537.55,-4825.25,17.01,-0.0024627247,0.0040811636,0.51259124,0.8586195,-36.281,-128.621,8.311,0.00030999997,0,5.49991
15.675,2000,0,91.24,0.000002697398,0.000002697398,0.000002697398,0.99999994,0,0,0,0,0,0,1,1,0,0,0,false,false,true,-537.85,-4826.32,17.01,-0.002554436,0.00402182,0.5321312,0.84664845,-33.881,-119.370995,8.311,0.00030999997,0,5.50001
15.683333,2000,0,91.24,0.000002697398,0.000002697398,0.000002697398,0.99999994,0,0,0,0,0,0,1,1,0,0,0,false,false,true,-538.13,-4827.31,17.01,-0.0026461475,0.0039624777,0.5513907,0.83423346,-31.890999,-110.010994,8.311,0.00030999997,0,5.50001
15.691667,2000,0,91.24,0.000002697398,0.000002697398,0.000002697398,0.99999994,0,0,0,0,0,0,1,1,0,0,0,false,false,true,-538.39996,-4828.23,17.01,-0.0027324639,0.0038977398,0.57036424,0.82137793,-30.321,-100.561,8.311,0.00030999997,0,5.49991
15.7,2000,0,91.24,0.000002697398,0.000002697398,0.000002697398,0.99999994,0,0,0,0,0,0,1,1,0,0,0,false,false,true,-538.64996,-4829.07,17.01,-0.0028187807,0.0038330022,0.5890357,0.80809283,-29.180998,-91.031,8.311,0.00030999997,0.00010999999,5.49991
15.708333,2000,0,91.24,0.000002697398,0.000002697398,0.000002697398,0.99999994,0,0,0,0,0,0,1,1,0,0,0,false,false,true,-538.89,-4829.83,17.01,-0.002905098,0.0037682655,0.6073997,0.7943821,-28.470999,-81.440994,8.311,0.00030999997,0.00021,5.50001
15.716666,2000,0,91.24,0.000002697398,0.000002697398,0.000002697398,0.99999994,0,0,0,0,0,0,1,1,0,0,0,false,false,true,-539.13,-4830.51,17.01,-0.0029914144,0.0036981327,0.62544537,0.78025335,-28.200998,-71.800995,8.311,0.00030999997,0.00021,5.50001
15.725,2000,0,91.24,0.000002697398,0.000002697398,0.000002697398,0.99999994,0,0,0,0,0,0,1,1,0,0,0,false,false,true,-539.36,-4831.11,17.01,-0.0030723363,0.0036280004,0.64316195,0.7657153,-28.380999,-62.130997,8.311,0.00030999997,0.00030999997,5.50001
15.733334,2000,0,91.24,0.000002697398,0.000002697398,0.000002697398,0.99999994,0,0,0,0,0,0,1,1,0,0,0,false,false,true,-539.6,-4831.63,17.01,-0.0031532582,0.003557868,0.6605387,0.7507769,-29.011,-52.440998,8.311,0.00030999997,0.00040999998,5.50001
15.741667,2000,0,91.24,0.000002697398,0.000002697398,0.000002697398,0.99999994,0,0,0,0,0,0,1,1,0,0,0,false,false,true,-539.83997,-4832.07,17.01,-0.0032341804,0.0034877358,0.6775701,0.7354427,-30.100998,-42.751,8.311,0.00030999997,0.00040999998,5.50001
15.75,2000,0,91.24,0.000002697398,0.000002697398,0.000002697398,0.99999994,0,0,0,0,0,0,1,1,0,0,0,false,false,true,-540.08997,-4832.4297,17.01,-0.0033097074,0.0034122085,0.69424546,0.7197225,-31.651,-33.080997,8.311,0.00030999997,0.00051,5.49991
15.758333,2000,0,91.24,0.000002697398,0.000002697398,0.000002697398,0.99999994,0,0,0,0,0,0,1,1,0,0,0,false,false,true,-540.35,-4832.6997,17.01,-0.0033852349,0.0033366818,0.71055347,0.7036271,-33.670998,-23.450998,8.311,0.00030999997,0.00051,5.50001
15.766666,2000,0,91.24,0.000002697398,0.000002697398,0.000002697398,0.99999994,0,0,0,0,0,0,1,1,0,0,0,false,false,true,-540.63,-4832.8896,17.01,-0.0034607616,0.0032611543,0.72648853,0.68716204,-36.161,-13.871,8.311,0.00030999997,0.00061,5.50001
15.775,2000,0,91.24,0.000002697398,0.000002697398,0.000002697398,0.99999994,0,0,0,0,0,0,1,1,0,0,0,false,false,true,-540.93,-4833.01,17.01,-0.0035308944,0.0031802326,0.7420428,0.67033565,-39.130997,-4.351,8.311,0.00030999997,0.00071,5.50001
15.783334,2000,0,91.24,0.000002697398,0.000002697398,0.000002697398,0.99999994,0,0,0,0,0,0,1,1,0,0,0,false,false,true,-541.26,-4833.05,17.01,-0.0036010265,0.0030993104,0.7572061,0.6531586,-42.571,5.0509996,8.311,0.00021,0.00071,5.50001
15.791667,2000,0,91.24,0.000002697398,0.000002697398,0.000002697398,0.99999994,0,0,0,0,0,0,1,1,0,0,0,false,false,true,-541.61,-4833.01,17.01,-0.003665764,0.0030183885,0.771974,0.6356362,-46.431,14.221,8.311,0.00021,0.00081,5.50001
15.8,2000,0,91.24,0.000002697398,0.000002697398,0.000002697398,0.99999994,0,0,0,0,0,0,1,1,0,0,0,false,false,true,-542,-4832.8896,17.01,-0.0037305017,0.0029374666,0.78633714,0.6177794,-50.701,23.151,8.311,0.00010999999,0.00081,5.50001
15.808333,2000,0,91.24,0.000002697398,0.000002697398,0.000002697398,0.99999994,0,0,0,0,0,0,1,1,0,0,0,false,false,true,-542.42,-4832.6997,17.01,-0.0037952391,0.0028511498,0.8002866,0.59959877,-55.281,31.790998,8.311,0,0.00071,5.49991
15.816667,2000,0,91.24,0.000002697398,0.000002697398,0.000002697398,0.99999994,0,0,0,0,0,0,1,1,0,0,0,false,false,true,-542.88,-4832.4297,17.01,-0.0038545814,0.0027648327,0.8138144,0.5811053,-60.161,40.141,8.311,0,0.00071,5.50001
15.825,2000,0,91.24,0.000002697398,0.000002697398,0.000002697398,0.99999994,0,0,0,0,0,0,1,1,0,0,0,false,false,true,-543.38,-4832.09,17.01,-0.003913924,0.002678516,0.82691664,0.5623043,-65.331,48.201,8.311,0,0.00061,5.50001
15.833333,2000,0,91.24,0.000002697398,0.000002697398,0.000002697398,0.99999994,0,0,0,0,0,0,1,1,0,0,0,false,false,true,-543.92,-4831.69,17.01,-0.0039732675,0.0025921997,0.8395854,0.5432069,-70.791,55.961,8.311,-0.00010999999,0.00051,5.4984097
15.841666,2000,0,91.24,0.000002697398,0.000002697398,0.000002697398,0.99999994,0,0,0,0,0,0,1,1,0,0,0,false,false,true,-544.51,-4831.2197,17.01,-0.0040326104,0.0025004882,0.8518104,0.5238287,-76.520996,63.420998,8.311,-0.00010999999,0.00040999998,5.49491
15.85,2000,0,91.24,0.000002697398,0.000002697398,0.000002697398,0.99999994,0,0,0,0,0,0,1,1,0,0,0,false,false,true,-545.14996,-4830.69,17.01,-0.004086558,0.0024087764,0.8635788,0.50419146,-82.520996,70.571,8.311,-0.00010999999,0.00030999997,5.48971
15.858334,2000,0,91.24,0.000002697398,0.000002697398,0.000002697398,0.99999994,0,0,0,0,0,0,1,1,0,0,0,false,false,true,-545.83997,-4830.1,17.01,-0.004140506,0.002317065,0.8748856,0.4843062,-88.770996,77.410995,8.311,-0.00021,0.00021,5.4829097
15.866667,2000,0,91.24,0.000002697398,0.000002697398,0.000002697398,0.99999994,0,0,0,0,0,0,1,1,0,0,0,false,false,true,-546.58,-4829.4497,17.01,-0.004194454,0.0022253534,0.8857206,0.4641943,-95.270996,83.931,8.311,-0.00021,0.00010999999,5.47461
15.875,2000,0,91.24,0.000002697398,0.000002697398,0.000002697398,0.99999994,0,0,0,0,0,0,1,1,0,0,0,false,false,true,-547.37,-4828.75,17.01,-0.004243007,0.002128247,0.8960775,0.44387203,-102.001,90.131,8.311,-0.00021,0,5.46491
15.883333,2000,0,91.24,0.000002697398,0.000002697398,0.000002697398,0.99999994,0,0,0,0,0,0,1,1,0,0,0,false,false,true,-548.22,-4828,17.01,-0.00429156,0.0020311407,0.90595114,0.42335552,-108.961,96.001,8.311,-0.00021,0,5.45391
15.891666,2000,0,91.24,0.000002697398,0.000002697398,0.000002697398,0.99999994,0,0,0,0,0,0,1,1,0,0,0,false,false,true,-549.13,-4827.1997,17.01,-0.0043347185,0.0019340344,0.9153368,0.402661,-116.131,101.541,8.311,-0.00030999997,0,5.44171
15.9,2000,0,91.24,0.000002697398,0.000002697398,0.000002697398,0.99999994,0,0,0,0,0,0,1,1,0,0,0,false,false,true,-550.1,-4826.35,17.01,-0.0043778773,0.0018369282,0.9242308,0.38180467,-123.501,106.730995,8.311,-0.00030999997,0,5.4285097
