time,ball_loc_x,ball_loc_y,ball_loc_z,ball_rot_x,ball_rot_y,ball_rot_z,ball_rot_w,ball_vel_x,ball_vel_y,ball_vel_z,ball_ang_x,ball_ang_y,ball_ang_z,player0_throttle,player0_steer,player0_pitch,player0_yaw,player0_roll,player0_jump,player0_boost,player0_handbrake,player0_loc_x,player0_loc_y,player0_loc_z,player0_rot_x,player0_rot_y,player0_rot_z,player0_rot_w,player0_vel_x,player0_vel_y,player0_vel_z,player0_ang_x,player0_ang_y,player0_ang_z
75.425,2000,0,91.24,0.000002697398,0.000002697398,0.000002697398,0.99999994,0,0,0,0,0,0,0.5984252,0,0,0,0,false,false,false,0,-4745.3,17.01,-0.00335826,0.0033420757,0.70709044,0.70710707,0,600.93097,8.321,-0.00061,0.00010999999,0
75.433334,2000,0,91.24,0.000002697398,0.000002697398,0.000002697398,0.99999994,0,0,0,0,0,0,0,1,0,0,0,false,false,true,0,-4740.29,17.01,-0.00335826,0.0033420757,0.70709044,0.70710707,-12.151,597.261,8.351,-0.00091,0.00331,0.33141
75.441666,2000,0,91.24,0.000002697398,0.000002697398,0.000002697398,0.99999994,0,0,0,0,0,0,0,1,0,0,0,false,false,true,-0.099999994,-4735.31,17.01,-0.0033582605,0.003347471,0.708066,0.70613027,-20.571,594.68097,8.361,-0.00111,0.00421,0.55791
75.45,2000,0,91.24,0.000002697398,0.000002697398,0.000002697398,0.99999994,0,0,0,0,0,0,0,1,0,0,0,false,false,true,-0.26999998,-4730.35,17.01,-0.0033582605,0.0033528658,0.7097031,0.7044848,-28.100998,592.381,8.361,-0.00111,0.00441,0.75191
75.458336,2000,0,91.24,0.000002697398,0.000002697398,0.000002697398,0.99999994,0,0,0,0,0,0,0,1,0,0,0,false,false,true,-0.5,-4725.4097,17.01,-0.0033582605,0.0033582605,0.7119078,0.7022568,-34.981,590.29095,8.361,-0.00111,0.00411,0.91791
75.46667,2000,0,91.24,0.000002697398,0.000002697398,0.000002697398,0.99999994,0,0,0,0,0,0,0,1,0,0,0,false,false,true,-0.78999996,-4720.4897,17.01,-0.0033636554,0.0033582605,0.71459025,0.699527,-41.380997,588.36096,8.361,-0.00111,0.00351,1.0599099
75.475,2000,0,91.24,0.000002697398,0.000002697398,0.000002697398,0.99999994,0,0,0,0,0,0,0,1,0,0,0,false,false,true,-1.13,-4715.59,17.01,-0.0033690496,0.00335826,0.7176713,0.6963656,-47.420998,586.561,8.361,-0.0010099999,0.00291,1.18161
75.48333,2000,0,91.24,0.000002697398,0.000002697398,0.000002697398,0.99999994,0,0,0,0,0,0,0,1,0,0,0,false,false,true,-1.53,-4710.6997,17.01,-0.0033798397,0.0033528658,0.7210936,0.6928212,-53.200996,584.85095,8.361,-0.00091,0.00221,1.28601
75.49167,2000,0,91.24,0.000002697398,0.000002697398,0.000002697398,0.99999994,0,0,0,0,0,0,0,1,0,0,0,false,false,true,-1.9699999,-4705.83,17.01,-0.0033960242,0.0033420762,0.7247953,0.68894774,-58.781,583.201,8.351,-0.00081,0.00151,1.37581
75.5,2000,0,91.24,0.000002697398,0.000002697398,0.000002697398,0.99999994,0,0,0,0,0,0,0,1,0,0,0,false,false,true,-2.46,-4700.9697,17.01,-0.003412208,0.0033312861,0.72873133,0.6847829,-64.211,581.59094,8.351,-0.00071,0.00091,1.45321
75.50833,2000,0,91.24,0.000002697398,0.000002697398,0.000002697398,0.99999994,0,0,0,0,0,0,0,1,0,0,0,false,false,true,-3,-4696.12,17.01,-0.0034337877,0.0033151023,0.7328631,0.68035924,-69.501,580.011,8.351,-0.00061,0.00040999998,1.52011
75.51667,2000,0,91.24,0.000002697398,0.000002697398,0.000002697398,0.99999994,0,0,0,0,0,0,0,1,0,0,0,false,false,true,-3.58,-4691.29,17.01,-0.003455367,0.0032989178,0.7371579,0.6757035,-74.671,578.441,8.351,-0.00051,0,1.57811
75.525,2000,0,91.24,0.000002697398,0.000002697398,0.000002697398,0.99999994,0,0,0,0,0,0,0,1,0,0,0,false,false,true,-4.2,-4686.4697,17.01,-0.0034769464,0.0032773388,0.7415842,0.67084277,-79.711,576.881,8.351,-0.00040999998,-0.00030999997,1.62851
75.53333,2000,0,91.24,0.000002697398,0.000002697398,0.000002697398,0.99999994,0,0,0,0,0,0,0,1,0,0,0,false,false,true,-4.8599997,-4681.6597,17.01,-0.0034985254,0.0032557594,0.7461209,0.6657932,-84.620995,575.321,8.351,-0.00030999997,-0.00061,1.67231
75.541664,2000,0,91.24,0.000002697398,0.000002697398,0.000002697398,0.99999994,0,0,0,0,0,0,0,1,0,0,0,false,false,true,-5.5699997,-4676.87,17.01,-0.0035254995,0.0032287857,0.7507435,0.66057646,-89.381,573.761,8.341001,-0.00021,-0.00081,1.71051
75.55,2000,0,91.24,0.000002697398,0.000002697398,0.000002697398,0.99999994,0,0,0,0,0,0,0,1,0,0,0,false,false,true,-6.31,-4672.09,17.01,-0.0035524734,0.0032018116,0.7554327,0.6552086,-93.971,572.21094,8.341001,-0.00021,-0.00091,1.7437099
75.558334,2000,0,91.24,0.000002697398,0.000002697398,0.000002697398,0.99999994,0,0,0,0,0,0,0,1,0,0,0,false,false,true,-7.0899997,-4667.32,17.01,-0.0035794473,0.0031748374,0.7601752,0.6497004,-98.370995,570.67096,8.341001,-0.00010999999,-0.0010099999,1.77261
75.566666,2000,0,91.24,0.000002697398,0.000002697398,0.000002697398,0.99999994,0,0,0,0,0,0,0,1,0,0,0,false,false,true,-7.91,-4662.56,17.01,-0.0036064212,0.0031478636,0.76495296,0.64406824,-102.541,569.15094,8.341001,0,-0.00111,1.7976099
75.575,2000,0,91.24,0.000002697398,0.000002697398,0.000002697398,0.99999994,0,0,0,0,0,0,0,1,0,0,0,false,false,true,-8.76,-4657.82,17.01,-0.0036333953,0.0031154947,0.7697538,0.63832283,-106.461,567.67096,8.341001,0,-0.0012099999,1.8192099
75.583336,2000,0,91.24,0.000002697398,0.000002697398,0.000002697398,0.99999994,0,0,0,0,0,0,0,1,0,0,0,false,false,true,-9.65,-4653.09,17.01,-0.0036603692,0.003083126,0.7745704,0.6324695,-110.090996,566.24097,8.341001,0,-0.0012099999,1.83761
75.59167,2000,0,91.24,0.000002697398,0.000002697398,0.000002697398,0.99999994,0,0,0,0,0,0,0,1,0,0,0,false,false,true,-10.57,-4648.37,17.01,-0.003687343,0.003050757,0.7793914,0.6265189,-113.40099,564.891,8.331,0,-0.0012099999,1.85321
75.6,2000,0,91.24,0.000002697398,0.000002697398,0.000002697398,0.99999994,0,0,0,0,0,0,0,1,0,0,0,false,false,true,-11.5199995,-4643.6597,17.01,-0.0037143172,0.0030183885,0.78420585,0.62048215,-116.351,563.641,8.331,0,-0.00111,1.86611
75.60833,2000,0,91.24,0.000002697398,0.000002697398,0.000002697398,0.99999994,0,0,0,0,0,0,0,1,0,0,0,false,false,true,-12.49,-4638.96,17.01,-0.0037412914,0.00298602,0.7890078,0.6143645,-118.891,562.52094,8.331,0,-0.00111,1.87651
75.61667,2000,0,91.24,0.000002697398,0.000002697398,0.000002697398,0.99999994,0,0,0,0,0,0,0,1,0,0,0,false,false,true,-13.48,-4634.27,17.01,-0.0037682652,0.002953651,0.79378724,0.6081766,-120.980995,561.561,8.331,0,-0.0010099999,1.8845099
75.625,2000,0,91.24,0.000002697398,0.000002697398,0.000002697398,0.99999994,0,0,0,0,0,0,0,1,0,0,0,false,false,true,-14.49,-4629.59,17.01,-0.0037952391,0.002921282,0.798539,0.60192394,-122.571,560.80096,8.331,0,-0.0010099999,1.8903099
75.63333,2000,0,91.24,0.000002697398,0.000002697398,0.000002697398,0.99999994,0,0,0,0,0,0,0,1,0,0,0,false,false,true,-15.509999,-4624.92,17.01,-0.003822213,0.0028889133,0.8032539,0.5956174,-124.230995,559.98096,8.331,0,-0.00091,1.89591
75.64167,2000,0,91.24,0.000002697398,0.000002697398,0.000002697398,0.99999994,0,0,0,0,0,0,0,1,0,0,0,false,false,true,-16.55,-4620.25,17.01,-0.0038491874,0.0028565447,0.8079353,0.58925164,-125.961,559.09094,8.331,0,-0.00081,1.90131
75.65,2000,0,91.24,0.000002697398,0.000002697398,0.000002697398,0.99999994,0,0,0,0,0,0,0,1,0,0,0,false,false,true,-17.6,-4615.59,17.01,-0.003876161,0.0028241756,0.8125787,0.5828317,-127.751,558.141,8.331,0,-0.00071,1.90661
75.65833,2000,0,91.24,0.000002697398,0.000002697398,0.000002697398,0.99999994,0,0,0,0,0,0,0,1,0,0,0,false,false,true,-18.66,-4610.94,17.01,-0.0039031352,0.0027918073,0.81718326,0.57635796,-129.601,557.121,8.331,0,-0.00061,1.91171
75.666664,2000,0,91.24,0.000002697398,0.000002697398,0.000002697398,0.99999994,0,0,0,0,0,0,0,1,0,0,0,false,false,true,-19.74,-4606.3,17.01,-0.0039247144,0.0027594385,0.8217484,0.5698303,-131.501,556.04095,8.331,0.00010999999,-0.00051,1.91671
75.675,2000,0,91.24,0.000002697398,0.000002697398,0.000002697398,0.99999994,0,0,0,0,0,0,0,1,0,0,0,false,false,true,-20.84,-4601.67,17.01,-0.003946293,0.0027270694,0.82627356,0.56324846,-133.451,554.891,8.331,0.00010999999,-0.00051,1.92151
75.683334,2000,0,91.24,0.000002697398,0.000002697398,0.000002697398,0.99999994,0,0,0,0,0,0,0,1,0,0,0,false,false,true,-21.949999,-4597.05,17.01,-0.0039678724,0.0026947006,0.8307581,0.55661285,-135.451,553.67096,8.331,0.00010999999,-0.00051,1.9261099
75.691666,2000,0,91.24,0.000002697398,0.000002697398,0.000002697398,0.99999994,0,0,0,0,0,0,0,1,0,0,0,false,false,true,-23.08,-4592.44,17.01,-0.0039894516,0.0026623318,0.8351977,0.5499287,-137.491,552.381,8.331,0.00010999999,-0.00051,1.93061
75.7,2000,0,91.24,0.000002697398,0.000002697398,0.000002697398,0.99999994,0,0,0,0,0,0,0,1,0,0,0,false,false,true,-24.23,-4587.84,17.01,-0.004011031,0.002629963,0.8395956,0.5431906,-139.571,551.02094,8.331,0.00010999999,-0.00051,1.9349099
75.708336,2000,0,91.24,0.000002697398,0.000002697398,0.000002697398,0.99999994,0,0,0,0,0,0,0,1,0,0,0,false,false,true,-25.39,-4583.25,17.01,-0.00403261,0.0025975944,0.8439477,0.5364039,-141.69101,549.59094,8.331,0.00010999999,-0.00051,1.9391099
75.71667,2000,0,91.24,0.000002697398,0.000002697398,0.000002697398,0.99999994,0,0,0,0,0,0,0,1,0,0,0,false,false,true,-26.57,-4578.67,17.01,-0.0040541897,0.0025652258,0.8482534,0.52956873,-143.841,548.09094,8.331,0.00010999999,-0.00040999998,1.94311
75.725,2000,0,91.24,0.000002697398,0.000002697398,0.000002697398,0.99999994,0,0,0,0,0,0,0,1,0,0,0,false,false,true,-27.769999,-4574.1,17.01,-0.004075769,0.002532857,0.85251236,0.522685,-146.02101,546.52094,8.331,0.00010999999,-0.00040999998,1.94691
75.73333,2000,0,91.24,0.000002697398,0.000002697398,0.000002697398,0.99999994,0,0,0,0,0,0,0,1,0,0,0,false,false,true,-28.99,-4569.55,17.01,-0.0040973476,0.002500488,0.8567241,0.5157525,-148.22101,544.881,8.331,0.00010999999,-0.00040999998,1.9506099
75.74167,2000,0,91.24,0.000002697398,0.000002697398,0.000002697398,0.99999994,0,0,0,0,0,0,0,1,0,0,0,false,false,true,-30.23,-4565.01,17.01,-0.004118927,0.0024681191,0.860888,0.50877166,-150.44101,543.17096,8.331,0.00010999999,-0.00040999998,1.9541099
75.75,2000,0,91.24,0.000002697398,0.000002697398,0.000002697398,0.99999994,0,0,0,0,0,0,0,1,0,0,0,false,false,true,-31.48,-4560.48,17.01,-0.0041405065,0.0024357506,0.86500067,0.50174767,-152.681,541.391,8.331,0.00021,-0.00040999998,1.95741
75.75833,2000,0,91.24,0.000002697398,0.000002697398,0.000002697398,0.99999994,0,0,0,0,0,0,0,1,0,0,0,false,false,true,-32.75,-4555.9697,17.01,-0.0041620857,0.002397987,0.86906475,0.494675,-154.94101,539.54095,8.331,0.00021,-0.00040999998,1.96051
75.76667,2000,0,91.24,0.000002697398,0.000002697398,0.000002697398,0.99999994,0,0,0,0,0,0,0,1,0,0,0,false,false,true,-34.04,-4551.4697,17.01,-0.0041836645,0.0023602233,0.8730766,0.48755926,-157.211,537.621,8.331,0.00021,-0.00030999997,1.9635099
75.775,2000,0,91.24,0.000002697398,0.000002697398,0.000002697398,0.99999994,0,0,0,0,0,0,0,1,0,0,0,false,false,true,-35.35,-4546.9897,17.01,-0.004205243,0.0023224596,0.8770361,0.48040035,-159.491,535.631,8.331,0.00021,-0.00021,1.9663099
75.78333,2000,0,91.24,0.000002697398,0.000002697398,0.000002697398,0.99999994,0,0,0,0,0,0,0,1,0,0,0,false,false,true,-36.68,-4542.53,17.01,-0.004226823,0.0022846963,0.8809428,0.47319826,-161.771,533.571,8.331,0.00021,-0.00010999999,1.96891
75.791664,2000,0,91.24,0.000002697398,0.000002697398,0.000002697398,0.99999994,0,0,0,0,0,0,0,1,0,0,0,false,false,true,-38.03,-4538.08,17.01,-0.004243007,0.0022469326,0.8847964,0.46595302,-164.05101,531.441,8.331,0.00021,0,1.97131
75.8,2000,0,91.24,0.000002697398,0.000002697398,0.000002697398,0.99999994,0,0,0,0,0,0,0,1,0,0,0,false,false,true,-39.399998,-4533.65,17.01,-0.004259192,0.002209169,0.8885937,0.45867008,-166.33101,529.24097,8.331,0.00010999999,0,1.9736099
75.808334,2000,0,91.24,0.000002697398,0.000002697398,0.000002697398,0.99999994,0,0,0,0,0,0,0,1,0,0,0,false,false,true,-40.79,-4529.2397,17.01,-0.0042753764,0.0021714056,0.89233446,0.45134926,-168.601,526.98096,8.331,0,0,1.9757099
75.816666,2000,0,91.24,0.000002697398,0.000002697398,0.000002697398,0.99999994,0,0,0,0,0,0,0,1,0,0,0,false,false,true,-42.2,-4524.85,17.01,-0.00429156,0.0021336419,0.8960185,0.4439907,-170.871,524.65094,8.331,0,0,1.97761
75.825,2000,0,91.24,0.000002697398,0.000002697398,0.000002697398,0.99999994,0,0,0,0,0,0,0,1,0,0,0,false,false,true,-43.62,-4520.48,17.01,-0.004307745,0.0020958784,0.8996456,0.4365945,-173.131,522.261,8.331,0,0,1.9793099
75.833336,2000,0,91.24,0.000002697398,0.000002697398,0.000002697398,0.99999994,0,0,0,0,0,0,0,1,0,0,0,false,false,true,-45.059998,-4516.13,17.01,-0.0043239286,0.0020581144,0.90321547,0.42916027,-175.371,519.80096,8.331,0,0,1.9808099
75.84167,2000,0,91.24,0.000002697398,0.000002697398,0.000002697398,0.99999994,0,0,0,0,0,0,0,1,0,0,0,false,false,true,-46.52,-4511.8,17.01,-0.0043401127,0.002020351,0.90672797,0.42168847,-177.591,517.28094,8.331,0,0,1.9822099
75.85,2000,0,91.24,0.000002697398,0.000002697398,0.000002697398,0.99999994,0,0,0,0,0,0,0,1,0,0,0,false,false,true,-48,-4507.4897,17.01,-0.004356298,0.0019825876,0.9101804,0.41418442,-179.80101,514.701,8.331,0,0,1.98341
75.85833,2000,0,91.24,0.000002697398,0.000002697398,0.000002697398,0.99999994,0,0,0,0,0,0,0,1,0,0,0,false,false,true,-49.5,-4503.1997,17.01,-0.004372482,0.001944824,0.91357243,0.40664777,-181.981,512.061,8.331,0,0,1.9844099
75.86667,2000,0,91.24,0.000002697398,0.000002697398,0.000002697398,0.99999994,0,0,0,0,0,0,0,1,0,0,0,false,false,true,-51.02,-4498.9297,17.01,-0.0043886667,0.0019070605,0.91690403,0.39907888,-184.141,509.361,8.331,-0.00010999999,0,1.98521
75.875,2000,0,91.24,0.000002697398,0.000002697398,0.000002697398,0.99999994,0,0,0,0,0,0,0,1,0,0,0,false,false,true,-52.55,-4494.6797,17.01,-0.004404851,0.0018692969,0.9201728,0.39148298,-186.271,506.60098,8.331,-0.00010999999,0,1.9858099
75.88333,2000,0,91.24,0.000002697398,0.000002697398,0.000002697398,0.99999994,0,0,0,0,0,0,0,1,0,0,0,false,false,true,-54.1,-4490.46,17.01,-0.004421035,0.001831533,0.923381,0.38385463,-188.371,503.791,8.331,-0.00010999999,0,1.98621
75.89167,2000,0,91.24,0.000002697398,0.000002697398,0.000002697398,0.99999994,0,0,0,0,0,0,0,1,0,0,0,false,false,true,-55.67,-4486.26,17.01,-0.0044372194,0.0017937695,0.9265262,0.37619942,-190.44101,500.921,8.331,-0.00010999999,0,1.98641
75.9,2000,0,91.24,0.000002697398,0.000002697398,0.000002697398,0.99999994,0,0,0,0,0,0,0,1,0,0,0,false,false,true,-57.26,-4482.09,17.01,-0.004453404,0.0017560062,0.9296085,0.36851725,-192.481,498.001,8.331,-0.00010999999,0,1.98641
75.90833,2000,0,91.24,0.000002697398,0.000002697398,0.000002697398,0.99999994,0,0,0,0,0,0,0,1,0,0,0,false,false,true,-58.859997,-4477.94,17.01,-0.0044695884,0.0017182425,0.93262774,0.360808,-194.481,495.031,8.331,-0.00010999999,0,1.98621
75.916664,2000,0,91.24,0.000002697398,0.000002697398,0.000002697398,0.99999994,0,0,0,0,0,0,0,1,0,0,0,false,false,true,-60.48,-4473.81,17.01,-0.0044857734,0.0016804792,0.93558186,0.3530773,-196.44101,492.011,8.331,-0.00010999999,0,1.9858099
75.925,2000,0,91.24,0.000002697398,0.000002697398,0.000002697398,0.99999994,0,0,0,0,0,0,0,1,0,0,0,false,false,true,-62.12,-4469.71,17.01,-0.0045019574,0.0016427154,0.9384709,0.34532493,-198.36101,488.941,8.331,-0.00010999999,0,1.98521
75.933334,2000,0,91.24,0.000002697398,0.000002697398,0.000002697398,0.99999994,0,0,0,0,0,0,0,1,0,0,0,false,false,true,-63.77,-4465.64,17.01,-0.004518141,0.0016049517,0.9412949,0.33755094,-200.241,485.831,8.331,-0.00010999999,0,1.98451
75.941666,2000,0,91.24,0.000002697398,0.000002697398,0.000002697398,0.99999994,0,0,0,0,0,0,0,1,0,0,0,false,false,true,-65.439995,-4461.59,17.01,-0.0045289313,0.0015671883,0.9440541,0.32975549,-202.08101,482.681,8.331,-0.00010999999,0,1.9836099
75.95,2000,0,91.24,0.000002697398,0.000002697398,0.000002697398,0.99999994,0,0,0,0,0,0,0,1,0,0,0,false,false,true,-67.119995,-4457.57,17.01,-0.0045397207,0.0015294247,0.9467466,0.32194382,-203.871,479.491,8.331,-0.00010999999,0,1.98251
75.958336,2000,0,91.24,0.000002697398,0.000002697398,0.000002697398,0.99999994,0,0,0,0,0,0,0,1,0,0,0,false,false,true,-68.82,-4453.57,17.01,-0.0045505106,0.0014916611,0.9493743,0.3141105,-205.61101,476.261,8.331,-0.00010999999,0,1.98121
75.96667,2000,0,91.24,0.000002697398,0.000002697398,0.000002697398,0.99999994,0,0,0,0,0,0,0,1,0,0,0,false,false,true,-70.53,-4449.6,17.01,-0.0045612995,0.0014538975,0.95193535,0.30626103,-207.311,472.991,8.331,-0.00021,0,1.97971
75.975,2000,0,91.24,0.000002697398,0.000002697398,0.000002697398,0.99999994,0,0,0,0,0,0,0,1,0,0,0,false,false,true,-72.26,-4445.6597,17.01,-0.00457209,0.0014161341,0.9544286,0.29840085,-208.961,469.691,8.331,-0.00021,0,1.9780099
75.98333,2000,0,91.24,0.000002697398,0.000002697398,0.000002697398,0.99999994,0,0,0,0,0,0,0,1,0,0,0,false,false,true,-74,-4441.75,17.01,-0.004582879,0.0013783704,0.9568556,0.29052433,-210.561,466.35098,8.331,-0.00021,0,1.97611
75.99167,2000,0,91.24,0.000002697398,0.000002697398,0.000002697398,0.99999994,0,0,0,0,0,0,0,1,0,0,0,false,false,true,-75.75,-4437.86,17.01,-0.0045936685,0.0013406067,0.9592148,0.28263712,-212.101,462.981,8.331,-0.00021,0,1.97401
76,2000,0,91.24,0.000002697398,0.000002697398,0.000002697398,0.99999994,0,0,0,0,0,0,0,1,0,0,0,false,false,true,-77.52,-4434,17.01,-0.0046044583,0.0013028432,0.96150684,0.2747391,-213.591,459.591,8.331,-0.00021,0,1.97171
76.00833,2000,0,91.24,0.000002697398,0.000002697398,0.000002697398,0.99999994,0,0,0,0,0,0,0,1,0,0,0,false,false,true,-79.299995,-4430.17,17.01,-0.004615248,0.0012650797,0.9637316,0.26683033,-215.021,456.171,8.331,-0.00021,0,1.9692099
76.01667,2000,0,91.24,0.000002697398,0.000002697398,0.000002697398,0.99999994,0,0,0,0,0,0,0,1,0,0,0,false,false,true,-81.09,-4426.37,17.01,-0.0046260376,0.0012273161,0.9658879,0.25891614,-216.401,452.731,8.331,-0.00021,0,1.9665099
76.025,2000,0,91.24,0.000002697398,0.000002697398,0.000002697398,0.99999994,0,0,0,0,0,0,0,1,0,0,0,false,false,true,-82.89,-4422.6,17.01,-0.0046368274,0.0011895526,0.9679775,0.25099114,-217.72101,449.261,8.331,-0.00021,0,1.9636099
76.03333,2000,0,91.24,0.000002697398,0.000002697398,0.000002697398,0.99999994,0,0,0,0,0,0,0,1,0,0,0,false,false,true,-84.7,-4418.86,17.01,-0.0046476168,0.001151789,0.9699992,0.24306077,-218.991,445.781,8.331,-0.00021,0,1.96051
76.041664,2000,0,91.24,0.000002697398,0.000002697398,0.000002697398,0.99999994,0,0,0,0,0,0,0,1,0,0,0,false,false,true,-86.52,-4415.14,17.01,-0.004658406,0.0011140254,0.97195196,0.23513041,-220.201,442.281,8.331,-0.00021,0,1.95721
76.05,2000,0,91.24,0.000002697398,0.000002697398,0.000002697398,0.99999994,0,0,0,0,0,0,0,1,0,0,0,false,false,true,-88.35,-4411.4497,17.01,-0.0046691955,0.0010762616,0.97383744,0.22719456,-221.351,438.771,8.331,-0.00021,0,1.95371
76.058334,2000,0,91.24,0.000002697398,0.000002697398,0.000002697398,0.99999994,0,0,0,0,0,0,0,1,0,0,0,false,false,true,-90.189995,-4407.79,17.01,-0.004679985,0.0010384981,0.9756548,0.21925882,-222.44101,435.241,8.331,-0.00021,0,1.95001
76.066666,2000,0,91.24,0.000002697398,0.000002697398,0.000002697398,0.99999994,0,0,0,0,0,0,0,1,0,0,0,false,false,true,-92.04,-4404.1597,17.01,-0.004690775,0.0010007346,0.9774044,0.2113231,-223.47101,431.701,8.331,-0.00021,0,1.94611
76.075,2000,0,91.24,0.000002697398,0.000002697398,0.000002697398,0.99999994,0,0,0,0,0,0,0,1,0,0,0,false,false,true,-93.9,-4400.56,17.01,-0.004701565,0.0009629712,0.97908545,0.20339268,-224.44101,428.161,8.331,-0.00010999999,0,1.9419099
76.083336,2000,0,91.24,0.000002697398,0.000002697398,0.000002697398,0.99999994,0,0,0,0,0,0,0,1,0,0,0,false,false,true,-95.77,-4396.9897,17.01,-0.0047069597,0.00092520757,0.9806994,0.19546232,-225.351,424.611,8.331,-0.00010999999,0,1.93751
76.09167,2000,0,91.24,0.000002697398,0.000002697398,0.000002697398,0.99999994,0,0,0,0,0,0,0,1,0,0,0,false,false,true,-97.65,-4393.4497,17.01,-0.004712355,0.000887444,0.98224574,0.18753728,-226.201,421.061,8.331,-0.00010999999,0,1.93291
76.1,2000,0,91.24,0.000002697398,0.000002697398,0.000002697398,0.99999994,0,0,0,0,0,0,0,1,0,0,0,false,false,true,-99.53,-4389.94,17.01,-0.004717749,0.0008496804,0.98372376,0.17962311,-227.001,417.511,8.331,-0.00010999999,0,1.92811
76.10833,2000,0,91.24,0.000002697398,0.000002697398,0.000002697398,0.99999994,0,0,0,0,0,0,0,1,0,0,0,false,false,true,-101.42,-4386.46,17.01,-0.0047231438,0.00081191683,0.9851351,0.17171434,-227.741,413.961,8.331,-0.00010999999,0,1.92311
76.11667,2000,0,91.24,0.000002697398,0.000002697398,0.000002697398,0.99999994,0,0,0,0,0,0,0,1,0,0,0,false,false,true,-103.32,-4383.01,17.01,-0.0047285384,0.0007741532,0.98647916,0.16381627,-228.421,410.411,8.331,-0.00010999999,0,1.91791
76.125,2000,0,91.24,0.000002697398,0.000002697398,0.000002697398,0.99999994,0,0,0,0,0,0,0,1,0,0,0,false,false,true,-105.22,-4379.59,17.01,-0.004733933,0.0007363896,0.9877565,0.15592906,-229.041,406.871,8.331,-0.00010999999,0,1.9125099
76.13333,2000,0,91.24,0.000002697398,0.000002697398,0.000002697398,0.99999994,0,0,0,0,0,0,0,1,0,0,0,false,false,true,-107.13,-4376.1997,17.01,-0.0047393283,0.0006986261,0.98896784,0.14805268,-229.601,403.341,8.331,-0.00010999999,0,1.90691
76.14167,2000,0,91.24,0.000002697398,0.000002697398,0.000002697398,0.99999994,0,0,0,0,0,0,0,1,0,0,0,false,false,true,-109.04,-4372.84,17.01,-0.0047447234,0.0006608626,0.99011266,0.14019239,-230.101,399.82098,8.331,-0.00010999999,0,1.9011099
76.15,2000,0,91.24,0.000002697398,0.000002697398,0.000002697398,0.99999994,0,0,0,0,0,0,0,1,0,0,0,false,false,true,-110.96,-4369.51,17.01,-0.004750118,0.000623099,0.9911924,0.13234295,-230.541,396.311,8.331,-0.00010999999,0,1.89511
76.15833,2000,0,91.24,0.000002697398,0.000002697398,0.000002697398,0.99999994,0,0,0,0,0,0,0,1,0,0,0,false,false,true,-112.88,-4366.21,17.01,-0.004755513,0.00058533537,0.99220675,0.12450971,-230.931,392.82098,8.331,-0.00010999999,0,1.8889099
76.166664,2000,0,91.24,0.000002697398,0.000002697398,0.000002697398,0.99999994,0,0,0,0,0,0,0,1,0,0,0,false,false,true,-114.799995,-4362.94,17.01,-0.0047609075,0.0005475718,0.99315584,0.11669795,-231.261,389.341,8.331,-0.00010999999,0,1.88251
76.175,2000,0,91.24,0.000002697398,0.000002697398,0.000002697398,0.99999994,0,0,0,0,0,0,0,1,0,0,0,false,false,true,-116.729996,-4359.6997,17.01,-0.004766302,0.0005098082,0.99404085,0.10890248,-231.541,385.881,8.331,-0.00010999999,0,1.87601
76.183334,2000,0,91.24,0.000002697398,0.000002697398,0.000002697398,0.99999994,0,0,0,0,0,0,0,1,0,0,0,false,false,true,-118.659996,-4356.48,17.01,-0.0047716964,0.0004720446,0.99486166,0.10112856,-231.761,382.441,8.331,-0.00010999999,0,1.86931
76.191666,2000,0,91.24,0.000002697398,0.000002697398,0.000002697398,0.99999994,0,0,0,0,0,0,0,1,0,0,0,false,false,true,-120.59,-4353.29,17.01,-0.004777092,0.0004342811,0.9956193,0.09337617,-231.931,379.021,8.331,-0.00010999999,0,1.86241
76.2,2000,0,91.24,0.000002697398,0.000002697398,0.000002697398,0.99999994,0,0,0,0,0,0,0,1,0,0,0,false,false,true,-122.52,-4350.13,17.01,-0.004782487,0.00039651754,0.9963141,0.08564543,-232.041,375.631,8.331,-0.00010999999,0,1.85531
76.208336,2000,0,91.24,0.000002697398,0.000002697398,0.000002697398,0.99999994,0,0,0,0,0,0,0,1,0,0,0,false,false,true,-124.45,-4347,17.01,-0.004787882,0.00035875395,0.99694633,0.07794166,-232.101,372.271,8.331,-0.00010999999,0,1.84801
76.21667,2000,0,91.24,0.000002697398,0.000002697398,0.000002697398,0.99999994,0,0,0,0,0,0,0,1,0,0,0,false,false,true,-126.38,-4343.9,17.01,-0.004787882,0.0003209904,0.9975168,0.07026478,-232.11101,368.931,8.331,-0.00010999999,0,1.84051
76.225,2000,0,91.24,0.000002697398,0.000002697398,0.000002697398,0.99999994,0,0,0,0,0,0,0,1,0,0,0,false,false,true,-128.31,-4340.83,17.01,-0.0047878814,0.00028322678,0.9980262,0.06261495,-232.071,365.621,8.331,-0.00010999999,0,1.8328099
76.23333,2000,0,91.24,0.000002697398,0.000002697398,0.000002697398,0.99999994,0,0,0,0,0,0,0,1,0,0,0,false,false,true,-130.23999,-4337.78,17.01,-0.004787882,0.00024546325,0.99847525,0.054992028,-231.981,362.341,8.331,-0.00010999999,0,1.8249099
76.24167,2000,0,91.24,0.000002697398,0.000002697398,0.000002697398,0.99999994,0,0,0,0,0,0,0,1,0,0,0,false,false,true,-132.17,-4334.76,17.01,-0.004787882,0.00020769966,0.99886465,0.047396153,-231.851,359.101,8.331,-0.00010999999,0,1.81681
76.25,2000,0,91.24,0.000002697398,0.000002697398,0.000002697398,0.99999994,0,0,0,0,0,0,0,1,0,0,0,false,false,true,-134.09999,-4331.77,17.01,-0.004787881,0.00016993606,0.99919474,0.03983264,-231.671,355.891,8.331,-0.00010999999,0,1.80851
76.25833,2000,0,91.24,0.000002697398,0.000002697398,0.000002697398,0.99999994,0,0,0,0,0,0,0,1,0,0,0,false,false,true,-136.03,-4328.8,17.01,-0.004787881,0.00013217248,0.99946654,0.032301422,-231.451,352.721,8.331,-0.00010999999,0,1.80001
76.26667,2000,0,91.24,0.000002697398,0.000002697398,0.000002697398,0.99999994,0,0,0,0,0,0,0,1,0,0,0,false,false,true,-137.95999,-4325.86,17.01,-0.0047878814,0.00009440893,0.9996808,0.024802659,-231.181,349.581,8.331,-0.00010999999,0,1.79131
76.275,2000,0,91.24,0.000002697398,0.000002697398,0.000002697398,0.99999994,0,0,0,0,0,0,0,1,0,0,0,false,false,true,-139.89,-4322.9497,17.01,-0.0047878814,0.00005664536,0.9998381,0.017341657,-230.871,346.481,8.331,-0.00010999999,0,1.78241
76.28333,2000,0,91.24,0.000002697398,0.000002697398,0.000002697398,0.99999994,0,0,0,0,0,0,0,1,0,0,0,false,false,true,-141.81,-4320.06,17.01,-0.004787882,0.000024276584,0.9999393,0.009918333,-230.521,343.421,8.331,-0.00021,0,1.77331
76.291664,2000,0,91.24,0.000002697398,0.000002697398,0.000002697398,0.99999994,0,0,0,0,0,0,0,1,0,0,0,false,false,true,-143.73,-4317.1997,17.01,-0.0047878814,-0.000008092194,0.9999853,0.0025274619,-230.131,340.401,8.331,-0.00021,-0.00010999999,1.76401
76.3,2000,0,91.24,0.000002697398,0.000002697398,0.000002697398,0.99999994,0,0,0,0,0,0,0,1,0,0,0,false,false,true,-145.65,-4314.36,17.01,-0.004787882,-0.000040460975,0.9999769,-0.004820251,-229.711,337.421,8.331,-0.00021,-0.00010999999,1.7545099
76.308334,2000,0,91.24,0.000002697398,0.000002697398,0.000002697398,0.99999994,0,0,0,0,0,0,0,1,0,0,0,false,false,true,-147.56,-4311.55,17.01,-0.0047878814,-0.000072829745,0.9999149,-0.012130241,-229.251,334.491,8.331,-0.00010999999,-0.00010999999,1.74481
76.316666,2000,0,91.24,0.000002697398,0.000002697398,0.000002697398,0.99999994,0,0,0,0,0,0,0,1,0,0,0,false,false,true,-149.47,-4308.76,17.01,-0.0047878814,-0.000105198524,0.9998003,-0.019397072,-228.761,331.601,8.331,0,-0.00010999999,1.73491
76.325,2000,0,91.24,0.000002697398,0.000002697398,0.000002697398,0.99999994,0,0,0,0,0,0,0,1,0,0,0,false,false,true,-151.37999,-4306,17.01,-0.004787882,-0.00013756732,0.99963397,-0.026626103,-228.231,328.761,8.331,0,-0.00010999999,1.72481
76.333336,2000,0,91.24,0.000002697398,0.000002697398,0.000002697398,0.99999994,0,0,0,0,0,0,0,1,0,0,0,false,false,true,-153.28,-4303.26,17.01,-0.0047878814,-0.00016993607,0.99941665,-0.03381201,-227.671,325.961,8.331,0,-0.00010999999,1.71451
76.34167,2000,0,91.24,0.000002697398,0.000002697398,0.000002697398,0.99999994,0,0,0,0,0,0,0,1,0,0,0,false,false,true,-155.18,-4300.54,17.01,-0.004787882,-0.00020230487,0.9991497,-0.04094937,-227.08101,323.211,8.331,0,-0.00010999999,1.70401
76.35,2000,0,91.24,0.000002697398,0.000002697398,0.000002697398,0.99999994,0,0,0,0,0,0,0,1,0,0,0,false,false,true,-157.06999,-4297.85,17.01,-0.0047878814,-0.00023467363,0.99883366,-0.048043527,-226.461,320.511,8.331,0,-0.00010999999,1.69331
76.35833,2000,0,91.24,0.000002697398,0.000002697398,0.000002697398,0.99999994,0,0,0,0,0,0,0,1,0,0,0,false,false,true,-158.95999,-4295.1797,17.01,-0.004787882,-0.00026704243,0.9984699,-0.055089176,-225.821,317.861,8.331,0,0,1.68241
76.36667,2000,0,91.24,0.000002697398,0.000002697398,0.000002697398,0.99999994,0,0,0,0,0,0,0,1,0,0,0,false,false,true,-160.84,-4292.53,17.01,-0.004787882,-0.00029941121,0.9980592,-0.06208627,-225.151,315.261,8.331,0,0,1.6712099
76.375,2000,0,91.24,0.000002697398,0.000002697398,0.000002697398,0.99999994,0,0,0,0,0,0,0,1,0,0,0,false,false,true,-162.72,-4289.9,17.01,-0.004787882,-0.00033178,0.9976027,-0.06903477,-224.461,312.711,8.331,0,0,1.65981
76.38333,2000,0,91.24,0.000002697398,0.000002697398,0.000002697398,0.99999994,0,0,0,0,0,0,0,1,0,0,0,false,false,true,-164.59,-4287.29,17.01,-0.0047878814,-0.00036414873,0.9971012,-0.075934745,-223.751,310.211,8.331,0.00010999999,0,1.6482099
76.39167,2000,0,91.24,0.000002697398,0.000002697398,0.000002697398,0.99999994,0,0,0,0,0,0,0,1,0,0,0,false,false,true,-166.45,-4284.6997,17.01,-0.0047878814,-0.0003965175,0.99655616,-0.08278074,-223.021,307.761,8.331,0.00010999999,0,1.63641
76.4,2000,0,91.24,0.000002697398,0.000002697398,0.000002697398,0.99999994,0,0,0,0,0,0,0,1,0,0,0,false,false,true,-168.31,-4282.13,17.01,-0.0047824867,-0.0004288863,0.99596864,-0.08957283,-222.271,305.361,8.331,0.00010999999,0,1.6244099
76.40833,2000,0,91.24,0.000002697398,0.000002697398,0.000002697398,0.99999994,0,0,0,0,0,0,0,1,0,0,0,false,false,true,-170.16,-4279.58,17.01,-0.0047770925,-0.0004612551,0.9953397,-0.09631098,-221.511,303.011,8.321,0.00010999999,0,1.6122099
76.416664,2000,0,91.24,0.000002697398,0.000002697398,0.000002697398,0.99999994,0,0,0,0,0,0,0,1,0,0,0,false,false,true,-172.01,-4277.06,17.01,-0.004771697,-0.00049362384,0.9946702,-0.10299513,-220.741,300.721,8.321,0.00010999999,0,1.59971
76.425,2000,0,91.24,0.000002697398,0.000002697398,0.000002697398,0.99999994,0,0,0,0,0,0,0,1,0,0,0,false,false,true,-173.84999,-4274.55,17.01,-0.004766302,-0.0005259926,0.99396133,-0.10962538,-219.951,298.481,8.321,0.00010999999,0,1.58701
76.433334,2000,0,91.24,0.000002697398,0.000002697398,0.000002697398,0.99999994,0,0,0,0,0,0,0,1,0,0,0,false,false,true,-175.68,-4272.06,17.01,-0.0047609075,-0.00055836135,0.99321467,-0.11619628,-219.151,296.29102,8.321,0.00010999999,0,1.57411
76.441666,2000,0,91.24,0.000002697398,0.000002697398,0.000002697398,0.99999994,0,0,0,0,0,0,0,1,0,0,0,false,false,true,-177.51,-4269.59,17.01,-0.004755513,-0.00059073017,0.9924312,-0.1227078,-218.341,294.161,8.321,0.00010999999,0,1.56091
76.45,2000,0,91.24,0.000002697398,0.000002697398,0.000002697398,0.99999994,0,0,0,0,0,0,0,1,0,0,0,false,false,true,-179.33,-4267.14,17.01,-0.004750118,-0.000623099,0.99161214,-0.12916003,-217.521,292.061,8.321,0.00010999999,0,1.54811
76.458336,2000,0,91.24,0.000002697398,0.000002697398,0.000002697398,0.99999994,0,0,0,0,0,0,0,1,0,0,0,false,false,true,-181.14,-4264.71,17.01,-0.004744723,-0.00065546774,0.9907585,-0.13555284,-216.681,290.001,8.321,0.00010999999,0,1.53571
76.46667,2000,0,91.24,0.000002697398,0.000002697398,0.000002697398,0.99999994,0,0,0,0,0,0,0,1,0,0,0,false,false,true,-182.95,-4262.29,17.01,-0.0047393283,-0.0006878365,0.98987055,-0.14189178,-215.821,287.981,8.321,0.00010999999,0,1.52371
76.475,2000,0,91.24,0.000002697398,0.000002697398,0.000002697398,0.99999994,0,0,0,0,0,0,0,1,0,0,0,false,false,true,-184.75,-4259.89,17.01,-0.0047339336,-0.00072020525,0.9889501,-0.14817132,-214.951,286.001,8.321,0.00010999999,0,1.51211
76.48333,2000,0,91.24,0.000002697398,0.000002697398,0.000002697398,0.99999994,0,0,0,0,0,0,0,1,0,0,0,false,false,true,-186.54,-4257.51,17.01,-0.0047285384,-0.00075257407,0.98799723,-0.15439695,-214.061,284.061,8.321,0.00010999999,0,1.5009099
76.49167,2000,0,91.24,0.000002697398,0.000002697398,0.000002697398,0.99999994,0,0,0,0,0,0,0,1,0,0,0,false,false,true,-188.31999,-4255.14,17.01,-0.0047231433,-0.00078494276,0.987012,-0.16057402,-213.161,282.151,8.321,0,0,1.4901099
76.5,2000,0,91.24,0.000002697398,0.000002697398,0.000002697398,0.99999994,0,0,0,0,0,0,0,1,0,0,0,false,false,true,-190.09999,-4252.79,17.01,-0.004717749,-0.00081191683,0.9859965,-0.16669713,-212.251,280.281,8.321,0,-0.00010999999,1.47961
76.50833,2000,0,91.24,0.000002697398,0.000002697398,0.000002697398,0.99999994,0,0,0,0,0,0,0,1,0,0,0,false,false,true,-191.87,-4250.4497,17.01,-0.004712355,-0.00083889085,0.98495024,-0.17277174,-211.33101,278.451,8.321,0,-0.00010999999,1.46951
76.51667,2000,0,91.24,0.000002697398,0.000002697398,0.000002697398,0.99999994,0,0,0,0,0,0,0,1,0,0,0,false,false,true,-193.62999,-4248.13,17.01,-0.0047069597,-0.0008658648,0.98387414,-0.1787977,-210.401,276.661,8.321,0,-0.00010999999,1.45971
76.525,2000,0,91.24,0.000002697398,0.000002697398,0.000002697398,0.99999994,0,0,0,0,0,0,0,1,0,0,0,false,false,true,-195.37999,-4245.82,17.01,-0.0047015646,-0.00089283875,0.9827681,-0.18478057,-209.461,274.911,8.321,0,-0.00010999999,1.45031
76.53333,2000,0,91.24,0.000002697398,0.000002697398,0.000002697398,0.99999994,0,0,0,0,0,0,0,1,0,0,0,false,false,true,-197.12999,-4243.53,17.01,-0.0046961703,-0.0009198128,0.9816338,-0.19071487,-208.521,273.211,8.321,0,-0.00010999999,1.44121
76.541664,2000,0,91.24,0.000002697398,0.000002697398,0.000002697398,0.99999994,0,0,0,0,0,0,0,1,0,0,0,false,false,true,-198.87,-4241.25,17.01,-0.004690775,-0.0009467867,0.98047084,-0.19660601,-207.571,271.551,8.321,0,-0.00010999999,1.43241
76.55,2000,0,91.24,0.000002697398,0.000002697398,0.000002697398,0.99999994,0,0,0,0,0,0,0,1,0,0,0,false,false,true,-200.59999,-4238.9897,17.01,-0.00468538,-0.0009737606,0.97927994,-0.20245396,-206.621,269.931,8.321,0,-0.00010999999,1.42391
76.558334,2000,0,91.24,0.000002697398,0.000002697398,0.000002697398,0.99999994,0,0,0,0,0,0,0,1,0,0,0,false,false,true,-202.31999,-4236.7397,17.01,-0.004679986,-0.0010007347,0.97806203,-0.20825882,-205.671,268.351,8.321,0,-0.00010999999,1.41571
76.566666,2000,0,91.24,0.000002697398,0.000002697398,0.000002697398,0.99999994,0,0,0,0,0,0,0,1,0,0,0,false,false,true,-204.03,-4234.5,17.01,-0.004674591,-0.0010277088,0.97681624,-0.21402587,-204.72101,266.811,8.321,0,-0.00010999999,1.40781
76.575,2000,0,91.24,0.000002697398,0.000002697398,0.000002697398,0.99999994,0,0,0,0,0,0,0,1,0,0,0,false,false,true,-205.73999,-4232.28,17.01,-0.0046691964,-0.0010546828,0.9755445,-0.2197498,-203.771,265.321,8.321,0,-0.00010999999,1.40021
76.583336,2000,0,91.24,0.000002697398,0.000002697398,0.000002697398,0.99999994,0,0,0,0,0,0,0,1,0,0,0,false,false,true,-207.44,-4230.07,17.01,-0.0046638013,-0.0010816565,0.97424614,-0.22543588,-202.821,263.871,8.321,0,-0.00010999999,1.39281
76.59167,2000,0,91.24,0.000002697398,0.000002697398,0.000002697398,0.99999994,0,0,0,0,0,0,0,1,0,0,0,false,false,true,-209.12999,-4227.87,17.01,-0.0046584066,-0.0011086307,0.9729219,-0.2310843,-201.871,262.451,8.321,0,-0.00010999999,1.38591
76.6,2000,0,91.24,0.000002697398,0.000002697398,0.000002697398,0.99999994,0,0,0,0,0,0,0,1,0,0,0,false,false,true,-210.81,-4225.6797,17.01,-0.0046530114,-0.0011356046,0.97157085,-0.23670027,-200.901,261.061,8.321,0,-0.00010999999,1.37981
76.60833,2000,0,91.24,0.000002697398,0.000002697398,0.000002697398,0.99999994,0,0,0,0,0,0,0,1,0,0,0,false,false,true,-212.48,-4223.5,17.01,-0.0046476168,-0.0011625786,0.9701935,-0.24228393,-199.921,259.691,8.321,0,-0.00010999999,1.37461
76.61667,2000,0,91.24,0.000002697398,0.000002697398,0.000002697398,0.99999994,0,0,0,0,0,0,0,1,0,0,0,false,false,true,-214.15,-4221.34,17.01,-0.004642222,-0.0011895525,0.9687903,-0.24783517,-198.921,258.351,8.321,0,-0.00010999999,1.3702099
76.625,2000,0,91.24,0.000002697398,0.000002697398,0.000002697398,0.99999994,0,0,0,0,0,0,0,1,0,0,0,false,false,true,-215.81,-4219.19,17.01,-0.004636827,-0.0012165265,0.96736026,-0.25335947,-197.911,257.04102,8.321,0,-0.00010999999,1.3666099
76.63333,2000,0,91.24,0.000002697398,0.000002697398,0.000002697398,0.99999994,0,0,0,0,0,0,0,1,0,0,0,false,false,true,-217.45999,-4217.05,17.01,-0.0046314327,-0.0012435006,0.9659023,-0.2588622,-196.891,255.761,8.321,0,0,1.3637099
76.64167,2000,0,91.24,0.000002697398,0.000002697398,0.000002697398,0.99999994,0,0,0,0,0,0,0,1,0,0,0,false,false,true,-219.09999,-4214.92,17.01,-0.004626037,-0.0012704744,0.9644151,-0.2643487,-195.86101,254.501,8.321,0,0,1.3616099
76.65,2000,0,91.24,0.000002697398,0.000002697398,0.000002697398,0.99999994,0,0,0,0,0,0,0,1,0,0,0,false,false,true,-220.73,-4212.8,17.01,-0.0046206424,-0.0012974483,0.96290046,-0.2698136,-194.821,253.271,8.321,0,0,1.3601099
76.65833,2000,0,91.24,0.000002697398,0.000002697398,0.000002697398,0.99999994,0,0,0,0,0,0,0,1,0,0,0,false,false,true,-222.34999,-4210.69,17.01,-0.0046152477,-0.0013244223,0.96135545,-0.27526778,-193.761,252.041,8.321,0,0,1.35881
76.666664,2000,0,91.24,0.000002697398,0.000002697398,0.000002697398,0.99999994,0,0,0,0,0,0,0,1,0,0,0,false,false,true,-223.95999,-4208.59,17.01,-0.0046098535,-0.0013513966,0.9597818,-0.2807058,-192.681,250.821,8.321,0,0,1.35771
76.675,2000,0,91.24,0.000002697398,0.000002697398,0.000002697398,0.99999994,0,0,0,0,0,0,0,1,0,0,0,false,false,true,-225.56999,-4206.5,17.01,-0.0046044583,-0.0013783704,0.9581778,-0.286133,-191.571,249.61101,8.321,0,0,1.35681
76.683334,2000,0,91.24,0.000002697398,0.000002697398,0.000002697398,0.99999994,0,0,0,0,0,0,0,1,0,0,0,false,false,true,-227.17,-4204.42,17.01,-0.004599063,-0.0014053442,0.9565452,-0.29154393,-190.44101,248.401,8.321,0,0,1.35601
76.691666,2000,0,91.24,0.000002697398,0.000002697398,0.000002697398,0.99999994,0,0,0,0,0,0,0,1,0,0,0,false,false,true,-228.76,-4202.35,17.01,-0.0045936694,-0.0014323185,0.9548827,-0.29694423,-189.30101,247.201,8.321,0,0,1.35541
76.7,2000,0,91.24,0.000002697398,0.000002697398,0.000002697398,0.99999994,0,0,0,0,0,0,0,1,0,0,0,false,false,true,-230.34,-4200.29,17.01,-0.004582879,-0.0014592924,0.95318997,-0.3023336,-188.141,246.011,8.321,-0.00010999999,0.00010999999,1.35501
76.708336,2000,0,91.24,0.000002697398,0.000002697398,0.000002697398,0.99999994,0,0,0,0,0,0,0,1,0,0,0,false,false,true,-231.90999,-4198.2397,17.01,-0.00457209,-0.0014862665,0.9514673,-0.3077123,-186.961,244.841,8.321,-0.00010999999,0.00010999999,1.35471
76.71667,2000,0,91.24,0.000002697398,0.000002697398,0.000002697398,0.99999994,0,0,0,0,0,0,0,1,0,0,0,false,false,true,-233.47,-4196.1997,17.01,-0.0045613004,-0.0015132404,0.94971454,-0.3130801,-185.761,243.681,8.321,-0.00010999999,0.00010999999,1.35451
76.725,2000,0,91.24,0.000002697398,0.000002697398,0.000002697398,0.99999994,0,0,0,0,0,0,0,1,0,0,0,false,false,true,-235.01999,-4194.17,17.01,-0.00455051,-0.0015402142,0.94793165,-0.31843713,-184.55101,242.531,8.321,-0.00010999999,0,1.35451
76.73333,2000,0,91.24,0.000002697398,0.000002697398,0.000002697398,0.99999994,0,0,0,0,0,0,0,1,0,0,0,false,false,true,-236.56,-4192.15,17.01,-0.0045397202,-0.0015671882,0.9461189,-0.32378337,-183.321,241.401,8.321,-0.00010999999,0,1.35461
76.74167,2000,0,91.24,0.000002697398,0.000002697398,0.000002697398,0.99999994,0,0,0,0,0,0,0,1,0,0,0,false,false,true,-238.09,-4190.14,17.01,-0.0045289313,-0.0015941622,0.9442762,-0.32911888,-182.08101,240.281,8.321,-0.00010999999,0,1.35491
76.75,2000,0,91.24,0.000002697398,0.000002697398,0.000002697398,0.99999994,0,0,0,0,0,0,0,1,0,0,0,false,false,true,-239.61,-4188.14,17.01,-0.0045181415,-0.0016211362,0.9424035,-0.33444354,-180.83101,239.181,8.321,-0.00010999999,0,1.35531
76.75833,2000,0,91.24,0.000002697398,0.000002697398,0.000002697398,0.99999994,0,0,0,0,0,0,0,1,0,0,0,false,false,true,-241.12,-4186.15,17.01,-0.0045073526,-0.0016481103,0.9405008,-0.3397575,-179.571,238.091,8.321,-0.00010999999,0,1.3558099
76.76667,2000,0,91.24,0.000002697398,0.000002697398,0.000002697398,0.99999994,0,0,0,0,0,0,0,1,0,0,0,false,false,true,-242.62,-4184.17,17.01,-0.0044965628,-0.0016750843,0.93856615,-0.34506598,-178.30101,237.021,8.321,-0.00010999999,0,1.35641
76.775,2000,0,91.24,0.000002697398,0.000002697398,0.000002697398,0.99999994,0,0,0,0,0,0,0,1,0,0,0,false,false,true,-244.11,-4182.19,17.01,-0.0044857734,-0.0017020582,0.9366014,-0.3503637,-177.021,235.97101,8.321,-0.00021,-0.00010999999,1.35711
76.78333,2000,0,91.24,0.000002697398,0.000002697398,0.000002697398,0.99999994,0,0,0,0,0,0,0,1,0,0,0,false,false,true,-245.59,-4180.2197,17.01,-0.004474983,-0.0017290321,0.9346046,-0.35565597,-175.731,234.941,8.321,-0.00021,-0.00021,1.35791
76.791664,2000,0,91.24,0.000002697398,0.000002697398,0.000002697398,0.99999994,0,0,0,0,0,0,0,1,0,0,0,false,false,true,-247.04999,-4178.26,17.01,-0.0044641937,-0.0017506114,0.9325776,-0.36093748,-174.431,233.931,8.321,-0.00021,-0.00021,1.35881
76.8,2000,0,91.24,0.000002697398,0.000002697398,0.000002697398,0.99999994,0,0,0,0,0,0,0,1,0,0,0,false,false,true,-248.5,-4176.31,17.01,-0.0044534043,-0.0017721907,0.9305184,-0.36621368,-173.131,232.941,8.321,-0.00021,-0.00021,1.35981
76.808334,2000,0,91.24,0.000002697398,0.000002697398,0.000002697398,0.99999994,0,0,0,0,0,0,0,1,0,0,0,false,false,true,-249.93999,-4174.37,17.01,-0.0044426145,-0.0017937698,0.92842895,-0.371479,-171.821,231.97101,8.321,-0.00021,-0.00021,1.3609099
76.816666,2000,0,91.24,0.000002697398,0.000002697398,0.000002697398,0.99999994,0,0,0,0,0,0,0,1,0,0,0,false,false,true,-251.37,-4172.44,17.01,-0.0044318247,-0.0018153489,0.926307,-0.37673894,-170.511,231.021,8.321,-0.00010999999,-0.00021,1.36211
76.825,2000,0,91.24,0.000002697398,0.000002697398,0.000002697398,0.99999994,0,0,0,0,0,0,0,1,0,0,0,false,false,true,-252.79,-4170.51,17.01,-0.0044210353,-0.0018423229,0.92415476,-0.38198805,-169.201,230.091,8.321,0,-0.00021,1.36341
76.833336,2000,0,91.24,0.000002697398,0.000002697398,0.000002697398,0.99999994,0,0,0,0,0,0,0,1,0,0,0,false,false,true,-254.2,-4168.59,17.01,-0.004410246,-0.001869297,0.9219699,-0.3872319,-167.881,229.171,8.321,0,-0.00021,1.3645099
76.84167,2000,0,91.24,0.000002697398,0.000002697398,0.000002697398,0.99999994,0,0,0,0,0,0,0,1,0,0,0,false,false,true,-255.59999,-4166.6797,17.01,-0.004399456,-0.0018962709,0.91975445,-0.39246485,-166.541,228.261,8.321,0,-0.00021,1.3652099
76.85,2000,0,91.24,0.000002697398,0.000002697398,0.000002697398,0.99999994,0,0,0,0,0,0,0,1,0,0,0,false,false,true,-256.99,-4164.78,17.01,-0.0043886667,-0.0019232448,0.9175062,-0.3976924,-165.181,227.351,8.321,0,-0.00021,1.36551
76.85833,2000,0,91.24,0.000002697398,0.000002697398,0.000002697398,0.99999994,0,0,0,0,0,0,0,1,0,0,0,false,false,true,-258.37,-4162.88,17.01,-0.004377877,-0.0019502188,0.91522974,-0.40290377,-163.80101,226.451,8.321,0,-0.00021,1.36541
76.86667,2000,0,91.24,0.000002697398,0.000002697398,0.000002697398,0.99999994,0,0,0,0,0,0,0,1,0,0,0,false,false,true,-259.74,-4160.9897,17.01,-0.004367087,-0.0019771925,0.9129225,-0.40810436,-162.401,225.551,8.321,0,-0.00021,1.36491
76.875,2000,0,91.24,0.000002697398,0.000002697398,0.000002697398,0.99999994,0,0,0,0,0,0,0,1,0,0,0,false,false,true,-261.09,-4159.11,17.01,-0.0043562977,-0.0020041666,0.9105873,-0.41328883,-160.981,224.661,8.321,0,-0.00021,1.36401
76.88333,2000,0,91.24,0.000002697398,0.000002697398,0.000002697398,0.99999994,0,0,0,0,0,0,0,1,0,0,0,false,false,true,-262.43,-4157.2397,17.01,-0.0043455088,-0.002031141,0.90822387,-0.4184571,-159.55101,223.781,8.321,-0.00010999999,-0.00021,1.36271
76.89167,2000,0,91.24,0.000002697398,0.000002697398,0.000002697398,0.99999994,0,0,0,0,0,0,0,1,0,0,0,false,false,true,-263.75998,-4155.37,17.01,-0.0043347185,-0.00205272,0.90583235,-0.42360908,-158.101,222.911,8.321,-0.00010999999,-0.00021,1.36111
76.9,2000,0,91.24,0.000002697398,0.000002697398,0.000002697398,0.99999994,0,0,0,0,0,0,0,1,0,0,0,false,false,true,-265.08,-4153.51,17.01,-0.004323929,-0.002074299,0.9034153,-0.42873958,-156.641,222.051,8.321,-0.00010999999,-0.00021,1.35911
76.90833,2000,0,91.24,0.000002697398,0.000002697398,0.000002697398,0.99999994,0,0,0,0,0,0,0,1,0,0,0,false,false,true,-266.38998,-4151.6597,17.01,-0.0043131397,-0.0020958784,0.900973,-0.43384853,-155.171,221.201,8.321,-0.00010999999,-0.00021,1.35671
76.916664,2000,0,91.24,0.000002697398,0.000002697398,0.000002697398,0.99999994,0,0,0,0,0,0,0,1,0,0,0,false,false,true,-267.68,-4149.82,17.01,-0.00430235,-0.0021174573,0.89850557,-0.4389358,-153.681,220.36101,8.321,-0.00010999999,-0.00021,1.35391
76.925,2000,0,91.24,0.000002697398,0.000002697398,0.000002697398,0.99999994,0,0,0,0,0,0,0,1,0,0,0,false,false,true,-268.96,-4147.98,17.01,-0.0042915605,-0.0021390368,0.8960158,-0.44399613,-152.181,219.531,8.321,-0.00010999999,-0.00021,1.35071
76.933334,2000,0,91.24,0.000002697398,0.000002697398,0.000002697398,0.99999994,0,0,0,0,0,0,0,1,0,0,0,false,false,true,-270.22998,-4146.15,17.01,-0.00428077,-0.0021606155,0.89350396,-0.4490294,-150.671,218.72101,8.321,0,-0.00010999999,1.3472099
76.941666,2000,0,91.24,0.000002697398,0.000002697398,0.000002697398,0.99999994,0,0,0,0,0,0,0,1,0,0,0,false,false,true,-271.49,-4144.33,17.01,-0.004269981,-0.002182195,0.8909704,-0.45403588,-149.16101,217.921,8.321,0,-0.00010999999,1.34331
76.95,2000,0,91.24,0.000002697398,0.000002697398,0.000002697398,0.99999994,0,0,0,0,0,0,0,1,0,0,0,false,false,true,-272.72998,-4142.51,17.01,-0.0042591915,-0.0022037742,0.88841534,-0.4590153,-147.641,217.131,8.321,0,0,1.33901
76.958336,2000,0,91.24,0.000002697398,0.000002697398,0.000002697398,0.99999994,0,0,0,0,0,0,0,1,0,0,0,false,false,true,-273.96,-4140.6997,17.01,-0.0042484016,-0.0022253534,0.88584185,-0.46396235,-146.11101,216.36101,8.321,0,0,1.33441
76.96667,2000,0,91.24,0.000002697398,0.000002697398,0.000002697398,0.99999994,0,0,0,0,0,0,0,1,0,0,0,false,false,true,-275.18,-4138.9,17.01,-0.0042376127,-0.0022469328,0.88324755,-0.4688824,-144.58101,215.601,8.321,0,0,1.32941
76.975,2000,0,91.24,0.000002697398,0.000002697398,0.000002697398,0.99999994,0,0,0,0,0,0,0,1,0,0,0,false,false,true,-276.38,-4137.1,17.01,-0.0042268224,-0.0022685118,0.88063544,-0.4737701,-143.041,214.86101,8.321,0,0,1.32411
76.98333,2000,0,91.24,0.000002697398,0.000002697398,0.000002697398,0.99999994,0,0,0,0,0,0,0,1,0,0,0,false,false,true,-277.57,-4135.31,17.01,-0.0042160335,-0.002290091,0.87800896,-0.4786201,-141.501,214.131,8.321,0,0,1.31841
76.99167,2000,0,91.24,0.000002697398,0.000002697398,0.000002697398,0.99999994,0,0,0,0,0,0,0,1,0,0,0,false,false,true,-278.75,-4133.53,17.01,-0.0042052437,-0.0023116702,0.8753656,-0.48343766,-139.961,213.421,8.321,0,0,1.31241
77,2000,0,91.24,0.000002697398,0.000002697398,0.000002697398,0.99999994,0,0,0,0,0,0,0,1,0,0,0,false,false,true,-279.91998,-4131.75,17.01,-0.0041944534,-0.002333249,0.8727087,-0.48821735,-138.421,212.72101,8.321,0,0.00010999999,1.30601
77.00833,2000,0,91.24,0.000002697398,0.000002697398,0.000002697398,0.99999994,0,0,0,0,0,0,0,1,0,0,0,false,false,true,-281.07,-4129.98,17.01,-0.004183664,-0.0023548282,0.87003887,-0.49295938,-136.881,212.041,8.321,0,0.00021,1.29931
77.01667,2000,0,91.24,0.000002697398,0.000002697398,0.000002697398,0.99999994,0,0,0,0,0,0,0,1,0,0,0,false,false,true,-282.21,-4128.21,17.01,-0.00416748,-0.0023764076,0.8673567,-0.49766377,-135.341,211.381,8.321,0,0.00021,1.29231
77.025,2000,0,91.24,0.000002697398,0.000002697398,0.000002697398,0.99999994,0,0,0,0,0,0,0,1,0,0,0,false,false,true,-283.34,-4126.4497,17.01,-0.0041512954,-0.0023979868,0.86466557,-0.5023249,-133.80101,210.731,8.321,0,0.00021,1.28491
77.03333,2000,0,91.24,0.000002697398,0.000002697398,0.000002697398,0.99999994,0,0,0,0,0,0,0,1,0,0,0,false,false,true,-284.46,-4124.69,17.01,-0.004135111,-0.002419566,0.8619631,-0.50694823,-132.261,210.101,8.321,0.00010999999,0.00021,1.27721
77.041664,2000,0,91.24,0.000002697398,0.000002697398,0.000002697398,0.99999994,0,0,0,0,0,0,0,1,0,0,0,false,false,true,-285.56,-4122.94,17.01,-0.0041243215,-0.0024411452,0.8592529,-0.5115284,-130.72101,209.491,8.321,0.00021,0.00021,1.26921
77.05,2000,0,91.24,0.000002697398,0.000002697398,0.000002697398,0.99999994,0,0,0,0,0,0,0,1,0,0,0,false,false,true,-286.65,-4121.19,17.01,-0.0041135317,-0.0024627245,0.8565357,-0.5160654,-129.19101,208.901,8.321,0.00021,0.00021,1.26091
77.058334,2000,0,91.24,0.000002697398,0.000002697398,0.000002697398,0.99999994,0,0,0,0,0,0,0,1,0,0,0,false,false,true,-287.72998,-4119.4497,17.01,-0.004102742,-0.0024843034,0.85381186,-0.52055925,-127.671,208.321,8.321,0.00021,0.00021,1.25231
77.066666,2000,0,91.24,0.000002697398,0.000002697398,0.000002697398,0.99999994,0,0,0,0,0,0,0,1,0,0,0,false,false,true,-288.79,-4117.71,17.01,-0.0040919525,-0.0025058826,0.8510857,-0.5250047,-126.15099,207.761,8.321,0.00021,0.00030999997,1.24341
77.075,2000,0,91.24,0.000002697398,0.000002697398,0.000002697398,0.99999994,0,0,0,0,0,0,0,1,0,0,0,false,false,true,-289.84,-4115.98,17.01,-0.004075768,-0.0025274616,0.84835434,-0.5294068,-124.641,207.22101,8.321,0.00021,0.00030999997,1.23421
77.083336,2000,0,91.24,0.000002697398,0.000002697398,0.000002697398,0.99999994,0,0,0,0,0,0,0,1,0,0,0,false,false,true,-290.88,-4114.25,17.01,-0.004059584,-0.002549041,0.84562206,-0.5337604,-123.141,206.69101,8.321,0.00021,0.00030999997,1.22471
77.09167,2000,0,91.24,0.000002697398,0.000002697398,0.000002697398,0.99999994,0,0,0,0,0,0,0,1,0,0,0,false,false,true,-291.91,-4112.53,17.01,-0.0040433994,-0.0025706203,0.84288585,-0.5380709,-121.65099,206.181,8.321,0.00021,0.00030999997,1.21491
77.1,2000,0,91.24,0.000002697398,0.000002697398,0.000002697398,0.99999994,0,0,0,0,0,0,0,1,0,0,0,false,false,true,-292.91998,-4110.81,17.01,-0.0040272153,-0.0025921995,0.84015,-0.5423328,-120.171,205.69101,8.321,0.00021,0.00030999997,1.20481
77.10833,2000,0,91.24,0.000002697398,0.000002697398,0.000002697398,0.99999994,0,0,0,0,0,0,0,1,0,0,0,false,false,true,-293.91998,-4109.1,17.01,-0.004011031,-0.0026137787,0.8374187,-0.5465408,-118.701,205.211,8.321,0.00021,0.00021,1.19441
77.11667,2000,0,91.24,0.000002697398,0.000002697398,0.000002697398,0.99999994,0,0,0,0,0,0,0,1,0,0,0,false,false,true,-294.91,-4107.39,17.01,-0.0040002414,-0.0026353581,0.8346893,-0.55070025,-117.241,204.751,8.321,0.00021,0.00021,1.18371
77.125,2000,0,91.24,0.000002697398,0.000002697398,0.000002697398,0.99999994,0,0,0,0,0,0,0,1,0,0,0,false,false,true,-295.88998,-4105.6797,17.01,-0.0039894516,-0.002656937,0.8319625,-0.554811,-115.791,204.311,8.321,0.00021,0.00021,1.17271
77.13333,2000,0,91.24,0.000002697398,0.000002697398,0.000002697398,0.99999994,0,0,0,0,0,0,0,1,0,0,0,false,false,true,-296.85,-4103.98,17.01,-0.003978662,-0.0026785163,0.82924277,-0.5588679,-114.361,203.881,8.321,0.00021,0.00021,1.16151
77.14167,2000,0,91.24,0.000002697398,0.000002697398,0.000002697398,0.99999994,0,0,0,0,0,0,0,1,0,0,0,false,false,true,-297.8,-4102.28,17.01,-0.0039678724,-0.0027000955,0.8265271,-0.5628763,-112.940994,203.47101,8.321,0.00010999999,0.00021,1.15001
77.15,2000,0,91.24,0.000002697398,0.000002697398,0.000002697398,0.99999994,0,0,0,0,0,0,0,1,0,0,0,false,false,true,-298.74,-4100.58,17.01,-0.003957083,-0.0027216745,0.82382023,-0.56683064,-111.531,203.071,8.321,0,0.00021,1.1382099
77.15833,2000,0,91.24,0.000002697398,0.000002697398,0.000002697398,0.99999994,0,0,0,0,0,0,0,1,0,0,0,false,false,true,-299.66998,-4098.89,17.01,-0.0039408985,-0.0027432537,0.8211228,-0.57073116,-110.141,202.69101,8.321,0,0.00021,1.12621
77.166664,2000,0,91.24,0.000002697398,0.000002697398,0.000002697398,0.99999994,0,0,0,0,0,0,0,1,0,0,0,false,false,true,-300.59,-4097.1997,17.01,-0.003924714,-0.002764833,0.8184359,-0.5745776,-108.770996,202.321,8.321,0,0.00021,1.11391
77.175,2000,0,91.24,0.000002697398,0.000002697398,0.000002697398,0.99999994,0,0,0,0,0,0,0,1,0,0,0,false,false,true,-301.5,-4095.51,17.01,-0.0039085294,-0.0027810175,0.81576025,-0.57837015,-107.410995,201.961,8.321,0,0.00010999999,1.10141
77.183334,2000,0,91.24,0.000002697398,0.000002697398,0.000002697398,0.99999994,0,0,0,0,0,0,0,1,0,0,0,false,false,true,-302.4,-4093.8298,17.01,-0.0038977403,-0.0027972017,0.81309664,-0.5821088,-106.071,201.621,8.321,0,0.00010999999,1.08871
77.191666,2000,0,91.24,0.000002697398,0.000002697398,0.000002697398,0.99999994,0,0,0,0,0,0,0,1,0,0,0,false,false,true,-303.28,-4092.15,17.01,-0.0038869507,-0.0028133863,0.8104461,-0.58579344,-104.751,201.291,8.321,0,0.00010999999,1.0757099
77.2,2000,0,91.24,0.000002697398,0.000002697398,0.000002697398,0.99999994,0,0,0,0,0,0,0,1,0,0,0,false,false,true,-304.15,-4090.47,17.01,-0.0038761613,-0.0028295708,0.80781335,-0.5894188,-103.440994,200.981,8.321,0,0.00010999999,1.06251
77.208336,2000,0,91.24,0.000002697398,0.000002697398,0.000002697398,0.99999994,0,0,0,0,0,0,0,1,0,0,0,false,false,true,-305.00998,-4088.7998,17.01,-0.0038653715,-0.0028457548,0.8051953,-0.59299016,-102.151,200.681,8.321,0,0.00010999999,1.0491099
77.21667,2000,0,91.24,0.000002697398,0.000002697398,0.000002697398,0.99999994,0,0,0,0,0,0,0,1,0,0,0,false,false,true,-305.86,-4087.13,17.01,-0.0038545819,-0.0028619394,0.802597,-0.5965022,-100.881,200.391,8.321,0,0.00021,1.03551
77.225,2000,0,91.24,0.000002697398,0.000002697398,0.000002697398,0.99999994,0,0,0,0,0,0,0,1,0,0,0,false,false,true,-306.69998,-4085.46,17.01,-0.0038437922,-0.0028781237,0.80001533,-0.5999602,-99.631,200.11101,8.321,0,0.00021,1.02171
77.23333,2000,0,91.24,0.000002697398,0.000002697398,0.000002697398,0.99999994,0,0,0,0,0,0,0,1,0,0,0,false,false,true,-307.53,-4083.7898,17.01,-0.0038330026,-0.0028943082,0.79745513,-0.603359,-98.401,199.841,8.321,0,0.00021,1.00771
77.24167,2000,0,91.24,0.000002697398,0.000002697398,0.000002697398,0.99999994,0,0,0,0,0,0,0,1,0,0,0,false,false,true,-308.35,-4082.1199,17.01,-0.003822213,-0.0029104925,0.7949134,-0.60670376,-97.190994,199.58101,8.321,0,0.00030999997,0.99351
77.25,2000,0,91.24,0.000002697398,0.000002697398,0.000002697398,0.99999994,0,0,0,0,0,0,0,1,0,0,0,false,false,true,-309.16,-4080.46,17.01,-0.0038114237,-0.002926677,0.79239506,-0.6099893,-96.001,199.341,8.321,0,0.00030999997,0.97911
77.25833,2000,0,91.24,0.000002697398,0.000002697398,0.000002697398,0.99999994,0,0,0,0,0,0,0,1,0,0,0,false,false,true,-309.96,-4078.7998,17.01,-0.0038006338,-0.0029428613,0.7899011,-0.6132153,-94.83099,199.11101,8.321,0,0.00030999997,0.96450996
77.26667,2000,0,91.24,0.000002697398,0.000002697398,0.000002697398,0.99999994,0,0,0,0,0,0,0,1,0,0,0,false,false,true,-310.75,-4077.14,17.01,-0.0037898442,-0.0029590456,0.78743243,-0.61638206,-93.681,198.881,8.321,0,0.00030999997,0.94971
77.275,2000,0,91.24,0.000002697398,0.000002697398,0.000002697398,0.99999994,0,0,0,0,0,0,0,1,0,0,0,false,false,true,-311.53,-4075.48,17.01,-0.0037790546,-0.00297523,0.78498584,-0.61949486,-92.550995,198.661,8.321,0,0.00040999998,0.93481
77.28333,2000,0,91.24,0.000002697398,0.000002697398,0.000002697398,0.99999994,0,0,0,0,0,0,0,1,0,0,0,false,false,true,-312.3,-4073.8198,17.01,-0.0037682652,-0.0029914144,0.7825665,-0.62254834,-91.440994,198.451,8.321,0,0.00040999998,0.91971
77.291664,2000,0,91.24,0.000002697398,0.000002697398,0.000002697398,0.99999994,0,0,0,0,0,0,0,1,0,0,0,false,false,true,-313.06,-4072.17,17.01,-0.0037574756,-0.003007599,0.78017515,-0.62554246,-90.351,198.251,8.321,0,0.00040999998,0.90450996
77.3,2000,0,91.24,0.000002697398,0.000002697398,0.000002697398,0.99999994,0,0,0,0,0,0,0,1,0,0,0,false,false,true,-313.81,-4070.52,17.01,-0.003746686,-0.0030237832,0.77781296,-0.6284773,-89.281,198.061,8.321,-0.00010999999,0.00040999998,0.88910997
77.308334,2000,0,91.24,0.000002697398,0.000002697398,0.000002697398,0.99999994,0,0,0,0,0,0,0,1,0,0,0,false,false,true,-314.55,-4068.8699,17.01,-0.0037358964,-0.0030399675,0.7754808,-0.63135266,-88.230995,197.881,8.321,-0.00010999999,0.00040999998,0.87361
77.316666,2000,0,91.24,0.000002697398,0.000002697398,0.000002697398,0.99999994,0,0,0,0,0,0,0,1,0,0,0,false,false,true,-315.28998,-4067.22,17.01,-0.0037251068,-0.003056152,0.77317953,-0.63416874,-87.211,197.711,8.321,-0.00021,0.00040999998,0.85801
77.325,2000,0,91.24,0.000002697398,0.000002697398,0.000002697398,0.99999994,0,0,0,0,0,0,0,1,0,0,0,false,false,true,-316.02,-4065.5698,17.01,-0.0037143168,-0.003072336,0.7709057,-0.6369309,-86.211,197.541,8.321,-0.00021,0.00040999998,0.84221
77.35,2000,0,91.24,0.000002697398,0.000002697398,0.000002697398,0.99999994,0,0,0,0,0,0,0,1,0,0,0,false,false,true,-318.15,-4060.63,17.01,-0.0036819486,-0.0031047054,0.7642844,-0.64486134,-83.331,197.071,8.321,-0.00030999997,0.00040999998,0.79421
77.35833,2000,0,91.24,0.000002697398,0.000002697398,0.000002697398,0.99999994,0,0,0,0,0,0,0,1,0,0,0,false,false,true,-318.84,-4058.99,17.01,-0.003671159,-0.003115495,0.76214695,-0.64738613,-82.410995,196.931,8.321,-0.00030999997,0.00040999998,0.77801
77.36667,2000,0,91.24,0.000002697398,0.000002697398,0.000002697398,0.99999994,0,0,0,0,0,0,0,1,0,0,0,false,false,true,-319.53,-4057.3499,17.01,-0.0036603692,-0.0031262843,0.7600458,-0.6498515,-81.510994,196.791,8.321,-0.00030999997,0.00040999998,0.76181
77.375,2000,0,91.24,0.000002697398,0.000002697398,0.000002697398,0.99999994,0,0,0,0,0,0,0,1,0,0,0,false,false,true,-320.21,-4055.71,17.01,-0.0036495796,-0.003137074,0.75797737,-0.652263,-80.631,196.661,8.321,-0.00021,0.00040999998,0.74551
77.38333,2000,0,91.24,0.000002697398,0.000002697398,0.000002697398,0.99999994,0,0,0,0,0,0,0,1,0,0,0,false,false,true,-320.88,-4054.0698,17.01,-0.00363879,-0.0031478636,0.75594693,-0.6546151,-79.770996,196.531,8.321,-0.00021,0.00040999998,0.72911
77.39167,2000,0,91.24,0.000002697398,0.000002697398,0.000002697398,0.99999994,0,0,0,0,0,0,0,1,0,0,0,false,false,true,-321.53998,-4052.43,17.01,-0.0036280004,-0.0031586532,0.7539553,-0.656908,-78.931,196.411,8.321,-0.00021,0.00040999998,0.71271
77.4,2000,0,91.24,0.000002697398,0.000002697398,0.000002697398,0.99999994,0,0,0,0,0,0,0,1,0,0,0,false,false,true,-322.19998,-4050.7898,17.01,-0.003617211,-0.003169443,0.75200355,-0.6591415,-78.111,196.291,8.321,-0.00021,0.00040999998,0.69631
77.40833,2000,0,91.24,0.000002697398,0.000002697398,0.000002697398,0.99999994,0,0,0,0,0,0,0,1,0,0,0,false,false,true,-322.85,-4049.15,17.01,-0.0036064212,-0.0031802324,0.75008756,-0.6613209,-77.311,196.171,8.321,-0.00021,0.00040999998,0.67981
77.416664,2000,0,91.24,0.000002697398,0.000002697398,0.000002697398,0.99999994,0,0,0,0,0,0,0,1,0,0,0,false,false,true,-323.49,-4047.51,17.01,-0.0035956316,-0.003191022,0.748213,-0.66344106,-76.520996,196.061,8.321,-0.00010999999,0.00040999998,0.66331
77.425,2000,0,91.24,0.000002697398,0.000002697398,0.000002697398,0.99999994,0,0,0,0,0,0,0,1,0,0,0,false,false,true,-324.13,-4045.88,17.01,-0.0035848422,-0.0032018118,0.7463758,-0.6655073,-75.751,195.951,8.321,-0.00010999999,0.00040999998,0.64681
77.433334,2000,0,91.24,0.000002697398,0.000002697398,0.000002697398,0.99999994,0,0,0,0,0,0,0,1,0,0,0,false,false,true,-324.75998,-4044.25,17.01,-0.0035740524,-0.0032126012,0.7445815,-0.66751415,-75.001,195.841,8.321,-0.00010999999,0.00030999997,0.63031
77.441666,2000,0,91.24,0.000002697398,0.000002697398,0.000002697398,0.99999994,0,0,0,0,0,0,0,1,0,0,0,false,false,true,-325.38,-4042.6199,17.01,-0.003563263,-0.003223391,0.7428261,-0.66946715,-74.270996,195.741,8.321,-0.00010999999,0.00030999997,0.61381
77.45,2000,0,91.24,0.000002697398,0.000002697398,0.000002697398,0.99999994,0,0,0,0,0,0,0,1,0,0,0,false,false,true,-326,-4040.99,17.01,-0.0035524734,-0.0032341804,0.74111027,-0.67136604,-73.561,195.641,8.321,-0.00010999999,0.00021,0.59731
77.458336,2000,0,91.24,0.000002697398,0.000002697398,0.000002697398,0.99999994,0,0,0,0,0,0,0,1,0,0,0,false,false,true,-326.61,-4039.3599,17.01,-0.0035416838,-0.0032449698,0.73943955,-0.6732057,-72.861,195.541,8.321,-0.00010999999,0.00010999999,0.58091
77.46667,2000,0,91.24,0.000002697398,0.000002697398,0.000002697398,0.99999994,0,0,0,0,0,0,0,1,0,0,0,false,false,true,-327.22,-4037.73,17.01,-0.0035308942,-0.0032557594,0.7378099,-0.67499137,-72.181,195.44101,8.321,-0.00010999999,0.00010999999,0.56451
77.475,2000,0,91.24,0.000002697398,0.000002697398,0.000002697398,0.99999994,0,0,0,0,0,0,0,1,0,0,0,false,false,true,-327.82,-4036.0999,17.01,-0.0035201046,-0.003266549,0.73622185,-0.67672306,-71.511,195.351,8.321,-0.00010999999,0,0.54821
77.48333,2000,0,91.24,0.000002697398,0.000002697398,0.000002697398,0.99999994,0,0,0,0,0,0,0,1,0,0,0,false,false,true,-328.41998,-4034.47,17.01,-0.0035147092,-0.0032719434,0.7346761,-0.6784008,-70.861,195.261,8.321,-0.00010999999,0,0.53191
77.49167,2000,0,91.24,0.000002697398,0.000002697398,0.000002697398,0.99999994,0,0,0,0,0,0,0,1,0,0,0,false,false,true,-329.00998,-4032.8398,17.01,-0.003509315,-0.0032773386,0.7331733,-0.68002474,-70.221,195.171,8.321,-0.00010999999,0,0.51571
77.5,2000,0,91.24,0.000002697398,0.000002697398,0.000002697398,0.99999994,0,0,0,0,0,0,0,1,0,0,0,false,false,true,-329.6,-4031.21,17.01,-0.00350392,-0.0032827335,0.73170906,-0.68160003,-69.601,195.08101,8.321,0,0,0.49951
77.50833,2000,0,91.24,0.000002697398,0.000002697398,0.000002697398,0.99999994,0,0,0,0,0,0,0,1,0,0,0,false,false,true,-330.18,-4029.5798,17.01,-0.0034985254,-0.0032881282,0.730289,-0.6831214,-68.991,194.991,8.321,0,0,0.48341
77.51667,2000,0,91.24,0.000002697398,0.000002697398,0.000002697398,0.99999994,0,0,0,0,0,0,0,1,0,0,0,false,false,true,-330.75,-4027.95,17.01,-0.0034931304,-0.003293523,0.7289136,-0.68458873,-68.401,194.911,8.321,0,0,0.46741
