time,ball_loc_x,ball_loc_y,ball_loc_z,ball_rot_x,ball_rot_y,ball_rot_z,ball_rot_w,ball_vel_x,ball_vel_y,ball_vel_z,ball_ang_x,ball_ang_y,ball_ang_z,player0_throttle,player0_steer,player0_pitch,player0_yaw,player0_roll,player0_jump,player0_boost,player0_handbrake,player0_loc_x,player0_loc_y,player0_loc_z,player0_rot_x,player0_rot_y,player0_rot_z,player0_rot_w,player0_vel_x,player0_vel_y,player0_vel_z,player0_ang_x,player0_ang_y,player0_ang_z
224.075,2000,0,91.24,0.000002697398,0.000002697398,0.000002697398,0.99999994,0,0,0,0,0,0,1,0,0,0,0,false,true,false,0,-3712.21,16.99,-0.00336905,0.003374445,0.70711225,0.70708513,-0.031,1807.221,8.411,-0.00061,0,0
224.08333,2000,0,91.24,0.000002697398,0.000002697398,0.000002697398,0.99999994,0,0,0,0,0,0,0,1,0,0,0,false,false,true,0,-3697.15,16.99,-0.00336905,0.003374445,0.70711225,0.70708513,-10.951,1806.261,8.471001,-0.00061,0.00281,0.30401
224.09166,2000,0,91.24,0.000002697398,0.000002697398,0.000002697398,0.99999994,0,0,0,0,0,0,0,1,0,0,0,false,false,true,-0.089999996,-3682.0999,16.99,-0.00336905,0.0033798397,0.70800656,0.7061896,-20.421,1805.391,8.501,-0.00061,0.00401,0.55081
224.1,2000,0,91.24,0.000002697398,0.000002697398,0.000002697398,0.99999994,0,0,0,0,0,0,0,1,0,0,0,false,false,true,-0.26,-3667.0598,16.99,-0.00336905,0.0033852346,0.7096279,0.70456034,-29.860998,1804.491,8.521,-0.00051,0.00441,0.76851
224.10834,2000,0,91.24,0.000002697398,0.000002697398,0.000002697398,0.99999994,0,0,0,0,0,0,0,1,0,0,0,false,false,true,-0.51,-3652.02,16.99,-0.0033690496,0.0033906288,0.711881,0.7022837,-39.701,1803.521,8.531,-0.00051,0.0043099998,0.96251
224.11667,2000,0,91.24,0.000002697398,0.000002697398,0.000002697398,0.99999994,0,0,0,0,0,0,0,1,0,0,0,false,false,true,-0.84,-3636.99,16.99,-0.0033690496,0.0033906288,0.7146904,0.69942445,-50.181,1802.4309,8.541,-0.00040999998,0.00391,1.13701
224.125,2000,0,91.24,0.000002697398,0.000002697398,0.000002697398,0.99999994,0,0,0,0,0,0,0,1,0,0,0,false,false,true,-1.26,-3621.97,16.99,-0.003374445,0.0033852346,0.71799564,0.6960311,-61.431,1801.1809,8.551001,-0.00040999998,0.00331,1.29541
224.13333,2000,0,91.24,0.000002697398,0.000002697398,0.000002697398,0.99999994,0,0,0,0,0,0,0,1,0,0,0,false,false,true,-1.77,-3606.96,16.99,-0.0033852346,0.0033798397,0.7217407,0.69214684,-73.511,1799.731,8.561,-0.00040999998,0.00271,1.44031
224.14166,2000,0,91.24,0.000002697398,0.000002697398,0.000002697398,0.99999994,0,0,0,0,0,0,0,1,0,0,0,false,false,true,-2.3799999,-3591.96,16.99,-0.0033960242,0.00336905,0.72588056,0.68780404,-86.391,1798.0409,8.561,-0.00030999997,0.00211,1.57381
224.15,2000,0,91.24,0.000002697398,0.000002697398,0.000002697398,0.99999994,0,0,0,0,0,0,0,1,0,0,0,false,false,true,-3.1,-3576.98,16.99,-0.0034122085,0.0033528658,0.7303749,0.68302965,-100.031,1796.0809,8.561,-0.00030999997,0.00151,1.69741
224.15834,2000,0,91.24,0.000002697398,0.000002697398,0.000002697398,0.99999994,0,0,0,0,0,0,0,1,0,0,0,false,false,true,-3.9299998,-3562.01,16.99,-0.0034337877,0.0033312866,0.73518896,0.67784524,-114.33099,1793.8109,8.561,-0.00030999997,0.0010099999,1.81251
224.16667,2000,0,91.24,0.000002697398,0.000002697398,0.000002697398,0.99999994,0,0,0,0,0,0,0,1,0,0,0,false,false,true,-4.88,-3547.0598,16.99,-0.0034553672,0.0033097076,0.7402884,0.6722724,-129.181,1791.221,8.571,-0.00030999997,0.00061,1.91991
224.175,2000,0,91.24,0.000002697398,0.000002697398,0.000002697398,0.99999994,0,0,0,0,0,0,0,1,0,0,0,false,false,true,-5.96,-3532.13,16.99,-0.003482341,0.0032827337,0.745644,0.66632736,-144.451,1788.2909,8.571,-0.00021,0.00021,2.02041
224.18333,2000,0,91.24,0.000002697398,0.000002697398,0.000002697398,0.99999994,0,0,0,0,0,0,0,1,0,0,0,false,false,true,-7.16,-3517.23,16.99,-0.003509315,0.0032557594,0.75122726,0.66002613,-160.001,1785.021,8.571,-0.00021,0,2.11441
224.19167,2000,0,91.24,0.000002697398,0.000002697398,0.000002697398,0.99999994,0,0,0,0,0,0,0,1,0,0,0,false,false,true,-8.49,-3502.3499,16.99,-0.0035362889,0.0032233908,0.7570151,0.65337974,-175.66101,1781.4109,8.571,-0.00010999999,-0.00021,2.2023098
224.2,2000,0,91.24,0.000002697398,0.000002697398,0.000002697398,0.99999994,0,0,0,0,0,0,0,1,0,0,0,false,false,true,-9.95,-3487.5,16.99,-0.003568658,0.0031910222,0.76298004,0.64640427,-191.261,1777.491,8.571,-0.00010999999,-0.00040999998,2.2843099
224.20833,2000,0,91.24,0.000002697398,0.000002697398,0.000002697398,0.99999994,0,0,0,0,0,0,0,1,0,0,0,false,false,true,-11.54,-3472.69,16.99,-0.0036010265,0.0031586532,0.76909995,0.63911045,-206.631,1773.2909,8.571,0,-0.00061,2.36041
224.21666,2000,0,91.24,0.000002697398,0.000002697398,0.000002697398,0.99999994,0,0,0,0,0,0,0,1,0,0,0,false,false,true,-13.259999,-3457.91,16.99,-0.0036333953,0.0031208897,0.77534914,0.63151455,-221.58101,1768.861,8.571,0,-0.00071,2.43061
224.225,2000,0,91.24,0.000002697398,0.000002697398,0.000002697398,0.99999994,0,0,0,0,0,0,0,1,0,0,0,false,false,true,-15.11,-3443.17,16.99,-0.003665764,0.003083126,0.78170705,0.6236273,-235.911,1764.261,8.571,0,-0.00081,2.49491
224.23334,2000,0,91.24,0.000002697398,0.000002697398,0.000002697398,0.99999994,0,0,0,0,0,0,0,1,0,0,0,false,false,true,-17.08,-3428.47,16.99,-0.003698133,0.0030453627,0.7881496,0.61546504,-249.421,1759.5809,8.571,0,-0.00091,2.55301
224.24167,2000,0,91.24,0.000002697398,0.000002697398,0.000002697398,0.99999994,0,0,0,0,0,0,0,1,0,0,0,false,false,true,-19.16,-3413.8098,16.99,-0.0037358967,0.0030022042,0.794654,0.6070437,-261.891,1754.9309,8.571,0,-0.00111,2.6047099
224.25,2000,0,91.24,0.000002697398,0.000002697398,0.000002697398,0.99999994,0,0,0,0,0,0,0,1,0,0,0,false,false,true,-21.34,-3399.18,16.99,-0.00377366,0.0029590456,0.80119425,0.598385,-273.121,1750.4409,8.571,0.00010999999,-0.0012099999,2.6498098
224.25833,2000,0,91.24,0.000002697398,0.000002697398,0.000002697398,0.99999994,0,0,0,0,0,0,0,1,0,0,0,false,false,true,-23.619999,-3384.5898,16.99,-0.0038114234,0.0029158874,0.8077503,0.58950514,-282.881,1746.251,8.571,0.00021,-0.0012099999,2.68781
224.26666,2000,0,91.24,0.000002697398,0.000002697398,0.000002697398,0.99999994,0,0,0,0,0,0,0,1,0,0,0,false,false,true,-25.98,-3370.04,16.99,-0.0038491872,0.002867334,0.81430286,0.5804202,-290.961,1742.5509,8.571,0.00030999997,-0.00131,2.71841
224.275,2000,0,91.24,0.000002697398,0.000002697398,0.000002697398,0.99999994,0,0,0,0,0,0,0,1,0,0,0,false,false,true,-28.4,-3355.52,16.99,-0.0038869507,0.002818781,0.8208265,0.57115734,-297.131,1739.5309,8.561,0.00040999998,-0.00131,2.74121
224.28334,2000,0,91.24,0.000002697398,0.000002697398,0.000002697398,0.99999994,0,0,0,0,0,0,0,1,0,0,0,false,false,true,-30.88,-3341.02,16.99,-0.0039247144,0.002770228,0.82729757,0.5617434,-303.561,1736.2109,8.561,0.00051,-0.00131,2.76331
224.29167,2000,0,91.24,0.000002697398,0.000002697398,0.000002697398,0.99999994,0,0,0,0,0,0,0,1,0,0,0,false,false,true,-33.41,-3326.5498,16.99,-0.003957083,0.0027216745,0.8337121,0.5521783,-310.231,1732.5709,8.561,0.00051,-0.0012099999,2.78491
224.3,2000,0,91.24,0.000002697398,0.000002697398,0.000002697398,0.99999994,0,0,0,0,0,0,0,1,0,0,0,false,false,true,-36,-3312.1099,16.99,-0.003989452,0.0026731216,0.84006286,0.5424678,-317.111,1728.611,8.561,0.00051,-0.00111,2.80601
224.30833,2000,0,91.24,0.000002697398,0.000002697398,0.000002697398,0.99999994,0,0,0,0,0,0,0,1,0,0,0,false,false,true,-38.64,-3297.7,16.99,-0.00402182,0.0026245683,0.8463462,0.53261137,-324.191,1724.3109,8.561,0.00051,-0.00111,2.8266098
224.31667,2000,0,91.24,0.000002697398,0.000002697398,0.000002697398,0.99999994,0,0,0,0,0,0,0,1,0,0,0,false,false,true,-41.34,-3283.3298,16.99,-0.0040541897,0.0025706205,0.8525586,0.5226095,-331.441,1719.6709,8.561,0.00051,-0.0010099999,2.84671
224.325,2000,0,91.24,0.000002697398,0.000002697398,0.000002697398,0.99999994,0,0,0,0,0,0,0,1,0,0,0,false,false,true,-44.1,-3269,16.99,-0.004086558,0.0025166722,0.8586966,0.5124617,-338.831,1714.6909,8.561,0.00051,-0.00091,2.86621
224.33333,2000,0,91.24,0.000002697398,0.000002697398,0.000002697398,0.99999994,0,0,0,0,0,0,0,1,0,0,0,false,false,true,-46.92,-3254.71,16.99,-0.0041189273,0.0024627247,0.86475646,0.5021685,-346.341,1709.371,8.561,0.00051,-0.00081,2.88521
224.34166,2000,0,91.24,0.000002697398,0.000002697398,0.000002697398,0.99999994,0,0,0,0,0,0,0,1,0,0,0,false,false,true,-49.809998,-3240.46,16.99,-0.0041512954,0.0024087764,0.8707317,0.49173483,-353.951,1703.7009,8.561,0.00040999998,-0.00071,2.90371
224.35,2000,0,91.24,0.000002697398,0.000002697398,0.000002697398,0.99999994,0,0,0,0,0,0,0,1,0,0,0,false,false,true,-52.76,-3226.26,16.99,-0.0041836645,0.0023548284,0.876616,0.48116642,-361.631,1697.6809,8.561,0.00040999998,-0.00061,2.9216099
224.35834,2000,0,91.24,0.000002697398,0.000002697398,0.000002697398,0.99999994,0,0,0,0,0,0,0,1,0,0,0,false,false,true,-55.77,-3212.1099,16.99,-0.004216033,0.0023008804,0.8824094,0.47045767,-369.351,1691.3109,8.561,0.00040999998,-0.00051,2.93891
224.36667,2000,0,91.24,0.000002697398,0.000002697398,0.000002697398,0.99999994,0,0,0,0,0,0,0,1,0,0,0,false,false,true,-58.85,-3198.02,16.99,-0.004243007,0.0022469326,0.8881029,0.45961952,-377.101,1684.591,8.561,0.00040999998,-0.00040999998,2.95561
224.375,2000,0,91.24,0.000002697398,0.000002697398,0.000002697398,0.99999994,0,0,0,0,0,0,0,1,0,0,0,false,false,true,-61.989998,-3183.98,16.99,-0.004269981,0.0021929846,0.89369637,0.44864643,-384.841,1677.521,8.561,0.00040999998,-0.00040999998,2.9716098
224.38333,2000,0,91.24,0.000002697398,0.000002697398,0.000002697398,0.99999994,0,0,0,0,0,0,0,1,0,0,0,false,false,true,-65.2,-3170,16.99,-0.004296955,0.0021390365,0.8991815,0.43754932,-392.561,1670.111,8.561,0.00040999998,-0.00040999998,2.98701
224.39166,2000,0,91.24,0.000002697398,0.000002697398,0.000002697398,0.99999994,0,0,0,0,0,0,0,1,0,0,0,false,false,true,-68.47,-3156.0798,16.99,-0.0043239295,0.0020850888,0.90455836,0.4263227,-400.231,1662.371,8.561,0.00040999998,-0.00040999998,3.00161
224.4,2000,0,91.24,0.000002697398,0.000002697398,0.000002697398,0.99999994,0,0,0,0,0,0,0,1,0,0,0,false,false,true,-71.81,-3142.23,16.99,-0.004350903,0.0020311407,0.90981895,0.4149774,-407.82098,1654.3009,8.561,0.00040999998,-0.00040999998,3.0155098
224.40834,2000,0,91.24,0.000002697398,0.000002697398,0.000002697398,0.99999994,0,0,0,0,0,0,0,1,0,0,0,false,false,true,-75.21,-3128.44,16.99,-0.0043778773,0.001971798,0.9149611,0.4035134,-415.32098,1645.9109,8.561,0.00040999998,-0.00030999997,3.02861
224.41667,2000,0,91.24,0.000002697398,0.000002697398,0.000002697398,0.99999994,0,0,0,0,0,0,0,1,0,0,0,false,false,true,-78.67,-3114.72,16.99,-0.004404851,0.0019124552,0.9199798,0.39193615,-422.701,1637.2109,8.561,0.00040999998,-0.00030999997,3.04091
224.425,2000,0,91.24,0.000002697398,0.000002697398,0.000002697398,0.99999994,0,0,0,0,0,0,0,1,0,0,0,false,false,true,-82.189995,-3101.0798,16.99,-0.004431825,0.0018531126,0.92487085,0.38025096,-429.941,1628.2109,8.561,0.00030999997,-0.00021,3.05241
224.43333,2000,0,91.24,0.000002697398,0.000002697398,0.000002697398,0.99999994,0,0,0,0,0,0,0,1,0,0,0,false,false,true,-85.77,-3087.51,16.99,-0.004453404,0.0017937698,0.92963195,0.3684579,-437.021,1618.9209,8.561,0.00030999997,-0.00010999999,3.06301
224.44167,2000,0,91.24,0.000002697398,0.000002697398,0.000002697398,0.99999994,0,0,0,0,0,0,0,1,0,0,0,false,false,true,-89.409996,-3074.02,16.99,-0.004474983,0.001734427,0.9342592,0.35656232,-443.921,1609.361,8.561,0.00030999997,-0.00010999999,3.07271
224.45,2000,0,91.24,0.000002697398,0.000002697398,0.000002697398,0.99999994,0,0,0,0,0,0,0,1,0,0,0,false,false,true,-93.11,-3060.6099,16.99,-0.0044965623,0.0016750842,0.9387484,0.34456968,-450.621,1599.5409,8.561,0.00021,-0.00010999999,3.08141
224.45833,2000,0,91.24,0.000002697398,0.000002697398,0.000002697398,0.99999994,0,0,0,0,0,0,0,1,0,0,0,false,false,true,-96.869995,-3047.28,16.99,-0.0045181415,0.0016157414,0.9430943,0.33249062,-457.111,1589.471,8.561,0.00021,-0.00010999999,3.08911
224.46666,2000,0,91.24,0.000002697398,0.000002697398,0.000002697398,0.99999994,0,0,0,0,0,0,0,1,0,0,0,false,false,true,-100.68,-3034.03,16.99,-0.004539721,0.0015563988,0.9472954,0.32032531,-463.361,1579.1809,8.561,0.00021,-0.00010999999,3.09571
224.475,2000,0,91.24,0.000002697398,0.000002697398,0.000002697398,0.99999994,0,0,0,0,0,0,0,1,0,0,0,false,false,true,-104.54,-3020.8699,16.99,-0.0045613,0.0014970559,0.95134854,0.3080791,-469.361,1568.6809,8.561,0.00021,-0.00010999999,3.1012099
224.48334,2000,0,91.24,0.000002697398,0.000002697398,0.000002697398,0.99999994,0,0,0,0,0,0,0,1,0,0,0,false,false,true,-108.45,-3007.8,16.99,-0.004582879,0.0014377132,0.9552493,0.2957627,-475.10098,1557.991,8.561,0.00021,-0.00010999999,3.10561
224.49167,2000,0,91.24,0.000002697398,0.000002697398,0.000002697398,0.99999994,0,0,0,0,0,0,0,1,0,0,0,false,false,true,-112.409996,-2994.8198,16.99,-0.0045990637,0.0013783704,0.9589967,0.28337625,-480.561,1547.131,8.561,0.00021,0,3.10881
224.5,2000,0,91.24,0.000002697398,0.000002697398,0.000002697398,0.99999994,0,0,0,0,0,0,0,1,0,0,0,false,false,true,-116.409996,-2981.93,16.99,-0.0046152477,0.0013190275,0.9625868,0.27093032,-485.741,1536.121,8.561,0.00021,0,3.11071
224.50833,2000,0,91.24,0.000002697398,0.000002697398,0.000002697398,0.99999994,0,0,0,0,0,0,0,1,0,0,0,false,false,true,-120.46,-2969.13,16.99,-0.0046314327,0.001259685,0.96601784,0.25843066,-490.621,1524.981,8.561,0.00021,0,3.11131
224.51666,2000,0,91.24,0.000002697398,0.000002697398,0.000002697398,0.99999994,0,0,0,0,0,0,0,1,0,0,0,false,false,true,-124.549995,-2956.42,16.99,-0.0046476168,0.0012003421,0.9692864,0.24588765,-495.191,1513.741,8.561,0.00021,0,3.11061
224.525,2000,0,91.24,0.000002697398,0.000002697398,0.000002697398,0.99999994,0,0,0,0,0,0,0,1,0,0,0,false,false,true,-128.68,-2943.8098,16.99,-0.0046638018,0.0011409995,0.97239125,0.23330699,-499.451,1502.4209,8.561,0.00030999997,0,3.10851
224.53334,2000,0,91.24,0.000002697398,0.000002697398,0.000002697398,0.99999994,0,0,0,0,0,0,0,1,0,0,0,false,false,true,-132.84,-2931.29,16.99,-0.0046799853,0.0010816565,0.97533125,0.22069386,-503.391,1491.0409,8.561,0.00030999997,0,3.10501
224.54167,2000,0,91.24,0.000002697398,0.000002697398,0.000002697398,0.99999994,0,0,0,0,0,0,0,1,0,0,0,false,false,true,-137.03,-2918.8599,16.99,-0.0046907756,0.001022314,0.9781044,0.20805918,-507.001,1479.621,8.561,0.00040999998,0,3.10001
224.55,2000,0,91.24,0.000002697398,0.000002697398,0.000002697398,0.99999994,0,0,0,0,0,0,0,1,0,0,0,false,false,true,-141.25,-2906.53,16.99,-0.004701564,0.0009575762,0.9807101,0.19540834,-510.291,1468.1909,8.561,0.00051,0,3.09341
224.55833,2000,0,91.24,0.000002697398,0.000002697398,0.000002697398,0.99999994,0,0,0,0,0,0,0,1,0,0,0,false,false,true,-145.5,-2894.3,16.99,-0.0047123544,0.00089283875,0.98314726,0.18275209,-513.251,1456.771,8.561,0.00051,-0.00010999999,3.0852098
224.56667,2000,0,91.24,0.000002697398,0.000002697398,0.000002697398,0.99999994,0,0,0,0,0,0,0,1,0,0,0,false,false,true,-149.78,-2882.16,16.99,-0.0047231438,0.0008281012,0.98541486,0.17010128,-515.881,1445.391,8.561,0.00051,-0.00010999999,3.07531
224.575,2000,0,91.24,0.000002697398,0.000002697398,0.000002697398,0.99999994,0,0,0,0,0,0,0,1,0,0,0,false,false,true,-154.08,-2870.1099,16.99,-0.0047339336,0.00076336367,0.9875135,0.1574612,-518.191,1434.0709,8.561,0.00051,-0.00010999999,3.06371
224.58333,2000,0,91.24,0.000002697398,0.000002697398,0.000002697398,0.99999994,0,0,0,0,0,0,0,1,0,0,0,false,false,true,-158.4,-2858.16,16.99,-0.004744723,0.0006986261,0.989443,0.14484277,-520.18097,1422.841,8.561,0.00040999998,-0.00010999999,3.05041
224.59166,2000,0,91.24,0.000002697398,0.000002697398,0.000002697398,0.99999994,0,0,0,0,0,0,0,1,0,0,0,false,false,true,-162.73,-2846.3,16.99,-0.004755513,0.0006338885,0.99120384,0.13225663,-521.86096,1411.7109,8.561,0.00040999998,-0.00010999999,3.03521
224.6,2000,0,91.24,0.000002697398,0.000002697398,0.000002697398,0.99999994,0,0,0,0,0,0,0,1,0,0,0,false,false,true,-167.08,-2834.54,16.99,-0.0047609075,0.00057454576,0.99279684,0.11971365,-523.23096,1400.721,8.561,0.00040999998,-0.00010999999,3.01821
224.60834,2000,0,91.24,0.000002697398,0.000002697398,0.000002697398,0.99999994,0,0,0,0,0,0,0,1,0,0,0,false,false,true,-171.44,-2822.8699,16.99,-0.004766302,0.000515203,0.9942238,0.10721929,-524.311,1389.881,8.561,0.00040999998,-0.00010999999,2.99921
224.61667,2000,0,91.24,0.000002697398,0.000002697398,0.000002697398,0.99999994,0,0,0,0,0,0,0,1,0,0,0,false,false,true,-175.81,-2811.29,16.99,-0.004771697,0.00045586028,0.99548626,0.09478421,-525.10095,1379.2109,8.561,0.00040999998,-0.00010999999,2.97821
224.625,2000,0,91.24,0.000002697398,0.000002697398,0.000002697398,0.99999994,0,0,0,0,0,0,0,1,0,0,0,false,false,true,-180.19,-2799.8,16.99,-0.004777092,0.0003965175,0.99658567,0.08242473,-525.621,1368.741,8.561,0.00040999998,-0.00010999999,2.95521
224.63333,2000,0,91.24,0.000002697398,0.000002697398,0.000002697398,0.99999994,0,0,0,0,0,0,0,1,0,0,0,false,false,true,-184.56999,-2788.39,16.99,-0.0047824867,0.00033717474,0.99752516,0.070146084,-525.881,1358.491,8.561,0.00040999998,-0.00010999999,2.93011
224.64166,2000,0,91.24,0.000002697398,0.000002697398,0.000002697398,0.99999994,0,0,0,0,0,0,0,1,0,0,0,false,false,true,-188.95,-2777.0698,16.99,-0.0047878814,0.000277832,0.99830705,0.05796464,-525.891,1348.471,8.561,0.00051,-0.00010999999,2.9028099
224.65,2000,0,91.24,0.000002697398,0.000002697398,0.000002697398,0.99999994,0,0,0,0,0,0,0,1,0,0,0,false,false,true,-193.33,-2765.8298,16.99,-0.0047932765,0.00021848927,0.99893516,0.04588561,-525.67096,1338.7109,8.561,0.00051,-0.00010999999,2.87321
224.65834,2000,0,91.24,0.000002697398,0.000002697398,0.000002697398,0.99999994,0,0,0,0,0,0,0,1,0,0,0,false,false,true,-197.70999,-2754.67,16.99,-0.0047932756,0.00015914647,0.9994127,0.03392534,-525.24097,1329.221,8.561,0.00061,0,2.84131
224.66667,2000,0,91.24,0.000002697398,0.000002697398,0.000002697398,0.99999994,0,0,0,0,0,0,0,1,0,0,0,false,false,true,-202.09,-2743.5898,16.99,-0.0047932756,0.00009980372,0.99974436,0.022089075,-524.621,1320.011,8.561,0.00061,0,2.80701
224.675,2000,0,91.24,0.000002697398,0.000002697398,0.000002697398,0.99999994,0,0,0,0,0,0,0,1,0,0,0,false,false,true,-206.45999,-2732.5898,16.99,-0.0047932765,0.000040460975,0.9999345,0.010393076,-523.821,1311.111,8.561,0.00061,0,2.77031
224.68333,2000,0,91.24,0.000002697398,0.000002697398,0.000002697398,0.99999994,0,0,0,0,0,0,0,1,0,0,0,false,false,true,-210.83,-2721.66,16.99,-0.0047932765,-0.000018881788,0.99998784,-0.0011517891,-522.871,1302.521,8.561,0.00061,0,2.7311099
224.69167,2000,0,91.24,0.000002697398,0.000002697398,0.000002697398,0.99999994,0,0,0,0,0,0,0,1,0,0,0,false,false,true,-215.19,-2710.81,16.99,-0.004793276,-0.00007822454,0.99990994,-0.012529456,-521.79095,1294.261,8.561,0.00061,0,2.68921
224.7,2000,0,91.24,0.000002697398,0.000002697398,0.000002697398,0.99999994,0,0,0,0,0,0,0,1,0,0,0,false,false,true,-219.54,-2700.02,16.99,-0.004793276,-0.0001321725,0.99970675,-0.02373449,-520.59094,1286.341,8.561,0.00061,0,2.64461
224.70833,2000,0,91.24,0.000002697398,0.000002697398,0.000002697398,0.99999994,0,0,0,0,0,0,0,1,0,0,0,false,false,true,-223.87999,-2689.3,16.99,-0.004793276,-0.00018612047,0.99938446,-0.034750704,-519.24097,1278.631,8.561,0.00061,0,2.60211
224.71666,2000,0,91.24,0.000002697398,0.000002697398,0.000002697398,0.99999994,0,0,0,0,0,0,0,1,0,0,0,false,false,true,-228.20999,-2678.64,16.99,-0.004793276,-0.00024006843,0.99894893,-0.045583498,-517.751,1271.131,8.561,0.00051,0,2.56191
224.725,2000,0,91.24,0.000002697398,0.000002697398,0.000002697398,0.99999994,0,0,0,0,0,0,0,1,0,0,0,false,false,true,-232.51999,-2668.05,16.99,-0.004787881,-0.00029401635,0.9984054,-0.05624365,-516.131,1263.851,8.561,0.00040999998,0,2.52371
224.73334,2000,0,91.24,0.000002697398,0.000002697398,0.000002697398,0.99999994,0,0,0,0,0,0,0,1,0,0,0,false,false,true,-236.81999,-2657.52,16.99,-0.0047824867,-0.00034796435,0.99775904,-0.06673658,-514.391,1256.8009,8.561,0.00030999997,0,2.48771
224.74167,2000,0,91.24,0.000002697398,0.000002697398,0.000002697398,0.99999994,0,0,0,0,0,0,0,1,0,0,0,false,false,true,-241.11,-2647.05,16.99,-0.004777092,-0.0003965175,0.99701387,-0.077073045,-512.441,1249.7909,8.561,0.00021,0,2.45841
224.75,2000,0,91.24,0.000002697398,0.000002697398,0.000002697398,0.99999994,0,0,0,0,0,0,0,1,0,0,0,false,false,true,-245.37999,-2636.63,16.99,-0.004771697,-0.00044507068,0.99617225,-0.08728004,-510.291,1242.851,8.561,0.00010999999,0,2.43561
224.75833,2000,0,91.24,0.000002697398,0.000002697398,0.000002697398,0.99999994,0,0,0,0,0,0,0,1,0,0,0,false,false,true,-249.62999,-2626.27,16.99,-0.004766302,-0.00049362384,0.99523526,-0.09738454,-507.951,1236.001,8.561,0,0,2.41891
224.76666,2000,0,91.24,0.000002697398,0.000002697398,0.000002697398,0.99999994,0,0,0,0,0,0,0,1,0,0,0,false,false,true,-253.86,-2615.97,16.99,-0.004760907,-0.00054217695,0.9942033,-0.1074081,-505.431,1229.251,8.561,-0.00010999999,0,2.40821
224.775,2000,0,91.24,0.000002697398,0.000002697398,0.000002697398,0.99999994,0,0,0,0,0,0,0,1,0,0,0,false,false,true,-258.07,-2605.73,16.99,-0.004755513,-0.00059073017,0.9930757,-0.11737774,-502.741,1222.621,8.561,-0.00021,-0.00010999999,2.40331
224.78334,2000,0,91.24,0.000002697398,0.000002697398,0.000002697398,0.99999994,0,0,0,0,0,0,0,1,0,0,0,false,false,true,-262.25998,-2595.54,16.99,-0.004750118,-0.0006392834,0.99185073,-0.127315,-499.901,1216.131,8.561,-0.00030999997,-0.00010999999,2.40411
224.79167,2000,0,91.24,0.000002697398,0.000002697398,0.000002697398,0.99999994,0,0,0,0,0,0,0,1,0,0,0,false,false,true,-266.43,-2585.41,16.99,-0.004744723,-0.0006878365,0.99052596,-0.13724142,-496.911,1209.7909,8.561,-0.00040999998,-0.00010999999,2.41041
224.8,2000,0,91.24,0.000002697398,0.000002697398,0.000002697398,0.99999994,0,0,0,0,0,0,0,1,0,0,0,false,false,true,-270.57,-2575.3298,16.99,-0.0047393288,-0.0007309949,0.9890975,-0.14718409,-493.781,1203.631,8.561,-0.00051,-0.00021,2.4221098
224.80833,2000,0,91.24,0.000002697398,0.000002697398,0.000002697398,0.99999994,0,0,0,0,0,0,0,1,0,0,0,false,false,true,-274.68,-2565.3,16.99,-0.0047339336,-0.0007741532,0.9875616,-0.15715909,-490.531,1197.661,8.561,-0.00061,-0.00021,2.43911
224.81667,2000,0,91.24,0.000002697398,0.000002697398,0.000002697398,0.99999994,0,0,0,0,0,0,0,1,0,0,0,false,false,true,-278.77,-2555.3198,16.99,-0.004728539,-0.0008173117,0.98591334,-0.16718808,-487.171,1191.891,8.561,-0.00071,-0.00021,2.46141
224.825,2000,0,91.24,0.000002697398,0.000002697398,0.000002697398,0.99999994,0,0,0,0,0,0,0,1,0,0,0,false,false,true,-282.83,-2545.39,16.99,-0.0047177486,-0.0008604699,0.98414636,-0.17729254,-483.701,1186.3109,8.561,-0.00081,-0.00021,2.4883099
224.83333,2000,0,91.24,0.000002697398,0.000002697398,0.000002697398,0.99999994,0,0,0,0,0,0,0,1,0,0,0,false,false,true,-286.86,-2535.5,16.99,-0.00470696,-0.0009036284,0.98225504,-0.18748878,-480.061,1180.761,8.561,-0.00081,-0.00021,2.51631
224.84166,2000,0,91.24,0.000002697398,0.000002697398,0.000002697398,0.99999994,0,0,0,0,0,0,0,1,0,0,0,false,false,true,-290.86,-2525.66,16.99,-0.00469617,-0.0009467867,0.98023534,-0.19777668,-476.271,1175.251,8.561,-0.00071,-0.00030999997,2.54551
224.85,2000,0,91.24,0.000002697398,0.000002697398,0.000002697398,0.99999994,0,0,0,0,0,0,0,1,0,0,0,false,false,true,-294.83,-2515.8699,16.99,-0.004685381,-0.00099534,0.97808266,-0.20816173,-472.35098,1169.8009,8.561,-0.00061,-0.00030999997,2.57571
224.85834,2000,0,91.24,0.000002697398,0.000002697398,0.000002697398,0.99999994,0,0,0,0,0,0,0,1,0,0,0,false,false,true,-298.77,-2506.1199,16.99,-0.004674591,-0.0010438932,0.97579294,-0.21864386,-468.32098,1164.4309,8.561,-0.00051,-0.00030999997,2.60671
224.86667,2000,0,91.24,0.000002697398,0.000002697398,0.000002697398,0.99999994,0,0,0,0,0,0,0,1,0,0,0,false,false,true,-302.66998,-2496.42,16.99,-0.0046638013,-0.0010924462,0.9733608,-0.22922847,-464.181,1159.161,8.561,-0.00051,-0.00030999997,2.63851
224.875,2000,0,91.24,0.000002697398,0.000002697398,0.000002697398,0.99999994,0,0,0,0,0,0,0,1,0,0,0,false,false,true,-306.53998,-2486.76,16.99,-0.0046530114,-0.0011409994,0.97078186,-0.23991561,-459.861,1153.841,8.561,-0.00040999998,-0.00030999997,2.66801
224.88333,2000,0,91.24,0.000002697398,0.000002697398,0.000002697398,0.99999994,0,0,0,0,0,0,0,1,0,0,0,false,false,true,-310.37,-2477.14,16.99,-0.0046422225,-0.0011895526,0.96805435,-0.25069445,-455.35098,1148.4609,8.561,-0.00030999997,-0.00030999997,2.69451
224.89166,2000,0,91.24,0.000002697398,0.000002697398,0.000002697398,0.99999994,0,0,0,0,0,0,0,1,0,0,0,false,false,true,-314.16,-2467.5698,16.99,-0.0046314327,-0.0012381058,0.9651783,-0.26154885,-450.641,1143.031,8.561,-0.00021,-0.00021,2.71801
224.9,2000,0,91.24,0.000002697398,0.000002697398,0.000002697398,0.99999994,0,0,0,0,0,0,0,1,0,0,0,false,false,true,-317.91998,-2458.04,16.99,-0.004615248,-0.0012920536,0.9621544,-0.27246252,-445.741,1137.5709,8.561,-0.00010999999,-0.00010999999,2.73861
224.90834,2000,0,91.24,0.000002697398,0.000002697398,0.000002697398,0.99999994,0,0,0,0,0,0,0,1,0,0,0,false,false,true,-321.63,-2448.56,16.99,-0.0045990637,-0.0013460016,0.9589824,-0.2834248,-440.661,1132.101,8.561,0,-0.00010999999,2.75631
224.91667,2000,0,91.24,0.000002697398,0.000002697398,0.000002697398,0.99999994,0,0,0,0,0,0,0,1,0,0,0,false,false,true,-325.3,-2439.13,16.99,-0.004582879,-0.0013999495,0.9556642,-0.29441944,-435.401,1126.641,8.561,0,-0.00010999999,2.77121
224.925,2000,0,91.24,0.000002697398,0.000002697398,0.000002697398,0.99999994,0,0,0,0,0,0,0,1,0,0,0,false,false,true,-328.93,-2429.74,16.99,-0.0045666946,-0.0014538976,0.9522006,-0.30543566,-429.961,1121.2009,8.561,0,-0.00010999999,2.7834098
224.93333,2000,0,91.24,0.000002697398,0.000002697398,0.000002697398,0.99999994,0,0,0,0,0,0,0,1,0,0,0,false,false,true,-332.50998,-2420.4,16.99,-0.00455051,-0.0015078454,0.9485945,-0.31645724,-424.361,1115.8009,8.561,0,-0.00010999999,2.7929099
224.94167,2000,0,91.24,0.000002697398,0.000002697398,0.000002697398,0.99999994,0,0,0,0,0,0,0,1,0,0,0,false,false,true,-336.05,-2411.0999,16.99,-0.004534326,-0.0015617935,0.9448481,-0.32747346,-418.60098,1110.4609,8.561,0,0,2.79971
224.95,2000,0,91.24,0.000002697398,0.000002697398,0.000002697398,0.99999994,0,0,0,0,0,0,0,1,0,0,0,false,false,true,-339.53998,-2401.8499,16.99,-0.0045181415,-0.0016157414,0.9409636,-0.3384735,-412.701,1105.1909,8.561,0,0,2.80391
224.95833,2000,0,91.24,0.000002697398,0.000002697398,0.000002697398,0.99999994,0,0,0,0,0,0,0,1,0,0,0,false,false,true,-342.97998,-2392.64,16.99,-0.0044965623,-0.0016696894,0.936946,-0.34944117,-406.661,1100.001,8.561,0,0,2.80561
224.96666,2000,0,91.24,0.000002697398,0.000002697398,0.000002697398,0.99999994,0,0,0,0,0,0,0,1,0,0,0,false,false,true,-346.37,-2383.47,16.99,-0.004474983,-0.0017236373,0.93279666,-0.36037102,-400.491,1094.911,8.561,0,0,2.80481
224.975,2000,0,91.24,0.000002697398,0.000002697398,0.000002697398,0.99999994,0,0,0,0,0,0,0,1,0,0,0,false,false,true,-349.71,-2374.3499,16.99,-0.004453404,-0.0017775854,0.9285217,-0.37124702,-394.211,1089.9409,8.561,0,0,2.8015099
224.98334,2000,0,91.24,0.000002697398,0.000002697398,0.000002697398,0.99999994,0,0,0,0,0,0,0,1,0,0,0,false,false,true,-353,-2365.27,16.99,-0.0044318247,-0.0018315333,0.92412573,-0.3820582,-387.831,1085.091,8.561,0,0,2.79581
224.99167,2000,0,91.24,0.000002697398,0.000002697398,0.000002697398,0.99999994,0,0,0,0,0,0,0,1,0,0,0,false,false,true,-356.22998,-2356.23,16.99,-0.0044102455,-0.0018854813,0.91961163,-0.39279932,-381.371,1080.371,8.561,0,0,2.7878098
225,2000,0,91.24,0.000002697398,0.000002697398,0.000002697398,0.99999994,0,0,0,0,0,0,0,1,0,0,0,false,false,true,-359.41,-2347.23,16.99,-0.0043886667,-0.0019340344,0.91498727,-0.40345404,-374.831,1075.8009,8.561,0,0,2.77751
225.00833,2000,0,91.24,0.000002697398,0.000002697398,0.000002697398,0.99999994,0,0,0,0,0,0,0,1,0,0,0,false,false,true,-362.53,-2338.27,16.99,-0.0043670875,-0.0019825874,0.9102564,-0.41401714,-368.241,1071.381,8.561,0,0,2.76491
225.01666,2000,0,91.24,0.000002697398,0.000002697398,0.000002697398,0.99999994,0,0,0,0,0,0,0,1,0,0,0,false,false,true,-365.6,-2329.3398,16.99,-0.0043455083,-0.0020311407,0.90542567,-0.42447764,-361.601,1067.121,8.561,0.00010999999,0.00010999999,2.75011
225.025,2000,0,91.24,0.000002697398,0.000002697398,0.000002697398,0.99999994,0,0,0,0,0,0,0,1,0,0,0,false,false,true,-368.61,-2320.45,16.99,-0.0043239295,-0.002079694,0.90050215,-0.43482497,-354.941,1063.031,8.561,0.00021,0.00021,2.7332098
225.03334,2000,0,91.24,0.000002697398,0.000002697398,0.000002697398,0.99999994,0,0,0,0,0,0,0,1,0,0,0,false,false,true,-371.56998,-2311.5898,16.99,-0.004296955,-0.002128247,0.89549106,-0.4450535,-348.261,1059.111,8.561,0.00021,0.00030999997,2.71411
225.04167,2000,0,91.24,0.000002697398,0.000002697398,0.000002697398,0.99999994,0,0,0,0,0,0,0,1,0,0,0,false,false,true,-374.47,-2302.76,16.99,-0.004269981,-0.0021768003,0.89040047,-0.4551526,-341.581,1055.361,8.561,0.00030999997,0.00030999997,2.6930099
225.05,2000,0,91.24,0.000002697398,0.000002697398,0.000002697398,0.99999994,0,0,0,0,0,0,0,1,0,0,0,false,false,true,-377.31998,-2293.97,16.99,-0.004243007,-0.0022253534,0.88523626,-0.46511683,-334.921,1051.7909,8.561,0.00030999997,0.00030999997,2.66981
225.05833,2000,0,91.24,0.000002697398,0.000002697398,0.000002697398,0.99999994,0,0,0,0,0,0,0,1,0,0,0,false,false,true,-380.11,-2285.2,16.99,-0.004216033,-0.0022739065,0.88000757,-0.47493538,-328.291,1048.401,8.561,0.00030999997,0.00030999997,2.64461
225.06667,2000,0,91.24,0.000002697398,0.000002697398,0.000002697398,0.99999994,0,0,0,0,0,0,0,1,0,0,0,false,false,true,-382.85,-2276.46,16.99,-0.0041890587,-0.0023224594,0.874721,-0.48460284,-321.711,1045.1909,8.561,0.00030999997,0.00030999997,2.6175098
225.075,2000,0,91.24,0.000002697398,0.000002697398,0.000002697398,0.99999994,0,0,0,0,0,0,0,1,0,0,0,false,false,true,-385.53,-2267.75,16.99,-0.0041620852,-0.002371013,0.8693839,-0.49411392,-315.191,1042.161,8.561,0.00030999997,0.00030999997,2.58851
225.08333,2000,0,91.24,0.000002697398,0.000002697398,0.000002697398,0.99999994,0,0,0,0,0,0,0,1,0,0,0,false,false,true,-388.16,-2259.07,16.99,-0.004135111,-0.002419566,0.86400336,-0.50346315,-308.741,1039.3009,8.561,0.00030999997,0.00030999997,2.55761
225.09166,2000,0,91.24,0.000002697398,0.000002697398,0.000002697398,0.99999994,0,0,0,0,0,0,0,1,0,0,0,false,false,true,-390.72998,-2250.41,16.99,-0.004108137,-0.0024627245,0.85859036,-0.5126397,-302.381,1036.621,8.561,0.00030999997,0.00030999997,2.52491
225.1,2000,0,91.24,0.000002697398,0.000002697398,0.000002697398,0.99999994,0,0,0,0,0,0,0,1,0,0,0,false,false,true,-393.25,-2241.77,16.99,-0.004081163,-0.0025058826,0.8531499,-0.5216437,-296.121,1034.111,8.561,0.00030999997,0.00030999997,2.4904099
225.10834,2000,0,91.24,0.000002697398,0.000002697398,0.000002697398,0.99999994,0,0,0,0,0,0,0,1,0,0,0,false,false,true,-395.72,-2233.15,16.99,-0.004054189,-0.002549041,0.84769034,-0.5304696,-289.971,1031.771,8.561,0.00030999997,0.00040999998,2.45421
225.11667,2000,0,91.24,0.000002697398,0.000002697398,0.000002697398,0.99999994,0,0,0,0,0,0,0,1,0,0,0,false,false,true,-398.13998,-2224.55,16.99,-0.0040272153,-0.0025921995,0.8422203,-0.5391121,-283.951,1029.601,8.561,0.00030999997,0.00040999998,2.4163098
225.125,2000,0,91.24,0.000002697398,0.000002697398,0.000002697398,0.99999994,0,0,0,0,0,0,0,1,0,0,0,false,false,true,-400.50998,-2215.97,16.99,-0.004000241,-0.002635358,0.83674884,-0.5475658,-278.061,1027.591,8.561,0.00030999997,0.00040999998,2.37671
225.13333,2000,0,91.24,0.000002697398,0.000002697398,0.000002697398,0.99999994,0,0,0,0,0,0,0,1,0,0,0,false,false,true,-402.83,-2207.41,16.99,-0.003973267,-0.0026785163,0.83128524,-0.55582523,-272.321,1025.731,8.561,0.00030999997,0.00040999998,2.33551
225.14166,2000,0,91.24,0.000002697398,0.000002697398,0.000002697398,0.99999994,0,0,0,0,0,0,0,1,0,0,0,false,false,true,-405.1,-2198.8599,16.99,-0.003946293,-0.0027216745,0.8258355,-0.5638905,-266.731,1024.021,8.551001,0.00030999997,0.00040999998,2.29271
225.15,2000,0,91.24,0.000002697398,0.000002697398,0.000002697398,0.99999994,0,0,0,0,0,0,0,1,0,0,0,false,false,true,-407.31998,-2190.3298,16.99,-0.0039193192,-0.0027594382,0.82040954,-0.5717561,-261.311,1022.4509,8.551001,0.00021,0.00040999998,2.24841
225.15834,2000,0,91.24,0.000002697398,0.000002697398,0.000002697398,0.99999994,0,0,0,0,0,0,0,1,0,0,0,false,false,true,-409.5,-2181.81,16.99,-0.003892345,-0.0027972015,0.8150172,-0.5794167,-256.061,1021.0109,8.551001,0.00021,0.00040999998,2.20261
225.16667,2000,0,91.24,0.000002697398,0.000002697398,0.000002697398,0.99999994,0,0,0,0,0,0,0,1,0,0,0,false,false,true,-411.63,-2173.3,16.99,-0.0038653715,-0.0028349652,0.80966514,-0.5868724,-250.991,1019.691,8.551001,0.00021,0.00040999998,2.15531
225.175,2000,0,91.24,0.000002697398,0.000002697398,0.000002697398,0.99999994,0,0,0,0,0,0,0,1,0,0,0,false,false,true,-413.72,-2164.8,16.99,-0.0038383976,-0.002872729,0.8043638,-0.59411764,-246.101,1018.49097,8.551001,0.00021,0.00040999998,2.10661
225.18333,2000,0,91.24,0.000002697398,0.000002697398,0.000002697398,0.99999994,0,0,0,0,0,0,0,1,0,0,0,false,false,true,-415.77,-2156.31,16.99,-0.0038114234,-0.0029104925,0.79911983,-0.6011525,-241.401,1017.40094,8.551001,0.00021,0.00040999998,2.0566099
225.19167,2000,0,91.24,0.000002697398,0.000002697398,0.000002697398,0.99999994,0,0,0,0,0,0,0,1,0,0,0,false,false,true,-417.78,-2147.8298,16.99,-0.0037844495,-0.0029428613,0.7939401,-0.607977,-236.901,1016.41095,8.551001,0.00010999999,0.00040999998,2.00531
225.2,2000,0,91.24,0.000002697398,0.000002697398,0.000002697398,0.99999994,0,0,0,0,0,0,0,1,0,0,0,false,false,true,-419.75,-2139.3599,16.99,-0.0037574759,-0.0029752303,0.7888313,-0.61459106,-232.591,1015.52094,8.551001,0.00010999999,0.00040999998,1.9527099
225.20833,2000,0,91.24,0.000002697398,0.000002697398,0.000002697398,0.99999994,0,0,0,0,0,0,0,1,0,0,0,false,false,true,-421.69,-2130.9,16.99,-0.0037305017,-0.0030075992,0.78380436,-0.6209893,-228.481,1014.71094,8.551001,0.00010999999,0.00040999998,1.8989099
225.21666,2000,0,91.24,0.000002697398,0.000002697398,0.000002697398,0.99999994,0,0,0,0,0,0,0,1,0,0,0,false,false,true,-423.59,-2122.44,16.99,-0.0037035279,-0.0030399677,0.77886623,-0.62717175,-224.571,1013.98096,8.551001,0.00010999999,0.00040999998,1.84401
225.225,2000,0,91.24,0.000002697398,0.000002697398,0.000002697398,0.99999994,0,0,0,0,0,0,0,1,0,0,0,false,false,true,-425.46,-2113.99,16.99,-0.0036765535,-0.0030723363,0.7740237,-0.63313836,-220.86101,1013.321,8.541,0.00010999999,0.00030999997,1.78801
225.23334,2000,0,91.24,0.000002697398,0.000002697398,0.000002697398,0.99999994,0,0,0,0,0,0,0,1,0,0,0,false,false,true,-427.3,-2105.55,16.99,-0.0036549747,-0.0030993107,0.7692837,-0.6388893,-217.36101,1012.72095,8.541,0.00010999999,0.00030999997,1.73101
225.24167,2000,0,91.24,0.000002697398,0.000002697398,0.000002697398,0.99999994,0,0,0,0,0,0,0,1,0,0,0,false,false,true,-429.11,-2097.1099,16.99,-0.0036333953,-0.0031262843,0.76465756,-0.6444189,-214.061,1012.17096,8.541,0.00010999999,0.00030999997,1.67301
225.25,2000,0,91.24,0.000002697398,0.000002697398,0.000002697398,0.99999994,0,0,0,0,0,0,0,1,0,0,0,false,false,true,-430.88998,-2088.67,16.99,-0.003611816,-0.0031532582,0.7601474,-0.6497328,-210.951,1011.67096,8.541,0.00010999999,0.00030999997,1.61411
225.25833,2000,0,91.24,0.000002697398,0.000002697398,0.000002697398,0.99999994,0,0,0,0,0,0,0,1,0,0,0,false,false,true,-432.65,-2080.24,16.99,-0.003590237,-0.0031802324,0.7557601,-0.65483093,-208.041,1011.21094,8.541,0.00010999999,0.00030999997,1.55441
225.26666,2000,0,91.24,0.000002697398,0.000002697398,0.000002697398,0.99999994,0,0,0,0,0,0,0,1,0,0,0,false,false,true,-434.38,-2071.81,16.99,-0.003568658,-0.0032072065,0.751502,-0.6597133,-205.321,1010.79095,8.541,0,0.00030999997,1.49411
225.275,2000,0,91.24,0.000002697398,0.000002697398,0.000002697398,0.99999994,0,0,0,0,0,0,0,1,0,0,0,false,false,true,-436.09,-2063.39,16.99,-0.0035470785,-0.0032287855,0.74737966,-0.6643798,-202.781,1010.40094,8.541,0,0.00030999997,1.43331
225.28334,2000,0,91.24,0.000002697398,0.000002697398,0.000002697398,0.99999994,0,0,0,0,0,0,0,1,0,0,0,false,false,true,-437.78,-2054.97,16.99,-0.0035254993,-0.0032503647,0.7433993,-0.6688305,-200.411,1010.04095,8.541,0,0.00021,1.37221
225.29167,2000,0,91.24,0.000002697398,0.000002697398,0.000002697398,0.99999994,0,0,0,0,0,0,0,1,0,0,0,false,false,true,-439.44998,-2046.5499,16.99,-0.00350392,-0.003271944,0.7395624,-0.6730708,-198.201,1009.7009,8.541,0,0.00021,1.31091
225.3,2000,0,91.24,0.000002697398,0.000002697398,0.000002697398,0.99999994,0,0,0,0,0,0,0,1,0,0,0,false,false,true,-441.09998,-2038.14,16.99,-0.003487736,-0.0032935233,0.73587465,-0.6771008,-196.151,1009.381,8.541,0,0.00010999999,1.24961
225.30833,2000,0,91.24,0.000002697398,0.000002697398,0.000002697398,0.99999994,0,0,0,0,0,0,0,1,0,0,0,false,false,true,-442.72998,-2029.73,16.99,-0.0034715512,-0.0033097074,0.7323417,-0.6809203,-194.251,1009.071,8.541,0,0.00010999999,1.18831
225.31667,2000,0,91.24,0.000002697398,0.000002697398,0.000002697398,0.99999994,0,0,0,0,0,0,0,1,0,0,0,false,false,true,-444.34998,-2021.32,16.99,-0.003455367,-0.003325892,0.7289592,-0.6845402,-192.501,1008.77094,8.541,0,0.00010999999,1.12711
225.325,2000,0,91.24,0.000002697398,0.000002697398,0.000002697398,0.99999994,0,0,0,0,0,0,0,1,0,0,0,false,false,true,-445.94998,-2012.9099,16.99,-0.0034391826,-0.0033420762,0.72573733,-0.6879551,-190.881,1008.48096,8.541,0,0.00010999999,1.06611
225.33333,2000,0,91.24,0.000002697398,0.000002697398,0.000002697398,0.99999994,0,0,0,0,0,0,0,1,0,0,0,false,false,true,-447.53998,-2004.51,16.99,-0.0034229981,-0.0033582605,0.72267574,-0.69117045,-189.391,1008.2009,8.541,0,0.00010999999,1.00541
225.34166,2000,0,91.24,0.000002697398,0.000002697398,0.000002697398,0.99999994,0,0,0,0,0,0,0,1,0,0,0,false,false,true,-449.12,-1996.11,16.99,-0.0034068138,-0.003374445,0.71977425,-0.6941915,-188.021,1007.92096,8.541,0,0.00010999999,0.94501
225.35,2000,0,91.24,0.000002697398,0.000002697398,0.000002697398,0.99999994,0,0,0,0,0,0,0,1,0,0,0,false,false,true,-450.69,-1987.71,16.99,-0.0033906293,-0.0033906293,0.7170371,-0.6970184,-186.771,1007.65094,8.541,0,0.00010999999,0.88501
225.35834,2000,0,91.24,0.000002697398,0.000002697398,0.000002697398,0.99999994,0,0,0,0,0,0,0,1,0,0,0,false,false,true,-452.25,-1979.3099,16.99,-0.00337984,-0.0034014191,0.71446323,-0.6996565,-185.621,1007.381,8.541,0,0,0.82550997
225.36667,2000,0,91.24,0.000002697398,0.000002697398,0.000002697398,0.99999994,0,0,0,0,0,0,0,1,0,0,0,false,false,true,-453.8,-1970.9099,16.99,-0.0033690496,-0.003412208,0.7120511,-0.70211107,-184.571,1007.11096,8.541,0,0,0.76651
225.375,2000,0,91.24,0.000002697398,0.000002697398,0.000002697398,0.99999994,0,0,0,0,0,0,0,1,0,0,0,false,false,true,-455.34,-1962.5199,16.99,-0.0033582605,-0.0034229981,0.7098044,-0.70438236,-183.621,1006.84094,8.541,0,0,0.70801
225.38333,2000,0,91.24,0.000002697398,0.000002697398,0.000002697398,0.99999994,0,0,0,0,0,0,0,1,0,0,0,false,false,true,-456.87,-1954.13,16.99,-0.003347471,-0.0034337877,0.7077211,-0.7064755,-182.751,1006.571,8.541,0,0,0.65011
225.39166,2000,0,91.24,0.000002697398,0.000002697398,0.000002697398,0.99999994,0,0,0,0,0,0,0,1,0,0,0,false,false,true,-458.38998,-1945.74,16.99,0.0033366815,0.0034445773,-0.70580655,0.70838827,-181.961,1006.29095,8.541,0,0,0.59271
225.4,2000,0,91.24,0.000002697398,0.000002697398,0.000002697398,0.99999994,0,0,0,0,0,0,0,1,0,0,0,false,false,true,-459.91,-1937.35,16.99,0.003325892,0.003455367,-0.7040533,0.7101308,-181.241,1006.0109,8.541,0,0,0.53591
225.40834,2000,0,91.24,0.000002697398,0.000002697398,0.000002697398,0.99999994,0,0,0,0,0,0,0,1,0,0,0,false,false,true,-461.41998,-1928.97,16.99,0.003320497,0.0034607616,-0.7024672,0.7116998,-180.591,1005.73096,8.541,0,0,0.47981
225.41667,2000,0,91.24,0.000002697398,0.000002697398,0.000002697398,0.99999994,0,0,0,0,0,0,0,1,0,0,0,false,false,true,-462.91998,-1920.59,16.99,0.0033151023,0.0034661565,-0.7010429,0.7131029,-180.001,1005.4509,8.541,0,0,0.42431
225.425,2000,0,91.24,0.000002697398,0.000002697398,0.000002697398,0.99999994,0,0,0,0,0,0,0,1,0,0,0,false,false,true,-464.41998,-1912.21,16.99,0.0033097074,0.0034715512,-0.6997805,0.7143417,-179.461,1005.17096,8.541,0,0,0.36941
225.43333,2000,0,91.24,0.000002697398,0.000002697398,0.000002697398,0.99999994,0,0,0,0,0,0,0,1,0,0,0,false,false,true,-465.91998,-1903.83,16.99,0.003304313,0.0034769464,-0.69868004,0.71541816,-178.97101,1004.8909,8.541,0,0,0.31521
225.44167,2000,0,91.24,0.000002697398,0.000002697398,0.000002697398,0.99999994,0,0,0,0,0,0,0,1,0,0,0,false,false,true,-467.41,-1895.46,16.99,0.0032989178,0.0034823408,-0.6977413,0.7163336,-178.521,1004.61096,8.541,0,0,0.26161
225.45,2000,0,91.24,0.000002697398,0.000002697398,0.000002697398,0.99999994,0,0,0,0,0,0,0,1,0,0,0,false,false,true,-468.9,-1887.09,16.99,0.003293523,0.0034877358,-0.6969591,0.7170947,-178.101,1004.33093,8.541,0,0,0.20871
225.45833,2000,0,91.24,0.000002697398,0.000002697398,0.000002697398,0.99999994,0,0,0,0,0,0,0,1,0,0,0,false,false,true,-470.37997,-1878.72,16.99,0.0032881282,0.0034931304,-0.6963332,0.71770245,-177.711,1004.05096,8.541,0,0,0.15651
225.46666,2000,0,91.24,0.000002697398,0.000002697398,0.000002697398,0.99999994,0,0,0,0,0,0,0,1,0,0,0,false,false,true,-471.86,-1870.35,16.99,0.0032881282,0.0034931304,-0.6958639,0.71815753,-177.341,1003.77094,8.541,0,-0.00010999999,0.10490999
225.475,2000,0,91.24,0.000002697398,0.000002697398,0.000002697398,0.99999994,0,0,0,0,0,0,0,1,0,0,0,false,false,true,-473.34,-1861.99,16.99,0.0032881282,0.0034931304,-0.69555104,0.71846056,-176.991,1003.49097,8.541,0,-0.00010999999,0.054009996
225.48334,2000,0,91.24,0.000002697398,0.000002697398,0.000002697398,0.99999994,0,0,0,0,0,0,0,1,0,0,0,false,false,true,-474.81,-1853.63,16.99,0.0032881282,0.0034931304,-0.69538915,0.71861726,-176.651,1003.21094,8.541,0,-0.00010999999,0.00371
225.49167,2000,0,91.24,0.000002697398,0.000002697398,0.000002697398,0.99999994,0,0,0,0,0,0,0,1,0,0,0,false,false,true,-476.28,-1845.27,16.99,0.0032881282,0.0034931304,-0.69537836,0.7186277,-176.311,1002.941,8.541,0,-0.00010999999,-0.04581
225.5,2000,0,91.24,0.000002697398,0.000002697398,0.000002697398,0.99999994,0,0,0,0,0,0,0,1,0,0,0,false,false,true,-477.75,-1836.9099,16.99,0.0032881282,0.0034931304,-0.69551325,0.71849716,-175.97101,1002.67096,8.541,0,-0.00010999999,-0.09471
225.50833,2000,0,91.24,0.000002697398,0.000002697398,0.000002697398,0.99999994,0,0,0,0,0,0,0,1,0,0,0,false,false,true,-479.22,-1828.5499,16.99,0.0032881282,0.0034931304,-0.6957992,0.71822023,-175.621,1002.41095,8.541,0,-0.00010999999,-0.14290999
225.51666,2000,0,91.24,0.000002697398,0.000002697398,0.000002697398,0.99999994,0,0,0,0,0,0,0,1,0,0,0,false,false,true,-480.68,-1820.2,16.99,0.0032881282,0.0034931304,-0.69622535,0.7178071,-175.261,1002.15094,8.541,0,-0.00010999999,-0.19050999
225.525,2000,0,91.24,0.000002697398,0.000002697398,0.000002697398,0.99999994,0,0,0,0,0,0,0,1,0,0,0,false,false,true,-482.13998,-1811.85,16.99,0.003293523,0.0034877358,-0.6967972,0.717252,-174.881,1001.90094,8.541,0,-0.00021,-0.23741
225.53334,2000,0,91.24,0.000002697398,0.000002697398,0.000002697398,0.99999994,0,0,0,0,0,0,0,1,0,0,0,false,false,true,-483.59998,-1803.5,16.99,0.0032989178,0.0034823408,-0.6975039,0.7165648,-174.481,1001.66095,8.541,0,-0.00021,-0.28371
225.54167,2000,0,91.24,0.000002697398,0.000002697398,0.000002697398,0.99999994,0,0,0,0,0,0,0,1,0,0,0,false,false,true,-485.05,-1795.1499,16.99,0.0033043127,0.0034769461,-0.6983509,0.71573937,-174.05101,1001.42096,8.541,0,-0.00021,-0.32941002
225.55,2000,0,91.24,0.000002697398,0.000002697398,0.000002697398,0.99999994,0,0,0,0,0,0,0,1,0,0,0,false,false,true,-486.5,-1786.7999,16.99,0.0033097074,0.0034715512,-0.6993328,0.71478003,-173.58101,1001.191,8.541,0,-0.00021,-0.37441
225.55833,2000,0,91.24,0.000002697398,0.000002697398,0.000002697398,0.99999994,0,0,0,0,0,0,0,1,0,0,0,false,false,true,-487.94998,-1778.46,16.99,0.0033151023,0.0034661565,-0.70044947,0.71368575,-173.08101,1000.97095,8.541,0,-0.00021,-0.41881
225.56667,2000,0,91.24,0.000002697398,0.000002697398,0.000002697398,0.99999994,0,0,0,0,0,0,0,1,0,0,0,false,false,true,-489.38998,-1770.12,16.99,0.003320497,0.0034607616,-0.70169574,0.71246046,-172.531,1000.7609,8.541,0,-0.00021,-0.46251
225.575,2000,0,91.24,0.000002697398,0.000002697398,0.000002697398,0.99999994,0,0,0,0,0,0,0,1,0,0,0,false,false,true,-490.83,-1761.7799,16.99,0.003325892,0.003455367,-0.703066,0.71110827,-171.931,1000.55096,8.541,0,-0.00021,-0.50561
225.58333,2000,0,91.24,0.000002697398,0.000002697398,0.000002697398,0.99999994,0,0,0,0,0,0,0,1,0,0,0,false,false,true,-492.25998,-1753.44,16.99,0.0033312866,0.0034499723,-0.70456034,0.70962775,-171.281,1000.35095,8.541,0,-0.00021,-0.54801
225.59166,2000,0,91.24,0.000002697398,0.000002697398,0.000002697398,0.99999994,0,0,0,0,0,0,0,1,0,0,0,false,false,true,-493.69,-1745.1,16.99,0.0033420757,0.0034391822,-0.7061787,0.70801723,-170.58101,1000.16095,8.541,0,-0.00021,-0.58971
225.6,2000,0,91.24,0.000002697398,0.000002697398,0.000002697398,0.99999994,0,0,0,0,0,0,0,1,0,0,0,false,false,true,-495.11,-1736.77,16.99,-0.0033528658,-0.003428393,0.70791495,-0.7062813,-169.811,999.98096,8.541,0,-0.00021,-0.63081
225.60834,2000,0,91.24,0.000002697398,0.000002697398,0.000002697398,0.99999994,0,0,0,0,0,0,0,1,0,0,0,false,false,true,-496.53,-1728.44,16.99,-0.0033636554,-0.0034176034,0.709767,-0.7044201,-168.981,999.811,8.541,0,-0.00021,-0.67121
225.61667,2000,0,91.24,0.000002697398,0.000002697398,0.000002697398,0.99999994,0,0,0,0,0,0,0,1,0,0,0,false,false,true,-497.94,-1720.11,16.99,-0.003374445,-0.0034068138,0.7117318,-0.70243484,-168.08101,999.6409,8.541,0,-0.00021,-0.71091
225.625,2000,0,91.24,0.000002697398,0.000002697398,0.000002697398,0.99999994,0,0,0,0,0,0,0,1,0,0,0,false,false,true,-499.34,-1711.7799,16.99,-0.0033852346,-0.0033960242,0.7138075,-0.7003254,-167.11101,999.48096,8.541,0,-0.00021,-0.74991
225.63333,2000,0,91.24,0.000002697398,0.000002697398,0.000002697398,0.99999994,0,0,0,0,0,0,0,1,0,0,0,false,false,true,-500.72998,-1703.45,16.99,-0.0033960242,-0.0033852346,0.7159919,-0.698092,-166.061,999.33093,8.541,0,-0.00021,-0.78811
225.64166,2000,0,91.24,0.000002697398,0.000002697398,0.000002697398,0.99999994,0,0,0,0,0,0,0,1,0,0,0,false,false,true,-502.11,-1695.12,16.99,-0.0034068138,-0.003374445,0.718283,-0.69573444,-164.931,999.18097,8.541,0,-0.00021,-0.82561
225.65,2000,0,91.24,0.000002697398,0.000002697398,0.000002697398,0.99999994,0,0,0,0,0,0,0,1,0,0,0,false,false,true,-503.47998,-1686.7899,16.99,-0.0034176034,-0.0033636554,0.7206732,-0.6932582,-163.711,999.03094,8.541,0,-0.00021,-0.86231
225.65834,2000,0,91.24,0.000002697398,0.000002697398,0.000002697398,0.99999994,0,0,0,0,0,0,0,1,0,0,0,false,false,true,-504.84,-1678.46,16.99,-0.003428393,-0.0033528658,0.72316045,-0.6906633,-162.41101,998.8909,8.541,0,-0.00021,-0.89831
225.66667,2000,0,91.24,0.000002697398,0.000002697398,0.000002697398,0.99999994,0,0,0,0,0,0,0,1,0,0,0,false,false,true,-506.19,-1670.14,16.99,-0.0034391822,-0.0033420757,0.7257424,-0.68794966,-161.021,998.751,8.541,0,-0.00021,-0.93351
225.675,2000,0,91.24,0.000002697398,0.000002697398,0.000002697398,0.99999994,0,0,0,0,0,0,0,1,0,0,0,false,false,true,-507.53,-1661.82,16.99,-0.0034553665,-0.0033258914,0.7284116,-0.6851228,-159.531,998.61096,8.541,0,-0.00030999997,-0.96781
225.68333,2000,0,91.24,0.000002697398,0.000002697398,0.000002697398,0.99999994,0,0,0,0,0,0,0,1,0,0,0,false,false,true,-508.86,-1653.5,16.99,-0.0034715512,-0.0033097074,0.731171,-0.68217725,-157.94101,998.47095,8.541,0,-0.00030999997,-1.00131
225.69167,2000,0,91.24,0.000002697398,0.000002697398,0.000002697398,0.99999994,0,0,0,0,0,0,0,1,0,0,0,false,false,true,-510.18,-1645.1799,16.99,-0.0034877358,-0.003293523,0.73401296,-0.6791184,-156.251,998.321,8.541,0,-0.00030999997,-1.03391
225.7,2000,0,91.24,0.000002697398,0.000002697398,0.000002697398,0.99999994,0,0,0,0,0,0,0,1,0,0,0,false,false,true,-511.47998,-1636.86,16.99,-0.00350392,-0.0032773386,0.73693025,-0.67595166,-154.461,998.17096,8.541,0,-0.00021,-1.0656099
225.70833,2000,0,91.24,0.000002697398,0.000002697398,0.000002697398,0.99999994,0,0,0,0,0,0,0,1,0,0,0,false,false,true,-512.76996,-1628.5399,16.99,-0.0035201046,-0.0032611543,0.7399255,-0.6726716,-152.571,998.0109,8.541,0,-0.00021,-1.09641
225.71666,2000,0,91.24,0.000002697398,0.000002697398,0.000002697398,0.99999994,0,0,0,0,0,0,0,1,0,0,0,false,false,true,-514.04,-1620.22,16.99,-0.0035362889,-0.0032449698,0.7429913,-0.6692837,-150.571,997.84094,8.541,0,-0.00021,-1.12641
225.725,2000,0,91.24,0.000002697398,0.000002697398,0.000002697398,0.99999994,0,0,0,0,0,0,0,1,0,0,0,false,false,true,-515.29,-1611.9,16.99,-0.0035524734,-0.0032287855,0.7461256,-0.6657878,-148.47101,997.66095,8.541,0,-0.00021,-1.15551
225.73334,2000,0,91.24,0.000002697398,0.000002697398,0.000002697398,0.99999994,0,0,0,0,0,0,0,1,0,0,0,false,false,true,-516.52997,-1603.59,16.99,-0.0035686577,-0.0032126012,0.7493209,-0.6621895,-146.261,997.46094,8.541,0,-0.00021,-1.18371
225.74167,2000,0,91.24,0.000002697398,0.000002697398,0.000002697398,0.99999994,0,0,0,0,0,0,0,1,0,0,0,false,false,true,-517.75,-1595.2799,16.99,-0.0035848415,-0.0031964164,0.7525799,-0.6584832,-143.951,997.24097,8.541,0,-0.00021,-1.21111
225.75,2000,0,91.24,0.000002697398,0.000002697398,0.000002697398,0.99999994,0,0,0,0,0,0,0,1,0,0,0,false,false,true,-518.95,-1586.97,16.99,-0.0036010267,-0.0031802326,0.75589556,-0.65467453,-141.531,997.001,8.541,0,-0.00021,-1.23771
225.75833,2000,0,91.24,0.000002697398,0.000002697398,0.000002697398,0.99999994,0,0,0,0,0,0,0,1,0,0,0,false,false,true,-520.13,-1578.6599,16.99,-0.0036172108,-0.0031586532,0.7592608,-0.65076864,-139.001,996.74097,8.541,0,-0.00021,-1.26351
225.76666,2000,0,91.24,0.000002697398,0.000002697398,0.000002697398,0.99999994,0,0,0,0,0,0,0,1,0,0,0,false,false,true,-521.29,-1570.35,16.99,-0.0036333953,-0.003137074,0.76267815,-0.6467603,-136.371,996.4509,8.541,0,-0.00021,-1.28851
225.775,2000,0,91.24,0.000002697398,0.000002697398,0.000002697398,0.99999994,0,0,0,0,0,0,0,1,0,0,0,false,false,true,-522.43,-1562.0499,16.99,-0.0036495796,-0.0031154947,0.7661407,-0.64265484,-133.641,996.1409,8.541,0,-0.00021,-1.3127099
225.78334,2000,0,91.24,0.000002697398,0.000002697398,0.000002697398,0.99999994,0,0,0,0,0,0,0,1,0,0,0,false,false,true,-523.54,-1553.75,16.99,-0.003665764,-0.0030939155,0.76964635,-0.6384523,-130.80101,995.79095,8.541,0,-0.00021,-1.33621
225.79167,2000,0,91.24,0.000002697398,0.000002697398,0.000002697398,0.99999994,0,0,0,0,0,0,0,1,0,0,0,false,false,true,-524.63,-1545.45,16.99,-0.0036819484,-0.0030723363,0.77318853,-0.63415796,-127.861,995.41095,8.541,0,-0.00021,-1.35891
225.8,2000,0,91.24,0.000002697398,0.000002697398,0.000002697398,0.99999994,0,0,0,0,0,0,0,1,0,0,0,false,false,true,-525.7,-1537.15,16.99,-0.0036981322,-0.0030507569,0.7767651,-0.62977195,-124.821,994.99097,8.541,0,-0.00021,-1.3809099
225.80833,2000,0,91.24,0.000002697398,0.000002697398,0.000002697398,0.99999994,0,0,0,0,0,0,0,1,0,0,0,false,false,true,-526.74,-1528.86,16.99,-0.0037143172,-0.003029178,0.7803742,-0.6252943,-121.681,994.53094,8.541,0,-0.00021,-1.40221
225.81667,2000,0,91.24,0.000002697398,0.000002697398,0.000002697398,0.99999994,0,0,0,0,0,0,0,1,0,0,0,false,false,true,-527.75,-1520.57,16.99,-0.0037305015,-0.003007599,0.7840137,-0.6207249,-118.440994,994.03094,8.541,0,-0.00021,-1.42281
225.825,2000,0,91.24,0.000002697398,0.000002697398,0.000002697398,0.99999994,0,0,0,0,0,0,0,1,0,0,0,false,false,true,-528.74,-1512.2899,16.99,-0.003746686,-0.0029860197,0.7876816,-0.6160638,-115.111,993.48096,8.541,0,-0.00030999997,-1.4427099
225.83333,2000,0,91.24,0.000002697398,0.000002697398,0.000002697398,0.99999994,0,0,0,0,0,0,0,1,0,0,0,false,false,true,-529.7,-1504.01,16.99,-0.0037628703,-0.0029644405,0.79137176,-0.6113163,-111.681,992.881,8.541,0,-0.00030999997,-1.46191
225.84166,2000,0,91.24,0.000002697398,0.000002697398,0.000002697398,0.99999994,0,0,0,0,0,0,0,1,0,0,0,false,false,true,-530.63,-1495.74,16.99,-0.003784449,-0.002942861,0.7950822,-0.6064825,-108.160995,992.23096,8.541,0,-0.00040999998,-1.48051
225.85,2000,0,91.24,0.000002697398,0.000002697398,0.000002697398,0.99999994,0,0,0,0,0,0,0,1,0,0,0,false,false,true,-531.52997,-1487.47,16.99,-0.003806029,-0.0029158876,0.7988072,-0.6015679,-104.550995,991.53094,8.541,0,-0.00040999998,-1.49841
225.85834,2000,0,91.24,0.000002697398,0.000002697398,0.000002697398,0.99999994,0,0,0,0,0,0,0,1,0,0,0,false,false,true,-532.39996,-1479.21,16.99,-0.003827608,-0.0028889133,0.8025489,-0.5965669,-100.851,990.77094,8.541,0,-0.00040999998,-1.51571
225.86667,2000,0,91.24,0.000002697398,0.000002697398,0.000002697398,0.99999994,0,0,0,0,0,0,0,1,0,0,0,false,false,true,-533.24,-1470.95,16.99,-0.0038491872,-0.0028619394,0.8063016,-0.591485,-97.071,989.9509,8.541,0,-0.00030999997,-1.53231
225.875,2000,0,91.24,0.000002697398,0.000002697398,0.000002697398,0.99999994,0,0,0,0,0,0,0,1,0,0,0,false,false,true,-534.05,-1462.7,16.99,-0.0038707664,-0.0028349652,0.8100598,-0.58632755,-93.201,989.071,8.541,0,-0.00021,-1.5483099
225.88333,2000,0,91.24,0.000002697398,0.000002697398,0.000002697398,0.99999994,0,0,0,0,0,0,0,1,0,0,0,false,false,true,-534.83,-1454.46,16.99,-0.0038923454,-0.0028079913,0.81382567,-0.58108914,-89.251,988.131,8.541,0,-0.00021,-1.56371
225.89166,2000,0,91.24,0.000002697398,0.000002697398,0.000002697398,0.99999994,0,0,0,0,0,0,0,1,0,0,0,false,false,true,-535.57,-1446.23,16.99,-0.0039139246,-0.0027810175,0.8175938,-0.57577527,-85.230995,987.121,8.541,0,-0.00010999999,-1.5785099
225.9,2000,0,91.24,0.000002697398,0.000002697398,0.000002697398,0.99999994,0,0,0,0,0,0,0,1,0,0,0,false,false,true,-536.27997,-1438,16.99,-0.0039301086,-0.0027540433,0.82136273,-0.5703859,-81.131,986.04095,8.541,0,0,-1.59271
225.90834,2000,0,91.24,0.000002697398,0.000002697398,0.000002697398,0.99999994,0,0,0,0,0,0,0,1,0,0,0,false,false,true,-536.95996,-1429.7799,16.99,-0.0039462927,-0.0027270692,0.825131,-0.56492084,-76.961,984.8909,8.541,0,0,-1.60631
225.91667,2000,0,91.24,0.000002697398,0.000002697398,0.000002697398,0.99999994,0,0,0,0,0,0,0,1,0,0,0,false,false,true,-537.6,-1421.57,16.99,-0.003962477,-0.0027000953,0.8288934,-0.5593858,-72.721,983.67096,8.541,0,0,-1.6194099
225.925,2000,0,91.24,0.000002697398,0.000002697398,0.000002697398,0.99999994,0,0,0,0,0,0,0,1,0,0,0,false,false,true,-538.20996,-1413.37,16.99,-0.0039786627,-0.0026731216,0.83264875,-0.5537807,-68.410995,982.371,8.541,0,0,-1.63191
225.93333,2000,0,91.24,0.000002697398,0.000002697398,0.000002697398,0.99999994,0,0,0,0,0,0,0,1,0,0,0,false,false,true,-538.77997,-1405.1799,16.99,-0.0039948463,-0.0026461475,0.8363955,-0.5481053,-64.041,980.99097,8.541,0,0,-1.6438099
225.94167,2000,0,91.24,0.000002697398,0.000002697398,0.000002697398,0.99999994,0,0,0,0,0,0,0,1,0,0,0,false,false,true,-539.31,-1397,16.99,-0.004011031,-0.0026191734,0.8401291,-0.5423652,-59.610996,979.53094,8.541,0,-0.00010999999,-1.65521
225.95,2000,0,91.24,0.000002697398,0.000002697398,0.000002697398,0.99999994,0,0,0,0,0,0,0,1,0,0,0,false,false,true,-539.81,-1388.84,16.99,-0.004027215,-0.0025921992,0.84384817,-0.5365603,-55.130997,977.99097,8.541,0,-0.00010999999,-1.6661099
225.95833,2000,0,91.24,0.000002697398,0.000002697398,0.000002697398,0.99999994,0,0,0,0,0,0,0,1,0,0,0,false,false,true,-540.26996,-1380.69,16.99,-0.0040433994,-0.0025652256,0.8475519,-0.5306908,-50.591,976.371,8.541,0,-0.00021,-1.67641
225.96666,2000,0,91.24,0.000002697398,0.000002697398,0.000002697398,0.99999994,0,0,0,0,0,0,0,1,0,0,0,false,false,true,-540.69,-1372.5499,16.99,-0.004059584,-0.0025382515,0.85123885,-0.5247565,-46.001,974.67096,8.541,0,-0.00021,-1.6862099
225.975,2000,0,91.24,0.000002697398,0.000002697398,0.000002697398,0.99999994,0,0,0,0,0,0,0,1,0,0,0,false,false,true,-541.07,-1364.4299,16.99,-0.0040757684,-0.0025112776,0.85490465,-0.5187629,-41.371,972.881,8.541,0,-0.00030999997,-1.69551
225.98334,2000,0,91.24,0.000002697398,0.000002697398,0.000002697398,0.99999994,0,0,0,0,0,0,0,1,0,0,0,false,false,true,-541.41,-1356.32,16.99,-0.004091953,-0.002484304,0.8585485,-0.5127099,-36.701,971.0109,8.541,0,-0.00040999998,-1.7043099
225.99167,2000,0,91.24,0.000002697398,0.000002697398,0.000002697398,0.99999994,0,0,0,0,0,0,0,1,0,0,0,false,false,true,-541.72,-1348.23,16.99,-0.0041135317,-0.0024519349,0.86216927,-0.5065975,-31.991,969.05096,8.541,0,-0.00040999998,-1.71251
226,2000,0,91.24,0.000002697398,0.000002697398,0.000002697398,0.99999994,0,0,0,0,0,0,0,1,0,0,0,false,false,true,-541.99,-1340.15,16.99,-0.004129716,-0.002419566,0.86576295,-0.5004313,-27.241,967.001,8.541,0,-0.00040999998,-1.72021
226.00833,2000,0,91.24,0.000002697398,0.000002697398,0.000002697398,0.99999994,0,0,0,0,0,0,0,1,0,0,0,false,false,true,-542.22,-1332.09,16.99,-0.0041459007,-0.0023871972,0.86932874,-0.49421105,-22.460999,964.86096,8.541,0,-0.00040999998,-1.72741
226.025,2000,0,91.24,0.000002697398,0.000002697398,0.000002697398,0.99999994,0,0,0,0,0,0,0,1,0,0,0,false,false,true,-542.56,-1316.03,16.99,-0.0041782693,-0.0023224596,0.8763643,-0.481625,-12.821,960.311,8.541,0,-0.00040999998,-1.74051
226.03334,2000,0,91.24,0.000002697398,0.000002697398,0.000002697398,0.99999994,0,0,0,0,0,0,0,1,0,0,0,false,false,true,-542.67,-1308.03,16.99,-0.004194454,-0.0022900908,0.87983286,-0.47525907,-7.9709997,957.90094,8.541,0,-0.00040999998,-1.74631
226.04167,2000,0,91.24,0.000002697398,0.000002697398,0.000002697398,0.99999994,0,0,0,0,0,0,0,1,0,0,0,false,false,true,-542.74,-1300.0499,16.99,-0.0042106383,-0.0022577222,0.88326764,-0.46884462,-3.1009998,955.40094,8.541,0,-0.00040999998,-1.7516099
226.05,2000,0,91.24,0.000002697398,0.000002697398,0.000002697398,0.99999994,0,0,0,0,0,0,0,1,0,0,0,false,false,true,-542.76996,-1292.09,16.99,-0.004226823,-0.0022253536,0.8866653,-0.46238708,1.771,952.811,8.541,0,-0.00040999998,-1.75641
226.05833,2000,0,91.24,0.000002697398,0.000002697398,0.000002697398,0.99999994,0,0,0,0,0,0,0,1,0,0,0,false,false,true,-542.76,-1284.15,16.99,-0.004243007,-0.0021929846,0.8900251,-0.45588633,6.6509995,950.131,8.541,0,-0.00040999998,-1.76081
226.06667,2000,0,91.24,0.000002697398,0.000002697398,0.000002697398,0.99999994,0,0,0,0,0,0,0,1,0,0,0,false,false,true,-542.7,-1276.23,16.99,-0.004259191,-0.0021606155,0.8933467,-0.44934228,11.541,947.36096,8.541,0.00010999999,-0.00040999998,-1.76471
226.075,2000,0,91.24,0.000002697398,0.000002697398,0.000002697398,0.99999994,0,0,0,0,0,0,0,1,0,0,0,false,false,true,-542.6,-1268.34,16.99,-0.004275376,-0.002128247,0.896627,-0.4427607,16.431,944.49097,8.541,0.00010999999,-0.00040999998,-1.7682099
226.08333,2000,0,91.24,0.000002697398,0.000002697398,0.000002697398,0.99999994,0,0,0,0,0,0,0,1,0,0,0,false,false,true,-542.45996,-1260.47,16.99,-0.00429156,-0.0020958781,0.89986545,-0.43614128,21.321,941.53094,8.541,0.00010999999,-0.00040999998,-1.77121
226.09166,2000,0,91.24,0.000002697398,0.000002697398,0.000002697398,0.99999994,0,0,0,0,0,0,0,1,0,0,0,false,false,true,-542.27997,-1252.62,16.99,-0.0043077446,-0.0020635095,0.9030592,-0.42948946,26.210999,938.48096,8.541,0.00010999999,-0.00040999998,-1.7738099
226.1,2000,0,91.24,0.000002697398,0.000002697398,0.000002697398,0.99999994,0,0,0,0,0,0,0,1,0,0,0,false,false,true,-542.06,-1244.7999,16.99,-0.004323929,-0.0020311407,0.9062079,-0.42280525,31.091,935.34094,8.551001,0.00010999999,-0.00040999998,-1.77591
226.10834,2000,0,91.24,0.000002697398,0.000002697398,0.000002697398,0.99999994,0,0,0,0,0,0,0,1,0,0,0,false,false,true,-541.8,-1237.01,16.99,-0.004340113,-0.001998772,0.9093114,-0.41608873,35.961,932.121,8.551001,0.00010999999,-0.00040999998,-1.77761
226.11667,2000,0,91.24,0.000002697398,0.000002697398,0.000002697398,0.99999994,0,0,0,0,0,0,0,1,0,0,0,false,false,true,-541.5,-1229.24,16.99,-0.0043562977,-0.001966403,0.91236943,-0.40933982,40.810997,928.811,8.551001,0.00010999999,-0.00040999998,-1.7789099
226.125,2000,0,91.24,0.000002697398,0.000002697398,0.000002697398,0.99999994,0,0,0,0,0,0,0,1,0,0,0,false,false,true,-541.16,-1221.5,16.99,-0.0043724817,-0.0019340342,0.9153792,-0.40256387,45.641,925.41095,8.551001,0.00010999999,-0.00040999998,-1.7797099
226.13333,2000,0,91.24,0.000002697398,0.000002697398,0.000002697398,0.99999994,0,0,0,0,0,0,0,1,0,0,0,false,false,true,-540.77997,-1213.7899,16.99,-0.0043886667,-0.0019016657,0.91833866,-0.39576647,50.451,921.92096,8.551001,0.00010999999,-0.00040999998,-1.78011
