time,ball_loc_x,ball_loc_y,ball_loc_z,ball_rot_x,ball_rot_y,ball_rot_z,ball_rot_w,ball_vel_x,ball_vel_y,ball_vel_z,ball_ang_x,ball_ang_y,ball_ang_z,player0_throttle,player0_steer,player0_pitch,player0_yaw,player0_roll,player0_jump,player0_boost,player0_handbrake,player0_loc_x,player0_loc_y,player0_loc_z,player0_rot_x,player0_rot_y,player0_rot_z,player0_rot_w,player0_vel_x,player0_vel_y,player0_vel_z,player0_ang_x,player0_ang_y,player0_ang_z
255.71666,2000,0,91.24,0.000002697398,0.000002697398,0.000002697398,0.99999994,0,0,0,0,0,0,1,0,0,0,0,false,true,false,0,-3330.1099,16.99,-0.00336905,0.003374445,0.70711225,0.70708513,-0.031,2005.4609,8.411,-0.00061,0,0
255.725,2000,0,91.24,0.000002697398,0.000002697398,0.000002697398,0.99999994,0,0,0,0,0,0,1,1,0,0,0,false,false,true,0,-3313.4,16.99,-0.00336905,0.003374445,0.70711225,0.70708513,-10.971,2004.591,8.461,-0.00061,0.00281,0.30451
255.73334,2000,0,91.24,0.000002697398,0.000002697398,0.000002697398,0.99999994,0,0,0,0,0,0,1,1,0,0,0,false,false,true,-0.089999996,-3296.69,16.99,-0.00336905,0.0033798397,0.70800656,0.7061896,-20.571,2003.7909,8.501,-0.00061,0.00401,0.55291
255.74167,2000,0,91.24,0.000002697398,0.000002697398,0.000002697398,0.99999994,0,0,0,0,0,0,1,1,0,0,0,false,false,true,-0.26,-3279.99,16.99,-0.00336905,0.0033852346,0.70963323,0.704555,-30.251,2002.9609,8.521,-0.00051,0.00441,0.77161
255.75,2000,0,91.24,0.000002697398,0.000002697398,0.000002697398,0.99999994,0,0,0,0,0,0,1,1,0,0,0,false,false,true,-0.51,-3263.3,16.99,-0.0033690503,0.0033906295,0.71189696,0.70226765,-40.451,2002.0509,8.531,-0.00051,0.0043099998,0.96630996
255.75833,2000,0,91.24,0.000002697398,0.000002697398,0.000002697398,0.99999994,0,0,0,0,0,0,1,1,0,0,0,false,false,true,-0.84999996,-3246.6199,16.99,-0.00336905,0.0033906293,0.7147168,0.69939756,-51.450996,2001.0209,8.541,-0.00040999998,0.00391,1.14121
255.76666,2000,0,91.24,0.000002697398,0.000002697398,0.000002697398,0.99999994,0,0,0,0,0,0,1,1,0,0,0,false,false,true,-1.28,-3229.94,16.99,-0.003374445,0.0033852346,0.7180322,0.69599336,-63.371,1999.8109,8.551001,-0.00040999998,0.00331,1.29991
255.775,2000,0,91.24,0.000002697398,0.000002697398,0.000002697398,0.99999994,0,0,0,0,0,0,1,1,0,0,0,false,false,true,-1.81,-3213.27,16.99,-0.0033852346,0.0033798397,0.72179246,0.6920929,-76.260994,1998.391,8.561,-0.00040999998,0.00271,1.44511
255.78334,2000,0,91.24,0.000002697398,0.000002697398,0.000002697398,0.99999994,0,0,0,0,0,0,1,1,0,0,0,false,false,true,-2.45,-3196.6199,16.99,-0.0033960242,0.00336905,0.725947,0.6877339,-90.101,1996.7109,8.561,-0.00030999997,0.00211,1.57881
255.79167,2000,0,91.24,0.000002697398,0.000002697398,0.000002697398,0.99999994,0,0,0,0,0,0,1,1,0,0,0,false,false,true,-3.1999998,-3179.98,16.99,-0.0034122085,0.0033528658,0.7304556,0.68294334,-104.821,1994.731,8.561,-0.00030999997,0.00151,1.7028099
255.8,2000,0,91.24,0.000002697398,0.000002697398,0.000002697398,0.99999994,0,0,0,0,0,0,1,1,0,0,0,false,false,true,-4.0699997,-3163.3599,16.99,-0.0034337877,0.0033312866,0.73528343,0.6777427,-120.321,1992.4209,8.561,-0.00030999997,0.0010099999,1.81831
255.80833,2000,0,91.24,0.000002697398,0.000002697398,0.000002697398,0.99999994,0,0,0,0,0,0,1,1,0,0,0,false,false,true,-5.0699997,-3146.76,16.99,-0.003455367,0.0033097074,0.74039614,0.67215365,-136.47101,1989.751,8.571,-0.00030999997,0.00061,1.9262099
255.81667,2000,0,91.24,0.000002697398,0.000002697398,0.000002697398,0.99999994,0,0,0,0,0,0,1,1,0,0,0,false,false,true,-6.21,-3130.18,16.99,-0.0034823408,0.0032827335,0.7457645,0.6661924,-153.121,1986.7109,8.571,-0.00021,0.00021,2.02721
255.825,2000,0,91.24,0.000002697398,0.000002697398,0.000002697398,0.99999994,0,0,0,0,0,0,1,1,0,0,0,false,false,true,-7.49,-3113.6199,16.99,-0.0035093152,0.0032557596,0.7513647,0.6598698,-170.101,1983.2909,8.571,-0.00021,0,2.12181
255.83333,2000,0,91.24,0.000002697398,0.000002697398,0.000002697398,0.99999994,0,0,0,0,0,0,1,1,0,0,0,false,false,true,-8.91,-3097.0898,16.99,-0.0035362889,0.0032233908,0.7571687,0.65320176,-187.241,1979.501,8.571,-0.00010999999,-0.00021,2.2104099
255.84166,2000,0,91.24,0.000002697398,0.000002697398,0.000002697398,0.99999994,0,0,0,0,0,0,1,1,0,0,0,false,false,true,-10.469999,-3080.5898,16.99,-0.003568658,0.0031910222,0.7631537,0.6461993,-204.351,1975.361,8.571,-0.00010999999,-0.00040999998,2.29321
255.85,2000,0,91.24,0.000002697398,0.000002697398,0.000002697398,0.99999994,0,0,0,0,0,0,1,1,0,0,0,false,false,true,-12.17,-3064.13,16.99,-0.0036010265,0.0031586532,0.76929265,0.63887846,-221.231,1970.9109,8.571,0,-0.00061,2.37021
255.85834,2000,0,91.24,0.000002697398,0.000002697398,0.000002697398,0.99999994,0,0,0,0,0,0,1,1,0,0,0,false,false,true,-14.009999,-3047.71,16.99,-0.0036333953,0.0031208897,0.7755644,0.6312502,-237.671,1966.2009,8.571,0,-0.00071,2.44141
255.86667,2000,0,91.24,0.000002697398,0.000002697398,0.000002697398,0.99999994,0,0,0,0,0,0,1,1,0,0,0,false,false,true,-15.99,-3031.3198,16.99,-0.003665764,0.003083126,0.7819437,0.6233306,-253.441,1961.3009,8.571,0,-0.00081,2.50671
255.875,2000,0,91.24,0.000002697398,0.000002697398,0.000002697398,0.99999994,0,0,0,0,0,0,1,1,0,0,0,false,false,true,-18.1,-3014.98,16.99,-0.0036981327,0.0030399675,0.7884107,0.6151305,-268.331,1956.3009,8.571,0,-0.00091,2.5659099
255.88333,2000,0,91.24,0.000002697398,0.000002697398,0.000002697398,0.99999994,0,0,0,0,0,0,1,1,0,0,0,false,false,true,-20.34,-2998.68,16.99,-0.0037358964,0.0029968093,0.7949423,0.60666597,-282.101,1951.3209,8.571,0,-0.0010099999,2.61871
255.89166,2000,0,91.24,0.000002697398,0.000002697398,0.000002697398,0.99999994,0,0,0,0,0,0,1,1,0,0,0,false,false,true,-22.689999,-2982.42,16.99,-0.00377366,0.002953651,0.8015165,0.5979534,-294.501,1946.491,8.571,0,-0.00111,2.66481
255.9,2000,0,91.24,0.000002697398,0.000002697398,0.000002697398,0.99999994,0,0,0,0,0,0,1,1,0,0,0,false,false,true,-25.14,-2966.2,16.99,-0.0038114234,0.0029104925,0.8081044,0.5890196,-305.301,1941.981,8.571,0.00010999999,-0.0012099999,2.7039099
255.90834,2000,0,91.24,0.000002697398,0.000002697398,0.000002697398,0.99999994,0,0,0,0,0,0,1,1,0,0,0,false,false,true,-27.68,-2950.02,16.99,-0.0038491872,0.0028619394,0.81468713,0.5798807,-314.241,1937.981,8.571,0.00021,-0.00131,2.7355099
255.91667,2000,0,91.24,0.000002697398,0.000002697398,0.000002697398,0.99999994,0,0,0,0,0,0,1,1,0,0,0,false,false,true,-30.3,-2933.8699,16.99,-0.0038869507,0.0028133863,0.82124287,0.5705585,-321.081,1934.721,8.561,0.00030999997,-0.00131,2.75911
255.925,2000,0,91.24,0.000002697398,0.000002697398,0.000002697398,0.99999994,0,0,0,0,0,0,1,1,0,0,0,false,false,true,-32.98,-2917.75,16.99,-0.0039247135,0.0027648327,0.8277477,0.5610797,-328.211,1931.121,8.561,0.00040999998,-0.00131,2.7820098
255.93333,2000,0,91.24,0.000002697398,0.000002697398,0.000002697398,0.99999994,0,0,0,0,0,0,1,1,0,0,0,false,false,true,-35.719997,-2901.66,16.99,-0.0039624777,0.0027162798,0.8341976,0.55144465,-335.621,1927.1609,8.561,0.00040999998,-0.0012099999,2.8045099
255.94167,2000,0,91.24,0.000002697398,0.000002697398,0.000002697398,0.99999994,0,0,0,0,0,0,1,1,0,0,0,false,false,true,-38.52,-2885.5999,16.99,-0.0039948463,0.0026677267,0.8405848,0.5416585,-343.281,1922.841,8.561,0.00051,-0.00111,2.8266098
255.95,2000,0,91.24,0.000002697398,0.000002697398,0.000002697398,0.99999994,0,0,0,0,0,0,1,1,0,0,0,false,false,true,-41.379997,-2869.5798,16.99,-0.0040272153,0.0026137787,0.84690577,0.5317212,-351.161,1918.141,8.561,0.00051,-0.0010099999,2.84831
255.95833,2000,0,91.24,0.000002697398,0.000002697398,0.000002697398,0.99999994,0,0,0,0,0,0,1,1,0,0,0,false,false,true,-44.309998,-2853.5999,16.99,-0.004059584,0.0025598307,0.85315645,0.5216329,-359.231,1913.0609,8.561,0.00051,-0.00091,2.8696098
255.96666,2000,0,91.24,0.000002697398,0.000002697398,0.000002697398,0.99999994,0,0,0,0,0,0,1,1,0,0,0,false,false,true,-47.3,-2837.66,16.99,-0.0040919525,0.0025058826,0.85933316,0.51139355,-367.471,1907.601,8.561,0.00040999998,-0.00081,2.89041
255.975,2000,0,91.24,0.000002697398,0.000002697398,0.000002697398,0.99999994,0,0,0,0,0,0,1,1,0,0,0,false,false,true,-50.36,-2821.76,16.99,-0.0041243215,0.0024519349,0.865429,0.5010085,-375.851,1901.751,8.561,0.00040999998,-0.00071,2.9107099
255.98334,2000,0,91.24,0.000002697398,0.000002697398,0.000002697398,0.99999994,0,0,0,0,0,0,1,1,0,0,0,false,false,true,-53.489998,-2805.91,16.99,-0.00415669,0.0023979868,0.8714404,0.49047783,-384.341,1895.501,8.561,0.00040999998,-0.00061,2.93061
255.99167,2000,0,91.24,0.000002697398,0.000002697398,0.000002697398,0.99999994,0,0,0,0,0,0,1,1,0,0,0,false,false,true,-56.69,-2790.1099,16.99,-0.0041890587,0.0023440386,0.87736374,0.47980148,-392.911,1888.861,8.561,0.00030999997,-0.00051,2.9500098
256,2000,0,91.24,0.000002697398,0.000002697398,0.000002697398,0.99999994,0,0,0,0,0,0,1,1,0,0,0,false,false,true,-59.96,-2774.3699,16.99,-0.0042214277,0.0022900908,0.88319594,0.4689795,-401.531,1881.8209,8.561,0.00030999997,-0.00040999998,2.9688098
256.00833,2000,0,91.24,0.000002697398,0.000002697398,0.000002697398,0.99999994,0,0,0,0,0,0,1,1,0,0,0,false,false,true,-63.309998,-2758.69,16.99,-0.0042484016,0.002236143,0.88893026,0.45801726,-410.181,1874.391,8.561,0.00030999997,-0.00030999997,2.98701
256.01666,2000,0,91.24,0.000002697398,0.000002697398,0.000002697398,0.99999994,0,0,0,0,0,0,1,1,0,0,0,false,false,true,-66.729996,-2743.0698,16.99,-0.004275376,0.002182195,0.89456093,0.4469201,-418.831,1866.5709,8.561,0.00030999997,-0.00030999997,3.0046098
256.025,2000,0,91.24,0.000002697398,0.000002697398,0.000002697398,0.99999994,0,0,0,0,0,0,1,1,0,0,0,false,false,true,-70.22,-2727.51,16.99,-0.00430235,0.002128247,0.9000848,0.4356881,-427.451,1858.361,8.561,0.00030999997,-0.00030999997,3.02161
256.03333,2000,0,91.24,0.000002697398,0.000002697398,0.000002697398,0.99999994,0,0,0,0,0,0,1,1,0,0,0,false,false,true,-73.78,-2712.02,16.99,-0.0043293233,0.0020742987,0.90549886,0.42432114,-436.011,1849.771,8.561,0.00030999997,-0.00030999997,3.03791
256.04166,2000,0,91.24,0.000002697398,0.000002697398,0.000002697398,0.99999994,0,0,0,0,0,0,1,1,0,0,0,false,false,true,-77.409996,-2696.6099,16.99,-0.004356297,0.002020351,0.9107976,0.41282487,-444.491,1840.8109,8.561,0.00030999997,-0.00030999997,3.05351
256.05,2000,0,91.24,0.000002697398,0.000002697398,0.000002697398,0.99999994,0,0,0,0,0,0,1,1,0,0,0,false,false,true,-81.11,-2681.27,16.99,-0.0043832716,0.0019610084,0.91597587,0.4012044,-452.861,1831.491,8.561,0.00030999997,-0.00030999997,3.06831
256.05832,2000,0,91.24,0.000002697398,0.000002697398,0.000002697398,0.99999994,0,0,0,0,0,0,1,1,0,0,0,false,false,true,-84.88,-2666.01,16.99,-0.0044102455,0.0019016657,0.9210308,0.38945994,-461.10098,1821.8209,8.561,0.00030999997,-0.00021,3.08231
256.06668,2000,0,91.24,0.000002697398,0.000002697398,0.000002697398,0.99999994,0,0,0,0,0,0,1,1,0,0,0,false,false,true,-88.72,-2650.8298,16.99,-0.00443722,0.0018423229,0.9259554,0.3776021,-469.181,1811.8109,8.561,0.00030999997,-0.00021,3.09551
256.075,2000,0,91.24,0.000002697398,0.000002697398,0.000002697398,0.99999994,0,0,0,0,0,0,1,1,0,0,0,false,false,true,-92.63,-2635.73,16.99,-0.004458799,0.0017829802,0.93074954,0.36562565,-477.081,1801.471,8.561,0.00030999997,-0.00010999999,3.10771
256.08334,2000,0,91.24,0.000002697398,0.000002697398,0.000002697398,0.99999994,0,0,0,0,0,0,1,1,0,0,0,false,false,true,-96.61,-2620.72,16.99,-0.0044803782,0.0017236373,0.93540657,0.35354123,-484.771,1790.8209,8.561,0.00030999997,-0.00010999999,3.11901
256.09167,2000,0,91.24,0.000002697398,0.000002697398,0.000002697398,0.99999994,0,0,0,0,0,0,1,1,0,0,0,false,false,true,-100.65,-2605.8,16.99,-0.0045019574,0.0016642946,0.9399224,0.34135428,-492.231,1779.881,8.561,0.00030999997,-0.00010999999,3.12931
256.1,2000,0,91.24,0.000002697398,0.000002697398,0.000002697398,0.99999994,0,0,0,0,0,0,1,1,0,0,0,false,false,true,-104.75,-2590.97,16.99,-0.004523536,0.0016049518,0.94429314,0.32907033,-499.451,1768.6609,8.561,0.00030999997,-0.00010999999,3.13851
256.10834,2000,0,91.24,0.000002697398,0.000002697398,0.000002697398,0.99999994,0,0,0,0,0,0,1,1,0,0,0,false,false,true,-108.909996,-2576.23,16.99,-0.0045451154,0.0015456091,0.94851536,0.3166946,-506.401,1757.1909,8.561,0.00030999997,-0.00010999999,3.14651
256.11667,2000,0,91.24,0.000002697398,0.000002697398,0.000002697398,0.99999994,0,0,0,0,0,0,1,1,0,0,0,false,false,true,-113.13,-2561.5898,16.99,-0.004566695,0.0014862665,0.95258564,0.30423263,-513.061,1745.481,8.561,0.00030999997,-0.00010999999,3.15341
256.125,2000,0,91.24,0.000002697398,0.000002697398,0.000002697398,0.99999994,0,0,0,0,0,0,1,1,0,0,0,false,false,true,-117.409996,-2547.04,16.99,-0.004588274,0.0014269236,0.9565009,0.29168963,-520.24097,1733.981,8.561,0.00030999997,0,3.1621099
256.13333,2000,0,91.24,0.000002697398,0.000002697398,0.000002697398,0.99999994,0,0,0,0,0,0,1,1,0,0,0,false,false,true,-121.75,-2532.5898,16.99,-0.0046044583,0.0013675808,0.96026146,0.2790604,-527.29095,1722.341,8.561,0.00030999997,0,3.17011
256.14166,2000,0,91.24,0.000002697398,0.000002697398,0.000002697398,0.99999994,0,0,0,0,0,0,1,1,0,0,0,false,false,true,-126.14,-2518.24,16.99,-0.004620643,0.0013028432,0.9638643,0.26635018,-534.21094,1710.591,8.561,0.00030999997,0,3.17751
256.15,2000,0,91.24,0.000002697398,0.000002697398,0.000002697398,0.99999994,0,0,0,0,0,0,1,1,0,0,0,false,false,true,-130.59,-2503.99,16.99,-0.0046368274,0.0012381058,0.96730655,0.25356445,-540.99097,1698.731,8.561,0.00030999997,0,3.1842098
256.15833,2000,0,91.24,0.000002697398,0.000002697398,0.000002697398,0.99999994,0,0,0,0,0,0,1,1,0,0,0,false,false,true,-135.09999,-2489.8298,16.99,-0.0046530114,0.0011733681,0.9705855,0.24070863,-547.631,1686.7809,8.571,0.00030999997,0,3.1902099
256.16666,2000,0,91.24,0.000002697398,0.000002697398,0.000002697398,0.99999994,0,0,0,0,0,0,1,1,0,0,0,false,false,true,-139.66,-2475.77,16.99,-0.004669196,0.0011086306,0.97369885,0.22778802,-554.121,1674.761,8.571,0.00030999997,0,3.19551
256.175,2000,0,91.24,0.000002697398,0.000002697398,0.000002697398,0.99999994,0,0,0,0,0,0,1,1,0,0,0,false,false,true,-144.28,-2461.81,16.99,-0.00468538,0.0010438929,0.9766455,0.21480271,-560.47095,1662.6809,8.571,0.00030999997,0,3.20011
256.18332,2000,0,91.24,0.000002697398,0.000002697398,0.000002697398,0.99999994,0,0,0,0,0,0,1,1,0,0,0,false,false,true,-148.95,-2447.95,16.99,-0.0046961703,0.0009791555,0.9794225,0.20176345,-566.68097,1650.5609,8.571,0.00030999997,0.00010999999,3.2039099
256.19168,2000,0,91.24,0.000002697398,0.000002697398,0.000002697398,0.99999994,0,0,0,0,0,0,1,1,0,0,0,false,false,true,-153.67,-2434.2,16.99,-0.0047069597,0.00091441796,0.9820287,0.18867026,-572.751,1638.4109,8.571,0.00021,0.00010999999,3.20691
256.2,2000,0,91.24,0.000002697398,0.000002697398,0.000002697398,0.99999994,0,0,0,0,0,0,1,1,0,0,0,false,false,true,-158.44,-2420.55,16.99,-0.004717749,0.0008496804,0.98446167,0.17553385,-578.691,1626.241,8.571,0.00021,0.00010999999,3.20911
256.20834,2000,0,91.24,0.000002697398,0.000002697398,0.000002697398,0.99999994,0,0,0,0,0,0,1,1,0,0,0,false,false,true,-163.26,-2407,16.99,-0.0047285384,0.0007849428,0.98672086,0.16235428,-584.501,1614.0709,8.571,0.00021,0.00010999999,3.21051
256.21667,2000,0,91.24,0.000002697398,0.000002697398,0.000002697398,0.99999994,0,0,0,0,0,0,1,1,0,0,0,false,false,true,-168.12999,-2393.55,16.99,-0.0047393283,0.00072020525,0.98880404,0.14914243,-590.191,1601.9109,8.571,0.00021,0.00021,3.21101
256.225,2000,0,91.24,0.000002697398,0.000002697398,0.000002697398,0.99999994,0,0,0,0,0,0,1,1,0,0,0,false,false,true,-173.05,-2380.2,16.99,-0.0047501177,0.00065546774,0.99071115,0.13589811,-595.761,1589.7809,8.571,0.00021,0.00021,3.21071
256.23334,2000,0,91.24,0.000002697398,0.000002697398,0.000002697398,0.99999994,0,0,0,0,0,0,1,1,0,0,0,false,false,true,-178.01,-2366.95,16.99,-0.0047555123,0.0005907301,0.99244046,0.1226323,-601.23096,1577.6809,8.571,0.00021,0.00030999997,3.2095098
256.24167,2000,0,91.24,0.000002697398,0.000002697398,0.000002697398,0.99999994,0,0,0,0,0,0,1,1,0,0,0,false,false,true,-183.01999,-2353.8,16.99,-0.0047609075,0.0005259926,0.9939917,0.10935024,-606.60095,1565.631,8.571,0.00010999999,0.00030999997,3.2074099
256.25,2000,0,91.24,0.000002697398,0.000002697398,0.000002697398,0.99999994,0,0,0,0,0,0,1,1,0,0,0,false,false,true,-188.06999,-2340.75,16.99,-0.004766302,0.00046125508,0.9953642,0.09605738,-611.881,1553.631,8.571,0.00010999999,0.00030999997,3.20431
256.25833,2000,0,91.24,0.000002697398,0.000002697398,0.000002697398,0.99999994,0,0,0,0,0,0,1,1,0,0,0,false,false,true,-193.17,-2327.8,16.99,-0.004771697,0.0003965175,0.996558,0.08275921,-617.09094,1541.7009,8.571,0.00010999999,0.00030999997,3.20031
256.26666,2000,0,91.24,0.000002697398,0.000002697398,0.000002697398,0.99999994,0,0,0,0,0,0,1,1,0,0,0,false,false,true,-198.31,-2314.95,16.99,-0.0047770916,0.00033177994,0.997573,0.06946094,-622.24097,1529.841,8.571,0.00010999999,0.00030999997,3.1953099
256.275,2000,0,91.24,0.000002697398,0.000002697398,0.000002697398,0.99999994,0,0,0,0,0,0,1,1,0,0,0,false,false,true,-203.5,-2302.2,16.99,-0.004777092,0.0002670424,0.9984095,0.056173567,-627.34094,1518.0709,8.571,0.00010999999,0.00030999997,3.18921
256.28333,2000,0,91.24,0.000002697398,0.000002697398,0.000002697398,0.99999994,0,0,0,0,0,0,1,1,0,0,0,false,false,true,-208.73,-2289.55,16.99,-0.0047770916,0.00020230484,0.99906766,0.04290228,-632.40094,1506.391,8.571,0.00010999999,0.00030999997,3.1821098
256.29166,2000,0,91.24,0.000002697398,0.000002697398,0.000002697398,0.99999994,0,0,0,0,0,0,1,1,0,0,0,false,false,true,-214,-2277,16.99,-0.004777092,0.0001375673,0.9995488,0.02965258,-637.441,1494.8009,8.571,0.00010999999,0.00030999997,3.17391
256.3,2000,0,91.24,0.000002697398,0.000002697398,0.000002697398,0.99999994,0,0,0,0,0,0,1,1,0,0,0,false,false,true,-219.31,-2264.54,16.99,-0.004777092,0.000072829745,0.99985355,0.016429935,-642.47095,1483.3109,8.571,0,0.00030999997,3.16461
256.30832,2000,0,91.24,0.000002697398,0.000002697398,0.000002697398,0.99999994,0,0,0,0,0,0,1,1,0,0,0,false,false,true,-224.65999,-2252.18,16.99,-0.004777092,0.000008092194,0.99998325,0.0032449698,-647.511,1471.9209,8.571,0,0.00030999997,3.1542099
256.31668,2000,0,91.24,0.000002697398,0.000002697398,0.000002697398,0.99999994,0,0,0,0,0,0,1,1,0,0,0,false,false,true,-230.06,-2239.91,16.99,-0.004777092,-0.00005664536,0.99993956,-0.009896795,-652.571,1460.631,8.571,0,0.00030999997,3.1426098
256.325,2000,0,91.24,0.000002697398,0.000002697398,0.000002697398,0.99999994,0,0,0,0,0,0,1,1,0,0,0,false,false,true,-235.5,-2227.74,16.99,-0.0047770925,-0.000121382924,0.99972427,-0.022990009,-657.68097,1449.4509,8.571,0,0.00040999998,3.1298099
256.33334,2000,0,91.24,0.000002697398,0.000002697398,0.000002697398,0.99999994,0,0,0,0,0,0,1,1,0,0,0,false,false,true,-240.98,-2215.66,16.99,-0.004771697,-0.00018612047,0.99933946,-0.036023878,-662.84094,1438.371,8.571,0,0.00040999998,3.11571
256.34167,2000,0,91.24,0.000002697398,0.000002697398,0.000002697398,0.99999994,0,0,0,0,0,0,1,1,0,0,0,false,false,true,-246.5,-2203.67,16.99,-0.004766302,-0.00024546322,0.99878764,-0.04899301,-668.08093,1427.401,8.571,0,0.00040999998,3.1003098
256.35,2000,0,91.24,0.000002697398,0.000002697398,0.000002697398,0.99999994,0,0,0,0,0,0,1,1,0,0,0,false,false,true,-252.06999,-2191.77,16.99,-0.004760908,-0.00030480602,0.99807143,-0.061892055,-673.33093,1416.4309,8.571,0,0.00040999998,3.08741
256.35834,2000,0,91.24,0.000002697398,0.000002697398,0.000002697398,0.99999994,0,0,0,0,0,0,1,1,0,0,0,false,false,true,-257.68,-2179.97,16.99,-0.004755513,-0.00036414873,0.9971926,-0.07472631,-678.55096,1405.4209,8.571,0,0.00040999998,3.07901
256.36667,2000,0,91.24,0.000002697398,0.000002697398,0.000002697398,0.99999994,0,0,0,0,0,0,1,1,0,0,0,false,false,true,-263.33,-2168.26,16.99,-0.0047501177,-0.0004234915,0.996152,-0.087512024,-683.761,1394.381,8.571,0,0.00040999998,3.07491
256.375,2000,0,91.24,0.000002697398,0.000002697398,0.000002697398,0.99999994,0,0,0,0,0,0,1,1,0,0,0,false,false,true,-269.03,-2156.64,16.99,-0.004744723,-0.00048283426,0.9949492,-0.10026536,-688.96094,1383.3209,8.571,0,0.00040999998,3.0750098
256.38333,2000,0,91.24,0.000002697398,0.000002697398,0.000002697398,0.99999994,0,0,0,0,0,0,1,1,0,0,0,false,false,true,-274.77,-2145.1099,16.99,-0.0047339336,-0.000542177,0.9935832,-0.11300252,-694.10095,1372.1709,8.571,-0.00010999999,0.00040999998,3.08071
256.39166,2000,0,91.24,0.000002697398,0.000002697398,0.000002697398,0.99999994,0,0,0,0,0,0,1,1,0,0,0,false,false,true,-280.55,-2133.67,16.99,-0.0047231438,-0.0006015198,0.9920511,-0.12574506,-699.071,1360.8309,8.571,-0.00021,0.00030999997,3.09441
256.4,2000,0,91.24,0.000002697398,0.000002697398,0.000002697398,0.99999994,0,0,0,0,0,0,1,1,0,0,0,false,false,true,-286.38,-2122.3298,16.99,-0.0047123544,-0.00066086254,0.9903474,-0.13852543,-703.871,1349.3209,8.571,-0.00030999997,0.00021,3.11591
256.40833,2000,0,91.24,0.000002697398,0.000002697398,0.000002697398,0.99999994,0,0,0,0,0,0,1,1,0,0,0,false,false,true,-292.25,-2111.0898,16.99,-0.004701565,-0.0007202053,0.9884656,-0.1513705,-708.511,1337.651,8.571,-0.00040999998,0,3.14501
256.41666,2000,0,91.24,0.000002697398,0.000002697398,0.000002697398,0.99999994,0,0,0,0,0,0,1,1,0,0,0,false,false,true,-298.15,-2099.94,16.99,-0.004690775,-0.000779548,0.9863968,-0.16431263,-712.99097,1325.8309,8.571,-0.00051,0,3.1816099
256.425,2000,0,91.24,0.000002697398,0.000002697398,0.000002697398,0.99999994,0,0,0,0,0,0,1,1,0,0,0,false,false,true,-304.09,-2088.89,16.99,-0.004679986,-0.00083889085,0.9841321,-0.1773735,-717.311,1313.891,8.571,-0.00061,-0.00010999999,3.22551
256.43332,2000,0,91.24,0.000002697398,0.000002697398,0.000002697398,0.99999994,0,0,0,0,0,0,1,1,0,0,0,false,false,true,-310.07,-2077.94,16.99,-0.004669196,-0.00089823356,0.98165905,-0.19058537,-721.47095,1301.8309,8.571,-0.00071,-0.00021,3.27661
256.44168,2000,0,91.24,0.000002697398,0.000002697398,0.000002697398,0.99999994,0,0,0,0,0,0,1,1,0,0,0,false,false,true,-316.08,-2067.0898,16.99,-0.0046584066,-0.0009575764,0.9789656,-0.20396993,-725.49097,1289.6609,8.571,-0.00081,-0.00030999997,3.33481
256.45,2000,0,91.24,0.000002697398,0.000002697398,0.000002697398,0.99999994,0,0,0,0,0,0,1,1,0,0,0,false,false,true,-322.13,-2056.3398,16.99,-0.0046476168,-0.001016919,0.9760366,-0.21755409,-729.371,1277.401,8.571,-0.00091,-0.00040999998,3.40011
256.45834,2000,0,91.24,0.000002697398,0.000002697398,0.000002697398,0.99999994,0,0,0,0,0,0,1,1,0,0,0,false,false,true,-328.21,-2045.69,16.99,-0.004631432,-0.0010762616,0.9728566,-0.23135939,-733.11096,1265.0609,8.571,-0.0010099999,-0.00051,3.47241
256.46667,2000,0,91.24,0.000002697398,0.000002697398,0.000002697398,0.99999994,0,0,0,0,0,0,1,1,0,0,0,false,false,true,-334.32,-2035.1499,16.99,-0.0046152486,-0.0011409995,0.96940696,-0.24541292,-736.65094,1252.5609,8.571,-0.0010099999,-0.00061,3.5501099
256.475,2000,0,91.24,0.000002697398,0.000002697398,0.000002697398,0.99999994,0,0,0,0,0,0,1,1,0,0,0,false,false,true,-340.46,-2024.71,16.99,-0.0045990637,-0.0012057369,0.96567076,-0.25972536,-739.881,1239.7909,8.571,-0.0010099999,-0.00071,3.63061
256.48334,2000,0,91.24,0.000002697398,0.000002697398,0.000002697398,0.99999994,0,0,0,0,0,0,1,1,0,0,0,false,false,true,-346.63,-2014.38,16.99,-0.0045828796,-0.0012704746,0.9616318,-0.27430218,-742.571,1227.011,8.571,-0.00091,-0.00071,3.7116098
256.49167,2000,0,91.24,0.000002697398,0.000002697398,0.000002697398,0.99999994,0,0,0,0,0,0,1,1,0,0,0,false,false,true,-352.82,-2004.1499,16.99,-0.0045666946,-0.001335212,0.95727557,-0.28913787,-744.67096,1214.341,8.571,-0.00081,-0.00071,3.79181
256.5,2000,0,91.24,0.000002697398,0.000002697398,0.000002697398,0.99999994,0,0,0,0,0,0,1,1,0,0,0,false,false,true,-359.03,-1994.0299,16.99,-0.0045451154,-0.0014053443,0.95258754,-0.3042272,-746.201,1201.8309,8.571,-0.00071,-0.00071,3.8712099
256.50833,2000,0,91.24,0.000002697398,0.000002697398,0.000002697398,0.99999994,0,0,0,0,0,0,1,1,0,0,0,false,false,true,-365.25,-1984.01,16.99,-0.0045235367,-0.0014754769,0.94755614,-0.3195539,-747.17096,1189.511,8.571,-0.00061,-0.00071,3.94981
256.51666,2000,0,91.24,0.000002697398,0.000002697398,0.000002697398,0.99999994,0,0,0,0,0,0,1,1,0,0,0,false,false,true,-371.47998,-1974.1,16.99,-0.004501958,-0.0015456092,0.9421699,-0.33510175,-747.571,1177.401,8.571,-0.00040999998,-0.00061,4.02691
256.525,2000,0,91.24,0.000002697398,0.000002697398,0.000002697398,0.99999994,0,0,0,0,0,0,1,1,0,0,0,false,false,true,-377.71,-1964.2899,16.99,-0.0044749836,-0.0016211363,0.9364158,-0.35086003,-747.24097,1165.391,8.571,-0.00021,-0.00051,4.0974097
256.53333,2000,0,91.24,0.000002697398,0.000002697398,0.000002697398,0.99999994,0,0,0,0,0,0,1,1,0,0,0,false,false,true,-383.94,-1954.58,16.99,-0.004448009,-0.0016966634,0.93028903,-0.36679628,-746.18097,1153.521,8.571,-0.00010999999,-0.00040999998,4.16141
256.54166,2000,0,91.24,0.000002697398,0.000002697398,0.000002697398,0.99999994,0,0,0,0,0,0,1,1,0,0,0,false,false,true,-390.16,-1944.97,16.99,-0.004421035,-0.0017721903,0.9237886,-0.3828728,-744.41095,1141.841,8.571,0,-0.00030999997,4.2189097
256.55,2000,0,91.24,0.000002697398,0.000002697398,0.000002697398,0.99999994,0,0,0,0,0,0,1,1,0,0,0,false,false,true,-396.36,-1935.45,16.99,-0.0043886667,-0.0018477177,0.91691595,-0.39905187,-741.96094,1130.391,8.571,0.00010999999,-0.00021,4.27001
256.55832,2000,0,91.24,0.000002697398,0.000002697398,0.000002697398,0.99999994,0,0,0,0,0,0,1,1,0,0,0,false,false,true,-402.53998,-1926.0299,16.99,-0.0043562977,-0.0019232448,0.9096715,-0.4153011,-738.86096,1119.221,8.571,0.00021,-0.00010999999,4.31481
256.56668,2000,0,91.24,0.000002697398,0.000002697398,0.000002697398,0.99999994,0,0,0,0,0,0,1,1,0,0,0,false,false,true,-408.69998,-1916.7,16.99,-0.0043239295,-0.0020041668,0.9020582,-0.43158805,-735.15094,1108.371,8.571,0.00030999997,0,4.35341
256.575,2000,0,91.24,0.000002697398,0.000002697398,0.000002697398,0.99999994,0,0,0,0,0,0,1,1,0,0,0,false,false,true,-414.83,-1907.46,16.99,-0.0042861653,-0.0020850885,0.8940807,-0.44788036,-730.86096,1097.881,8.571,0.00040999998,0.00010999999,4.38581
256.58334,2000,0,91.24,0.000002697398,0.000002697398,0.000002697398,0.99999994,0,0,0,0,0,0,1,1,0,0,0,false,false,true,-420.91998,-1898.3099,16.99,-0.0042484016,-0.0021660107,0.8857459,-0.46414575,-726.04095,1087.7909,8.571,0.00040999998,0.00021,4.41221
256.59167,2000,0,91.24,0.000002697398,0.000002697398,0.000002697398,0.99999994,0,0,0,0,0,0,1,1,0,0,0,false,false,true,-426.97,-1889.24,16.99,-0.0042052437,-0.0022469328,0.8770629,-0.48035184,-720.73096,1078.121,8.571,0.00040999998,0.00030999997,4.4327097
256.6,2000,0,91.24,0.000002697398,0.000002697398,0.000002697398,0.99999994,0,0,0,0,0,0,1,1,0,0,0,false,false,true,-432.97998,-1880.26,16.99,-0.0041620852,-0.0023278545,0.86804295,-0.4964661,-714.99097,1068.901,8.571,0.00051,0.00040999998,4.44751
256.60834,2000,0,91.24,0.000002697398,0.000002697398,0.000002697398,0.99999994,0,0,0,0,0,0,1,1,0,0,0,false,false,true,-438.94,-1871.35,16.99,-0.0041189273,-0.0024087767,0.85869354,-0.51246715,-708.871,1060.161,8.571,0.00051,0.00051,4.4566097
256.61667,2000,0,91.24,0.000002697398,0.000002697398,0.000002697398,0.99999994,0,0,0,0,0,0,1,1,0,0,0,false,false,true,-444.84998,-1862.5199,16.99,-0.0040703737,-0.0024896984,0.8490303,-0.52832246,-702.42096,1051.911,8.571,0.00051,0.00061,4.46021
256.625,2000,0,91.24,0.000002697398,0.000002697398,0.000002697398,0.99999994,0,0,0,0,0,0,1,1,0,0,0,false,false,true,-450.69998,-1853.75,16.99,-0.00402182,-0.0025706203,0.8390647,-0.5440106,-695.701,1044.161,8.571,0.00051,0.00061,4.45841
256.63333,2000,0,91.24,0.000002697398,0.000002697398,0.000002697398,0.99999994,0,0,0,0,0,0,1,1,0,0,0,false,false,true,-456.5,-1845.0499,16.99,-0.0039732675,-0.0026461477,0.8288135,-0.55950457,-688.77094,1036.9209,8.571,0.00051,0.00061,4.4513097
256.64166,2000,0,91.24,0.000002697398,0.000002697398,0.000002697398,0.99999994,0,0,0,0,0,0,1,1,0,0,0,false,false,true,-462.24,-1836.4099,16.99,-0.003924714,-0.0027216745,0.8182959,-0.57477725,-681.68097,1030.1909,8.571,0.00051,0.00071,4.43911
256.65,2000,0,91.24,0.000002697398,0.000002697398,0.000002697398,0.99999994,0,0,0,0,0,0,1,1,0,0,0,false,false,true,-467.91998,-1827.82,16.99,-0.0038707664,-0.0027972017,0.8075259,-0.58981264,-674.501,1023.96094,8.571,0.00051,0.00081,4.4218097
256.65833,2000,0,91.24,0.000002697398,0.000002697398,0.000002697398,0.99999994,0,0,0,0,0,0,1,1,0,0,0,false,false,true,-473.53998,-1819.2899,16.99,-0.0038168184,-0.002872729,0.7965232,-0.604589,-667.27094,1018.23096,8.561,0.00051,0.00091,4.39961
256.66666,2000,0,91.24,0.000002697398,0.000002697398,0.000002697398,0.99999994,0,0,0,0,0,0,1,1,0,0,0,false,false,true,-479.09998,-1810.7999,16.99,-0.0037628706,-0.0029482562,0.7853052,-0.6190903,-660.05096,1012.98096,8.561,0.00040999998,0.00091,4.37261
256.675,2000,0,91.24,0.000002697398,0.000002697398,0.000002697398,0.99999994,0,0,0,0,0,0,1,1,0,0,0,false,false,true,-484.59998,-1802.36,16.99,-0.0037089223,-0.0030183885,0.77389574,-0.6332948,-652.90094,1008.191,8.561,0.00030999997,0.00091,4.34091
256.68332,2000,0,91.24,0.000002697398,0.000002697398,0.000002697398,0.99999994,0,0,0,0,0,0,1,1,0,0,0,false,false,true,-490.03998,-1793.96,16.99,-0.0036495796,-0.0030885208,0.7623166,-0.6471865,-645.86096,1003.84094,8.561,0.00030999997,0.0010099999,4.30451
256.69168,2000,0,91.24,0.000002697398,0.000002697398,0.000002697398,0.99999994,0,0,0,0,0,0,1,1,0,0,0,false,false,true,-495.41998,-1785.59,16.99,-0.003590237,-0.0031586532,0.7505868,-0.66075444,-638.98096,999.91095,8.561,0.00030999997,0.0010099999,4.26361
256.7,2000,0,91.24,0.000002697398,0.000002697398,0.000002697398,0.99999994,0,0,0,0,0,0,1,1,0,0,0,false,false,true,-500.74,-1777.26,16.99,-0.0035308942,-0.0032233908,0.7387317,-0.67398256,-632.311,996.36096,8.551001,0.00021,0.0010099999,4.2182097
256.70834,2000,0,91.24,0.000002697398,0.000002697398,0.000002697398,0.99999994,0,0,0,0,0,0,1,1,0,0,0,false,false,true,-506.00998,-1768.96,16.99,-0.0034715508,-0.0032881277,0.7267739,-0.6868599,-625.881,993.16095,8.551001,0.00021,0.00111,4.16841
256.71667,2000,0,91.24,0.000002697398,0.000002697398,0.000002697398,0.99999994,0,0,0,0,0,0,1,1,0,0,0,false,false,true,-511.22998,-1760.6799,16.99,-0.0034122085,-0.0033528658,0.7147379,-0.6993759,-619.73096,990.28094,8.551001,0.00021,0.00111,4.11421
256.725,2000,0,91.24,0.000002697398,0.000002697398,0.000002697398,0.99999994,0,0,0,0,0,0,1,1,0,0,0,false,false,true,-516.39,-1752.4299,16.99,0.0033528658,0.0034122085,-0.70264524,0.7115241,-613.90094,987.68097,8.551001,0.00010999999,0.00111,4.05571
256.73334,2000,0,91.24,0.000002697398,0.000002697398,0.000002697398,0.99999994,0,0,0,0,0,0,1,1,0,0,0,false,false,true,-521.51,-1744.2,16.99,0.003293523,0.0034715512,-0.690523,0.7232945,-608.41095,985.311,8.551001,0.00010999999,0.0012099999,3.9930098
256.74167,2000,0,91.24,0.000002697398,0.000002697398,0.000002697398,0.99999994,0,0,0,0,0,0,1,1,0,0,0,false,false,true,-526.58,-1735.99,16.99,0.0032341804,0.0035308942,-0.67839545,0.73468125,-603.29095,983.1409,8.541,0,0.0012099999,3.92611
256.75,2000,0,91.24,0.000002697398,0.000002697398,0.000002697398,0.99999994,0,0,0,0,0,0,1,1,0,0,0,false,false,true,-531.61,-1727.7999,16.99,0.0031748374,0.003584842,-0.66628414,0.7456825,-598.55096,981.121,8.541,0,0.0012099999,3.85501
256.75833,2000,0,91.24,0.000002697398,0.000002697398,0.000002697398,0.99999994,0,0,0,0,0,0,1,1,0,0,0,false,false,true,-536.6,-1719.62,16.99,0.003115495,0.0036387902,-0.65422136,0.75628793,-594.201,979.2009,8.541,0,0.0012099999,3.78001
256.76666,2000,0,91.24,0.000002697398,0.000002697398,0.000002697398,0.99999994,0,0,0,0,0,0,1,1,0,0,0,false,false,true,-541.55,-1711.46,16.99,0.003056152,0.003692738,-0.64222866,0.766498,-590.21094,977.33093,8.541,0,0.0012099999,3.7021098
256.775,2000,0,91.24,0.000002697398,0.000002697398,0.000002697398,0.99999994,0,0,0,0,0,0,1,1,0,0,0,false,false,true,-546.47,-1703.32,16.99,0.0029968093,0.0037412911,-0.63032764,0.7763143,-586.581,975.48096,8.541,-0.00010999999,0.0012099999,3.62221
256.78333,2000,0,91.24,0.000002697398,0.000002697398,0.000002697398,0.99999994,0,0,0,0,0,0,1,1,0,0,0,false,false,true,-551.36,-1695.19,16.99,0.0029374664,0.0037898442,-0.61854,0.7857386,-583.28094,973.621,8.541,-0.00021,0.0012099999,3.54071
256.79166,2000,0,91.24,0.000002697398,0.000002697398,0.000002697398,0.99999994,0,0,0,0,0,0,1,1,0,0,0,false,false,true,-556.22,-1687.08,16.99,0.0028781237,0.0038383976,-0.6068818,0.7947775,-580.311,971.73096,8.531,-0.00030999997,0.00111,3.45821
256.8,2000,0,91.24,0.000002697398,0.000002697398,0.000002697398,0.99999994,0,0,0,0,0,0,1,1,0,0,0,false,false,true,-561.06,-1678.98,16.99,0.002818781,0.0038815557,-0.5953693,0.80343777,-577.65094,969.80096,8.531,-0.00040999998,0.0010099999,3.37511
256.80832,2000,0,91.24,0.000002697398,0.000002697398,0.000002697398,0.99999994,0,0,0,0,0,0,1,1,0,0,0,false,false,true,-565.87,-1670.8999,16.99,0.0027594382,0.003924714,-0.58401316,0.8117299,-575.29095,967.80096,8.531,-0.00040999998,0.00091,3.29181
256.81668,2000,0,91.24,0.000002697398,0.000002697398,0.000002697398,0.99999994,0,0,0,0,0,0,1,1,0,0,0,false,false,true,-570.66,-1662.83,16.99,0.0027000955,0.0039624777,-0.5728243,0.81966406,-573.21094,965.72095,8.531,-0.00040999998,0.00081,3.20871
256.825,2000,0,91.24,0.000002697398,0.000002697398,0.000002697398,0.99999994,0,0,0,0,0,0,1,1,0,0,0,false,false,true,-575.44,-1654.7799,16.99,0.0026461473,0.0040002405,-0.5618134,0.82724994,-571.40094,963.54095,8.531,-0.00040999998,0.00071,3.12621
256.83334,2000,0,91.24,0.000002697398,0.000002697398,0.000002697398,0.99999994,0,0,0,0,0,0,1,1,0,0,0,false,false,true,-580.2,-1646.75,16.99,0.0025921995,0.0040380047,-0.5509915,0.834497,-569.85095,961.251,8.531,-0.00040999998,0.00061,3.04451
256.84167,2000,0,91.24,0.000002697398,0.000002697398,0.000002697398,0.99999994,0,0,0,0,0,0,1,1,0,0,0,false,false,true,-584.95,-1638.74,16.99,0.0025382515,0.0040703737,-0.5403637,0.8414178,-568.54095,958.84094,8.531,-0.00040999998,0.00051,2.9639099
256.85,2000,0,91.24,0.000002697398,0.000002697398,0.000002697398,0.99999994,0,0,0,0,0,0,1,1,0,0,0,false,false,true,-589.69,-1630.75,16.99,0.0024843037,0.0041027423,-0.5299301,0.84802765,-567.451,956.29095,8.531,-0.00040999998,0.00040999998,2.8847098
256.85834,2000,0,91.24,0.000002697398,0.000002697398,0.000002697398,0.99999994,0,0,0,0,0,0,1,1,0,0,0,false,false,true,-594.42,-1622.7799,16.99,0.0024303556,0.004135111,-0.51970154,0.85433435,-566.571,953.60095,8.531,-0.00040999998,0.00030999997,2.8071098
256.86667,2000,0,91.24,0.000002697398,0.000002697398,0.000002697398,0.99999994,0,0,0,0,0,0,1,1,0,0,0,false,false,true,-599.14,-1614.83,16.99,0.0023818025,0.0041620852,-0.5096726,0.86035496,-565.891,950.7609,8.531,-0.00040999998,0.00021,2.73131
256.875,2000,0,91.24,0.000002697398,0.000002697398,0.000002697398,0.99999994,0,0,0,0,0,0,1,1,0,0,0,false,false,true,-603.86,-1606.9099,16.99,0.002333249,0.0041890587,-0.49984857,0.86609936,-565.391,947.7609,8.531,-0.00040999998,0.00010999999,2.65741
256.88333,2000,0,91.24,0.000002697398,0.000002697398,0.000002697398,0.99999994,0,0,0,0,0,0,1,1,0,0,0,false,false,true,-608.57,-1599.01,16.99,0.0022846963,0.0042160335,-0.49022973,0.87158006,-565.061,944.59094,8.531,-0.00030999997,0,2.58561
256.89166,2000,0,91.24,0.000002697398,0.000002697398,0.000002697398,0.99999994,0,0,0,0,0,0,1,1,0,0,0,false,false,true,-613.27997,-1591.14,16.99,0.002236143,0.0042376122,-0.48081037,0.87681144,-564.891,941.251,8.531,-0.00030999997,0,2.51611
256.9,2000,0,91.24,0.000002697398,0.000002697398,0.000002697398,0.99999994,0,0,0,0,0,0,1,1,0,0,0,false,false,true,-617.99,-1583.2999,16.99,0.0021929848,0.004259192,-0.4715906,0.8818046,-564.86096,937.74097,8.531,-0.00021,0,2.44901
256.90833,2000,0,91.24,0.000002697398,0.000002697398,0.000002697398,0.99999994,0,0,0,0,0,0,1,1,0,0,0,false,false,true,-622.7,-1575.49,16.99,0.0021498261,0.0042807707,-0.4625705,0.8865695,-564.96094,934.05096,8.531,-0.00021,0,2.38441
256.91666,2000,0,91.24,0.000002697398,0.000002697398,0.000002697398,0.99999994,0,0,0,0,0,0,1,1,0,0,0,false,false,true,-627.41,-1567.71,16.99,0.0021066677,0.00430235,-0.45373917,0.89112157,-565.18097,930.191,8.521,-0.00021,0,2.32231
256.925,2000,0,91.24,0.000002697398,0.000002697398,0.000002697398,0.99999994,0,0,0,0,0,0,1,1,0,0,0,false,false,true,-632.12,-1559.96,16.99,0.0020635095,0.004323929,-0.44509664,0.89546967,-565.501,926.1409,8.521,-0.00010999999,-0.00010999999,2.26281
256.93332,2000,0,91.24,0.000002697398,0.000002697398,0.000002697398,0.99999994,0,0,0,0,0,0,1,1,0,0,0,false,false,true,-636.82996,-1552.24,16.99,0.002020351,0.0043401127,-0.43663216,0.8996272,-565.881,921.8909,8.521,-0.00010999999,-0.00021,2.20571
256.94168,2000,0,91.24,0.000002697398,0.000002697398,0.000002697398,0.99999994,0,0,0,0,0,0,1,1,0,0,0,false,false,true,-641.55,-1544.5599,16.99,0.0019825874,0.0043562977,-0.42834577,0.9036022,-566.30096,917.46094,8.521,0,-0.00021,2.15091
256.95,2000,0,91.24,0.000002697398,0.000002697398,0.000002697398,0.99999994,0,0,0,0,0,0,1,1,0,0,0,false,false,true,-646.26996,-1536.9099,16.99,0.0019448238,0.0043724817,-0.42023188,0.90740395,-566.751,912.86096,8.521,0,-0.00021,2.0982099
256.95834,2000,0,91.24,0.000002697398,0.000002697398,0.000002697398,0.99999994,0,0,0,0,0,0,1,1,0,0,0,false,false,true,-650.99,-1529.2999,16.99,0.0019070605,0.0043886667,-0.41228542,0.9110421,-567.21094,908.09094,8.521,0,-0.00021,2.04751
256.96667,2000,0,91.24,0.000002697398,0.000002697398,0.000002697398,0.99999994,0,0,0,0,0,0,1,1,0,0,0,false,false,true,-655.72,-1521.73,16.99,0.001869297,0.0044048512,-0.40450066,0.91452515,-567.66095,903.16095,8.521,0,-0.00021,1.9988099
256.975,2000,0,91.24,0.000002697398,0.000002697398,0.000002697398,0.99999994,0,0,0,0,0,0,1,1,0,0,0,false,false,true,-660.45,-1514.2,16.99,0.001831533,0.004421035,-0.39687237,0.91786116,-568.10095,898.08093,8.521,0,-0.00021,1.95191
256.98334,2000,0,91.24,0.000002697398,0.000002697398,0.000002697398,0.99999994,0,0,0,0,0,0,1,1,0,0,0,false,false,true,-665.18,-1506.72,16.99,0.0017937698,0.00443722,-0.38939515,0.9210583,-568.511,892.86096,8.521,0,-0.00030999997,1.9068099
256.99167,2000,0,91.24,0.000002697398,0.000002697398,0.000002697398,0.99999994,0,0,0,0,0,0,1,1,0,0,0,false,false,true,-669.92,-1499.2799,16.99,0.001761401,0.004448009,-0.3820636,0.9241236,-568.881,887.501,8.521,0,-0.00040999998,1.86341
257,2000,0,91.24,0.000002697398,0.000002697398,0.000002697398,0.99999994,0,0,0,0,0,0,1,1,0,0,0,false,false,true,-674.66,-1491.88,16.99,0.0017290321,0.004458799,-0.37487772,0.92706186,-569.21094,882.011,8.521,0.00010999999,-0.00040999998,1.82171
257.00833,2000,0,91.24,0.000002697398,0.000002697398,0.000002697398,0.99999994,0,0,0,0,0,0,1,1,0,0,0,false,false,true,-679.39996,-1484.5299,16.99,0.0016966632,0.004469588,-0.3678321,0.9298798,-569.48096,876.40094,8.521,0.00010999999,-0.00040999998,1.78151
257.01666,2000,0,91.24,0.000002697398,0.000002697398,0.000002697398,0.99999994,0,0,0,0,0,0,1,1,0,0,0,false,false,true,-684.14996,-1477.23,16.99,0.0016642947,0.0044803787,-0.36092132,0.932584,-569.691,870.68097,8.521,0.00010999999,-0.00030999997,1.74291
257.025,2000,0,91.24,0.000002697398,0.000002697398,0.000002697398,0.99999994,0,0,0,0,0,0,1,1,0,0,0,false,false,true,-688.89996,-1469.97,16.99,0.0016319258,0.0044911676,-0.35414004,0.9351801,-569.831,864.85095,8.521,0.00010999999,-0.00030999997,1.70581
257.03333,2000,0,91.24,0.000002697398,0.000002697398,0.000002697398,0.99999994,0,0,0,0,0,0,1,1,0,0,0,false,false,true,-693.64996,-1462.76,16.99,0.001599557,0.0045019574,-0.34748283,0.9376741,-569.891,858.92096,8.521,0.00021,-0.00030999997,1.67011
257.04166,2000,0,91.24,0.000002697398,0.000002697398,0.000002697398,0.99999994,0,0,0,0,0,0,1,1,0,0,0,false,false,true,-698.39996,-1455.6,16.99,0.0015671884,0.0045127473,-0.34094974,0.9400694,-569.871,852.90094,8.521,0.00021,-0.00030999997,1.63581
257.05,2000,0,91.24,0.000002697398,0.000002697398,0.000002697398,0.99999994,0,0,0,0,0,0,1,1,0,0,0,false,false,true,-703.14996,-1448.49,16.99,0.0015402142,0.0045235357,-0.33453524,0.94237095,-569.77094,846.79095,8.521,0.00021,-0.00030999997,1.6029099
257.05832,2000,0,91.24,0.000002697398,0.000002697398,0.000002697398,0.99999994,0,0,0,0,0,0,1,1,0,0,0,false,false,true,-707.89996,-1441.4299,16.99,0.0015132403,0.004534326,-0.32823414,0.94458425,-569.581,840.60095,8.521,0.00021,-0.00030999997,1.5713099
257.06668,2000,0,91.24,0.000002697398,0.000002697398,0.000002697398,0.99999994,0,0,0,0,0,0,1,1,0,0,0,false,false,true,-712.64996,-1434.4199,16.99,0.0014862664,0.0045451154,-0.3220409,0.9467136,-569.29095,834.34094,8.521,0.00021,-0.00030999997,1.54101
257.075,2000,0,91.24,0.000002697398,0.000002697398,0.000002697398,0.99999994,0,0,0,0,0,0,1,1,0,0,0,false,false,true,-717.38995,-1427.47,16.99,0.0014592924,0.0045559052,-0.31595555,0.9487619,-568.90094,828.011,8.521,0.00021,-0.00030999997,1.51201
257.08334,2000,0,91.24,0.000002697398,0.000002697398,0.000002697398,0.99999994,0,0,0,0,0,0,1,1,0,0,0,false,false,true,-722.13,-1420.57,16.99,0.0014323184,0.0045666946,-0.30997267,0.95073336,-568.41095,821.621,8.521,0.00021,-0.00030999997,1.48421
257.09167,2000,0,91.24,0.000002697398,0.000002697398,0.000002697398,0.99999994,0,0,0,0,0,0,1,1,0,0,0,false,false,true,-726.87,-1413.72,16.99,0.0014053443,0.0045720898,-0.30408695,0.9526322,-567.811,815.17096,8.521,0.00021,-0.00040999998,1.45761
257.1,2000,0,91.24,0.000002697398,0.000002697398,0.000002697398,0.99999994,0,0,0,0,0,0,1,1,0,0,0,false,false,true,-731.6,-1406.9299,16.99,0.0013783706,0.004577485,-0.29829833,0.9544607,-567.11096,808.67096,8.521,0.00021,-0.00040999998,1.43221
257.10834,2000,0,91.24,0.000002697398,0.000002697398,0.000002697398,0.99999994,0,0,0,0,0,0,1,1,0,0,0,false,false,true,-736.32996,-1400.19,16.99,0.0013513964,0.004582879,-0.29259595,0.95622414,-566.30096,802.131,8.521,0.00021,-0.00040999998,1.40801
257.11667,2000,0,91.24,0.000002697398,0.000002697398,0.000002697398,0.99999994,0,0,0,0,0,0,1,1,0,0,0,false,false,true,-741.05,-1393.51,16.99,0.0013244224,0.004588274,-0.28697997,0.9579246,-565.371,795.54095,8.521,0.00021,-0.00030999997,1.38491
257.125,2000,0,91.24,0.000002697398,0.000002697398,0.000002697398,0.99999994,0,0,0,0,0,0,1,1,0,0,0,false,false,true,-745.76,-1386.88,16.99,0.0012974484,0.004593669,-0.28144485,0.95956546,-564.331,788.92096,8.521,0.00021,-0.00030999997,1.36291
257.13333,2000,0,91.24,0.000002697398,0.000002697398,0.000002697398,0.99999994,0,0,0,0,0,0,1,1,0,0,0,false,false,true,-750.45996,-1380.3099,16.99,0.0012704745,0.0045990637,-0.27599072,0.9611484,-563.17096,782.27094,8.521,0.00021,-0.00021,1.34211
257.14166,2000,0,91.24,0.000002697398,0.000002697398,0.000002697398,0.99999994,0,0,0,0,0,0,1,1,0,0,0,false,false,true,-755.14996,-1373.7899,16.99,0.0012435006,0.004604459,-0.2706121,0.96267664,-561.90094,775.59094,8.521,0.00030999997,-0.00021,1.32231
257.15,2000,0,91.24,0.000002697398,0.000002697398,0.000002697398,0.99999994,0,0,0,0,0,0,1,1,0,0,0,false,false,true,-759.82996,-1367.33,16.99,0.0012219213,0.004609853,-0.26530358,0.96415305,-560.511,768.8909,8.521,0.00030999997,-0.00021,1.30361
257.15833,2000,0,91.24,0.000002697398,0.000002697398,0.000002697398,0.99999994,0,0,0,0,0,0,1,1,0,0,0,false,false,true,-764.5,-1360.9199,16.99,0.001200342,0.0046152477,-0.2600598,0.9655806,-559.001,762.17096,8.521,0.00030999997,-0.00021,1.28601
257.16666,2000,0,91.24,0.000002697398,0.000002697398,0.000002697398,0.99999994,0,0,0,0,0,0,1,1,0,0,0,false,false,true,-769.16,-1354.57,16.99,0.0011787629,0.004620643,-0.2548808,0.96696067,-557.371,755.441,8.521,0.00030999997,-0.00010999999,1.26941
257.175,2000,0,91.24,0.000002697398,0.000002697398,0.000002697398,0.99999994,0,0,0,0,0,0,1,1,0,0,0,false,false,true,-773.8,-1348.27,16.99,0.0011571838,0.0046260376,-0.24976115,0.9682957,-555.61096,748.701,8.521,0.00030999997,-0.00010999999,1.25391
257.18332,2000,0,91.24,0.000002697398,0.000002697398,0.000002697398,0.99999994,0,0,0,0,0,0,1,1,0,0,0,false,false,true,-778.43,-1342.03,16.99,0.0011356046,0.0046314322,-0.24470079,0.96958685,-553.73096,741.951,8.521,0.00030999997,-0.00010999999,1.2394099
257.19168,2000,0,91.24,0.000002697398,0.000002697398,0.000002697398,0.99999994,0,0,0,0,0,0,1,1,0,0,0,false,false,true,-783.04,-1335.85,16.99,0.0011140254,0.004636827,-0.23968902,0.97083795,-551.73096,735.201,8.521,0.00030999997,-0.00010999999,1.22591
257.2,2000,0,91.24,0.000002697398,0.000002697398,0.000002697398,0.99999994,0,0,0,0,0,0,1,1,0,0,0,false,false,true,-787.63995,-1329.72,16.99,0.0010924463,0.0046422225,-0.23472579,0.9720499,-549.60095,728.46094,8.521,0.00030999997,-0.00010999999,1.21351
257.20834,2000,0,91.24,0.000002697398,0.000002697398,0.000002697398,0.99999994,0,0,0,0,0,0,1,1,0,0,0,false,false,true,-792.22,-1323.65,16.99,0.0010708668,0.0046476163,-0.22980568,0.9732247,-547.34094,721.72095,8.521,0.00021,-0.00010999999,1.2021099
257.21667,2000,0,91.24,0.000002697398,0.000002697398,0.000002697398,0.99999994,0,0,0,0,0,0,1,1,0,0,0,false,false,true,-796.77997,-1317.64,16.99,0.0010492879,0.0046530114,-0.22492878,0.9743635,-544.96094,714.99097,8.521,0.00021,-0.00010999999,1.19171
257.225,2000,0,91.24,0.000002697398,0.000002697398,0.000002697398,0.99999994,0,0,0,0,0,0,1,1,0,0,0,false,false,true,-801.32,-1311.6799,16.99,0.0010277086,0.004658406,-0.22008964,0.9754679,-542.451,708.27094,8.521,0.00021,-0.00010999999,1.18231
257.23334,2000,0,91.24,0.000002697398,0.000002697398,0.000002697398,0.99999994,0,0,0,0,0,0,1,1,0,0,0,false,false,true,-805.83997,-1305.78,16.99,0.0010061294,0.0046638013,-0.21528284,0.97654,-539.811,701.571,8.521,0.00021,-0.00010999999,1.17391
257.24167,2000,0,91.24,0.000002697398,0.000002697398,0.000002697398,0.99999994,0,0,0,0,0,0,1,1,0,0,0,false,false,true,-810.33997,-1299.9299,16.99,0.0009845502,0.004669196,-0.21050304,0.9775815,-537.04095,694.891,8.521,0.00021,-0.00010999999,1.16651
257.25,2000,0,91.24,0.000002697398,0.000002697398,0.000002697398,0.99999994,0,0,0,0,0,0,1,1,0,0,0,false,false,true,-814.82,-1294.14,16.99,0.0009629712,0.004674591,-0.20575024,0.9785929,-534.15094,688.23096,8.521,0.00021,-0.00010999999,1.16001
257.25833,2000,0,91.24,0.000002697398,0.000002697398,0.000002697398,0.99999994,0,0,0,0,0,0,1,1,0,0,0,false,false,true,-819.26996,-1288.4,16.99,0.0009413918,0.004679985,-0.20101894,0.9795756,-531.131,681.60095,8.521,0.00010999999,-0.00010999999,1.15451
257.26666,2000,0,91.24,0.000002697398,0.000002697398,0.000002697398,0.99999994,0,0,0,0,0,0,1,1,0,0,0,false,false,true,-823.69995,-1282.72,16.99,0.00091981265,0.00468538,-0.19630389,0.98053133,-527.98096,675.001,8.521,0.00010999999,-0.00010999999,1.15001
257.275,2000,0,91.24,0.000002697398,0.000002697398,0.000002697398,0.99999994,0,0,0,0,0,0,1,1,0,0,0,false,false,true,-828.1,-1277.09,16.99,0.00089823356,0.004690775,-0.19160499,0.98146045,-524.701,668.441,8.521,0.00010999999,-0.00010999999,1.14651
257.28333,2000,0,91.24,0.000002697398,0.000002697398,0.000002697398,0.99999994,0,0,0,0,0,0,1,1,0,0,0,false,false,true,-832.47,-1271.52,16.99,0.00087665435,0.00469617,-0.18691152,0.9823651,-521.28094,661.91095,8.521,0.00010999999,-0.00021,1.14401
257.29166,2000,0,91.24,0.000002697398,0.000002697398,0.000002697398,0.99999994,0,0,0,0,0,0,1,1,0,0,0,false,false,true,-836.81,-1266,16.99,0.0008550752,0.0047015646,-0.18222879,0.9832445,-517.73096,655.42096,8.521,0.00010999999,-0.00021,1.1425099
257.3,2000,0,91.24,0.000002697398,0.000002697398,0.000002697398,0.99999994,0,0,0,0,0,0,1,1,0,0,0,false,false,true,-841.12,-1260.5399,16.99,0.000833496,0.0047069597,-0.17754611,0.9841008,-514.05096,648.98096,8.521,0.00010999999,-0.00030999997,1.14201
257.30832,2000,0,91.24,0.000002697398,0.000002697398,0.000002697398,0.99999994,0,0,0,0,0,0,1,1,0,0,0,false,false,true,-845.39996,-1255.13,16.99,0.0008119169,0.004712355,-0.17286344,0.98493415,-510.241,642.58093,8.521,0.00010999999,-0.00030999997,1.14261
257.31668,2000,0,91.24,0.000002697398,0.000002697398,0.000002697398,0.99999994,0,0,0,0,0,0,1,1,0,0,0,false,false,true,-849.64996,-1249.78,16.99,0.0007903376,0.0047123544,-0.16816992,0.9857464,-506.291,636.23096,8.521,0.00010999999,-0.00030999997,1.14421
257.325,2000,0,91.24,0.000002697398,0.000002697398,0.000002697398,0.99999994,0,0,0,0,0,0,1,1,0,0,0,false,false,true,-853.87,-1244.48,16.99,0.00076875853,0.004712355,-0.16347106,0.98653656,-502.211,629.941,8.521,0.00010999999,-0.00030999997,1.1468099
257.33334,2000,0,91.24,0.000002697398,0.000002697398,0.000002697398,0.99999994,0,0,0,0,0,0,1,1,0,0,0,false,false,true,-858.06,-1239.23,16.99,0.0007471793,0.004712355,-0.15875596,0.9873063,-497.991,623.701,8.521,0.00010999999,-0.00030999997,1.15051
257.34167,2000,0,91.24,0.000002697398,0.000002697398,0.000002697398,0.99999994,0,0,0,0,0,0,1,1,0,0,0,false,false,true,-862.20996,-1234.03,16.99,0.0007256001,0.004712355,-0.15401933,0.9880563,-493.63098,617.53094,8.521,0.00010999999,-0.00021,1.15521
257.35,2000,0,91.24,0.000002697398,0.000002697398,0.000002697398,0.99999994,0,0,0,0,0,0,1,1,0,0,0,false,false,true,-866.32,-1228.88,16.99,0.0007040209,0.0047123544,-0.1492611,0.9887863,-489.141,611.42096,8.521,0.00010999999,-0.00021,1.16101
257.35834,2000,0,91.24,0.000002697398,0.000002697398,0.000002697398,0.99999994,0,0,0,0,0,0,1,1,0,0,0,false,false,true,-870.39996,-1223.78,16.99,0.00068244175,0.004712355,-0.14447589,0.9894968,-484.511,605.381,8.521,0.00010999999,-0.00010999999,1.16791
257.36667,2000,0,91.24,0.000002697398,0.000002697398,0.000002697398,0.99999994,0,0,0,0,0,0,1,1,0,0,0,false,false,true,-874.44,-1218.74,16.99,0.00066086254,0.004717749,-0.13965833,0.99018824,-479.741,599.41095,8.521,0.00010999999,0,1.17591
257.375,2000,0,91.24,0.000002697398,0.000002697398,0.000002697398,0.99999994,0,0,0,0,0,0,1,1,0,0,0,false,false,true,-878.44,-1213.74,16.99,0.0006392834,0.004723144,-0.13480298,0.99086094,-474.831,593.52094,8.521,0.00010999999,0,1.18501
257.38333,2000,0,91.24,0.000002697398,0.000002697398,0.000002697398,0.99999994,0,0,0,0,0,0,1,1,0,0,0,false,false,true,-882.39996,-1208.7899,16.99,0.0006177041,0.0047285384,-0.12990989,0.99151427,-469.781,587.71094,8.521,0.00010999999,0,1.19531
257.39166,2000,0,91.24,0.000002697398,0.000002697398,0.000002697398,0.99999994,0,0,0,0,0,0,1,1,0,0,0,false,false,true,-886.31,-1203.89,16.99,0.000596125,0.004733934,-0.12496823,0.99214923,-464.581,581.98096,8.521,0.00010999999,-0.00010999999,1.20681
257.4,2000,0,91.24,0.000002697398,0.000002697398,0.000002697398,0.99999994,0,0,0,0,0,0,1,1,0,0,0,false,false,true,-890.18,-1199.0399,16.99,0.0005745458,0.004733934,-0.11997804,0.99276507,-459.241,576.34094,8.521,0.00010999999,-0.00021,1.21951
257.40833,2000,0,91.24,0.000002697398,0.000002697398,0.000002697398,0.99999994,0,0,0,0,0,0,1,1,0,0,0,false,false,true,-894.01,-1194.24,16.99,0.0005529666,0.0047339336,-0.114933856,0.99336165,-453.751,570.79095,8.521,0.00010999999,-0.00021,1.23341
257.41666,2000,0,91.24,0.000002697398,0.000002697398,0.000002697398,0.99999994,0,0,0,0,0,0,1,1,0,0,0,false,false,true,-897.79,-1189.48,16.99,0.0005313874,0.0047339336,-0.109824985,0.99393946,-448.121,565.34094,8.521,0.00010999999,-0.00021,1.24861
257.425,2000,0,91.24,0.000002697398,0.000002697398,0.000002697398,0.99999994,0,0,0,0,0,0,1,1,0,0,0,false,false,true,-901.51996,-1184.77,16.99,0.0005098082,0.0047339336,-0.10465133,0.99449754,-442.341,560.001,8.521,0.00010999999,-0.00010999999,1.26501
257.43332,2000,0,91.24,0.000002697398,0.000002697398,0.000002697398,0.99999994,0,0,0,0,0,0,1,1,0,0,0,false,false,true,-905.20996,-1180.1,16.99,0.00048283426,0.0047339336,-0.09940759,0.99503535,-436.411,554.77094,8.521,0.00010999999,-0.00010999999,1.28281
257.44168,2000,0,91.24,0.000002697398,0.000002697398,0.000002697398,0.99999994,0,0,0,0,0,0,1,1,0,0,0,false,false,true,-908.85,-1175.48,16.99,0.00045586022,0.004733933,-0.094088316,0.99555236,-430.331,549.65094,8.521,0.00010999999,-0.00010999999,1.3019099
257.45,2000,0,91.24,0.000002697398,0.000002697398,0.000002697398,0.99999994,0,0,0,0,0,0,1,1,0,0,0,false,false,true,-912.44,-1170.9,16.99,0.0004288863,0.0047339336,-0.08868809,0.99604803,-424.10098,544.66095,8.521,0.00010999999,0,1.32241
257.45834,2000,0,91.24,0.000002697398,0.000002697398,0.000002697398,0.99999994,0,0,0,0,0,0,1,1,0,0,0,false,false,true,-915.97,-1166.36,16.99,0.00040191232,0.0047339336,-0.083196186,0.99652183,-417.711,539.80096,8.521,0.00010999999,0,1.34441
257.46667,2000,0,91.24,0.000002697398,0.000002697398,0.000002697398,0.99999994,0,0,0,0,0,0,1,1,0,0,0,false,false,true,-919.44995,-1161.86,16.99,0.0003749383,0.004733933,-0.07761252,0.99697214,-411.171,535.071,8.521,0.00021,0,1.36791
257.475,2000,0,91.24,0.000002697398,0.000002697398,0.000002697398,0.99999994,0,0,0,0,0,0,1,1,0,0,0,false,false,true,-922.88,-1157.4,16.99,0.00034796432,0.004733933,-0.07192641,0.9973985,-404.471,530.48096,8.521,0.00021,0,1.39291
257.48334,2000,0,91.24,0.000002697398,0.000002697398,0.000002697398,0.99999994,0,0,0,0,0,0,1,1,0,0,0,false,false,true,-926.25,-1152.98,16.99,0.00032099037,0.0047339336,-0.06613775,0.99779916,-397.611,526.05096,8.521,0.00030999997,0,1.41961
257.49167,2000,0,91.24,0.000002697398,0.000002697398,0.000002697398,0.99999994,0,0,0,0,0,0,1,1,0,0,0,false,false,true,-929.56,-1148.6,16.99,0.0002940164,0.004733934,-0.06023581,0.9981729,-390.591,521.77094,8.521,0.00030999997,0,1.44791
257.5,2000,0,91.24,0.000002697398,0.000002697398,0.000002697398,0.99999994,0,0,0,0,0,0,1,1,0,0,0,false,false,true,-932.81,-1144.25,16.99,0.00026704237,0.004733933,-0.054215208,0.9985179,-383.411,517.66095,8.521,0.00030999997,0,1.4780099
257.50833,2000,0,91.24,0.000002697398,0.000002697398,0.000002697398,0.99999994,0,0,0,0,0,0,1,1,0,0,0,false,false,true,-936.00995,-1139.94,16.99,0.00024006843,0.0047339336,-0.048065104,0.9988329,-376.07098,513.73096,8.521,0.00030999997,0,1.50991
257.51666,2000,0,91.24,0.000002697398,0.000002697398,0.000002697398,0.99999994,0,0,0,0,0,0,1,1,0,0,0,false,false,true,-939.13995,-1135.66,16.99,0.00021309445,0.0047339336,-0.041780166,0.9991155,-368.561,509.991,8.521,0.00030999997,0,1.54371
257.525,2000,0,91.24,0.000002697398,0.000002697398,0.000002697398,0.99999994,0,0,0,0,0,0,1,1,0,0,0,false,false,true,-942.20996,-1131.41,16.99,0.00018612047,0.0047339336,-0.035354923,0.99936354,-360.891,506.451,8.521,0.00030999997,0,1.57951
257.53333,2000,0,91.24,0.000002697398,0.000002697398,0.000002697398,0.99999994,0,0,0,0,0,0,1,1,0,0,0,false,false,true,-945.22,-1127.19,16.99,0.00015375168,0.0047339336,-0.028778667,0.99957454,-353.051,503.121,8.521,0.00030999997,0,1.61741
257.54166,2000,0,91.24,0.000002697398,0.000002697398,0.000002697398,0.99999994,0,0,0,0,0,0,1,1,0,0,0,false,false,true,-948.16,-1123,16.99,0.000121382924,0.004733934,-0.022040525,0.99974585,-345.041,500.021,8.521,0.00030999997,0,1.6575099
257.55,2000,0,91.24,0.000002697398,0.000002697398,0.000002697398,0.99999994,0,0,0,0,0,0,1,1,0,0,0,false,false,true,-951.04,-1118.83,16.99,0.000089014145,0.004733934,-0.015135144,0.99987423,-336.861,497.161,8.521,0.00040999998,0,1.70001
257.55832,2000,0,91.24,0.000002697398,0.000002697398,0.000002697398,0.99999994,0,0,0,0,0,0,1,1,0,0,0,false,false,true,-953.85,-1114.69,16.99,0.00005664536,0.0047339336,-0.008051775,0.9999563,-328.511,494.561,8.521,0.00040999998,0,1.74501
257.56668,2000,0,91.24,0.000002697398,0.000002697398,0.000002697398,0.99999994,0,0,0,0,0,0,1,1,0,0,0,false,false,true,-956.58997,-1110.57,16.99,0.000024276582,0.0047339336,-0.000779548,0.99998844,-319.991,492.231,8.521,0.00040999998,0,1.7926099
257.575,2000,0,91.24,0.000002697398,0.000002697398,0.000002697398,0.99999994,0,0,0,0,0,0,1,1,0,0,0,false,false,true,-959.25995,-1106.47,16.99,-0.000008092195,0.004733934,0.006692245,0.9999664,-311.301,490.191,8.521,0.00040999998,0,1.84301
257.58334,2000,0,91.24,0.000002697398,0.000002697398,0.000002697398,0.99999994,0,0,0,0,0,0,1,1,0,0,0,false,false,true,-961.85,-1102.38,16.99,-0.00004046097,0.0047339336,0.014369124,0.9998855,-302.441,488.461,8.521,0.00040999998,0,1.89641
257.59167,2000,0,91.24,0.000002697398,0.000002697398,0.000002697398,0.99999994,0,0,0,0,0,0,1,1,0,0,0,false,false,true,-964.37,-1098.3099,16.99,-0.00007822454,0.0047339336,0.022267105,0.9997408,-293.411,487.07098,8.521,0.00040999998,0,1.95311
257.6,2000,0,91.24,0.000002697398,0.000002697398,0.000002697398,0.99999994,0,0,0,0,0,0,1,1,0,0,0,false,false,true,-966.82,-1094.25,16.99,-0.00011598811,0.004733933,0.030402454,0.9995264,-284.211,486.001,8.521,0.00051,0,2.01211
257.60834,2000,0,91.24,0.000002697398,0.000002697398,0.000002697398,0.99999994,0,0,0,0,0,0,1,1,0,0,0,false,false,true,-969.19,-1090.2,16.99,-0.00015375168,0.0047339336,0.03878066,0.99923646,-274.841,485.141,8.521,0.00051,0,2.06991
257.61667,2000,0,91.24,0.000002697398,0.000002697398,0.000002697398,0.99999994,0,0,0,0,0,0,1,1,0,0,0,false,false,true,-971.48,-1086.16,16.99,-0.00019151527,0.0047339336,0.04739615,0.9988649,-265.301,484.521,8.521,0.00051,0,2.12671
257.625,2000,0,91.24,0.000002697398,0.000002697398,0.000002697398,0.99999994,0,0,0,0,0,0,1,1,0,0,0,false,false,true,-973.69,-1082.12,16.99,-0.00022927884,0.0047339336,0.0562437,0.99840575,-255.591,484.171,8.521,0.00051,0,2.18261
257.63333,2000,0,91.24,0.000002697398,0.000002697398,0.000002697398,0.99999994,0,0,0,0,0,0,1,1,0,0,0,false,false,true,-975.82,-1078.09,16.99,-0.0002724372,0.0047339336,0.06532314,0.99785286,-245.711,484.111,8.521,0.00040999998,0,2.23781
257.64166,2000,0,91.24,0.000002697398,0.000002697398,0.000002697398,0.99999994,0,0,0,0,0,0,1,1,0,0,0,false,false,true,-977.87,-1074.0599,16.99,-0.0003155956,0.004728539,0.07462378,0.9972005,-235.661,484.35098,8.521,0.00040999998,0,2.29181
257.65,2000,0,91.24,0.000002697398,0.000002697398,0.000002697398,0.99999994,0,0,0,0,0,0,1,1,0,0,0,false,false,true,-979.82996,-1070.02,16.99,-0.00035875392,0.0047231438,0.08414027,0.9964426,-225.451,484.82098,8.521,0.00030999997,0,2.3424098
257.65833,2000,0,91.24,0.000002697398,0.000002697398,0.000002697398,0.99999994,0,0,0,0,0,0,1,1,0,0,0,false,false,true,-981.70996,-1065.98,16.99,-0.00040191232,0.004717749,0.0938617,0.99557394,-215.08101,485.541,8.521,0.00021,0.00010999999,2.38961
257.66666,2000,0,91.24,0.000002697398,0.000002697398,0.000002697398,0.99999994,0,0,0,0,0,0,1,1,0,0,0,false,false,true,-983.5,-1061.9299,16.99,-0.0004504655,0.004712355,0.10377203,0.9945898,-204.55101,486.541,8.521,0.00010999999,0.00010999999,2.43341
257.675,2000,0,91.24,0.000002697398,0.000002697398,0.000002697398,0.99999994,0,0,0,0,0,0,1,1,0,0,0,false,false,true,-985.19995,-1057.88,16.99,-0.0004990186,0.0047069592,0.11384949,0.9934866,-193.86101,487.85098,8.521,0,0.00021,2.4739099
257.68332,2000,0,91.24,0.000002697398,0.000002697398,0.000002697398,0.99999994,0,0,0,0,0,0,1,1,0,0,0,false,false,true,-986.82,-1053.8099,16.99,-0.00054757175,0.004701564,0.124083504,0.99226034,-183.011,489.511,8.521,-0.00010999999,0.00030999997,2.51121
257.69168,2000,0,91.24,0.000002697398,0.000002697398,0.000002697398,0.99999994,0,0,0,0,0,0,1,1,0,0,0,false,false,true,-988.35,-1049.73,16.99,-0.00059612497,0.00469617,0.1344577,0.99090797,-172.071,491.371,8.521,-0.00010999999,0.00030999997,2.54611
257.7,2000,0,91.24,0.000002697398,0.000002697398,0.000002697398,0.99999994,0,0,0,0,0,0,1,1,0,0,0,false,false,true,-989.77997,-1045.64,16.99,-0.00064467813,0.004690775,0.14496146,0.9894259,-161.061,493.431,8.521,-0.00010999999,0.00030999997,2.57881
257.70834,2000,0,91.24,0.000002697398,0.000002697398,0.000002697398,0.99999994,0,0,0,0,0,0,1,1,0,0,0,false,false,true,-991.12,-1041.53,16.99,-0.00069323136,0.004685381,0.15558383,0.9878113,-149.991,495.711,8.521,-0.00010999999,0.00030999997,2.60931
257.71667,2000,0,91.24,0.000002697398,0.000002697398,0.000002697398,0.99999994,0,0,0,0,0,0,1,1,0,0,0,false,false,true,-992.37,-1037.4,16.99,-0.0007417844,0.004679985,0.16631413,0.9860613,-139.101,498.081,8.521,-0.00010999999,0.00030999997,2.63531
257.725,2000,0,91.24,0.000002697398,0.000002697398,0.000002697398,0.99999994,0,0,0,0,0,0,1,1,0,0,0,false,false,true,-993.52997,-1033.25,16.99,-0.0007957325,0.004674591,0.17713073,0.98417586,-128.401,500.551,8.521,-0.00021,0.00030999997,2.65691
257.73334,2000,0,91.24,0.000002697398,0.000002697398,0.000002697398,0.99999994,0,0,0,0,0,0,1,1,0,0,0,false,false,true,-994.6,-1029.08,16.99,-0.00084968045,0.0046691964,0.1880175,0.9821542,-117.891,503.151,8.521,-0.00021,0.00030999997,2.67411
