time,ball_loc_x,ball_loc_y,ball_loc_z,ball_rot_x,ball_rot_y,ball_rot_z,ball_rot_w,ball_vel_x,ball_vel_y,ball_vel_z,ball_ang_x,ball_ang_y,ball_ang_z,player0_throttle,player0_steer,player0_pitch,player0_yaw,player0_roll,player0_jump,player0_boost,player0_handbrake,player0_loc_x,player0_loc_y,player0_loc_z,player0_rot_x,player0_rot_y,player0_rot_z,player0_rot_w,player0_vel_x,player0_vel_y,player0_vel_z,player0_ang_x,player0_ang_y,player0_ang_z
199.65,2000,0,91.24,0.000002697398,0.000002697398,0.000002697398,0.99999994,0,0,0,0,0,0,1,0,0,0,0,false,true,false,0,-4068.18,16.99,-0.0033582605,0.0033798397,0.7069988,0.70719856,0.41099998,1600.601,8.411,-0.00071,-0.00010999999,0
199.65834,2000,0,91.24,0.000002697398,0.000002697398,0.000002697398,0.99999994,0,0,0,0,0,0,0,1,0,0,0,false,false,true,0,-4054.8398,16.99,-0.0033582605,0.0033798397,0.7069988,0.70719856,-10.901,1599.4309,8.471001,-0.00071,0.00281,0.31491
199.66667,2000,0,91.24,0.000002697398,0.000002697398,0.000002697398,0.99999994,0,0,0,0,0,0,0,1,0,0,0,false,false,true,-0.089999996,-4041.51,16.99,-0.0033582605,0.0033852346,0.7079259,0.7062705,-20.491,1598.401,8.501,-0.00071,0.00401,0.56691
199.675,2000,0,91.24,0.000002697398,0.000002697398,0.000002697398,0.99999994,0,0,0,0,0,0,0,1,0,0,0,false,false,true,-0.26,-4028.19,16.99,-0.0033582605,0.0033906293,0.7095904,0.7045981,-29.911,1597.361,8.521,-0.00061,0.0043099998,0.78841
199.68333,2000,0,91.24,0.000002697398,0.000002697398,0.000002697398,0.99999994,0,0,0,0,0,0,0,1,0,0,0,false,false,true,-0.51,-4014.88,16.99,-0.0033582605,0.0033960242,0.7119023,0.70226216,-39.551,1596.261,8.541,-0.00051,0.00411,0.98481
199.69167,2000,0,91.24,0.000002697398,0.000002697398,0.000002697398,0.99999994,0,0,0,0,0,0,0,1,0,0,0,false,false,true,-0.84,-4001.5798,16.99,-0.0033636554,0.0033960242,0.7147801,0.69933283,-49.661,1595.0609,8.551001,-0.00051,0.00371,1.16061
199.7,2000,0,91.24,0.000002697398,0.000002697398,0.000002697398,0.99999994,0,0,0,0,0,0,0,1,0,0,0,false,false,true,-1.25,-3988.2898,16.99,-0.00336905,0.0033906293,0.71815246,0.69586927,-60.380997,1593.721,8.561,-0.00040999998,0.00311,1.3192099
199.70833,2000,0,91.24,0.000002697398,0.000002697398,0.000002697398,0.99999994,0,0,0,0,0,0,0,1,0,0,0,false,false,true,-1.75,-3975.01,16.99,-0.0033798397,0.0033798397,0.7219683,0.6919095,-71.751,1592.1909,8.561,-0.00040999998,0.00251,1.4635099
199.71666,2000,0,91.24,0.000002697398,0.000002697398,0.000002697398,0.99999994,0,0,0,0,0,0,0,1,0,0,0,false,false,true,-2.35,-3961.74,16.99,-0.0033960238,0.0033690496,0.7261718,0.6874965,-83.781,1590.4409,8.561,-0.00040999998,0.0019099999,1.5957099
199.725,2000,0,91.24,0.000002697398,0.000002697398,0.000002697398,0.99999994,0,0,0,0,0,0,0,1,0,0,0,false,false,true,-3.05,-3948.49,16.99,-0.0034122085,0.0033528658,0.73072785,0.682652,-96.410995,1588.4509,8.561,-0.00030999997,0.00131,1.71751
199.73334,2000,0,91.24,0.000002697398,0.000002697398,0.000002697398,0.99999994,0,0,0,0,0,0,0,1,0,0,0,false,false,true,-3.85,-3935.25,16.99,-0.0034337877,0.0033312866,0.7355966,0.67740285,-109.58099,1586.1809,8.571,-0.00030999997,0.00081,1.83031
199.74167,2000,0,91.24,0.000002697398,0.000002697398,0.000002697398,0.99999994,0,0,0,0,0,0,0,1,0,0,0,false,false,true,-4.7599998,-3922.03,16.99,-0.003455367,0.0033097074,0.7407437,0.67177063,-123.190994,1583.621,8.571,-0.00021,0.00040999998,1.93511
199.75,2000,0,91.24,0.000002697398,0.000002697398,0.000002697398,0.99999994,0,0,0,0,0,0,0,1,0,0,0,false,false,true,-5.79,-3908.8298,16.99,-0.0034823408,0.0032827335,0.7461353,0.665777,-137.121,1580.751,8.571,-0.00021,0,2.03261
199.75833,2000,0,91.24,0.000002697398,0.000002697398,0.000002697398,0.99999994,0,0,0,0,0,0,0,1,0,0,0,false,false,true,-6.93,-3895.66,16.99,-0.0035093152,0.0032557596,0.75174826,0.65943277,-151.241,1577.5809,8.571,-0.00010999999,-0.00021,2.12341
199.76666,2000,0,91.24,0.000002697398,0.000002697398,0.000002697398,0.99999994,0,0,0,0,0,0,0,1,0,0,0,false,false,true,-8.19,-3882.51,16.99,-0.0035362889,0.0032233908,0.75755477,0.65275395,-165.41101,1574.121,8.571,-0.00010999999,-0.00040999998,2.20791
199.775,2000,0,91.24,0.000002697398,0.000002697398,0.000002697398,0.99999994,0,0,0,0,0,0,0,1,0,0,0,false,false,true,-9.57,-3869.39,16.99,-0.003568658,0.0031910222,0.76352805,0.6457569,-179.491,1570.381,8.571,-0.00010999999,-0.00061,2.2864099
199.78334,2000,0,91.24,0.000002697398,0.000002697398,0.000002697398,0.99999994,0,0,0,0,0,0,0,1,0,0,0,false,false,true,-11.07,-3856.2998,16.99,-0.0036010267,0.0031532585,0.7696464,0.63845235,-193.321,1566.401,8.571,0,-0.00071,2.35901
199.79167,2000,0,91.24,0.000002697398,0.000002697398,0.000002697398,0.99999994,0,0,0,0,0,0,0,1,0,0,0,false,false,true,-12.679999,-3843.25,16.99,-0.0036333953,0.0031154947,0.77588475,0.6308564,-206.731,1562.231,8.571,0,-0.00081,2.42571
199.8,2000,0,91.24,0.000002697398,0.000002697398,0.000002697398,0.99999994,0,0,0,0,0,0,0,1,0,0,0,false,false,true,-14.4,-3830.23,16.99,-0.0036657641,0.0030777315,0.7822231,0.62298,-219.561,1557.9309,8.571,0,-0.00091,2.48651
199.80833,2000,0,91.24,0.000002697398,0.000002697398,0.000002697398,0.99999994,0,0,0,0,0,0,0,1,0,0,0,false,false,true,-16.23,-3817.25,16.99,-0.0036981327,0.0030345728,0.7886337,0.61484456,-231.621,1553.5809,8.571,0,-0.0010099999,2.54121
199.81667,2000,0,91.24,0.000002697398,0.000002697398,0.000002697398,0.99999994,0,0,0,0,0,0,0,1,0,0,0,false,false,true,-18.16,-3804.2998,16.99,-0.0037358964,0.0029914144,0.7950988,0.606461,-242.741,1549.271,8.571,0,-0.00111,2.58971
199.825,2000,0,91.24,0.000002697398,0.000002697398,0.000002697398,0.99999994,0,0,0,0,0,0,0,1,0,0,0,false,false,true,-20.18,-3791.39,16.99,-0.00377366,0.002948256,0.80159694,0.5978455,-252.731,1545.121,8.571,0,-0.0012099999,2.63181
199.83333,2000,0,91.24,0.000002697398,0.000002697398,0.000002697398,0.99999994,0,0,0,0,0,0,0,1,0,0,0,false,false,true,-22.289999,-3778.51,16.99,-0.0038114237,0.002905098,0.80810446,0.58901966,-261.401,1541.271,8.571,0.00010999999,-0.0012099999,2.66711
199.84166,2000,0,91.24,0.000002697398,0.000002697398,0.000002697398,0.99999994,0,0,0,0,0,0,0,1,0,0,0,false,false,true,-24.47,-3765.67,16.99,-0.0038491867,0.0028619391,0.8145988,0.58000475,-268.561,1537.881,8.571,0.00021,-0.00131,2.69541
199.85,2000,0,91.24,0.000002697398,0.000002697398,0.000002697398,0.99999994,0,0,0,0,0,0,0,1,0,0,0,false,false,true,-26.71,-3752.8499,16.99,-0.0038869507,0.0028133863,0.82106286,0.5708175,-274.021,1535.131,8.561,0.00030999997,-0.00131,2.71641
199.85834,2000,0,91.24,0.000002697398,0.000002697398,0.000002697398,0.99999994,0,0,0,0,0,0,0,1,0,0,0,false,false,true,-28.99,-3740.0598,16.99,-0.0039247135,0.0027648327,0.82746965,0.5614897,-279.701,1532.111,8.561,0.00040999998,-0.00131,2.73661
199.86667,2000,0,91.24,0.000002697398,0.000002697398,0.000002697398,0.99999994,0,0,0,0,0,0,0,1,0,0,0,false,false,true,-31.32,-3727.2898,16.99,-0.003957083,0.0027162798,0.83381927,0.5520165,-285.581,1528.8109,8.561,0.00040999998,-0.0012099999,2.75631
199.875,2000,0,91.24,0.000002697398,0.000002697398,0.000002697398,0.99999994,0,0,0,0,0,0,0,1,0,0,0,false,false,true,-33.7,-3714.5498,16.99,-0.0039894516,0.0026677267,0.8401047,0.542403,-291.651,1525.231,8.561,0.00040999998,-0.00111,2.7755098
199.88333,2000,0,91.24,0.000002697398,0.000002697398,0.000002697398,0.99999994,0,0,0,0,0,0,0,1,0,0,0,false,false,true,-36.13,-3701.8398,16.99,-0.00402182,0.0026191734,0.8463225,0.5326491,-297.881,1521.361,8.561,0.00040999998,-0.0010099999,2.79411
199.89166,2000,0,91.24,0.000002697398,0.000002697398,0.000002697398,0.99999994,0,0,0,0,0,0,0,1,0,0,0,false,false,true,-38.61,-3689.16,16.99,-0.004054189,0.0025706203,0.852466,0.52276045,-304.261,1517.1909,8.561,0.00040999998,-0.0010099999,2.8122098
199.9,2000,0,91.24,0.000002697398,0.000002697398,0.000002697398,0.99999994,0,0,0,0,0,0,0,1,0,0,0,false,false,true,-41.149998,-3676.52,16.99,-0.004086558,0.0025166722,0.85853237,0.5127368,-310.761,1512.721,8.561,0.00040999998,-0.00091,2.82981
199.90834,2000,0,91.24,0.000002697398,0.000002697398,0.000002697398,0.99999994,0,0,0,0,0,0,0,1,0,0,0,false,false,true,-43.739998,-3663.91,16.99,-0.004118927,0.0024627245,0.8645182,0.50257844,-317.361,1507.9509,8.561,0.00040999998,-0.00081,2.8468099
199.91667,2000,0,91.24,0.000002697398,0.000002697398,0.000002697398,0.99999994,0,0,0,0,0,0,0,1,0,0,0,false,false,true,-46.379997,-3651.3398,16.99,-0.0041512954,0.0024087764,0.87041765,0.4922905,-324.041,1502.881,8.561,0.00040999998,-0.00071,2.86321
199.925,2000,0,91.24,0.000002697398,0.000002697398,0.000002697398,0.99999994,0,0,0,0,0,0,0,1,0,0,0,false,false,true,-49.079998,-3638.8198,16.99,-0.0041836645,0.0023548284,0.87622774,0.48187315,-330.781,1497.511,8.561,0.00040999998,-0.00061,2.87901
199.93333,2000,0,91.24,0.000002697398,0.000002697398,0.000002697398,0.99999994,0,0,0,0,0,0,0,1,0,0,0,false,false,true,-51.84,-3626.3398,16.99,-0.0042106383,0.0023008804,0.88194585,0.47132623,-337.561,1491.841,8.561,0.00040999998,-0.00051,2.8942099
199.94167,2000,0,91.24,0.000002697398,0.000002697398,0.000002697398,0.99999994,0,0,0,0,0,0,0,1,0,0,0,false,false,true,-54.649998,-3613.91,16.99,-0.0042376127,0.0022469328,0.8875661,0.46065536,-344.351,1485.871,8.561,0.00030999997,-0.00051,2.90881
199.95,2000,0,91.24,0.000002697398,0.000002697398,0.000002697398,0.99999994,0,0,0,0,0,0,0,1,0,0,0,false,false,true,-57.52,-3601.53,16.99,-0.0042645866,0.0021929848,0.89308333,0.44986567,-351.141,1479.601,8.561,0.00030999997,-0.00040999998,2.9228098
199.95833,2000,0,91.24,0.000002697398,0.000002697398,0.000002697398,0.99999994,0,0,0,0,0,0,0,1,0,0,0,false,false,true,-60.449997,-3589.2,16.99,-0.00429156,0.0021390365,0.898495,0.43895736,-357.911,1473.0309,8.561,0.00021,-0.00040999998,2.93611
199.96666,2000,0,91.24,0.000002697398,0.000002697398,0.000002697398,0.99999994,0,0,0,0,0,0,0,1,0,0,0,false,false,true,-63.43,-3576.92,16.99,-0.0043185344,0.0020850888,0.90379894,0.42793036,-364.631,1466.1709,8.561,0.00021,-0.00040999998,2.94871
199.975,2000,0,91.24,0.000002697398,0.000002697398,0.000002697398,0.99999994,0,0,0,0,0,0,0,1,0,0,0,false,false,true,-66.47,-3564.7,16.99,-0.0043455083,0.0020311407,0.9089876,0.41679546,-371.291,1459.0309,8.561,0.00021,-0.00040999998,2.96061
199.98334,2000,0,91.24,0.000002697398,0.000002697398,0.000002697398,0.99999994,0,0,0,0,0,0,0,1,0,0,0,false,false,true,-69.56,-3552.54,16.99,-0.004372482,0.0019771927,0.91405904,0.40555263,-377.871,1451.621,8.561,0.00021,-0.00030999997,2.9718099
199.99167,2000,0,91.24,0.000002697398,0.000002697398,0.000002697398,0.99999994,0,0,0,0,0,0,0,1,0,0,0,false,false,true,-72.71,-3540.44,16.99,-0.004399456,0.0019232448,0.91901124,0.39420196,-384.351,1443.9409,8.561,0.00021,-0.00030999997,2.98221
200,2000,0,91.24,0.000002697398,0.000002697398,0.000002697398,0.99999994,0,0,0,0,0,0,0,1,0,0,0,false,false,true,-75.909996,-3528.41,16.99,-0.0044264304,0.001869297,0.9238377,0.38275415,-390.711,1436.001,8.561,0.00021,-0.00021,2.9918098
200.00833,2000,0,91.24,0.000002697398,0.000002697398,0.000002697398,0.99999994,0,0,0,0,0,0,0,1,0,0,0,false,false,true,-79.17,-3516.44,16.99,-0.0044480097,0.001815349,0.9285368,0.3712093,-396.931,1427.8109,8.561,0.00030999997,-0.00021,3.0006099
200.01666,2000,0,91.24,0.000002697398,0.000002697398,0.000002697398,0.99999994,0,0,0,0,0,0,0,1,0,0,0,false,false,true,-82.479996,-3504.54,16.99,-0.0044695884,0.0017560062,0.9331047,0.3595726,-403.001,1419.391,8.561,0.00030999997,-0.00021,3.0085099
200.025,2000,0,91.24,0.000002697398,0.000002697398,0.000002697398,0.99999994,0,0,0,0,0,0,0,1,0,0,0,false,false,true,-85.84,-3492.71,16.99,-0.0044911676,0.0016966634,0.93753797,0.3478497,-408.901,1410.741,8.561,0.00030999997,-0.00021,3.0155098
200.03334,2000,0,91.24,0.000002697398,0.000002697398,0.000002697398,0.99999994,0,0,0,0,0,0,0,1,0,0,0,false,false,true,-89.25,-3480.95,16.99,-0.004512747,0.0016373206,0.9418352,0.3360404,-414.621,1401.881,8.561,0.00030999997,-0.00021,3.02161
200.04167,2000,0,91.24,0.000002697398,0.000002697398,0.000002697398,0.99999994,0,0,0,0,0,0,0,1,0,0,0,false,false,true,-92.71,-3469.27,16.99,-0.0045343256,0.0015779778,0.9459914,0.32415566,-420.141,1392.8209,8.561,0.00030999997,-0.00021,3.02681
200.05,2000,0,91.24,0.000002697398,0.000002697398,0.000002697398,0.99999994,0,0,0,0,0,0,0,1,0,0,0,false,false,true,-96.21,-3457.66,16.99,-0.0045559057,0.0015186352,0.950004,0.31220075,-425.451,1383.5809,8.561,0.00030999997,-0.00010999999,3.03101
200.05833,2000,0,91.24,0.000002697398,0.000002697398,0.000002697398,0.99999994,0,0,0,0,0,0,0,1,0,0,0,false,false,true,-99.759995,-3446.13,16.99,-0.0045720898,0.0014592924,0.9538718,0.30017573,-430.541,1374.1809,8.561,0.00030999997,-0.00010999999,3.03421
200.06667,2000,0,91.24,0.000002697398,0.000002697398,0.000002697398,0.99999994,0,0,0,0,0,0,0,1,0,0,0,false,false,true,-103.35,-3434.68,16.99,-0.004588274,0.0013999495,0.9575909,0.2880913,-435.401,1364.621,8.561,0.00030999997,-0.00010999999,3.03631
200.075,2000,0,91.24,0.000002697398,0.000002697398,0.000002697398,0.99999994,0,0,0,0,0,0,0,1,0,0,0,false,false,true,-106.979996,-3423.3098,16.99,-0.004604459,0.001340607,0.96115917,0.27595294,-440.011,1354.9309,8.561,0.00030999997,-0.00010999999,3.03731
200.08333,2000,0,91.24,0.000002697398,0.000002697398,0.000002697398,0.99999994,0,0,0,0,0,0,0,1,0,0,0,false,false,true,-110.649994,-3412.02,16.99,-0.004620643,0.001281264,0.9645747,0.26376608,-444.371,1345.131,8.561,0.00030999997,-0.00010999999,3.03721
200.09166,2000,0,91.24,0.000002697398,0.000002697398,0.000002697398,0.99999994,0,0,0,0,0,0,0,1,0,0,0,false,false,true,-114.35,-3400.8098,16.99,-0.0046368274,0.0012219214,0.967836,0.251536,-448.471,1335.231,8.561,0.00030999997,-0.00010999999,3.03601
200.1,2000,0,91.24,0.000002697398,0.000002697398,0.000002697398,0.99999994,0,0,0,0,0,0,0,1,0,0,0,false,false,true,-118.09,-3389.68,16.99,-0.004653011,0.0011625785,0.9709402,0.2392736,-452.301,1325.251,8.561,0.00030999997,-0.00010999999,3.0336099
200.10834,2000,0,91.24,0.000002697398,0.000002697398,0.000002697398,0.99999994,0,0,0,0,0,0,0,1,0,0,0,false,false,true,-121.86,-3378.64,16.99,-0.004669196,0.0011032358,0.97388655,0.22698419,-455.861,1315.2109,8.561,0.00030999997,-0.00010999999,3.0299098
200.11667,2000,0,91.24,0.000002697398,0.000002697398,0.000002697398,0.99999994,0,0,0,0,0,0,0,1,0,0,0,false,false,true,-125.659996,-3367.68,16.99,-0.0046853805,0.001043893,0.9766741,0.21467327,-459.151,1305.131,8.561,0.00030999997,-0.00010999999,3.0250099
200.125,2000,0,91.24,0.000002697398,0.000002697398,0.000002697398,0.99999994,0,0,0,0,0,0,0,1,0,0,0,false,false,true,-129.48999,-3356.7998,16.99,-0.00469617,0.0009845502,0.9793023,0.20234607,-462.161,1295.031,8.561,0.00030999997,-0.00010999999,3.01881
200.13333,2000,0,91.24,0.000002697398,0.000002697398,0.000002697398,0.99999994,0,0,0,0,0,0,0,1,0,0,0,false,false,true,-133.34,-3346.01,16.99,-0.0047069597,0.00092520757,0.9817697,0.19001357,-464.891,1284.9309,8.561,0.00030999997,-0.00010999999,3.01121
200.14166,2000,0,91.24,0.000002697398,0.000002697398,0.000002697398,0.99999994,0,0,0,0,0,0,0,1,0,0,0,false,false,true,-137.20999,-3335.2998,16.99,-0.004717749,0.0008658648,0.9840764,0.17768098,-467.341,1274.851,8.561,0.00030999997,-0.00010999999,3.00231
200.15,2000,0,91.24,0.000002697398,0.000002697398,0.000002697398,0.99999994,0,0,0,0,0,0,0,1,0,0,0,false,false,true,-141.09999,-3324.68,16.99,-0.0047285384,0.00080652203,0.9862217,0.16535918,-469.521,1264.8109,8.561,0.00030999997,-0.00010999999,2.99191
200.15834,2000,0,91.24,0.000002697398,0.000002697398,0.000002697398,0.99999994,0,0,0,0,0,0,0,1,0,0,0,false,false,true,-145.01,-3314.14,16.99,-0.004739328,0.0007471792,0.9882061,0.15305364,-471.421,1254.8309,8.561,0.00040999998,-0.00010999999,2.98011
200.16667,2000,0,91.24,0.000002697398,0.000002697398,0.000002697398,0.99999994,0,0,0,0,0,0,0,1,0,0,0,false,false,true,-148.94,-3303.68,16.99,-0.004750118,0.00068783655,0.9900307,0.14076963,-473.051,1244.9309,8.561,0.00040999998,-0.00010999999,2.96681
200.175,2000,0,91.24,0.000002697398,0.000002697398,0.000002697398,0.99999994,0,0,0,0,0,0,0,1,0,0,0,false,false,true,-152.87999,-3293.3098,16.99,-0.004760908,0.0006284938,0.9916948,0.12852344,-474.421,1235.121,8.561,0.00040999998,-0.00010999999,2.95201
200.18333,2000,0,91.24,0.000002697398,0.000002697398,0.000002697398,0.99999994,0,0,0,0,0,0,0,1,0,0,0,false,false,true,-156.83,-3283.02,16.99,-0.004766302,0.00056915096,0.9932007,0.116314925,-475.531,1225.4309,8.561,0.00051,0,2.93561
200.19167,2000,0,91.24,0.000002697398,0.000002697398,0.000002697398,0.99999994,0,0,0,0,0,0,0,1,0,0,0,false,false,true,-160.79,-3272.8098,16.99,-0.004771697,0.0005098082,0.99454886,0.10416045,-476.391,1215.871,8.561,0.00051,0,2.91761
200.2,2000,0,91.24,0.000002697398,0.000002697398,0.000002697398,0.99999994,0,0,0,0,0,0,0,1,0,0,0,false,false,true,-164.76,-3262.68,16.99,-0.004777092,0.00045046548,0.99574137,0.09206523,-477.011,1206.4609,8.561,0.00051,0,2.8979099
200.20833,2000,0,91.24,0.000002697398,0.000002697398,0.000002697398,0.99999994,0,0,0,0,0,0,0,1,0,0,0,false,false,true,-168.73999,-3252.63,16.99,-0.0047824867,0.0003911227,0.99678046,0.08003484,-477.401,1197.221,8.561,0.00051,0,2.87651
200.21666,2000,0,91.24,0.000002697398,0.000002697398,0.000002697398,0.99999994,0,0,0,0,0,0,0,1,0,0,0,false,false,true,-172.72,-3242.65,16.99,-0.004787882,0.00033178,0.9976683,0.06807989,-477.57098,1188.161,8.561,0.00051,0,2.85341
200.225,2000,0,91.24,0.000002697398,0.000002697398,0.000002697398,0.99999994,0,0,0,0,0,0,0,1,0,0,0,false,false,true,-176.7,-3232.75,16.99,-0.0047932756,0.00027243717,0.9984072,0.056211323,-477.531,1179.3009,8.561,0.00051,0,2.82851
200.23334,2000,0,91.24,0.000002697398,0.000002697398,0.000002697398,0.99999994,0,0,0,0,0,0,0,1,0,0,0,false,false,true,-180.68,-3222.92,16.99,-0.0047986708,0.00021309442,0.9990004,0.044439796,-477.291,1170.661,8.561,0.00051,0,2.80171
200.24167,2000,0,91.24,0.000002697398,0.000002697398,0.000002697398,0.99999994,0,0,0,0,0,0,0,1,0,0,0,false,false,true,-184.65999,-3213.16,16.99,-0.0047986708,0.00015375167,0.99945104,0.032776162,-476.871,1162.241,8.561,0.00051,0,2.77311
200.25,2000,0,91.24,0.000002697398,0.000002697398,0.000002697398,0.99999994,0,0,0,0,0,0,0,1,0,0,0,false,false,true,-188.62999,-3203.47,16.99,-0.004798671,0.00009440893,0.99976313,0.021225909,-476.281,1154.0709,8.561,0.00051,0,2.7425098
200.25833,2000,0,91.24,0.000002697398,0.000002697398,0.000002697398,0.99999994,0,0,0,0,0,0,0,1,0,0,0,false,false,true,-192.59999,-3193.8499,16.99,-0.0047986717,0.000035066176,0.99994045,0.009799648,-475.541,1146.151,8.561,0.00051,0,2.70991
200.26666,2000,0,91.24,0.000002697398,0.000002697398,0.000002697398,0.99999994,0,0,0,0,0,0,0,1,0,0,0,false,false,true,-196.56,-3184.3,16.99,-0.0047986717,-0.000018881788,0.99998736,-0.0014916612,-474.671,1138.491,8.561,0.00051,0,2.67521
200.275,2000,0,91.24,0.000002697398,0.000002697398,0.000002697398,0.99999994,0,0,0,0,0,0,0,1,0,0,0,false,false,true,-200.51999,-3174.8098,16.99,-0.0047986717,-0.00007282975,0.9999086,-0.012637353,-473.681,1131.111,8.561,0.00051,0,2.6384099
200.28334,2000,0,91.24,0.000002697398,0.000002697398,0.000002697398,0.99999994,0,0,0,0,0,0,0,1,0,0,0,false,false,true,-204.47,-3165.38,16.99,-0.0047986708,-0.00012677768,0.9997092,-0.023626592,-472.591,1124.021,8.561,0.00051,0,2.59941
200.29167,2000,0,91.24,0.000002697398,0.000002697398,0.000002697398,0.99999994,0,0,0,0,0,0,0,1,0,0,0,false,false,true,-208.40999,-3156.01,16.99,-0.0047986717,-0.00018072568,0.9993947,-0.034453996,-471.38098,1117.141,8.561,0.00051,0,2.56091
200.3,2000,0,91.24,0.000002697398,0.000002697398,0.000002697398,0.99999994,0,0,0,0,0,0,0,1,0,0,0,false,false,true,-212.34,-3146.7,16.99,-0.0047986708,-0.0002346736,0.99897015,-0.04511415,-470.041,1110.4309,8.561,0.00051,0,2.52441
200.30833,2000,0,91.24,0.000002697398,0.000002697398,0.000002697398,0.99999994,0,0,0,0,0,0,0,1,0,0,0,false,false,true,-216.26,-3137.45,16.99,-0.004798671,-0.00028862158,0.9984405,-0.05561786,-468.591,1103.911,8.561,0.00040999998,0,2.48981
200.31667,2000,0,91.24,0.000002697398,0.000002697398,0.000002697398,0.99999994,0,0,0,0,0,0,0,1,0,0,0,false,false,true,-220.15999,-3128.25,16.99,-0.0047932765,-0.00034256958,0.99781,-0.065970525,-467.041,1097.591,8.561,0.00030999997,0.00010999999,2.45691
200.325,2000,0,91.24,0.000002697398,0.000002697398,0.000002697398,0.99999994,0,0,0,0,0,0,0,1,0,0,0,false,false,true,-224.04999,-3119.0999,16.99,-0.0047878814,-0.0003911227,0.99708223,-0.07618291,-465.391,1091.4609,8.561,0.00021,0.00010999999,2.42601
200.33333,2000,0,91.24,0.000002697398,0.000002697398,0.000002697398,0.99999994,0,0,0,0,0,0,0,1,0,0,0,false,false,true,-227.93,-3110,16.99,-0.0047824867,-0.00043967587,0.9962615,-0.08625504,-463.561,1085.381,8.561,0.00010999999,0.00010999999,2.40081
200.34166,2000,0,91.24,0.000002697398,0.000002697398,0.000002697398,0.99999994,0,0,0,0,0,0,0,1,0,0,0,false,false,true,-231.79,-3100.95,16.99,-0.004777092,-0.00048822907,0.99534905,-0.09621387,-461.57098,1079.361,8.561,0,0.00010999999,2.38101
200.35,2000,0,91.24,0.000002697398,0.000002697398,0.000002697398,0.99999994,0,0,0,0,0,0,0,1,0,0,0,false,false,true,-235.64,-3091.95,16.99,-0.004771697,-0.0005367822,0.99434584,-0.106080994,-459.421,1073.4209,8.561,0,0,2.36641
200.35834,2000,0,91.24,0.000002697398,0.000002697398,0.000002697398,0.99999994,0,0,0,0,0,0,0,1,0,0,0,false,false,true,-239.47,-3083,16.99,-0.004766302,-0.00058533537,0.9932518,-0.11587795,-457.121,1067.5809,8.561,-0.00010999999,0,2.3568099
200.36667,2000,0,91.24,0.000002697398,0.000002697398,0.000002697398,0.99999994,0,0,0,0,0,0,0,1,0,0,0,false,false,true,-243.28,-3074.0999,16.99,-0.004760908,-0.0006338886,0.99206597,-0.1256264,-454.681,1061.851,8.561,-0.00021,0,2.35211
200.375,2000,0,91.24,0.000002697398,0.000002697398,0.000002697398,0.99999994,0,0,0,0,0,0,0,1,0,0,0,false,false,true,-247.06999,-3065.25,16.99,-0.0047555123,-0.00067704683,0.9907871,-0.13534243,-452.111,1056.241,8.561,-0.00030999997,0,2.35221
200.38333,2000,0,91.24,0.000002697398,0.000002697398,0.000002697398,0.99999994,0,0,0,0,0,0,0,1,0,0,0,false,false,true,-250.84,-3056.45,16.99,-0.004750118,-0.0007202053,0.98941296,-0.14504774,-449.421,1050.771,8.561,-0.00040999998,0,2.35701
200.39166,2000,0,91.24,0.000002697398,0.000002697398,0.000002697398,0.99999994,0,0,0,0,0,0,0,1,0,0,0,false,false,true,-254.59,-3047.69,16.99,-0.004744723,-0.00076336367,0.9879406,-0.15475841,-446.621,1045.4509,8.561,-0.00051,0,2.36641
200.4,2000,0,91.24,0.000002697398,0.000002697398,0.000002697398,0.99999994,0,0,0,0,0,0,0,1,0,0,0,false,false,true,-258.31,-3038.98,16.99,-0.004733934,-0.0008065221,0.9863669,-0.16449067,-443.721,1040.2909,8.561,-0.00061,0,2.38031
200.40834,2000,0,91.24,0.000002697398,0.000002697398,0.000002697398,0.99999994,0,0,0,0,0,0,0,1,0,0,0,false,false,true,-262.00998,-3030.3098,16.99,-0.0047231438,-0.0008496804,0.98468685,-0.17426607,-440.731,1035.3109,8.561,-0.00061,0,2.39871
200.41667,2000,0,91.24,0.000002697398,0.000002697398,0.000002697398,0.99999994,0,0,0,0,0,0,0,1,0,0,0,false,false,true,-265.68,-3021.68,16.99,-0.0047123544,-0.00089283875,0.9828956,-0.18410084,-437.631,1030.4409,8.561,-0.00061,-0.00010999999,2.4200099
200.425,2000,0,91.24,0.000002697398,0.000002697398,0.000002697398,0.99999994,0,0,0,0,0,0,0,1,0,0,0,false,false,true,-269.33,-3013.0898,16.99,-0.004701565,-0.0009359972,0.9809897,-0.19400033,-434.391,1025.601,8.561,-0.00061,-0.00021,2.44221
200.43333,2000,0,91.24,0.000002697398,0.000002697398,0.000002697398,0.99999994,0,0,0,0,0,0,0,1,0,0,0,false,false,true,-272.94998,-3004.54,16.99,-0.0046907756,-0.0009791555,0.9789654,-0.20396993,-431.021,1020.80096,8.561,-0.00061,-0.00021,2.4653099
200.44167,2000,0,91.24,0.000002697398,0.000002697398,0.000002697398,0.99999994,0,0,0,0,0,0,0,1,0,0,0,false,false,true,-276.54,-2996.03,16.99,-0.0046799853,-0.0010223138,0.97681856,-0.21401507,-427.541,1016.05096,8.561,-0.00051,-0.00021,2.48931
200.45,2000,0,91.24,0.000002697398,0.000002697398,0.000002697398,0.99999994,0,0,0,0,0,0,0,1,0,0,0,false,false,true,-280.1,-2987.5598,16.99,-0.0046691955,-0.0010708668,0.974546,-0.22413571,-423.961,1011.371,8.561,-0.00040999998,-0.00021,2.51401
200.45833,2000,0,91.24,0.000002697398,0.000002697398,0.000002697398,0.99999994,0,0,0,0,0,0,0,1,0,0,0,false,false,true,-283.63,-2979.13,16.99,-0.004658406,-0.0011194202,0.9721448,-0.23433195,-420.291,1006.77094,8.561,-0.00040999998,-0.00021,2.53951
200.46666,2000,0,91.24,0.000002697398,0.000002697398,0.000002697398,0.99999994,0,0,0,0,0,0,0,1,0,0,0,false,false,true,-287.13,-2970.74,16.99,-0.004647617,-0.0011679735,0.9696113,-0.2446037,-416.511,1002.21094,8.561,-0.00040999998,-0.00021,2.56461
200.475,2000,0,91.24,0.000002697398,0.000002697398,0.000002697398,0.99999994,0,0,0,0,0,0,0,1,0,0,0,false,false,true,-290.6,-2962.39,16.99,-0.004636827,-0.0012165265,0.966942,-0.25495094,-412.561,997.59094,8.561,-0.00030999997,-0.00021,2.58711
200.48334,2000,0,91.24,0.000002697398,0.000002697398,0.000002697398,0.99999994,0,0,0,0,0,0,0,1,0,0,0,false,false,true,-294.04,-2954.0798,16.99,-0.0046260376,-0.0012650797,0.9641381,-0.26535752,-408.451,992.93097,8.561,-0.00021,-0.00021,2.60711
200.49167,2000,0,91.24,0.000002697398,0.000002697398,0.000002697398,0.99999994,0,0,0,0,0,0,0,1,0,0,0,false,false,true,-297.44,-2945.8098,16.99,-0.0046152477,-0.0013136327,0.9611993,-0.27581266,-404.181,988.251,8.561,-0.00021,-0.00010999999,2.62461
200.5,2000,0,91.24,0.000002697398,0.000002697398,0.000002697398,0.99999994,0,0,0,0,0,0,0,1,0,0,0,false,false,true,-300.81,-2937.5698,16.99,-0.004599064,-0.0013621862,0.9581263,-0.28630564,-399.751,983.561,8.561,-0.00010999999,0,2.63961
200.50833,2000,0,91.24,0.000002697398,0.000002697398,0.000002697398,0.99999994,0,0,0,0,0,0,0,1,0,0,0,false,false,true,-304.13998,-2929.3699,16.99,-0.004582879,-0.0014107391,0.95491964,-0.2968255,-395.171,978.871,8.561,0,0,2.65221
200.51666,2000,0,91.24,0.000002697398,0.000002697398,0.000002697398,0.99999994,0,0,0,0,0,0,0,1,0,0,0,false,false,true,-307.43,-2921.21,16.99,-0.0045666946,-0.0014592924,0.95158064,-0.3073616,-390.441,974.2009,8.561,0,0,2.66241
200.525,2000,0,91.24,0.000002697398,0.000002697398,0.000002697398,0.99999994,0,0,0,0,0,0,0,1,0,0,0,false,false,true,-310.68,-2913.0898,16.99,-0.0045505106,-0.0015078455,0.94811285,-0.31789768,-385.57098,969.561,8.561,0,0,2.67031
200.53334,2000,0,91.24,0.000002697398,0.000002697398,0.000002697398,0.99999994,0,0,0,0,0,0,0,1,0,0,0,false,false,true,-313.88998,-2905.01,16.99,-0.004534326,-0.0015563987,0.94451666,-0.32842836,-380.57098,964.96094,8.561,0,0,2.67591
200.54167,2000,0,91.24,0.000002697398,0.000002697398,0.000002697398,0.99999994,0,0,0,0,0,0,0,1,0,0,0,false,false,true,-317.06,-2896.97,16.99,-0.004518141,-0.0016049517,0.94079655,-0.33893743,-375.441,960.42096,8.561,0.00010999999,0,2.6793098
200.55,2000,0,91.24,0.000002697398,0.000002697398,0.000002697398,0.99999994,0,0,0,0,0,0,0,1,0,0,0,false,false,true,-320.19,-2888.97,16.99,-0.0045019574,-0.001653505,0.936954,-0.3494196,-370.201,955.941,8.561,0.00021,0,2.68051
200.55833,2000,0,91.24,0.000002697398,0.000002697398,0.000002697398,0.99999994,0,0,0,0,0,0,0,1,0,0,0,false,false,true,-323.28,-2881,16.99,-0.004485773,-0.0017020581,0.9329924,-0.3598639,-364.851,951.54095,8.561,0.00021,0.00010999999,2.6795099
200.56667,2000,0,91.24,0.000002697398,0.000002697398,0.000002697398,0.99999994,0,0,0,0,0,0,0,1,0,0,0,false,false,true,-326.32,-2873.0698,16.99,-0.0044641932,-0.0017506111,0.92891574,-0.37025973,-359.401,947.23096,8.561,0.00030999997,0.00021,2.67641
200.575,2000,0,91.24,0.000002697398,0.000002697398,0.000002697398,0.99999994,0,0,0,0,0,0,0,1,0,0,0,false,false,true,-329.32,-2865.18,16.99,-0.0044426145,-0.0017991646,0.9247289,-0.3805962,-353.861,943.02094,8.561,0.00030999997,0.00030999997,2.67121
200.58333,2000,0,91.24,0.000002697398,0.000002697398,0.000002697398,0.99999994,0,0,0,0,0,0,0,1,0,0,0,false,false,true,-332.27,-2857.3198,16.99,-0.0044210353,-0.0018477177,0.9204365,-0.39086258,-348.251,938.92096,8.561,0.00040999998,0.00030999997,2.66391
200.59166,2000,0,91.24,0.000002697398,0.000002697398,0.000002697398,0.99999994,0,0,0,0,0,0,0,1,0,0,0,false,false,true,-335.16998,-2849.5,16.99,-0.004399456,-0.0018962709,0.9160421,-0.40105337,-342.571,934.941,8.561,0.00051,0.00030999997,2.65461
200.6,2000,0,91.24,0.000002697398,0.000002697398,0.000002697398,0.99999994,0,0,0,0,0,0,0,1,0,0,0,false,false,true,-338.02,-2841.71,16.99,-0.004377877,-0.001944824,0.9115491,-0.41116324,-336.841,931.08093,8.561,0.00051,0.00040999998,2.6433098
200.60834,2000,0,91.24,0.000002697398,0.000002697398,0.000002697398,0.99999994,0,0,0,0,0,0,0,1,0,0,0,false,false,true,-340.83,-2833.95,16.99,-0.0043562977,-0.001993377,0.90696615,-0.42117605,-331.071,927.35095,8.561,0.00051,0.00040999998,2.63011
200.61667,2000,0,91.24,0.000002697398,0.000002697398,0.000002697398,0.99999994,0,0,0,0,0,0,0,1,0,0,0,false,false,true,-343.59,-2826.22,16.99,-0.0043347185,-0.0020419303,0.90229535,-0.43109173,-325.271,923.751,8.561,0.00051,0.00051,2.61501
200.625,2000,0,91.24,0.000002697398,0.000002697398,0.000002697398,0.99999994,0,0,0,0,0,0,0,1,0,0,0,false,false,true,-346.3,-2818.52,16.99,-0.0043131397,-0.0020904837,0.89754367,-0.44089952,-319.451,920.29095,8.561,0.00051,0.00051,2.59801
200.63333,2000,0,91.24,0.000002697398,0.000002697398,0.000002697398,0.99999994,0,0,0,0,0,0,0,1,0,0,0,false,false,true,-348.96,-2810.8499,16.99,-0.0042915605,-0.0021390368,0.8927188,-0.4505886,-313.631,916.97095,8.561,0.00051,0.00061,2.57921
200.64166,2000,0,91.24,0.000002697398,0.000002697398,0.000002697398,0.99999994,0,0,0,0,0,0,0,1,0,0,0,false,false,true,-351.57,-2803.21,16.99,-0.004264586,-0.0021875896,0.8878263,-0.4601536,-307.821,913.80096,8.561,0.00051,0.00061,2.55861
200.65,2000,0,91.24,0.000002697398,0.000002697398,0.000002697398,0.99999994,0,0,0,0,0,0,0,1,0,0,0,false,false,true,-354.13998,-2795.5898,16.99,-0.0042376122,-0.002236143,0.8828691,-0.4695945,-302.031,910.77094,8.561,0.00051,0.00061,2.53621
200.65834,2000,0,91.24,0.000002697398,0.000002697398,0.000002697398,0.99999994,0,0,0,0,0,0,0,1,0,0,0,false,false,true,-356.66,-2788,16.99,-0.0042106383,-0.002284696,0.87785894,-0.47889522,-296.271,907.8909,8.561,0.00051,0.00061,2.51211
200.66667,2000,0,91.24,0.000002697398,0.000002697398,0.000002697398,0.99999994,0,0,0,0,0,0,0,1,0,0,0,false,false,true,-359.13,-2780.43,16.99,-0.0041836645,-0.0023332492,0.87279934,-0.4880556,-290.551,905.16095,8.561,0.00051,0.00061,2.48631
200.675,2000,0,91.24,0.000002697398,0.000002697398,0.000002697398,0.99999994,0,0,0,0,0,0,0,1,0,0,0,false,false,true,-361.55,-2772.89,16.99,-0.00415669,-0.0023818025,0.86769694,-0.4970703,-284.881,902.58093,8.561,0.00051,0.00061,2.4588099
200.68333,2000,0,91.24,0.000002697398,0.000002697398,0.000002697398,0.99999994,0,0,0,0,0,0,0,1,0,0,0,false,false,true,-363.91998,-2765.3699,16.99,-0.004129716,-0.0024249607,0.8625588,-0.505934,-279.281,900.1409,8.561,0.00040999998,0.00051,2.42971
200.69167,2000,0,91.24,0.000002697398,0.000002697398,0.000002697398,0.99999994,0,0,0,0,0,0,0,1,0,0,0,false,false,true,-366.25,-2757.8699,16.99,-0.0041027423,-0.0024681191,0.8573922,-0.51464117,-273.751,897.85095,8.561,0.00040999998,0.00051,2.39901
200.7,2000,0,91.24,0.000002697398,0.000002697398,0.000002697398,0.99999994,0,0,0,0,0,0,0,1,0,0,0,false,false,true,-368.53,-2750.39,16.99,-0.0040757684,-0.0025112776,0.85220456,-0.5231866,-268.311,895.7009,8.561,0.00040999998,0.00051,2.36671
200.70833,2000,0,91.24,0.000002697398,0.000002697398,0.000002697398,0.99999994,0,0,0,0,0,0,0,1,0,0,0,false,false,true,-370.77,-2742.93,16.99,-0.0040487945,-0.002554436,0.84700406,-0.5315648,-262.971,893.691,8.561,0.00040999998,0.00051,2.33291
200.71666,2000,0,91.24,0.000002697398,0.000002697398,0.000002697398,0.99999994,0,0,0,0,0,0,0,1,0,0,0,false,false,true,-372.96,-2735.48,16.99,-0.00402182,-0.0025975944,0.84179866,-0.5397703,-257.731,891.811,8.561,0.00040999998,0.00040999998,2.29761
200.725,2000,0,91.24,0.000002697398,0.000002697398,0.000002697398,0.99999994,0,0,0,0,0,0,0,1,0,0,0,false,false,true,-375.11,-2728.05,16.99,-0.0039948463,-0.0026407526,0.83659345,-0.54780316,-252.61101,890.061,8.551001,0.00040999998,0.00040999998,2.26091
200.73334,2000,0,91.24,0.000002697398,0.000002697398,0.000002697398,0.99999994,0,0,0,0,0,0,0,1,0,0,0,false,false,true,-377.22,-2720.63,16.99,-0.0039678724,-0.0026785163,0.8313971,-0.555658,-247.61101,888.441,8.551001,0.00030999997,0.00030999997,2.22281
200.74167,2000,0,91.24,0.000002697398,0.000002697398,0.000002697398,0.99999994,0,0,0,0,0,0,0,1,0,0,0,false,false,true,-379.28,-2713.23,16.99,-0.0039408985,-0.0027162798,0.82621473,-0.5633348,-242.741,886.941,8.551001,0.00030999997,0.00030999997,2.18331
200.75,2000,0,91.24,0.000002697398,0.000002697398,0.000002697398,0.99999994,0,0,0,0,0,0,0,1,0,0,0,false,false,true,-381.3,-2705.8398,16.99,-0.0039139246,-0.0027540433,0.8210554,-0.57082826,-238.001,885.561,8.551001,0.00030999997,0.00030999997,2.14241
200.75833,2000,0,91.24,0.000002697398,0.000002697398,0.000002697398,0.99999994,0,0,0,0,0,0,0,1,0,0,0,false,false,true,-383.28,-2698.46,16.99,-0.0038869507,-0.002791807,0.8159286,-0.5781328,-233.401,884.28094,8.551001,0.00030999997,0.00030999997,2.10021
200.76666,2000,0,91.24,0.000002697398,0.000002697398,0.000002697398,0.99999994,0,0,0,0,0,0,0,1,0,0,0,false,false,true,-385.22,-2691.0898,16.99,-0.0038599768,-0.0028295706,0.8108397,-0.5852486,-228.951,883.11096,8.551001,0.00030999997,0.00030999997,2.05671
200.775,2000,0,91.24,0.000002697398,0.000002697398,0.000002697398,0.99999994,0,0,0,0,0,0,0,1,0,0,0,false,false,true,-387.13,-2683.73,16.99,-0.0038330026,-0.0028619394,0.8057947,-0.59217554,-224.661,882.03094,8.551001,0.00030999997,0.00021,2.0120099
200.78334,2000,0,91.24,0.000002697398,0.000002697398,0.000002697398,0.99999994,0,0,0,0,0,0,0,1,0,0,0,false,false,true,-389,-2676.38,16.99,-0.0038114234,-0.0028943082,0.80080324,-0.59890825,-220.521,881.05096,8.551001,0.00030999997,0.00021,1.96611
200.79167,2000,0,91.24,0.000002697398,0.000002697398,0.000002697398,0.99999994,0,0,0,0,0,0,0,1,0,0,0,false,false,true,-390.84,-2669.04,16.99,-0.0037898442,-0.0029266768,0.79587126,-0.60544676,-216.541,880.15094,8.551001,0.00030999997,0.00021,1.91911
200.8,2000,0,91.24,0.000002697398,0.000002697398,0.000002697398,0.99999994,0,0,0,0,0,0,0,1,0,0,0,false,false,true,-392.63998,-2661.71,16.99,-0.0037682652,-0.0029590456,0.7910048,-0.6117911,-212.731,879.33093,8.551001,0.00030999997,0.00021,1.87101
200.80833,2000,0,91.24,0.000002697398,0.000002697398,0.000002697398,0.99999994,0,0,0,0,0,0,0,1,0,0,0,false,false,true,-394.41,-2654.38,16.99,-0.003746686,-0.0029914144,0.7862096,-0.6179412,-209.08101,878.58093,8.551001,0.00021,0.00021,1.82181
200.81667,2000,0,91.24,0.000002697398,0.000002697398,0.000002697398,0.99999994,0,0,0,0,0,0,0,1,0,0,0,false,false,true,-396.15,-2647.06,16.99,-0.0037251068,-0.0030183885,0.78149605,-0.62389165,-205.601,877.90094,8.551001,0.00010999999,0.00021,1.77161
200.825,2000,0,91.24,0.000002697398,0.000002697398,0.000002697398,0.99999994,0,0,0,0,0,0,0,1,0,0,0,false,false,true,-397.86,-2639.74,16.99,-0.0037035276,-0.0030453624,0.7768701,-0.62964255,-202.281,877.27094,8.541,0.00010999999,0.00030999997,1.72051
200.83333,2000,0,91.24,0.000002697398,0.000002697398,0.000002697398,0.99999994,0,0,0,0,0,0,0,1,0,0,0,false,false,true,-399.55,-2632.43,16.99,-0.0036819484,-0.0030723363,0.7723378,-0.6351938,-199.131,876.7009,8.541,0.00010999999,0.00030999997,1.66851
200.84166,2000,0,91.24,0.000002697398,0.000002697398,0.000002697398,0.99999994,0,0,0,0,0,0,0,1,0,0,0,false,false,true,-401.21,-2625.1199,16.99,-0.0036603692,-0.0030993104,0.7679052,-0.6405454,-196.151,876.17096,8.541,0.00010999999,0.00040999998,1.61561
200.85,2000,0,91.24,0.000002697398,0.000002697398,0.000002697398,0.99999994,0,0,0,0,0,0,0,1,0,0,0,false,false,true,-402.84,-2617.8198,16.99,-0.00363879,-0.0031262843,0.7635782,-0.6456975,-193.33101,875.691,8.541,0.00010999999,0.00040999998,1.5620099
200.85834,2000,0,91.24,0.000002697398,0.000002697398,0.000002697398,0.99999994,0,0,0,0,0,0,0,1,0,0,0,false,false,true,-404.44998,-2610.52,16.99,-0.0036172108,-0.0031532582,0.7593579,-0.6506553,-190.671,875.24097,8.541,0,0.00040999998,1.50771
200.86667,2000,0,91.24,0.000002697398,0.000002697398,0.000002697398,0.99999994,0,0,0,0,0,0,0,1,0,0,0,false,false,true,-406.03998,-2603.23,16.99,-0.0035956316,-0.0031748374,0.75525486,-0.65541357,-188.171,874.83093,8.541,0,0.00040999998,1.4528099
200.875,2000,0,91.24,0.000002697398,0.000002697398,0.000002697398,0.99999994,0,0,0,0,0,0,0,1,0,0,0,false,false,true,-407.61,-2595.94,16.99,-0.0035740524,-0.0031964167,0.75127465,-0.6599722,-185.821,874.441,8.541,0,0.00040999998,1.3975099
200.88333,2000,0,91.24,0.000002697398,0.000002697398,0.000002697398,0.99999994,0,0,0,0,0,0,0,1,0,0,0,false,false,true,-409.16,-2588.65,16.99,-0.0035524734,-0.0032179959,0.74741805,-0.6643366,-183.61101,874.08093,8.541,0,0.00040999998,1.34191
200.89166,2000,0,91.24,0.000002697398,0.000002697398,0.000002697398,0.99999994,0,0,0,0,0,0,0,1,0,0,0,false,false,true,-410.69,-2581.3699,16.99,-0.0035308942,-0.003239575,0.7436905,-0.6685068,-181.541,873.74097,8.541,0,0.00040999998,1.2861099
200.9,2000,0,91.24,0.000002697398,0.000002697398,0.000002697398,0.99999994,0,0,0,0,0,0,0,1,0,0,0,false,false,true,-412.19998,-2574.0898,16.99,-0.0035147096,-0.0032611543,0.7400971,-0.6724828,-179.601,873.42096,8.541,0,0.00030999997,1.23021
200.90834,2000,0,91.24,0.000002697398,0.000002697398,0.000002697398,0.99999994,0,0,0,0,0,0,0,1,0,0,0,false,false,true,-413.69998,-2566.81,16.99,-0.0034985254,-0.0032773386,0.7366382,-0.67626995,-177.791,873.11096,8.541,0,0.00030999997,1.17431
200.91667,2000,0,91.24,0.000002697398,0.000002697398,0.000002697398,0.99999994,0,0,0,0,0,0,0,1,0,0,0,false,false,true,-415.18,-2559.53,16.99,-0.0034823408,-0.003293523,0.7333185,-0.6798683,-176.101,872.811,8.541,0,0.00030999997,1.11851
200.925,2000,0,91.24,0.000002697398,0.000002697398,0.000002697398,0.99999994,0,0,0,0,0,0,0,1,0,0,0,false,false,true,-416.65,-2552.26,16.99,-0.0034661568,-0.0033097076,0.7301427,-0.68327785,-174.531,872.52094,8.541,0,0.00030999997,1.06281
200.93333,2000,0,91.24,0.000002697398,0.000002697398,0.000002697398,0.99999994,0,0,0,0,0,0,0,1,0,0,0,false,false,true,-418.09998,-2544.99,16.99,-0.0034499725,-0.0033258921,0.72711027,-0.68650395,-173.071,872.24097,8.541,0,0.00030999997,1.00731
200.94167,2000,0,91.24,0.000002697398,0.000002697398,0.000002697398,0.99999994,0,0,0,0,0,0,0,1,0,0,0,false,false,true,-419.53998,-2537.72,16.99,-0.0034337877,-0.0033420762,0.7242203,-0.68955195,-171.711,871.97095,8.541,0,0.00021,0.95211
200.95,2000,0,91.24,0.000002697398,0.000002697398,0.000002697398,0.99999994,0,0,0,0,0,0,0,1,0,0,0,false,false,true,-420.97,-2530.45,16.99,-0.0034176034,-0.0033582605,0.7214767,-0.69242203,-170.451,871.7009,8.541,0,0.00021,0.89721
200.95833,2000,0,91.24,0.000002697398,0.000002697398,0.000002697398,0.99999994,0,0,0,0,0,0,0,1,0,0,0,false,false,true,-422.38998,-2523.19,16.99,-0.0034068138,-0.00336905,0.71888345,-0.695114,-169.291,871.43097,8.541,0,0.00010999999,0.84271
200.96666,2000,0,91.24,0.000002697398,0.000002697398,0.000002697398,0.99999994,0,0,0,0,0,0,0,1,0,0,0,false,false,true,-423.8,-2515.93,16.99,-0.0033960242,-0.0033798397,0.7164388,-0.6976334,-168.22101,871.17096,8.541,0,0.00010999999,0.78861
200.975,2000,0,91.24,0.000002697398,0.000002697398,0.000002697398,0.99999994,0,0,0,0,0,0,0,1,0,0,0,false,false,true,-425.19998,-2508.67,16.99,-0.0033852346,-0.0033906293,0.71414083,-0.69998556,-167.231,870.91095,8.541,0,0.00010999999,0.73491
200.98334,2000,0,91.24,0.000002697398,0.000002697398,0.000002697398,0.99999994,0,0,0,0,0,0,0,1,0,0,0,false,false,true,-426.59,-2501.41,16.99,-0.003374445,-0.003401419,0.7119926,-0.7021705,-166.321,870.65094,8.541,0,0.00010999999,0.68171
200.99167,2000,0,91.24,0.000002697398,0.000002697398,0.000002697398,0.99999994,0,0,0,0,0,0,0,1,0,0,0,false,false,true,-427.97998,-2494.15,16.99,-0.0033636554,-0.0034122085,0.7099972,-0.7041881,-165.481,870.3909,8.541,0,0.00010999999,0.62901
201,2000,0,91.24,0.000002697398,0.000002697398,0.000002697398,0.99999994,0,0,0,0,0,0,0,1,0,0,0,false,false,true,-429.36,-2486.9,16.99,-0.003352866,-0.0034229984,0.7081517,-0.706044,-164.701,870.131,8.541,0,0.00010999999,0.57681
201.00833,2000,0,91.24,0.000002697398,0.000002697398,0.000002697398,0.99999994,0,0,0,0,0,0,0,1,0,0,0,false,false,true,-430.72998,-2479.65,16.99,0.0033420762,0.0034337877,-0.7064539,0.7077427,-163.981,869.871,8.541,0,0,0.52521
201.01666,2000,0,91.24,0.000002697398,0.000002697398,0.000002697398,0.99999994,0,0,0,0,0,0,0,1,0,0,0,false,false,true,-432.09998,-2472.4,16.99,0.0033366818,0.0034391829,-0.7049057,0.70928484,-163.321,869.61096,8.541,0,0,0.47411
201.025,2000,0,91.24,0.000002697398,0.000002697398,0.000002697398,0.99999994,0,0,0,0,0,0,0,1,0,0,0,false,false,true,-433.46,-2465.15,16.99,0.0033312866,0.0034445773,-0.703503,0.710676,-162.711,869.35095,8.541,0,0,0.42361
201.03334,2000,0,91.24,0.000002697398,0.000002697398,0.000002697398,0.99999994,0,0,0,0,0,0,0,1,0,0,0,false,false,true,-434.81998,-2457.91,16.99,0.003325892,0.0034499723,-0.702246,0.7119181,-162.151,869.09094,8.541,0,0,0.37361
201.04167,2000,0,91.24,0.000002697398,0.000002697398,0.000002697398,0.99999994,0,0,0,0,0,0,0,1,0,0,0,false,false,true,-436.16998,-2450.67,16.99,0.003320497,0.003455367,-0.7011346,0.7130127,-161.631,868.821,8.541,0,0,0.32421002
201.05,2000,0,91.24,0.000002697398,0.000002697398,0.000002697398,0.99999994,0,0,0,0,0,0,0,1,0,0,0,false,false,true,-437.52,-2443.43,16.99,0.0033151025,0.0034607619,-0.700169,0.713961,-161.141,868.55096,8.541,0,0,0.27541
201.05833,2000,0,91.24,0.000002697398,0.000002697398,0.000002697398,0.99999994,0,0,0,0,0,0,0,1,0,0,0,false,false,true,-438.86,-2436.19,16.99,0.0033097074,0.0034661565,-0.6993489,0.71476424,-160.69101,868.29095,8.541,0,0,0.22721
201.06667,2000,0,91.24,0.000002697398,0.000002697398,0.000002697398,0.99999994,0,0,0,0,0,0,0,1,0,0,0,false,false,true,-440.19998,-2428.95,16.99,0.0033043127,0.0034715512,-0.6986692,0.7154287,-160.261,868.03094,8.541,0,0,0.17961
201.075,2000,0,91.24,0.000002697398,0.000002697398,0.000002697398,0.99999994,0,0,0,0,0,0,0,1,0,0,0,false,false,true,-441.53998,-2421.72,16.99,0.0033043127,0.0034715512,-0.69813514,0.7159499,-159.851,867.77094,8.541,0,0,0.13250999
201.08333,2000,0,91.24,0.000002697398,0.000002697398,0.000002697398,0.99999994,0,0,0,0,0,0,0,1,0,0,0,false,false,true,-442.87,-2414.49,16.99,0.0033043122,0.0034715508,-0.69774127,0.7163336,-159.461,867.511,8.541,0,0,0.086009994
201.09166,2000,0,91.24,0.000002697398,0.000002697398,0.000002697398,0.99999994,0,0,0,0,0,0,0,1,0,0,0,false,false,true,-444.19998,-2407.26,16.99,0.0033043127,0.0034715512,-0.69748235,0.7165858,-159.08101,867.251,8.541,0,0,0.04011
201.1,2000,0,91.24,0.000002697398,0.000002697398,0.000002697398,0.99999994,0,0,0,0,0,0,0,1,0,0,0,false,false,true,-445.53,-2400.03,16.99,0.0033043127,0.0034715512,-0.6973637,0.7167013,-158.711,866.99097,8.541,0,0,-0.00511
201.10834,2000,0,91.24,0.000002697398,0.000002697398,0.000002697398,0.99999994,0,0,0,0,0,0,0,1,0,0,0,false,false,true,-446.84998,-2392.81,16.99,0.0033043122,0.0034715508,-0.69737977,0.7166856,-158.341,866.74097,8.541,0,0,-0.049709998
201.11667,2000,0,91.24,0.000002697398,0.000002697398,0.000002697398,0.99999994,0,0,0,0,0,0,0,1,0,0,0,false,false,true,-448.16998,-2385.5898,16.99,0.003304313,0.0034715515,-0.69752556,0.71654385,-157.97101,866.49097,8.541,0,0,-0.09371
201.125,2000,0,91.24,0.000002697398,0.000002697398,0.000002697398,0.99999994,0,0,0,0,0,0,0,1,0,0,0,false,false,true,-449.49,-2378.3699,16.99,0.003304313,0.0034715515,-0.6978061,0.7162706,-157.601,866.251,8.541,0,0,-0.13721
201.13333,2000,0,91.24,0.000002697398,0.000002697398,0.000002697398,0.99999994,0,0,0,0,0,0,0,1,0,0,0,false,false,true,-450.8,-2371.15,16.99,0.0033043127,0.0034715512,-0.698216,0.715871,-157.22101,866.011,8.541,0,0,-0.18011
201.14166,2000,0,91.24,0.000002697398,0.000002697398,0.000002697398,0.99999994,0,0,0,0,0,0,0,1,0,0,0,false,false,true,-452.11,-2363.93,16.99,0.0033043127,0.0034715512,-0.6987555,0.71534437,-156.821,865.78094,8.541,0,0,-0.22241
201.15,2000,0,91.24,0.000002697398,0.000002697398,0.000002697398,0.99999994,0,0,0,0,0,0,0,1,0,0,0,false,false,true,-453.41998,-2356.72,16.99,0.0033097074,0.0034661565,-0.6994191,0.7146956,-156.41101,865.55096,8.541,0,-0.00010999999,-0.26411
201.15834,2000,0,91.24,0.000002697398,0.000002697398,0.000002697398,0.99999994,0,0,0,0,0,0,0,1,0,0,0,false,false,true,-454.72,-2349.51,16.99,0.0033151023,0.0034607616,-0.7002067,0.713924,-155.97101,865.33093,8.541,0,-0.00010999999,-0.30531
201.16667,2000,0,91.24,0.000002697398,0.000002697398,0.000002697398,0.99999994,0,0,0,0,0,0,0,1,0,0,0,false,false,true,-456.02,-2342.3,16.99,0.003320497,0.003455367,-0.70111305,0.7130339,-155.511,865.11096,8.541,0,-0.00010999999,-0.34591
201.175,2000,0,91.24,0.000002697398,0.000002697398,0.000002697398,0.99999994,0,0,0,0,0,0,0,1,0,0,0,false,false,true,-457.31998,-2335.0898,16.99,0.003325892,0.0034499723,-0.7021381,0.7120245,-155.021,864.90094,8.541,0,-0.00010999999,-0.38591
201.18333,2000,0,91.24,0.000002697398,0.000002697398,0.000002697398,0.99999994,0,0,0,0,0,0,0,1,0,0,0,false,false,true,-458.61,-2327.88,16.99,0.0033312866,0.0034445773,-0.7032818,0.71089494,-154.501,864.7009,8.541,0,-0.00010999999,-0.42531002
201.19167,2000,0,91.24,0.000002697398,0.000002697398,0.000002697398,0.99999994,0,0,0,0,0,0,0,1,0,0,0,false,false,true,-459.9,-2320.67,16.99,0.0033366815,0.0034391826,-0.70453876,0.7096492,-153.94101,864.501,8.541,0,-0.00010999999,-0.46411
201.2,2000,0,91.24,0.000002697398,0.000002697398,0.000002697398,0.99999994,0,0,0,0,0,0,0,1,0,0,0,false,false,true,-461.18,-2313.47,16.99,0.0033420762,0.0034337877,-0.7059091,0.70828617,-153.341,864.311,8.541,0,-0.00010999999,-0.50241
201.20833,2000,0,91.24,0.000002697398,0.000002697398,0.000002697398,0.99999994,0,0,0,0,0,0,0,1,0,0,0,false,false,true,-462.46,-2306.27,16.99,-0.003347471,-0.003428393,0.7073925,-0.7068046,-152.701,864.131,8.541,0,-0.00010999999,-0.54011
201.21666,2000,0,91.24,0.000002697398,0.000002697398,0.000002697398,0.99999994,0,0,0,0,0,0,0,1,0,0,0,false,false,true,-463.72998,-2299.07,16.99,-0.003352866,-0.0034229984,0.70897907,-0.7052132,-152.011,863.96094,8.541,0,-0.00021,-0.57721
201.225,2000,0,91.24,0.000002697398,0.000002697398,0.000002697398,0.99999994,0,0,0,0,0,0,0,1,0,0,0,false,false,true,-465,-2291.8699,16.99,-0.0033636554,-0.0034122085,0.7106707,-0.7035084,-151.271,863.79095,8.541,0,-0.00030999997,-0.61371
201.23334,2000,0,91.24,0.000002697398,0.000002697398,0.000002697398,0.99999994,0,0,0,0,0,0,0,1,0,0,0,false,false,true,-466.25998,-2284.67,16.99,-0.003374445,-0.003401419,0.7124659,-0.7016903,-150.481,863.631,8.541,0,-0.00030999997,-0.64961
201.24167,2000,0,91.24,0.000002697398,0.000002697398,0.000002697398,0.99999994,0,0,0,0,0,0,0,1,0,0,0,false,false,true,-467.50998,-2277.47,16.99,-0.0033852346,-0.0033906293,0.71436286,-0.69975895,-149.631,863.47095,8.541,0,-0.00030999997,-0.68481
201.25,2000,0,91.24,0.000002697398,0.000002697398,0.000002697398,0.99999994,0,0,0,0,0,0,0,1,0,0,0,false,false,true,-468.75998,-2270.27,16.99,-0.0033960242,-0.0033798397,0.7163547,-0.6977197,-148.72101,863.321,8.541,0,-0.00030999997,-0.71941
201.25833,2000,0,91.24,0.000002697398,0.000002697398,0.000002697398,0.99999994,0,0,0,0,0,0,0,1,0,0,0,false,false,true,-470,-2263.0798,16.99,-0.0034068138,-0.00336905,0.71844494,-0.6955672,-147.751,863.17096,8.541,0,-0.00030999997,-0.75341
201.26666,2000,0,91.24,0.000002697398,0.000002697398,0.000002697398,0.99999994,0,0,0,0,0,0,0,1,0,0,0,false,false,true,-471.22998,-2255.89,16.99,-0.0034176034,-0.0033582605,0.7206265,-0.6933068,-146.711,863.03094,8.541,0,-0.00030999997,-0.78670996
201.275,2000,0,91.24,0.000002697398,0.000002697398,0.000002697398,0.99999994,0,0,0,0,0,0,0,1,0,0,0,false,false,true,-472.44998,-2248.7,16.99,-0.003428393,-0.003347471,0.7228976,-0.6909385,-145.601,862.8909,8.541,0,-0.00030999997,-0.81931
201.28334,2000,0,91.24,0.000002697398,0.000002697398,0.000002697398,0.99999994,0,0,0,0,0,0,0,1,0,0,0,false,false,true,-473.66,-2241.51,16.99,-0.0034391826,-0.0033366815,0.72525114,-0.6884676,-144.421,862.751,8.541,0,-0.00030999997,-0.85131
201.29167,2000,0,91.24,0.000002697398,0.000002697398,0.000002697398,0.99999994,0,0,0,0,0,0,0,1,0,0,0,false,false,true,-474.86,-2234.32,16.99,-0.0034499723,-0.003325892,0.7276904,-0.6858889,-143.171,862.61096,8.541,0,-0.00030999997,-0.88260996
201.3,2000,0,91.24,0.000002697398,0.000002697398,0.000002697398,0.99999994,0,0,0,0,0,0,0,1,0,0,0,false,false,true,-476.05,-2227.13,16.99,-0.0034607616,-0.0033097074,0.7302083,-0.6832077,-141.851,862.47095,8.541,0,-0.00030999997,-0.91321
201.30833,2000,0,91.24,0.000002697398,0.000002697398,0.000002697398,0.99999994,0,0,0,0,0,0,0,1,0,0,0,false,false,true,-477.22998,-2219.94,16.99,-0.0034769461,-0.003293523,0.7328029,-0.680424,-140.451,862.33093,8.541,0,-0.00030999997,-0.94301
201.31667,2000,0,91.24,0.000002697398,0.000002697398,0.000002697398,0.99999994,0,0,0,0,0,0,0,1,0,0,0,false,false,true,-478.4,-2212.75,16.99,-0.0034931307,-0.0032773388,0.7354724,-0.67753774,-138.97101,862.191,8.541,0,-0.00030999997,-0.97211
201.325,2000,0,91.24,0.000002697398,0.000002697398,0.000002697398,0.99999994,0,0,0,0,0,0,0,1,0,0,0,false,false,true,-479.56,-2205.56,16.99,-0.003509315,-0.0032611543,0.7382095,-0.6745544,-137.41101,862.05096,8.541,0,-0.00021,-1.00041
201.33333,2000,0,91.24,0.000002697398,0.000002697398,0.000002697398,0.99999994,0,0,0,0,0,0,0,1,0,0,0,false,false,true,-480.71,-2198.38,16.99,-0.0035254995,-0.00324497,0.74101746,-0.6714686,-135.761,861.90094,8.541,0,-0.00021,-1.02801
201.34166,2000,0,91.24,0.000002697398,0.000002697398,0.000002697398,0.99999994,0,0,0,0,0,0,0,1,0,0,0,false,false,true,-481.84,-2191.2,16.99,-0.0035416838,-0.0032287855,0.7438893,-0.6682856,-134.031,861.74097,8.541,0,-0.00010999999,-1.0548099
201.35,2000,0,91.24,0.000002697398,0.000002697398,0.000002697398,0.99999994,0,0,0,0,0,0,0,1,0,0,0,false,false,true,-482.96,-2184.02,16.99,-0.0035578676,-0.003212601,0.7468181,-0.66501087,-132.22101,861.571,8.541,0,-0.00010999999,-1.08081
201.35834,2000,0,91.24,0.000002697398,0.000002697398,0.000002697398,0.99999994,0,0,0,0,0,0,0,1,0,0,0,false,false,true,-484.06,-2176.8398,16.99,-0.003574052,-0.0031964164,0.7498069,-0.66163915,-130.321,861.3909,8.541,0,-0.00010999999,-1.10611
201.36667,2000,0,91.24,0.000002697398,0.000002697398,0.000002697398,0.99999994,0,0,0,0,0,0,0,1,0,0,0,false,false,true,-485.15,-2169.66,16.99,-0.003590237,-0.0031802324,0.752849,-0.6581757,-128.341,861.2009,8.541,0,-0.00010999999,-1.13071
201.375,2000,0,91.24,0.000002697398,0.000002697398,0.000002697398,0.99999994,0,0,0,0,0,0,0,1,0,0,0,false,false,true,-486.22,-2162.48,16.99,-0.0036064212,-0.0031640478,0.75594234,-0.6546205,-126.270996,860.99097,8.541,0,-0.00010999999,-1.15461
201.38333,2000,0,91.24,0.000002697398,0.000002697398,0.000002697398,0.99999994,0,0,0,0,0,0,0,1,0,0,0,false,false,true,-487.27,-2155.31,16.99,-0.003622606,-0.0031478638,0.7590851,-0.6509737,-124.120995,860.77094,8.541,0,-0.00010999999,-1.17781
201.39166,2000,0,91.24,0.000002697398,0.000002697398,0.000002697398,0.99999994,0,0,0,0,0,0,0,1,0,0,0,false,false,true,-488.3,-2148.14,16.99,-0.00363879,-0.0031316793,0.7622707,-0.64724046,-121.881,860.53094,8.541,0,-0.00010999999,-1.20031
201.4,2000,0,91.24,0.000002697398,0.000002697398,0.000002697398,0.99999994,0,0,0,0,0,0,0,1,0,0,0,false,false,true,-489.31998,-2140.97,16.99,-0.0036549745,-0.0031154947,0.76549745,-0.6434209,-119.561,860.27094,8.541,0,-0.00010999999,-1.2222099
201.40834,2000,0,91.24,0.000002697398,0.000002697398,0.000002697398,0.99999994,0,0,0,0,0,0,0,1,0,0,0,false,false,true,-490.31998,-2133.8,16.99,-0.0036711588,-0.0030939155,0.7687635,-0.63951504,-117.160995,859.98096,8.541,0,-0.00010999999,-1.24341
201.41667,2000,0,91.24,0.000002697398,0.000002697398,0.000002697398,0.99999994,0,0,0,0,0,0,0,1,0,0,0,false,false,true,-491.3,-2126.63,16.99,-0.003687343,-0.0030723363,0.772067,-0.6355229,-114.681,859.67096,8.541,0,-0.00010999999,-1.26401
201.425,2000,0,91.24,0.000002697398,0.000002697398,0.000002697398,0.99999994,0,0,0,0,0,0,0,1,0,0,0,false,false,true,-492.25998,-2119.47,16.99,-0.0037035272,-0.0030507569,0.77540183,-0.6314497,-112.120995,859.33093,8.541,0,-0.00010999999,-1.28391
201.43333,2000,0,91.24,0.000002697398,0.000002697398,0.000002697398,0.99999994,0,0,0,0,0,0,0,1,0,0,0,false,false,true,-493.19,-2112.31,16.99,-0.0037197121,-0.0030291781,0.77877057,-0.6272905,-109.480995,858.96094,8.541,0,-0.00010999999,-1.30321
201.44167,2000,0,91.24,0.000002697398,0.000002697398,0.000002697398,0.99999994,0,0,0,0,0,0,0,1,0,0,0,false,false,true,-494.09998,-2105.15,16.99,-0.0037358964,-0.003007599,0.78216714,-0.62305003,-106.760994,858.55096,8.541,0,-0.00010999999,-1.32191
201.45,2000,0,91.24,0.000002697398,0.000002697398,0.000002697398,0.99999994,0,0,0,0,0,0,0,1,0,0,0,false,false,true,-494.99,-2098,16.99,-0.0037520807,-0.0029860197,0.7855857,-0.6187342,-103.961,858.11096,8.541,0,-0.00010999999,-1.3400099
201.45833,2000,0,91.24,0.000002697398,0.000002697398,0.000002697398,0.99999994,0,0,0,0,0,0,0,1,0,0,0,false,false,true,-495.86,-2090.8499,16.99,-0.0037682652,-0.0029644405,0.78902876,-0.61433744,-101.08099,857.631,8.541,0,-0.00010999999,-1.35751
201.46666,2000,0,91.24,0.000002697398,0.000002697398,0.000002697398,0.99999994,0,0,0,0,0,0,0,1,0,0,0,false,false,true,-496.69998,-2083.7,16.99,-0.003784449,-0.002942861,0.7924906,-0.60986507,-98.131,857.11096,8.541,0,-0.00010999999,-1.3745099
201.475,2000,0,91.24,0.000002697398,0.000002697398,0.000002697398,0.99999994,0,0,0,0,0,0,0,1,0,0,0,false,false,true,-497.52,-2076.56,16.99,-0.0038006338,-0.002921282,0.7959697,-0.6053173,-95.111,856.55096,8.541,0,-0.00010999999,-1.39091
201.48334,2000,0,91.24,0.000002697398,0.000002697398,0.000002697398,0.99999994,0,0,0,0,0,0,0,1,0,0,0,false,false,true,-498.31,-2069.42,16.99,-0.0038168184,-0.0028997029,0.79946464,-0.60069394,-92.010994,855.9509,8.541,0,-0.00010999999,-1.40671
201.49167,2000,0,91.24,0.000002697398,0.000002697398,0.000002697398,0.99999994,0,0,0,0,0,0,0,1,0,0,0,false,false,true,-499.08,-2062.29,16.99,-0.0038330026,-0.0028781237,0.8029737,-0.59599507,-88.840996,855.311,8.541,0,-0.00010999999,-1.42201
201.5,2000,0,91.24,0.000002697398,0.000002697398,0.000002697398,0.99999994,0,0,0,0,0,0,0,1,0,0,0,false,false,true,-499.81998,-2055.16,16.99,-0.0038491874,-0.0028565447,0.80649155,-0.5912261,-85.601,854.621,8.541,0,-0.00010999999,-1.43681
201.50833,2000,0,91.24,0.000002697398,0.000002697398,0.000002697398,0.99999994,0,0,0,0,0,0,0,1,0,0,0,false,false,true,-500.53,-2048.04,16.99,-0.0038653715,-0.0028349652,0.8100168,-0.58638686,-82.300995,853.881,8.541,0,-0.00010999999,-1.45101
201.51666,2000,0,91.24,0.000002697398,0.000002697398,0.000002697398,0.99999994,0,0,0,0,0,0,0,1,0,0,0,false,false,true,-501.22,-2040.9199,16.99,-0.0038815557,-0.0028133863,0.81354815,-0.58147764,-78.931,853.09094,8.541,0,-0.00010999999,-1.46471
201.525,2000,0,91.24,0.000002697398,0.000002697398,0.000002697398,0.99999994,0,0,0,0,0,0,0,1,0,0,0,false,false,true,-501.87997,-2033.8099,16.99,-0.0038977403,-0.002791807,0.81708044,-0.5765036,-75.501,852.251,8.541,0,-0.00021,-1.4779099
201.53334,2000,0,91.24,0.000002697398,0.000002697398,0.000002697398,0.99999994,0,0,0,0,0,0,0,1,0,0,0,false,false,true,-502.50998,-2026.71,16.99,-0.0039139246,-0.002764833,0.82061625,-0.5714594,-72.011,851.35095,8.541,0,-0.00021,-1.49061
201.54167,2000,0,91.24,0.000002697398,0.000002697398,0.000002697398,0.99999994,0,0,0,0,0,0,0,1,0,0,0,false,false,true,-503.11,-2019.62,16.99,-0.0039301086,-0.002737859,0.82415044,-0.5663505,-68.461,850.40094,8.541,0,-0.00021,-1.50281
201.55,2000,0,91.24,0.000002697398,0.000002697398,0.000002697398,0.99999994,0,0,0,0,0,0,0,1,0,0,0,false,false,true,-503.68,-2012.5299,16.99,-0.003946293,-0.002710885,0.82768196,-0.5611769,-64.861,849.3909,8.541,0,-0.00021,-1.5145099
201.55833,2000,0,91.24,0.000002697398,0.000002697398,0.000002697398,0.99999994,0,0,0,0,0,0,0,1,0,0,0,false,false,true,-504.22,-2005.45,16.99,-0.0039624777,-0.002683911,0.83120596,-0.5559439,-61.200996,848.321,8.541,0,-0.00021,-1.52571
201.56667,2000,0,91.24,0.000002697398,0.000002697398,0.000002697398,0.99999994,0,0,0,0,0,0,0,1,0,0,0,false,false,true,-504.72998,-1998.38,16.99,-0.003978662,-0.002656937,0.8347249,-0.55064625,-57.490997,847.191,8.541,0,-0.00021,-1.53651
201.575,2000,0,91.24,0.000002697398,0.000002697398,0.000002697398,0.99999994,0,0,0,0,0,0,0,1,0,0,0,false,false,true,-505.21,-1991.32,16.99,-0.0039948463,-0.002629963,0.83823425,-0.54528916,-53.731,846.001,8.541,0,-0.00030999997,-1.54681
201.58333,2000,0,91.24,0.000002697398,0.000002697398,0.000002697398,0.99999994,0,0,0,0,0,0,0,1,0,0,0,false,false,true,-505.66,-1984.2699,16.99,-0.0040110312,-0.0026029893,0.841733,-0.5398728,-49.931,844.74097,8.541,0,-0.00030999997,-1.55661
201.59166,2000,0,91.24,0.000002697398,0.000002697398,0.000002697398,0.99999994,0,0,0,0,0,0,0,1,0,0,0,false,false,true,-506.08,-1977.23,16.99,-0.0040272153,-0.0025760152,0.8452166,-0.53440243,-46.080997,843.42096,8.541,0,-0.00030999997,-1.56601
201.6,2000,0,91.24,0.000002697398,0.000002697398,0.000002697398,0.99999994,0,0,0,0,0,0,0,1,0,0,0,false,false,true,-506.46,-1970.2,16.99,-0.0040433994,-0.002549041,0.84868425,-0.52887815,-42.190998,842.03094,8.541,0,-0.00030999997,-1.5749099
201.60834,2000,0,91.24,0.000002697398,0.000002697398,0.000002697398,0.99999994,0,0,0,0,0,0,0,1,0,0,0,false,false,true,-506.81,-1963.1799,16.99,-0.0040595843,-0.0025220674,0.8521351,-0.5233,-38.260998,840.58093,8.541,0,-0.00030999997,-1.58341
201.61667,2000,0,91.24,0.000002697398,0.000002697398,0.000002697398,0.99999994,0,0,0,0,0,0,0,1,0,0,0,false,false,true,-507.12997,-1956.1699,16.99,-0.0040757684,-0.0024950933,0.85556835,-0.5176677,-34.301,839.061,8.541,0.00010999999,-0.00030999997,-1.5915099
201.625,2000,0,91.24,0.000002697398,0.000002697398,0.000002697398,0.99999994,0,0,0,0,0,0,0,1,0,0,0,false,false,true,-507.41998,-1949.1799,16.99,-0.0040919525,-0.0024681191,0.85898304,-0.51198155,-30.300999,837.47095,8.541,0.00010999999,-0.00030999997,-1.59911
201.63333,2000,0,91.24,0.000002697398,0.000002697398,0.000002697398,0.99999994,0,0,0,0,0,0,0,1,0,0,0,false,false,true,-507.66998,-1942.2,16.99,-0.004108137,-0.0024411452,0.86237526,-0.50624686,-26.270998,835.811,8.541,0.00010999999,-0.00040999998,-1.60631
201.64166,2000,0,91.24,0.000002697398,0.000002697398,0.000002697398,0.99999994,0,0,0,0,0,0,0,1,0,0,0,false,false,true,-507.88998,-1935.23,16.99,-0.0041243215,-0.0024141711,0.8657443,-0.50046366,-22.210999,834.08093,8.541,0.00010999999,-0.00040999998,-1.61311
201.65,2000,0,91.24,0.000002697398,0.000002697398,0.000002697398,0.99999994,0,0,0,0,0,0,0,1,0,0,0,false,false,true,-508.08,-1928.2799,16.99,-0.004140506,-0.0023871972,0.86908937,-0.4946319,-18.130999,832.28094,8.541,0.00010999999,-0.00040999998,-1.6195099
201.65834,2000,0,91.24,0.000002697398,0.000002697398,0.000002697398,0.99999994,0,0,0,0,0,0,0,1,0,0,0,false,false,true,-508.22998,-1921.34,16.99,-0.0041566896,-0.002360223,0.8724068,-0.48875684,-14.031,830.41095,8.541,0.00010999999,-0.00040999998,-1.62541
201.66667,2000,0,91.24,0.000002697398,0.000002697398,0.000002697398,0.99999994,0,0,0,0,0,0,0,1,0,0,0,false,false,true,-508.34998,-1914.4199,16.99,-0.0041728746,-0.0023332492,0.8756961,-0.4828388,-9.911,828.47095,8.541,0.00010999999,-0.00040999998,-1.6309099
201.675,2000,0,91.24,0.000002697398,0.000002697398,0.000002697398,0.99999994,0,0,0,0,0,0,0,1,0,0,0,false,false,true,-508.43,-1907.5199,16.99,-0.0041890587,-0.002306275,0.8789566,-0.47687745,-5.771,826.4509,8.541,0,-0.00040999998,-1.6360099
201.68333,2000,0,91.24,0.000002697398,0.000002697398,0.000002697398,0.99999994,0,0,0,0,0,0,0,1,0,0,0,false,false,true,-508.47998,-1900.63,16.99,-0.0042052437,-0.0022793016,0.88218796,-0.4708731,-1.6110001,824.36096,8.541,0,-0.00051,-1.64071
201.69167,2000,0,91.24,0.000002697398,0.000002697398,0.000002697398,0.99999994,0,0,0,0,0,0,0,1,0,0,0,false,false,true,-508.49,-1893.76,16.99,-0.0042214277,-0.0022469326,0.88538647,-0.4648309,2.5509999,822.2009,8.541,0,-0.00051,-1.64501
