time,ball_loc_x,ball_loc_y,ball_loc_z,ball_rot_x,ball_rot_y,ball_rot_z,ball_rot_w,ball_vel_x,ball_vel_y,ball_vel_z,ball_ang_x,ball_ang_y,ball_ang_z,player0_throttle,player0_steer,player0_pitch,player0_yaw,player0_roll,player0_jump,player0_boost,player0_handbrake,player0_loc_x,player0_loc_y,player0_loc_z,player0_rot_x,player0_rot_y,player0_rot_z,player0_rot_w,player0_vel_x,player0_vel_y,player0_vel_z,player0_ang_x,player0_ang_y,player0_ang_z
262.225,2000,0,91.24,0.000002697398,0.000002697398,0.000002697398,0.99999994,0,0,0,0,0,0,1,0,0,0,0,false,true,false,0,-3124.19,16.99,-0.00336905,0.003374445,0.70711225,0.70708513,-0.031,2104.5808,8.411,-0.00061,0,0
262.23334,2000,0,91.24,0.000002697398,0.000002697398,0.000002697398,0.99999994,0,0,0,0,0,0,0,1,0,0,0,false,false,true,0,-3106.65,16.99,-0.00336905,0.003374445,0.70711225,0.70708513,-10.891,2103.761,8.461,-0.00061,0.00281,0.30231002
262.24167,2000,0,91.24,0.000002697398,0.000002697398,0.000002697398,0.99999994,0,0,0,0,0,0,0,1,0,0,0,false,false,true,-0.089999996,-3089.1199,16.99,-0.00336905,0.0033798397,0.7080012,0.706195,-20.470999,2103.011,8.491,-0.00061,0.00401,0.54941
262.25,2000,0,91.24,0.000002697398,0.000002697398,0.000002697398,0.99999994,0,0,0,0,0,0,0,1,0,0,0,false,false,true,-0.26,-3071.5898,16.99,-0.00336905,0.0033852346,0.7096172,0.7045711,-30.190998,2102.221,8.511001,-0.00051,0.00441,0.76691
262.25833,2000,0,91.24,0.000002697398,0.000002697398,0.000002697398,0.99999994,0,0,0,0,0,0,0,1,0,0,0,false,false,true,-0.51,-3054.0698,16.99,-0.00336905,0.0033906293,0.711865,0.70229995,-40.490997,2101.3508,8.531,-0.00051,0.0043099998,0.96031
262.26666,2000,0,91.24,0.000002697398,0.000002697398,0.000002697398,0.99999994,0,0,0,0,0,0,0,1,0,0,0,false,false,true,-0.84999996,-3036.5598,16.99,-0.00336905,0.0033906293,0.7146693,0.6994461,-51.650997,2100.3508,8.541,-0.00040999998,0.00391,1.13401
262.275,2000,0,91.24,0.000002697398,0.000002697398,0.000002697398,0.99999994,0,0,0,0,0,0,0,1,0,0,0,false,false,true,-1.28,-3019.0598,16.99,-0.0033744453,0.0033852349,0.7179642,0.69606364,-63.810997,2099.181,8.551001,-0.00040999998,0.00331,1.29151
262.28333,2000,0,91.24,0.000002697398,0.000002697398,0.000002697398,0.99999994,0,0,0,0,0,0,0,1,0,0,0,false,false,true,-1.81,-3001.5698,16.99,-0.0033852346,0.0033798397,0.72169936,0.69219,-77.010994,2097.791,8.561,-0.00040999998,0.00271,1.4356099
262.29166,2000,0,91.24,0.000002697398,0.000002697398,0.000002697398,0.99999994,0,0,0,0,0,0,0,1,0,0,0,false,false,true,-2.45,-2984.0898,16.99,-0.0033960242,0.00336905,0.7258294,0.687858,-91.221,2096.1309,8.561,-0.00030999997,0.00211,1.5684099
262.3,2000,0,91.24,0.000002697398,0.000002697398,0.000002697398,0.99999994,0,0,0,0,0,0,0,1,0,0,0,false,false,true,-3.21,-2966.6199,16.99,-0.0034122085,0.0033528658,0.73030925,0.6830998,-106.370995,2094.171,8.561,-0.00030999997,0.00151,1.69151
262.30832,2000,0,91.24,0.000002697398,0.000002697398,0.000002697398,0.99999994,0,0,0,0,0,0,0,1,0,0,0,false,false,true,-4.1,-2949.17,16.99,-0.0034337877,0.0033366815,0.7351043,0.677937,-122.351,2091.8708,8.561,-0.00030999997,0.0010099999,1.8062099
262.31668,2000,0,91.24,0.000002697398,0.000002697398,0.000002697398,0.99999994,0,0,0,0,0,0,0,1,0,0,0,false,false,true,-5.12,-2931.74,16.99,-0.003455367,0.0033151023,0.74018544,0.67238563,-139.02101,2089.201,8.571,-0.00021,0.00051,1.91341
262.325,2000,0,91.24,0.000002697398,0.000002697398,0.000002697398,0.99999994,0,0,0,0,0,0,0,1,0,0,0,false,false,true,-6.2799997,-2914.3298,16.99,-0.0034823404,0.0032881277,0.7455234,0.66646206,-156.231,2086.151,8.571,-0.00010999999,0.00010999999,2.01391
262.33334,2000,0,91.24,0.000002697398,0.000002697398,0.000002697398,0.99999994,0,0,0,0,0,0,0,1,0,0,0,false,false,true,-7.58,-2896.95,16.99,-0.003509315,0.0032611543,0.75108975,0.6601826,-173.80101,2082.711,8.571,-0.00010999999,-0.00010999999,2.10811
262.34167,2000,0,91.24,0.000002697398,0.000002697398,0.000002697398,0.99999994,0,0,0,0,0,0,0,1,0,0,0,false,false,true,-9.03,-2879.5898,16.99,-0.003536289,0.0032287857,0.7568614,0.65355784,-191.55101,2078.8909,8.571,0,-0.00030999997,2.19631
262.35,2000,0,91.24,0.000002697398,0.000002697398,0.000002697398,0.99999994,0,0,0,0,0,0,0,1,0,0,0,false,false,true,-10.63,-2862.27,16.99,-0.0035686577,0.0031964167,0.7628108,0.6466038,-209.291,2074.711,8.571,0,-0.00051,2.27881
262.35834,2000,0,91.24,0.000002697398,0.000002697398,0.000002697398,0.99999994,0,0,0,0,0,0,0,1,0,0,0,false,false,true,-12.37,-2844.98,16.99,-0.003601026,0.003158653,0.7689161,0.6393316,-226.801,2070.201,8.571,0,-0.00061,2.35561
262.36667,2000,0,91.24,0.000002697398,0.000002697398,0.000002697398,0.99999994,0,0,0,0,0,0,0,1,0,0,0,false,false,true,-14.259999,-2827.73,16.99,-0.0036333953,0.0031208897,0.7751557,0.63175195,-243.871,2065.421,8.571,0,-0.00071,2.42671
262.375,2000,0,91.24,0.000002697398,0.000002697398,0.000002697398,0.99999994,0,0,0,0,0,0,0,1,0,0,0,false,false,true,-16.289999,-2810.52,16.99,-0.0036657634,0.0030831257,0.7815047,0.6238808,-260.261,2060.441,8.571,0,-0.00081,2.4920099
262.38333,2000,0,91.24,0.000002697398,0.000002697398,0.000002697398,0.99999994,0,0,0,0,0,0,0,1,0,0,0,false,false,true,-18.46,-2793.3499,16.99,-0.0036981327,0.0030453624,0.7879389,0.6157347,-275.741,2055.3508,8.571,0,-0.00091,2.55131
262.39166,2000,0,91.24,0.000002697398,0.000002697398,0.000002697398,0.99999994,0,0,0,0,0,0,0,1,0,0,0,false,false,true,-20.76,-2776.22,16.99,-0.0037358964,0.003002204,0.7944396,0.6073241,-290.071,2050.271,8.571,0,-0.0010099999,2.60431
262.4,2000,0,91.24,0.000002697398,0.000002697398,0.000002697398,0.99999994,0,0,0,0,0,0,0,1,0,0,0,false,false,true,-23.18,-2759.13,16.99,-0.00377366,0.0029590456,0.8009847,0.5986655,-302.991,2045.341,8.571,0.00010999999,-0.00111,2.6507099
262.40833,2000,0,91.24,0.000002697398,0.000002697398,0.000002697398,0.99999994,0,0,0,0,0,0,0,1,0,0,0,false,false,true,-25.699999,-2742.0898,16.99,-0.0038114237,0.0029158876,0.8075494,0.58978033,-314.241,2040.731,8.571,0.00021,-0.0012099999,2.6900098
262.41666,2000,0,91.24,0.000002697398,0.000002697398,0.000002697398,0.99999994,0,0,0,0,0,0,0,1,0,0,0,false,false,true,-28.32,-2725.0798,16.99,-0.0038491872,0.002867334,0.8141105,0.58068997,-323.571,2036.641,8.571,0.00030999997,-0.0012099999,2.7218099
262.425,2000,0,91.24,0.000002697398,0.000002697398,0.000002697398,0.99999994,0,0,0,0,0,0,0,1,0,0,0,false,false,true,-31.019999,-2708.1099,16.99,-0.0038869507,0.002818781,0.8206425,0.5714217,-330.701,2033.3009,8.561,0.00040999998,-0.00131,2.74561
262.43332,2000,0,91.24,0.000002697398,0.000002697398,0.000002697398,0.99999994,0,0,0,0,0,0,0,1,0,0,0,false,false,true,-33.78,-2691.17,16.99,-0.003924714,0.0027702278,0.8271253,0.5619969,-338.151,2029.601,8.561,0.00040999998,-0.00131,2.76881
262.44168,2000,0,91.24,0.000002697398,0.000002697398,0.000002697398,0.99999994,0,0,0,0,0,0,0,1,0,0,0,false,false,true,-36.6,-2674.26,16.99,-0.0039624777,0.0027216745,0.8335548,0.5524157,-345.891,2025.5309,8.561,0.00051,-0.0012099999,2.79171
262.45,2000,0,91.24,0.000002697398,0.000002697398,0.000002697398,0.99999994,0,0,0,0,0,0,0,1,0,0,0,false,false,true,-39.48,-2657.38,16.99,-0.0039948463,0.0026731214,0.83992344,0.5426835,-353.901,2021.0809,8.561,0.00051,-0.00111,2.81421
262.45834,2000,0,91.24,0.000002697398,0.000002697398,0.000002697398,0.99999994,0,0,0,0,0,0,0,1,0,0,0,false,false,true,-42.43,-2640.54,16.99,-0.0040272158,0.0026191736,0.8462274,0.5328002,-362.151,2016.241,8.561,0.00051,-0.0010099999,2.83641
262.46667,2000,0,91.24,0.000002697398,0.000002697398,0.000002697398,0.99999994,0,0,0,0,0,0,0,1,0,0,0,false,false,true,-45.45,-2623.74,16.99,-0.004059584,0.0025652256,0.852466,0.52276045,-370.611,2011.011,8.561,0.00051,-0.00091,2.8582098
262.475,2000,0,91.24,0.000002697398,0.000002697398,0.000002697398,0.99999994,0,0,0,0,0,0,0,1,0,0,0,false,false,true,-48.539997,-2606.98,16.99,-0.0040919525,0.0025112776,0.85863215,0.5125696,-379.251,2005.371,8.561,0.00051,-0.00081,2.8796098
262.48334,2000,0,91.24,0.000002697398,0.000002697398,0.000002697398,0.99999994,0,0,0,0,0,0,0,1,0,0,0,false,false,true,-51.699997,-2590.27,16.99,-0.0041243215,0.0024573295,0.86471885,0.50223315,-388.041,1999.3309,8.561,0.00040999998,-0.00071,2.90061
262.49167,2000,0,91.24,0.000002697398,0.000002697398,0.000002697398,0.99999994,0,0,0,0,0,0,0,1,0,0,0,false,false,true,-54.93,-2573.6099,16.99,-0.00415669,0.0024033815,0.8707256,0.49174562,-396.951,1992.871,8.561,0.00040999998,-0.00061,2.92121
262.5,2000,0,91.24,0.000002697398,0.000002697398,0.000002697398,0.99999994,0,0,0,0,0,0,0,1,0,0,0,false,false,true,-58.239998,-2557,16.99,-0.0041890587,0.0023494335,0.87664557,0.48111242,-405.951,1986.001,8.561,0.00040999998,-0.00051,2.94131
262.50833,2000,0,91.24,0.000002697398,0.000002697398,0.000002697398,0.99999994,0,0,0,0,0,0,0,1,0,0,0,false,false,true,-61.62,-2540.45,16.99,-0.004216033,0.0022954857,0.8824756,0.47033358,-415.021,1978.7109,8.561,0.00030999997,-0.00040999998,2.9609098
262.51666,2000,0,91.24,0.000002697398,0.000002697398,0.000002697398,0.99999994,0,0,0,0,0,0,0,1,0,0,0,false,false,true,-65.08,-2523.96,16.99,-0.0042430074,0.002241538,0.8882118,0.45940915,-424.121,1971.011,8.561,0.00030999997,-0.00030999997,2.98001
262.525,2000,0,91.24,0.000002697398,0.000002697398,0.000002697398,0.99999994,0,0,0,0,0,0,0,1,0,0,0,false,false,true,-68.61,-2507.53,16.99,-0.004269981,0.0021875896,0.893848,0.44834432,-433.231,1962.9009,8.561,0.00021,-0.00030999997,2.99851
262.53333,2000,0,91.24,0.000002697398,0.000002697398,0.000002697398,0.99999994,0,0,0,0,0,0,0,1,0,0,0,false,false,true,-72.22,-2491.17,16.99,-0.004296955,0.0021336419,0.8993783,0.43714473,-442.311,1954.381,8.561,0.00021,-0.00030999997,3.0164099
262.54166,2000,0,91.24,0.000002697398,0.000002697398,0.000002697398,0.99999994,0,0,0,0,0,0,0,1,0,0,0,false,false,true,-75.909996,-2474.88,16.99,-0.0043239295,0.002079694,0.90480226,0.4258048,-451.341,1945.4609,8.561,0.00021,-0.00030999997,3.03371
262.55,2000,0,91.24,0.000002697398,0.000002697398,0.000002697398,0.99999994,0,0,0,0,0,0,0,1,0,0,0,false,false,true,-79.67,-2458.67,16.99,-0.0043509034,0.002025746,0.91011155,0.41433546,-460.291,1936.1509,8.561,0.00021,-0.00030999997,3.05031
262.55832,2000,0,91.24,0.000002697398,0.000002697398,0.000002697398,0.99999994,0,0,0,0,0,0,0,1,0,0,0,false,false,true,-83.509995,-2442.54,16.99,-0.004377877,0.001966403,0.9153033,0.40273654,-469.13098,1926.4509,8.561,0.00021,-0.00030999997,3.06621
262.56668,2000,0,91.24,0.000002697398,0.000002697398,0.000002697398,0.99999994,0,0,0,0,0,0,0,1,0,0,0,false,false,true,-87.42,-2426.49,16.99,-0.004404851,0.0019070605,0.9203746,0.39100826,-477.831,1916.381,8.561,0.00021,-0.00021,3.08131
262.575,2000,0,91.24,0.000002697398,0.000002697398,0.000002697398,0.99999994,0,0,0,0,0,0,0,1,0,0,0,false,false,true,-91.4,-2410.52,16.99,-0.0044318247,0.0018477177,0.9253181,0.37916118,-486.371,1905.9509,8.561,0.00021,-0.00021,3.09551
262.58334,2000,0,91.24,0.000002697398,0.000002697398,0.000002697398,0.99999994,0,0,0,0,0,0,0,1,0,0,0,false,false,true,-95.45,-2394.64,16.99,-0.0044534043,0.0017883751,0.9301314,0.36719555,-494.721,1895.1709,8.561,0.00021,-0.00010999999,3.10881
262.59167,2000,0,91.24,0.000002697398,0.000002697398,0.000002697398,0.99999994,0,0,0,0,0,0,0,1,0,0,0,false,false,true,-99.57,-2378.8499,16.99,-0.004474983,0.0017290321,0.9348097,0.3551165,-502.861,1884.0609,8.561,0.00021,-0.00010999999,3.1212099
262.6,2000,0,91.24,0.000002697398,0.000002697398,0.000002697398,0.99999994,0,0,0,0,0,0,0,1,0,0,0,false,false,true,-103.759995,-2363.15,16.99,-0.0044965623,0.0016696894,0.93934876,0.34292966,-510.771,1872.641,8.561,0.00021,-0.00010999999,3.1326098
262.60834,2000,0,91.24,0.000002697398,0.000002697398,0.000002697398,0.99999994,0,0,0,0,0,0,0,1,0,0,0,false,false,true,-108.02,-2347.54,16.99,-0.004518142,0.0016103467,0.94374466,0.33064026,-518.42096,1860.9209,8.561,0.00021,-0.00010999999,3.14291
262.61667,2000,0,91.24,0.000002697398,0.000002697398,0.000002697398,0.99999994,0,0,0,0,0,0,0,1,0,0,0,false,false,true,-112.34,-2332.03,16.99,-0.004539721,0.001551004,0.9479934,0.31825373,-525.79095,1848.9309,8.561,0.00021,-0.00010999999,3.15201
262.625,2000,0,91.24,0.000002697398,0.000002697398,0.000002697398,0.99999994,0,0,0,0,0,0,0,1,0,0,0,false,false,true,-116.71999,-2316.6199,16.99,-0.0045613004,0.0014916612,0.9520915,0.30577555,-532.86096,1836.6909,8.561,0.00021,-0.00010999999,3.15991
262.63333,2000,0,91.24,0.000002697398,0.000002697398,0.000002697398,0.99999994,0,0,0,0,0,0,0,1,0,0,0,false,false,true,-121.159996,-2301.31,16.99,-0.004582879,0.0014323184,0.956034,0.29321635,-539.61096,1824.221,8.561,0.00021,-0.00010999999,3.1665099
262.64166,2000,0,91.24,0.000002697398,0.000002697398,0.000002697398,0.99999994,0,0,0,0,0,0,0,1,0,0,0,false,false,true,-125.659996,-2286.1099,16.99,-0.004599064,0.0013729758,0.9598197,0.28057638,-546.03094,1811.5409,8.571,0.00021,-0.00010999999,3.17181
262.65,2000,0,91.24,0.000002697398,0.000002697398,0.000002697398,0.99999994,0,0,0,0,0,0,0,1,0,0,0,false,false,true,-130.20999,-2271.01,16.99,-0.0046152477,0.0013136327,0.96344405,0.26786608,-552.10095,1798.6909,8.571,0.00030999997,-0.00010999999,3.17571
262.65833,2000,0,91.24,0.000002697398,0.000002697398,0.000002697398,0.99999994,0,0,0,0,0,0,0,1,0,0,0,false,false,true,-134.81,-2256.02,16.99,-0.0046314327,0.0012488954,0.9669036,0.25509667,-557.811,1785.6809,8.571,0.00030999997,-0.00010999999,3.17811
262.66666,2000,0,91.24,0.000002697398,0.000002697398,0.000002697398,0.99999994,0,0,0,0,0,0,0,1,0,0,0,false,false,true,-139.45999,-2241.14,16.99,-0.0046476163,0.0011841576,0.97019607,0.2422731,-563.15094,1772.5509,8.571,0.00030999997,-0.00010999999,3.17891
262.675,2000,0,91.24,0.000002697398,0.000002697398,0.000002697398,0.99999994,0,0,0,0,0,0,0,1,0,0,0,false,false,true,-144.15,-2226.3699,16.99,-0.0046638018,0.0011194203,0.9733201,0.22940108,-568.11096,1759.3309,8.571,0.00030999997,-0.00010999999,3.17811
262.68332,2000,0,91.24,0.000002697398,0.000002697398,0.000002697398,0.99999994,0,0,0,0,0,0,0,1,0,0,0,false,false,true,-148.87999,-2211.71,16.99,-0.0046799853,0.0010546827,0.9762727,0.21649131,-572.68097,1746.0409,8.571,0.00030999997,-0.00010999999,3.1756098
262.69168,2000,0,91.24,0.000002697398,0.000002697398,0.000002697398,0.99999994,0,0,0,0,0,0,0,1,0,0,0,false,false,true,-153.65,-2197.16,16.99,-0.0046961703,0.0009899451,0.9790518,0.20355453,-576.86096,1732.7109,8.571,0.00030999997,-0.00010999999,3.17131
262.7,2000,0,91.24,0.000002697398,0.000002697398,0.000002697398,0.99999994,0,0,0,0,0,0,0,1,0,0,0,false,false,true,-158.45999,-2182.72,16.99,-0.0047069592,0.00092520745,0.9816556,0.19060159,-580.641,1719.381,8.571,0.00030999997,-0.00010999999,3.1651099
262.70834,2000,0,91.24,0.000002697398,0.000002697398,0.000002697398,0.99999994,0,0,0,0,0,0,0,1,0,0,0,false,false,true,-163.3,-2168.39,16.99,-0.0047177486,0.0008604699,0.9840841,0.1776378,-584.02094,1706.0709,8.571,0.00030999997,-0.00010999999,3.1570098
262.71667,2000,0,91.24,0.000002697398,0.000002697398,0.000002697398,0.99999994,0,0,0,0,0,0,0,1,0,0,0,false,false,true,-168.17,-2154.17,16.99,-0.0047285384,0.0007957324,0.9863354,0.16467944,-587.011,1692.8209,8.571,0.00030999997,-0.00010999999,3.1468098
262.725,2000,0,91.24,0.000002697398,0.000002697398,0.000002697398,0.99999994,0,0,0,0,0,0,0,1,0,0,0,false,false,true,-173.06,-2140.06,16.99,-0.0047393283,0.00073099486,0.98841,0.15173192,-589.61096,1679.6509,8.571,0.00030999997,-0.00010999999,3.13451
262.73334,2000,0,91.24,0.000002697398,0.000002697398,0.000002697398,0.99999994,0,0,0,0,0,0,0,1,0,0,0,false,false,true,-177.97,-2126.06,16.99,-0.004750118,0.00066625734,0.9903072,0.13881132,-591.831,1666.601,8.571,0.00030999997,-0.00010999999,3.12001
262.74167,2000,0,91.24,0.000002697398,0.000002697398,0.000002697398,0.99999994,0,0,0,0,0,0,0,1,0,0,0,false,false,true,-182.9,-2112.17,16.99,-0.004760908,0.00060151983,0.9920277,0.12592854,-593.67096,1653.6909,8.571,0.00030999997,-0.00010999999,3.10321
262.75,2000,0,91.24,0.000002697398,0.000002697398,0.000002697398,0.99999994,0,0,0,0,0,0,0,1,0,0,0,false,false,true,-187.84999,-2098.39,16.99,-0.004766302,0.0005367822,0.99357325,0.11308884,-595.15094,1640.9609,8.571,0.00030999997,0,3.08411
262.75833,2000,0,91.24,0.000002697398,0.000002697398,0.000002697398,0.99999994,0,0,0,0,0,0,0,1,0,0,0,false,false,true,-192.81,-2084.72,16.99,-0.004771697,0.00047204466,0.9949442,0.10031396,-596.27094,1628.4309,8.571,0.00030999997,0,3.06261
262.76666,2000,0,91.24,0.000002697398,0.000002697398,0.000002697398,0.99999994,0,0,0,0,0,0,0,1,0,0,0,false,false,true,-197.78,-2071.15,16.99,-0.0047770916,0.00040730706,0.9961432,0.08760912,-597.061,1616.131,8.571,0.00030999997,0,3.0385098
262.775,2000,0,91.24,0.000002697398,0.000002697398,0.000002697398,0.99999994,0,0,0,0,0,0,0,1,0,0,0,false,false,true,-202.76,-2057.68,16.99,-0.0047824867,0.00034796435,0.99717265,0.074990615,-597.52094,1604.0809,8.571,0.00030999997,0,3.0118098
262.78333,2000,0,91.24,0.000002697398,0.000002697398,0.000002697398,0.99999994,0,0,0,0,0,0,0,1,0,0,0,false,false,true,-207.73999,-2044.3099,16.99,-0.0047878814,0.00028862158,0.9980353,0.062469296,-597.68097,1592.3109,8.571,0.00030999997,0,2.98241
262.79166,2000,0,91.24,0.000002697398,0.000002697398,0.000002697398,0.99999994,0,0,0,0,0,0,0,1,0,0,0,false,false,true,-212.72,-2031.0399,16.99,-0.004793276,0.00022927884,0.9987346,0.050061177,-597.561,1580.851,8.571,0.00040999998,0,2.9502099
262.8,2000,0,91.24,0.000002697398,0.000002697398,0.000002697398,0.99999994,0,0,0,0,0,0,0,1,0,0,0,false,false,true,-217.7,-2017.87,16.99,-0.004793276,0.00016993607,0.99927443,0.03778262,-597.17096,1569.7109,8.571,0.00040999998,0,2.9151099
262.80832,2000,0,91.24,0.000002697398,0.000002697398,0.000002697398,0.99999994,0,0,0,0,0,0,0,1,0,0,0,false,false,true,-222.68,-2004.7899,16.99,-0.0047932756,0.000110593304,0.9996595,0.025644246,-596.55096,1558.9209,8.571,0.00051,0,2.8770099
262.81668,2000,0,91.24,0.000002697398,0.000002697398,0.000002697398,0.99999994,0,0,0,0,0,0,0,1,0,0,0,false,false,true,-227.65,-1991.7999,16.99,-0.0047932756,0.000051250558,0.9998951,0.013657009,-595.71094,1548.501,8.571,0.00061,0,2.83581
262.825,2000,0,91.24,0.000002697398,0.000002697398,0.000002697398,0.99999994,0,0,0,0,0,0,0,1,0,0,0,false,false,true,-232.61,-1978.8999,16.99,-0.004793276,-0.000008092194,0.99998677,0.0018423229,-594.68097,1538.4609,8.571,0.00061,0,2.79141
262.83334,2000,0,91.24,0.000002697398,0.000002697398,0.000002697398,0.99999994,0,0,0,0,0,0,0,1,0,0,0,false,false,true,-237.56999,-1966.08,16.99,-0.004793276,-0.00006743495,0.9999405,-0.0097889,-593.49097,1528.8209,8.571,0.00061,0,2.74371
262.84167,2000,0,91.24,0.000002697398,0.000002697398,0.000002697398,0.99999994,0,0,0,0,0,0,0,1,0,0,0,false,false,true,-242.51999,-1953.34,16.99,-0.0047932756,-0.00012677768,0.9997632,-0.021220513,-592.16095,1519.601,8.571,0.00061,0,2.69261
262.85,2000,0,91.24,0.000002697398,0.000002697398,0.000002697398,0.99999994,0,0,0,0,0,0,0,1,0,0,0,false,false,true,-247.45,-1940.6799,16.99,-0.004793276,-0.00018072566,0.99946225,-0.032436337,-590.65094,1510.641,8.571,0.00061,0,2.6435099
262.85834,2000,0,91.24,0.000002697398,0.000002697398,0.000002697398,0.99999994,0,0,0,0,0,0,0,1,0,0,0,false,false,true,-252.37,-1928.09,16.99,-0.0047932765,-0.00023467364,0.9990444,-0.04344177,-588.97095,1501.9409,8.571,0.00061,0,2.59711
262.86667,2000,0,91.24,0.000002697398,0.000002697398,0.000002697398,0.99999994,0,0,0,0,0,0,0,1,0,0,0,false,false,true,-257.28,-1915.57,16.99,-0.004787881,-0.00028862155,0.99851584,-0.054247577,-587.15094,1493.511,8.571,0.00051,0,2.55311
262.875,2000,0,91.24,0.000002697398,0.000002697398,0.000002697398,0.99999994,0,0,0,0,0,0,0,1,0,0,0,false,false,true,-262.16998,-1903.12,16.99,-0.0047824867,-0.00034256955,0.9978825,-0.06486458,-585.11096,1485.2009,8.571,0.00040999998,0,2.51531
262.88333,2000,0,91.24,0.000002697398,0.000002697398,0.000002697398,0.99999994,0,0,0,0,0,0,0,1,0,0,0,false,false,true,-267.05,-1890.74,16.99,-0.004777092,-0.0003965175,0.99714786,-0.07531974,-582.821,1476.9409,8.571,0.00021,0,2.4855099
262.89166,2000,0,91.24,0.000002697398,0.000002697398,0.000002697398,0.99999994,0,0,0,0,0,0,0,1,0,0,0,false,false,true,-271.91,-1878.4299,16.99,-0.004771697,-0.00044507068,0.9963146,-0.08564003,-580.29095,1468.771,8.571,0,0,2.46341
262.9,2000,0,91.24,0.000002697398,0.000002697398,0.000002697398,0.99999994,0,0,0,0,0,0,0,1,0,0,0,false,false,true,-276.75,-1866.19,16.99,-0.004766302,-0.00049362384,0.9953829,-0.09586321,-577.53094,1460.7009,8.571,-0.00010999999,0,2.44871
262.90833,2000,0,91.24,0.000002697398,0.000002697398,0.000002697398,0.99999994,0,0,0,0,0,0,0,1,0,0,0,false,false,true,-281.56,-1854.02,16.99,-0.004760908,-0.00054217706,0.9943528,-0.10601626,-574.561,1452.761,8.571,-0.00021,-0.00010999999,2.44111
262.91666,2000,0,91.24,0.000002697398,0.000002697398,0.000002697398,0.99999994,0,0,0,0,0,0,0,1,0,0,0,false,false,true,-286.35,-1841.9099,16.99,-0.004755513,-0.00059073017,0.99322283,-0.11612615,-571.391,1444.971,8.571,-0.00030999997,-0.00010999999,2.44051
262.925,2000,0,91.24,0.000002697398,0.000002697398,0.000002697398,0.99999994,0,0,0,0,0,0,0,1,0,0,0,false,false,true,-291.11,-1829.87,16.99,-0.004750118,-0.0006392834,0.9919907,-0.12621982,-568.03094,1437.351,8.571,-0.00051,-0.00021,2.44661
262.93332,2000,0,91.24,0.000002697398,0.000002697398,0.000002697398,0.99999994,0,0,0,0,0,0,0,1,0,0,0,false,false,true,-295.84,-1817.89,16.99,-0.0047447225,-0.00068783644,0.9906525,-0.13632429,-564.49097,1429.9209,8.571,-0.00061,-0.00021,2.45931
262.94168,2000,0,91.24,0.000002697398,0.000002697398,0.000002697398,0.99999994,0,0,0,0,0,0,0,1,0,0,0,false,false,true,-300.53998,-1805.97,16.99,-0.0047393283,-0.00073638966,0.98920393,-0.14646657,-560.79095,1422.7109,8.571,-0.00081,-0.00021,2.47851
262.95,2000,0,91.24,0.000002697398,0.000002697398,0.000002697398,0.99999994,0,0,0,0,0,0,0,1,0,0,0,false,false,true,-305.21,-1794.11,16.99,-0.0047339336,-0.000779548,0.9876387,-0.15667357,-556.941,1415.731,8.571,-0.00091,-0.00030999997,2.50401
262.95834,2000,0,91.24,0.000002697398,0.000002697398,0.000002697398,0.99999994,0,0,0,0,0,0,0,1,0,0,0,false,false,true,-309.85,-1782.3099,16.99,-0.004728539,-0.0008227065,0.9859508,-0.16696689,-552.96094,1409.001,8.571,-0.0010099999,-0.00030999997,2.53591
262.96667,2000,0,91.24,0.000002697398,0.000002697398,0.000002697398,0.99999994,0,0,0,0,0,0,0,1,0,0,0,false,false,true,-314.46,-1770.57,16.99,-0.004717749,-0.0008658648,0.9841319,-0.17737348,-548.821,1402.4409,8.571,-0.00111,-0.00030999997,2.57191
262.975,2000,0,91.24,0.000002697398,0.000002697398,0.000002697398,0.99999994,0,0,0,0,0,0,0,1,0,0,0,false,false,true,-319.03,-1758.88,16.99,-0.0047069597,-0.00090902316,0.9821746,-0.18790956,-544.48096,1395.9209,8.571,-0.00111,-0.00030999997,2.60931
262.98334,2000,0,91.24,0.000002697398,0.000002697398,0.000002697398,0.99999994,0,0,0,0,0,0,0,1,0,0,0,false,false,true,-323.57,-1747.25,16.99,-0.0046961703,-0.0009575764,0.9800739,-0.19857512,-539.98096,1389.4509,8.571,-0.0010099999,-0.00040999998,2.64821
262.99167,2000,0,91.24,0.000002697398,0.000002697398,0.000002697398,0.99999994,0,0,0,0,0,0,0,1,0,0,0,false,false,true,-328.07,-1735.6699,16.99,-0.0046853805,-0.0010061294,0.9778235,-0.20937553,-535.34094,1383.0809,8.571,-0.00091,-0.00040999998,2.68801
263,2000,0,91.24,0.000002697398,0.000002697398,0.000002697398,0.99999994,0,0,0,0,0,0,0,1,0,0,0,false,false,true,-332.53,-1724.14,16.99,-0.004674591,-0.0010546828,0.9754167,-0.22031625,-530.581,1376.8109,8.571,-0.00091,-0.00040999998,2.7288098
263.00833,2000,0,91.24,0.000002697398,0.000002697398,0.000002697398,0.99999994,0,0,0,0,0,0,0,1,0,0,0,false,false,true,-336.94998,-1712.6699,16.99,-0.0046638013,-0.0011032358,0.9728488,-0.23139179,-525.59094,1370.4609,8.571,-0.00081,-0.00040999998,2.76631
263.01666,2000,0,91.24,0.000002697398,0.000002697398,0.000002697398,0.99999994,0,0,0,0,0,0,0,1,0,0,0,false,false,true,-341.33,-1701.25,16.99,-0.0046530114,-0.001151789,0.9701167,-0.24259143,-520.36096,1364.021,8.571,-0.00071,-0.00040999998,2.8001099
263.025,2000,0,91.24,0.000002697398,0.000002697398,0.000002697398,0.99999994,0,0,0,0,0,0,0,1,0,0,0,false,false,true,-345.66998,-1689.88,16.99,-0.0046422225,-0.0012003422,0.96722025,-0.25389358,-514.90094,1357.521,8.571,-0.00051,-0.00030999997,2.8303099
263.03333,2000,0,91.24,0.000002697398,0.000002697398,0.000002697398,0.99999994,0,0,0,0,0,0,0,1,0,0,0,false,false,true,-349.96,-1678.57,16.99,-0.0046260376,-0.0012542901,0.9641589,-0.265282,-509.201,1350.981,8.571,-0.00030999997,-0.00021,2.85691
263.04166,2000,0,91.24,0.000002697398,0.000002697398,0.000002697398,0.99999994,0,0,0,0,0,0,0,1,0,0,0,false,false,true,-354.19998,-1667.3099,16.99,-0.0046098535,-0.0013082381,0.9609327,-0.27674064,-503.281,1344.4209,8.571,-0.00021,-0.00021,2.88011
263.05,2000,0,91.24,0.000002697398,0.000002697398,0.000002697398,0.99999994,0,0,0,0,0,0,0,1,0,0,0,false,false,true,-358.38998,-1656.11,16.99,-0.004593669,-0.001362186,0.9575422,-0.28825313,-497.13098,1337.861,8.571,-0.00010999999,-0.00010999999,2.89991
263.05832,2000,0,91.24,0.000002697398,0.000002697398,0.000002697398,0.99999994,0,0,0,0,0,0,0,1,0,0,0,false,false,true,-362.53,-1644.96,16.99,-0.004577485,-0.0014161341,0.9539889,-0.29980347,-490.771,1331.3309,8.571,0,-0.00010999999,2.9163098
263.06668,2000,0,91.24,0.000002697398,0.000002697398,0.000002697398,0.99999994,0,0,0,0,0,0,0,1,0,0,0,false,false,true,-366.62,-1633.87,16.99,-0.0045613,-0.001470082,0.9502749,-0.31137532,-484.201,1324.841,8.571,0,0,2.9295099
263.075,2000,0,91.24,0.000002697398,0.000002697398,0.000002697398,0.99999994,0,0,0,0,0,0,0,1,0,0,0,false,false,true,-370.65,-1622.83,16.99,-0.0045451154,-0.0015240299,0.9464029,-0.3229526,-477.441,1318.4209,8.571,0.00010999999,0,2.9395099
263.08334,2000,0,91.24,0.000002697398,0.000002697398,0.000002697398,0.99999994,0,0,0,0,0,0,0,1,0,0,0,false,false,true,-374.63,-1611.84,16.99,-0.0045289313,-0.0015779779,0.9423767,-0.3345191,-470.501,1312.091,8.571,0.00021,0,2.94641
263.09167,2000,0,91.24,0.000002697398,0.000002697398,0.000002697398,0.99999994,0,0,0,0,0,0,0,1,0,0,0,false,false,true,-378.55,-1600.9099,16.99,-0.0045073526,-0.0016319259,0.9381986,-0.346064,-463.391,1305.861,8.571,0.00021,0.00010999999,2.95031
263.1,2000,0,91.24,0.000002697398,0.000002697398,0.000002697398,0.99999994,0,0,0,0,0,0,0,1,0,0,0,false,false,true,-382.41,-1590.0299,16.99,-0.004485773,-0.0016858738,0.93387353,-0.35757113,-456.121,1299.751,8.571,0.00030999997,0.00010999999,2.95121
263.10834,2000,0,91.24,0.000002697398,0.000002697398,0.000002697398,0.99999994,0,0,0,0,0,0,0,1,0,0,0,false,false,true,-386.21,-1579.2,16.99,-0.004464194,-0.0017398219,0.9294052,-0.3690298,-448.711,1293.781,8.571,0.00040999998,0.00021,2.94921
263.11667,2000,0,91.24,0.000002697398,0.000002697398,0.000002697398,0.99999994,0,0,0,0,0,0,0,1,0,0,0,false,false,true,-389.94998,-1568.4199,16.99,-0.004442614,-0.0017937695,0.9247998,-0.38042355,-441.171,1287.971,8.571,0.00051,0.00030999997,2.9444098
263.125,2000,0,91.24,0.000002697398,0.000002697398,0.000002697398,0.99999994,0,0,0,0,0,0,0,1,0,0,0,false,false,true,-393.63,-1557.69,16.99,-0.0044210358,-0.0018531126,0.9200626,-0.39174196,-433.531,1282.3309,8.571,0.00051,0.00030999997,2.93681
263.13333,2000,0,91.24,0.000002697398,0.000002697398,0.000002697398,0.99999994,0,0,0,0,0,0,0,1,0,0,0,false,false,true,-397.24,-1547,16.99,-0.0043994556,-0.0019070603,0.9152011,-0.40296847,-425.801,1276.871,8.571,0.00051,0.00040999998,2.9265099
263.14166,2000,0,91.24,0.000002697398,0.000002697398,0.000002697398,0.99999994,0,0,0,0,0,0,0,1,0,0,0,false,false,true,-400.78998,-1536.36,16.99,-0.004372482,-0.0019610084,0.9102196,-0.41409805,-417.991,1271.601,8.571,0.00051,0.00051,2.9135098
263.15,2000,0,91.24,0.000002697398,0.000002697398,0.000002697398,0.99999994,0,0,0,0,0,0,0,1,0,0,0,false,false,true,-404.27,-1525.76,16.99,-0.0043455083,-0.0020149562,0.9051269,-0.42511424,-410.131,1266.531,8.571,0.00051,0.00051,2.89801
263.15833,2000,0,91.24,0.000002697398,0.000002697398,0.000002697398,0.99999994,0,0,0,0,0,0,0,1,0,0,0,false,false,true,-407.69,-1515.21,16.99,-0.0043185344,-0.0020689045,0.89992815,-0.43601185,-402.241,1261.6709,8.571,0.00061,0.00051,2.88001
263.16666,2000,0,91.24,0.000002697398,0.000002697398,0.000002697398,0.99999994,0,0,0,0,0,0,0,1,0,0,0,false,false,true,-411.03998,-1504.7,16.99,-0.0042915596,-0.002122852,0.89463097,-0.44677976,-394.331,1257.021,8.571,0.00061,0.00051,2.85951
263.175,2000,0,91.24,0.000002697398,0.000002697398,0.000002697398,0.99999994,0,0,0,0,0,0,0,1,0,0,0,false,false,true,-414.33,-1494.22,16.99,-0.0042645857,-0.0021768,0.8892441,-0.4574076,-386.431,1252.591,8.571,0.00061,0.00051,2.8366098
263.18332,2000,0,91.24,0.000002697398,0.000002697398,0.000002697398,0.99999994,0,0,0,0,0,0,0,1,0,0,0,false,false,true,-417.55,-1483.7799,16.99,-0.0042376122,-0.002230748,0.88377666,-0.46788436,-378.551,1248.381,8.571,0.00061,0.00051,2.81131
263.19168,2000,0,91.24,0.000002697398,0.000002697398,0.000002697398,0.99999994,0,0,0,0,0,0,0,1,0,0,0,false,false,true,-420.69998,-1473.38,16.99,-0.0042106383,-0.002284696,0.8782353,-0.47820467,-370.711,1244.401,8.571,0.00061,0.00051,2.78381
263.2,2000,0,91.24,0.000002697398,0.000002697398,0.000002697398,0.99999994,0,0,0,0,0,0,0,1,0,0,0,false,false,true,-423.78998,-1463.01,16.99,-0.004183665,-0.0023386443,0.87263036,-0.48835772,-362.931,1240.651,8.571,0.00051,0.00051,2.75401
263.20834,2000,0,91.24,0.000002697398,0.000002697398,0.000002697398,0.99999994,0,0,0,0,0,0,0,1,0,0,0,false,false,true,-426.81,-1452.6699,16.99,-0.0041566906,-0.0023871975,0.86696947,-0.49833813,-355.231,1237.121,8.571,0.00051,0.00051,2.72201
263.21667,2000,0,91.24,0.000002697398,0.000002697398,0.000002697398,0.99999994,0,0,0,0,0,0,0,1,0,0,0,false,false,true,-429.77,-1442.36,16.99,-0.004129716,-0.0024357503,0.8612608,-0.50814044,-347.631,1233.8209,8.561,0.00051,0.00051,2.6879098
263.225,2000,0,91.24,0.000002697398,0.000002697398,0.000002697398,0.99999994,0,0,0,0,0,0,0,1,0,0,0,false,false,true,-432.66998,-1432.08,16.99,-0.004102742,-0.0024843034,0.8555159,-0.51775396,-340.141,1230.741,8.561,0.00040999998,0.00061,2.65171
263.23334,2000,0,91.24,0.000002697398,0.000002697398,0.000002697398,0.99999994,0,0,0,0,0,0,0,1,0,0,0,false,false,true,-435.5,-1421.82,16.99,-0.004075769,-0.002532857,0.84974414,-0.52717346,-332.791,1227.871,8.561,0.00040999998,0.00061,2.61351
263.24167,2000,0,91.24,0.000002697398,0.000002697398,0.000002697398,0.99999994,0,0,0,0,0,0,0,1,0,0,0,false,false,true,-438.27,-1411.59,16.99,-0.0040487945,-0.0025814099,0.8439545,-0.5363931,-325.581,1225.2109,8.561,0.00030999997,0.00071,2.57331
263.25,2000,0,91.24,0.000002697398,0.000002697398,0.000002697398,0.99999994,0,0,0,0,0,0,0,1,0,0,0,false,false,true,-440.97998,-1401.38,16.99,-0.0040164255,-0.002629963,0.8381534,-0.54541326,-318.531,1222.761,8.561,0.00021,0.00071,2.53121
263.25833,2000,0,91.24,0.000002697398,0.000002697398,0.000002697398,0.99999994,0,0,0,0,0,0,0,1,0,0,0,false,false,true,-443.63,-1391.19,16.99,-0.003984057,-0.0026731214,0.8323543,-0.554223,-311.661,1220.501,8.561,0.00021,0.00071,2.48721
263.26666,2000,0,91.24,0.000002697398,0.000002697398,0.000002697398,0.99999994,0,0,0,0,0,0,0,1,0,0,0,false,false,true,-446.22998,-1381.02,16.99,-0.003951688,-0.0027162798,0.8265676,-0.5628169,-304.981,1218.4309,8.561,0.00021,0.00071,2.44131
263.275,2000,0,91.24,0.000002697398,0.000002697398,0.000002697398,0.99999994,0,0,0,0,0,0,0,1,0,0,0,false,false,true,-448.77,-1370.87,16.99,-0.0039193197,-0.0027594385,0.82080024,-0.5711951,-298.501,1216.5409,8.561,0.00021,0.00061,2.39361
263.28333,2000,0,91.24,0.000002697398,0.000002697398,0.000002697398,0.99999994,0,0,0,0,0,0,0,1,0,0,0,false,false,true,-451.25998,-1360.73,16.99,-0.0038923454,-0.0028025967,0.81506324,-0.579352,-292.231,1214.8209,8.551001,0.00021,0.00051,2.34421
263.29166,2000,0,91.24,0.000002697398,0.000002697398,0.000002697398,0.99999994,0,0,0,0,0,0,0,1,0,0,0,false,false,true,-453.69998,-1350.61,16.99,-0.0038653715,-0.0028403602,0.80936384,-0.58728784,-286.181,1213.261,8.551001,0.00021,0.00051,2.29311
263.3,2000,0,91.24,0.000002697398,0.000002697398,0.000002697398,0.99999994,0,0,0,0,0,0,0,1,0,0,0,false,false,true,-456.08,-1340.5,16.99,-0.0038383976,-0.0028781237,0.8037175,-0.5949916,-280.361,1211.851,8.551001,0.00021,0.00051,2.2404099
263.30832,2000,0,91.24,0.000002697398,0.000002697398,0.000002697398,0.99999994,0,0,0,0,0,0,0,1,0,0,0,false,false,true,-458.41998,-1330.4,16.99,-0.0038114234,-0.0029158874,0.7981279,-0.6024688,-274.771,1210.5809,8.551001,0.00010999999,0.00051,2.18611
263.31668,2000,0,91.24,0.000002697398,0.000002697398,0.000002697398,0.99999994,0,0,0,0,0,0,0,1,0,0,0,false,false,true,-460.71,-1320.3099,16.99,-0.003784449,-0.0029536507,0.7926068,-0.60971403,-269.421,1209.4409,8.551001,0.00010999999,0.00051,2.13031
263.325,2000,0,91.24,0.000002697398,0.000002697398,0.000002697398,0.99999994,0,0,0,0,0,0,0,1,0,0,0,false,false,true,-462.96,-1310.23,16.99,-0.0037574756,-0.0029914144,0.78716207,-0.61672735,-264.321,1208.4209,8.551001,0,0.00051,2.07301
263.33334,2000,0,91.24,0.000002697398,0.000002697398,0.000002697398,0.99999994,0,0,0,0,0,0,0,1,0,0,0,false,false,true,-465.16,-1300.1599,16.99,-0.003730501,-0.003023783,0.78180593,-0.62350315,-259.471,1207.511,8.551001,0,0.00051,2.01431
263.34167,2000,0,91.24,0.000002697398,0.000002697398,0.000002697398,0.99999994,0,0,0,0,0,0,0,1,0,0,0,false,false,true,-467.31998,-1290.1,16.99,-0.0037035276,-0.003056152,0.77654636,-0.6300417,-254.871,1206.7009,8.551001,0,0.00051,1.9543099
263.35,2000,0,91.24,0.000002697398,0.000002697398,0.000002697398,0.99999994,0,0,0,0,0,0,0,1,0,0,0,false,false,true,-469.44,-1280.0399,16.99,-0.0036765535,-0.0030885208,0.7713913,-0.6363429,-250.531,1205.981,8.551001,0,0.00051,1.89301
263.35834,2000,0,91.24,0.000002697398,0.000002697398,0.000002697398,0.99999994,0,0,0,0,0,0,0,1,0,0,0,false,false,true,-471.53,-1269.99,16.99,-0.0036495791,-0.0031208894,0.7663488,-0.6424066,-246.441,1205.341,8.541,0,0.00051,1.83051
263.36667,2000,0,91.24,0.000002697398,0.000002697398,0.000002697398,0.99999994,0,0,0,0,0,0,0,1,0,0,0,false,false,true,-473.58,-1259.95,16.99,-0.0036226057,-0.0031478636,0.76142675,-0.64823306,-242.601,1204.761,8.541,0,0.00051,1.7668099
263.375,2000,0,91.24,0.000002697398,0.000002697398,0.000002697398,0.99999994,0,0,0,0,0,0,0,1,0,0,0,false,false,true,-475.59998,-1249.9099,16.99,-0.0035956316,-0.0031748374,0.75663304,-0.65382206,-239.011,1204.241,8.541,0,0.00051,1.7021099
263.38333,2000,0,91.24,0.000002697398,0.000002697398,0.000002697398,0.99999994,0,0,0,0,0,0,0,1,0,0,0,false,false,true,-477.59,-1239.87,16.99,-0.0035740524,-0.0032018116,0.75197524,-0.6591738,-235.671,1203.771,8.541,0,0.00051,1.63641
263.39166,2000,0,91.24,0.000002697398,0.000002697398,0.000002697398,0.99999994,0,0,0,0,0,0,0,1,0,0,0,false,false,true,-479.55,-1229.84,16.99,-0.0035524734,-0.0032287855,0.74746114,-0.66428804,-232.561,1203.351,8.541,0,0.00051,1.5699099
263.4,2000,0,91.24,0.000002697398,0.000002697398,0.000002697398,0.99999994,0,0,0,0,0,0,0,1,0,0,0,false,false,true,-481.49,-1219.8099,16.99,-0.0035308942,-0.0032557594,0.74309826,-0.66916496,-229.681,1202.9609,8.541,0,0.00051,1.50281
263.40833,2000,0,91.24,0.000002697398,0.000002697398,0.000002697398,0.99999994,0,0,0,0,0,0,0,1,0,0,0,false,false,true,-483.4,-1209.7899,16.99,-0.003509315,-0.0032773386,0.7388939,-0.6738045,-227.021,1202.601,8.541,0,0.00040999998,1.43531
263.41666,2000,0,91.24,0.000002697398,0.000002697398,0.000002697398,0.99999994,0,0,0,0,0,0,0,1,0,0,0,false,false,true,-485.28998,-1199.77,16.99,-0.0034877358,-0.0032989178,0.73485047,-0.67821205,-224.571,1202.271,8.541,0,0.00040999998,1.36751
263.425,2000,0,91.24,0.000002697398,0.000002697398,0.000002697398,0.99999994,0,0,0,0,0,0,0,1,0,0,0,false,false,true,-487.16,-1189.75,16.99,-0.0034661568,-0.0033204972,0.7309746,-0.6823877,-222.321,1201.9609,8.541,0,0.00040999998,1.29961
263.43332,2000,0,91.24,0.000002697398,0.000002697398,0.000002697398,0.99999994,0,0,0,0,0,0,0,1,0,0,0,false,false,true,-489.00998,-1179.73,16.99,-0.0034445776,-0.0033420764,0.7272681,-0.6863367,-220.261,1201.6609,8.541,0,0.00030999997,1.23171
263.44168,2000,0,91.24,0.000002697398,0.000002697398,0.000002697398,0.99999994,0,0,0,0,0,0,0,1,0,0,0,false,false,true,-490.84998,-1169.72,16.99,-0.0034283933,-0.0033582607,0.72373706,-0.6900591,-218.371,1201.371,8.541,0,0.00021,1.1640099
263.45,2000,0,91.24,0.000002697398,0.000002697398,0.000002697398,0.99999994,0,0,0,0,0,0,0,1,0,0,0,false,false,true,-492.66998,-1159.71,16.99,-0.0034122085,-0.003374445,0.72038245,-0.69356036,-216.651,1201.091,8.541,0,0.00021,1.0965099
263.45834,2000,0,91.24,0.000002697398,0.000002697398,0.000002697398,0.99999994,0,0,0,0,0,0,0,1,0,0,0,false,false,true,-494.47998,-1149.7,16.99,-0.0033960242,-0.0033906293,0.7172048,-0.69684577,-215.091,1200.8109,8.541,0,0.00021,1.02931
263.46667,2000,0,91.24,0.000002697398,0.000002697398,0.000002697398,0.99999994,0,0,0,0,0,0,0,1,0,0,0,false,false,true,-496.27,-1139.69,16.99,-0.00337984,-0.003406814,0.7142095,-0.69991547,-213.681,1200.5409,8.541,0,0.00021,0.96261
263.475,2000,0,91.24,0.000002697398,0.000002697398,0.000002697398,0.99999994,0,0,0,0,0,0,0,1,0,0,0,false,false,true,-498.05,-1129.69,16.99,-0.0033636556,-0.0034229984,0.7113962,-0.70277476,-212.411,1200.271,8.541,0,0.00010999999,0.89631
263.48334,2000,0,91.24,0.000002697398,0.000002697398,0.000002697398,0.99999994,0,0,0,0,0,0,0,1,0,0,0,false,false,true,-499.81998,-1119.69,16.99,-0.003352866,-0.003433788,0.7087644,-0.70542896,-211.271,1200.001,8.541,0,0,0.83061
263.49167,2000,0,91.24,0.000002697398,0.000002697398,0.000002697398,0.99999994,0,0,0,0,0,0,0,1,0,0,0,false,false,true,-501.58,-1109.69,16.99,0.0033420757,0.0034445769,-0.70631903,0.7078772,-210.251,1199.721,8.541,0,0,0.76551
263.5,2000,0,91.24,0.000002697398,0.000002697398,0.000002697398,0.99999994,0,0,0,0,0,0,0,1,0,0,0,false,false,true,-503.33,-1099.69,16.99,0.0033312866,0.003455367,-0.70405865,0.7101255,-209.341,1199.4409,8.541,0,0,0.70101
263.50833,2000,0,91.24,0.000002697398,0.000002697398,0.000002697398,0.99999994,0,0,0,0,0,0,0,1,0,0,0,false,false,true,-505.06998,-1089.69,16.99,0.0033204972,0.0034661568,-0.7019817,0.71217877,-208.531,1199.161,8.541,0,0,0.63711
263.51666,2000,0,91.24,0.000002697398,0.000002697398,0.000002697398,0.99999994,0,0,0,0,0,0,0,1,0,0,0,false,false,true,-506.81,-1079.7,16.99,0.0033097074,0.0034769461,-0.700088,0.7140403,-207.821,1198.871,8.541,0,0,0.57391
263.525,2000,0,91.24,0.000002697398,0.000002697398,0.000002697398,0.99999994,0,0,0,0,0,0,0,1,0,0,0,false,false,true,-508.53998,-1069.71,16.99,0.0032989178,0.0034823408,-0.6983779,0.715713,-207.19101,1198.5809,8.541,0,0,0.51141
263.53333,2000,0,91.24,0.000002697398,0.000002697398,0.000002697398,0.99999994,0,0,0,0,0,0,0,1,0,0,0,false,false,true,-510.27,-1059.72,16.99,0.003293523,0.0034877358,-0.69685113,0.7171997,-206.631,1198.2909,8.541,0,0,0.44971
263.54166,2000,0,91.24,0.000002697398,0.000002697398,0.000002697398,0.99999994,0,0,0,0,0,0,0,1,0,0,0,false,false,true,-511.99,-1049.73,16.99,0.0032881282,0.0034931304,-0.6955079,0.71850234,-206.141,1197.991,8.541,0,0,0.38871
263.55,2000,0,91.24,0.000002697398,0.000002697398,0.000002697398,0.99999994,0,0,0,0,0,0,0,1,0,0,0,false,false,true,-513.70996,-1039.75,16.99,0.0032827335,0.0034985254,-0.69434255,0.7196285,-205.711,1197.6909,8.541,0,0,0.32841
263.55832,2000,0,91.24,0.000002697398,0.000002697398,0.000002697398,0.99999994,0,0,0,0,0,0,0,1,0,0,0,false,false,true,-515.42,-1029.77,16.99,0.0032773386,0.00350392,-0.6933553,0.7205798,-205.33101,1197.391,8.541,0,0,0.26891002
263.56668,2000,0,91.24,0.000002697398,0.000002697398,0.000002697398,0.99999994,0,0,0,0,0,0,0,1,0,0,0,false,false,true,-517.13,-1019.79,16.99,0.0032719441,0.0035093152,-0.6925462,0.7213575,-204.991,1197.091,8.541,0,0,0.21011
263.575,2000,0,91.24,0.000002697398,0.000002697398,0.000002697398,0.99999994,0,0,0,0,0,0,0,1,0,0,0,false,false,true,-518.83997,-1009.81,16.99,0.0032665485,0.0035147092,-0.69191486,0.721963,-204.681,1196.7909,8.541,0,0,0.15211
263.58334,2000,0,91.24,0.000002697398,0.000002697398,0.000002697398,0.99999994,0,0,0,0,0,0,0,1,0,0,0,false,false,true,-520.55,-999.83997,16.99,0.0032665485,0.0035147092,-0.6914563,0.72240216,-204.391,1196.491,8.541,0,0,0.094809994
263.59167,2000,0,91.24,0.000002697398,0.000002697398,0.000002697398,0.99999994,0,0,0,0,0,0,0,1,0,0,0,false,false,true,-522.25,-989.87,16.99,0.003266549,0.0035147096,-0.69117045,0.72267574,-204.121,1196.1909,8.541,0,0,0.03831
263.6,2000,0,91.24,0.000002697398,0.000002697398,0.000002697398,0.99999994,0,0,0,0,0,0,0,1,0,0,0,false,false,true,-523.95,-979.89996,16.99,0.003266549,0.0035147096,-0.69105715,0.7227841,-203.851,1195.891,8.541,0,0,-0.01741
263.60834,2000,0,91.24,0.000002697398,0.000002697398,0.000002697398,0.99999994,0,0,0,0,0,0,0,1,0,0,0,false,false,true,-525.64996,-969.93,16.99,0.0032665485,0.0035147092,-0.691111,0.7227325,-203.58101,1195.601,8.541,0,0,-0.072409995
263.61667,2000,0,91.24,0.000002697398,0.000002697398,0.000002697398,0.99999994,0,0,0,0,0,0,0,1,0,0,0,false,false,true,-527.35,-959.97,16.99,0.003266549,0.0035147096,-0.6913269,0.7225261,-203.311,1195.3109,8.541,0,0,-0.12661
263.625,2000,0,91.24,0.000002697398,0.000002697398,0.000002697398,0.99999994,0,0,0,0,0,0,0,1,0,0,0,false,false,true,-529.04,-950.00995,16.99,0.003266549,0.0035147096,-0.69170994,0.7221594,-203.021,1195.031,8.541,0,0,-0.18011
263.63333,2000,0,91.24,0.000002697398,0.000002697398,0.000002697398,0.99999994,0,0,0,0,0,0,0,1,0,0,0,false,false,true,-530.73,-940.05,16.99,0.003266549,0.0035147096,-0.6922494,0.7216423,-202.711,1194.761,8.541,0,-0.00010999999,-0.23290999
263.64166,2000,0,91.24,0.000002697398,0.000002697398,0.000002697398,0.99999994,0,0,0,0,0,0,0,1,0,0,0,false,false,true,-532.42,-930.08997,16.99,0.0032719441,0.0035093152,-0.6929508,0.7209689,-202.371,1194.501,8.541,0,-0.00021,-0.28491
263.65,2000,0,91.24,0.000002697398,0.000002697398,0.000002697398,0.99999994,0,0,0,0,0,0,0,1,0,0,0,false,false,true,-534.11,-920.13995,16.99,0.0032773386,0.00350392,-0.6938085,0.72014344,-201.991,1194.241,8.541,0,-0.00021,-0.33621
263.65833,2000,0,91.24,0.000002697398,0.000002697398,0.000002697398,0.99999994,0,0,0,0,0,0,0,1,0,0,0,false,false,true,-535.79,-910.19,16.99,0.0032827337,0.0034985256,-0.69481736,0.7191702,-201.571,1193.991,8.541,0,-0.00021,-0.38681
263.66666,2000,0,91.24,0.000002697398,0.000002697398,0.000002697398,0.99999994,0,0,0,0,0,0,0,1,0,0,0,false,false,true,-537.47,-900.24,16.99,0.0032881282,0.0034931304,-0.6959772,0.71804774,-201.101,1193.751,8.541,0,-0.00021,-0.43671
263.675,2000,0,91.24,0.000002697398,0.000002697398,0.000002697398,0.99999994,0,0,0,0,0,0,0,1,0,0,0,false,false,true,-539.14996,-890.29,16.99,0.003293523,0.0034877358,-0.69728273,0.71678,-200.58101,1193.521,8.541,0,-0.00021,-0.48581
263.68332,2000,0,91.24,0.000002697398,0.000002697398,0.000002697398,0.99999994,0,0,0,0,0,0,0,1,0,0,0,false,false,true,-540.82,-880.33997,16.99,0.0032989178,0.0034823408,-0.6987339,0.71536547,-199.991,1193.3109,8.541,0,-0.00021,-0.53421
263.69168,2000,0,91.24,0.000002697398,0.000002697398,0.000002697398,0.99999994,0,0,0,0,0,0,0,1,0,0,0,false,false,true,-542.49,-870.39996,16.99,0.0033097076,0.0034769464,-0.7003255,0.71380746,-199.33101,1193.111,8.541,0,-0.00021,-0.58181
263.7,2000,0,91.24,0.000002697398,0.000002697398,0.000002697398,0.99999994,0,0,0,0,0,0,0,1,0,0,0,false,false,true,-544.14996,-860.45996,16.99,0.003320497,0.0034661565,-0.70205176,0.7121096,-198.601,1192.9209,8.541,0,-0.00021,-0.62871
263.70834,2000,0,91.24,0.000002697398,0.000002697398,0.000002697398,0.99999994,0,0,0,0,0,0,0,1,0,0,0,false,false,true,-545.8,-850.51996,16.99,0.0033312866,0.003455367,-0.703913,0.7102699,-197.791,1192.741,8.541,0,-0.00021,-0.67481
263.71667,2000,0,91.24,0.000002697398,0.000002697398,0.000002697398,0.99999994,0,0,0,0,0,0,0,1,0,0,0,false,false,true,-547.45,-840.57996,16.99,0.0033420762,0.0034445773,-0.7059091,0.7082861,-196.891,1192.5709,8.541,0,-0.00021,-0.72011
263.725,2000,0,91.24,0.000002697398,0.000002697398,0.000002697398,0.99999994,0,0,0,0,0,0,0,1,0,0,0,false,false,true,-549.08997,-830.63995,16.99,-0.003352866,-0.003433788,0.7080333,-0.7061627,-195.901,1192.411,8.541,0,-0.00021,-0.76461
263.73334,2000,0,91.24,0.000002697398,0.000002697398,0.000002697398,0.99999994,0,0,0,0,0,0,0,1,0,0,0,false,false,true,-550.72,-820.69995,16.99,-0.0033636554,-0.0034229981,0.7102806,-0.7039022,-194.811,1192.251,8.541,0,-0.00021,-0.80831
263.74167,2000,0,91.24,0.000002697398,0.000002697398,0.000002697398,0.99999994,0,0,0,0,0,0,0,1,0,0,0,false,false,true,-552.33997,-810.76,16.99,-0.003374445,-0.0034122085,0.71264637,-0.7015069,-193.621,1192.101,8.541,0,-0.00021,-0.85121
263.75,2000,0,91.24,0.000002697398,0.000002697398,0.000002697398,0.99999994,0,0,0,0,0,0,0,1,0,0,0,false,false,true,-553.95,-800.82996,16.99,-0.0033852346,-0.003401419,0.71512824,-0.6989767,-192.321,1191.9609,8.541,0,-0.00021,-0.89321
263.75833,2000,0,91.24,0.000002697398,0.000002697398,0.000002697398,0.99999994,0,0,0,0,0,0,0,1,0,0,0,false,false,true,-555.55,-790.89996,16.99,-0.0033960242,-0.0033906293,0.7177234,-0.69631165,-190.911,1191.8209,8.541,0,-0.00021,-0.93431
263.76666,2000,0,91.24,0.000002697398,0.000002697398,0.000002697398,0.99999994,0,0,0,0,0,0,0,1,0,0,0,false,false,true,-557.14,-780.97,16.99,-0.0034122085,-0.003374445,0.7204292,-0.6935118,-189.391,1191.6809,8.541,0,-0.00030999997,-0.97451
263.775,2000,0,91.24,0.000002697398,0.000002697398,0.000002697398,0.99999994,0,0,0,0,0,0,0,1,0,0,0,false,false,true,-558.72,-771.04,16.99,-0.003428393,-0.0033582605,0.72323775,-0.69058233,-187.751,1191.5409,8.541,0,-0.00030999997,-1.01371
263.78333,2000,0,91.24,0.000002697398,0.000002697398,0.000002697398,0.99999994,0,0,0,0,0,0,0,1,0,0,0,false,false,true,-560.27997,-761.11,16.99,-0.0034445776,-0.0033420764,0.7261462,-0.68752354,-185.981,1191.401,8.541,0,-0.00030999997,-1.0520099
263.79166,2000,0,91.24,0.000002697398,0.000002697398,0.000002697398,0.99999994,0,0,0,0,0,0,0,1,0,0,0,false,false,true,-561.83,-751.18,16.99,-0.0034607616,-0.003325892,0.72915167,-0.6843352,-184.08101,1191.261,8.541,0,-0.00030999997,-1.08921
263.8,2000,0,91.24,0.000002697398,0.000002697398,0.000002697398,0.99999994,0,0,0,0,0,0,0,1,0,0,0,false,false,true,-563.36,-741.25,16.99,-0.0034769461,-0.0033097074,0.7322514,-0.6810174,-182.05101,1191.111,8.541,0,-0.00030999997,-1.12541
263.80832,2000,0,91.24,0.000002697398,0.000002697398,0.000002697398,0.99999994,0,0,0,0,0,0,0,1,0,0,0,false,false,true,-564.88,-731.32,16.99,-0.0034931304,-0.003293523,0.73543745,-0.67757547,-179.881,1190.9609,8.541,0,-0.00030999997,-1.16051
263.81668,2000,0,91.24,0.000002697398,0.000002697398,0.000002697398,0.99999994,0,0,0,0,0,0,0,1,0,0,0,false,false,true,-566.38,-721.39996,16.99,-0.003509315,-0.0032773386,0.73870695,-0.6740095,-177.58101,1190.7909,8.541,0,-0.00030999997,-1.19461
263.825,2000,0,91.24,0.000002697398,0.000002697398,0.000002697398,0.99999994,0,0,0,0,0,0,0,1,0,0,0,false,false,true,-567.86,-711.48,16.99,-0.0035254995,-0.0032611545,0.74205214,-0.6703249,-175.141,1190.611,8.541,0,-0.00030999997,-1.22771
263.83334,2000,0,91.24,0.000002697398,0.000002697398,0.000002697398,0.99999994,0,0,0,0,0,0,0,1,0,0,0,false,false,true,-569.32,-701.56,16.99,-0.0035416833,-0.0032395748,0.7454702,-0.66652143,-172.561,1190.411,8.541,0,-0.00030999997,-1.25981
263.84167,2000,0,91.24,0.000002697398,0.000002697398,0.000002697398,0.99999994,0,0,0,0,0,0,0,1,0,0,0,false,false,true,-570.76,-691.64,16.99,-0.003557868,-0.0032179959,0.74895847,-0.66259944,-169.841,1190.1909,8.541,0,-0.00030999997,-1.29091
263.85,2000,0,91.24,0.000002697398,0.000002697398,0.000002697398,0.99999994,0,0,0,0,0,0,0,1,0,0,0,false,false,true,-572.18,-681.72,16.99,-0.0035740524,-0.0031964167,0.7525139,-0.6585588,-166.991,1189.9409,8.541,0,-0.00030999997,-1.32101
263.85834,2000,0,91.24,0.000002697398,0.000002697398,0.000002697398,0.99999994,0,0,0,0,0,0,0,1,0,0,0,false,false,true,-573.57,-671.8,16.99,-0.003590237,-0.0031748374,0.75612915,-0.65440476,-164.001,1189.661,8.541,0,-0.00030999997,-1.35021
263.86667,2000,0,91.24,0.000002697398,0.000002697398,0.000002697398,0.99999994,0,0,0,0,0,0,0,1,0,0,0,false,false,true,-574.94,-661.89,16.99,-0.0036064212,-0.0031532582,0.7597968,-0.65014285,-160.871,1189.351,8.541,0,-0.00030999997,-1.37841
263.875,2000,0,91.24,0.000002697398,0.000002697398,0.000002697398,0.99999994,0,0,0,0,0,0,0,1,0,0,0,false,false,true,-576.27997,-651.98,16.99,-0.0036280006,-0.0031316795,0.76351887,-0.6457677,-157.61101,1189.001,8.541,0,-0.00030999997,-1.40571
263.88333,2000,0,91.24,0.000002697398,0.000002697398,0.000002697398,0.99999994,0,0,0,0,0,0,0,1,0,0,0,false,false,true,-577.58997,-642.07,16.99,-0.0036495791,-0.0031100998,0.7672881,-0.64128447,-154.22101,1188.611,8.541,0,-0.00030999997,-1.43211
263.89166,2000,0,91.24,0.000002697398,0.000002697398,0.000002697398,0.99999994,0,0,0,0,0,0,0,1,0,0,0,false,false,true,-578.88,-632.16,16.99,-0.0036711588,-0.0030885208,0.7711019,-0.6366936,-150.69101,1188.1709,8.541,0,-0.00030999997,-1.45771
263.9,2000,0,91.24,0.000002697398,0.000002697398,0.000002697398,0.99999994,0,0,0,0,0,0,0,1,0,0,0,false,false,true,-580.14,-622.26,16.99,-0.003692738,-0.0030669416,0.77495337,-0.632,-147.031,1187.6809,8.541,0,-0.00030999997,-1.48241
263.90833,2000,0,91.24,0.000002697398,0.000002697398,0.000002697398,0.99999994,0,0,0,0,0,0,0,1,0,0,0,false,false,true,-581.37,-612.36,16.99,-0.0037143172,-0.0030453624,0.77884436,-0.6271987,-143.241,1187.141,8.541,0,-0.00030999997,-1.50631
263.91666,2000,0,91.24,0.000002697398,0.000002697398,0.000002697398,0.99999994,0,0,0,0,0,0,0,1,0,0,0,false,false,true,-582.56,-602.47,16.99,-0.003735896,-0.003023783,0.78276384,-0.6223001,-139.33101,1186.5409,8.541,0,-0.00030999997,-1.52931
263.925,2000,0,91.24,0.000002697398,0.000002697398,0.000002697398,0.99999994,0,0,0,0,0,0,0,1,0,0,0,false,false,true,-583.72,-592.58,16.99,-0.0037574752,-0.002996809,0.78671366,-0.61729914,-135.291,1185.881,8.541,-0.00010999999,-0.00030999997,-1.55151
263.93332,2000,0,91.24,0.000002697398,0.000002697398,0.000002697398,0.99999994,0,0,0,0,0,0,0,1,0,0,0,false,false,true,-584.85,-582.7,16.99,-0.0037790546,-0.0029698352,0.7906874,-0.6122011,-131.131,1185.151,8.541,-0.00010999999,-0.00021,-1.57291
263.94168,2000,0,91.24,0.000002697398,0.000002697398,0.000002697398,0.99999994,0,0,0,0,0,0,0,1,0,0,0,false,false,true,-585.94,-572.82,16.99,-0.0038006334,-0.002942861,0.7946827,-0.60700583,-126.851,1184.351,8.541,-0.00010999999,-0.00010999999,-1.5936099
263.95,2000,0,91.24,0.000002697398,0.000002697398,0.000002697398,0.99999994,0,0,0,0,0,0,0,1,0,0,0,false,false,true,-587,-562.95,16.99,-0.003822213,-0.0029158874,0.7986974,-0.60171354,-122.461,1183.481,8.541,-0.00010999999,-0.00010999999,-1.61351
263.95834,2000,0,91.24,0.000002697398,0.000002697398,0.000002697398,0.99999994,0,0,0,0,0,0,0,1,0,0,0,false,false,true,-588.01996,-553.08997,16.99,-0.0038437922,-0.0028889133,0.80272526,-0.5963295,-117.951,1182.5409,8.541,-0.00010999999,0,-1.63271
263.96667,2000,0,91.24,0.000002697398,0.000002697398,0.000002697398,0.99999994,0,0,0,0,0,0,0,1,0,0,0,false,false,true,-589,-543.24,16.99,-0.0038653715,-0.0028619394,0.8067642,-0.5908538,-113.33099,1181.521,8.541,-0.00010999999,0,-1.6511099
263.975,2000,0,91.24,0.000002697398,0.000002697398,0.000002697398,0.99999994,0,0,0,0,0,0,0,1,0,0,0,false,false,true,-589.94,-533.39,16.99,-0.0038869507,-0.0028349652,0.8108084,-0.58529174,-108.611,1180.411,8.541,-0.00010999999,0,-1.66881
263.98334,2000,0,91.24,0.000002697398,0.000002697398,0.000002697398,0.99999994,0,0,0,0,0,0,0,1,0,0,0,false,false,true,-590.85,-523.55,16.99,-0.003908529,-0.002807991,0.8148598,-0.5796379,-103.791,1179.221,8.541,-0.00021,0,-1.68581
263.99167,2000,0,91.24,0.000002697398,0.000002697398,0.000002697398,0.99999994,0,0,0,0,0,0,0,1,0,0,0,false,false,true,-591.70996,-513.72,16.99,-0.0039301086,-0.0027810175,0.8189126,-0.5738979,-98.870995,1177.9409,8.541,-0.00021,0,-1.7021099
264,2000,0,91.24,0.000002697398,0.000002697398,0.000002697398,0.99999994,0,0,0,0,0,0,0,1,0,0,0,false,false,true,-592.52997,-503.9,16.99,-0.0039516874,-0.002754043,0.8229613,-0.56807685,-93.851,1176.5709,8.541,-0.00021,0,-1.71771
264.00833,2000,0,91.24,0.000002697398,0.000002697398,0.000002697398,0.99999994,0,0,0,0,0,0,0,1,0,0,0,false,false,true,-593.31,-494.09998,16.99,-0.0039732675,-0.0027270697,0.8270079,-0.5621696,-88.741,1175.101,8.541,-0.00030999997,0,-1.73261
264.01666,2000,0,91.24,0.000002697398,0.000002697398,0.000002697398,0.99999994,0,0,0,0,0,0,0,1,0,0,0,false,false,true,-594.05,-484.31,16.99,-0.003989452,-0.0026947008,0.83104336,-0.55618674,-83.550995,1173.531,8.541,-0.00030999997,0,-1.74681
264.025,2000,0,91.24,0.000002697398,0.000002697398,0.000002697398,0.99999994,0,0,0,0,0,0,0,1,0,0,0,false,false,true,-594.75,-474.53,16.99,-0.0040056366,-0.002662332,0.8350698,-0.550123,-78.281,1171.861,8.541,-0.00030999997,0,-1.76041
264.03333,2000,0,91.24,0.000002697398,0.000002697398,0.000002697398,0.99999994,0,0,0,0,0,0,0,1,0,0,0,false,false,true,-595.39996,-464.75998,16.99,-0.0040218206,-0.0026299632,0.839082,-0.5439837,-72.931,1170.091,8.541,-0.00021,0,-1.77331
264.04166,2000,0,91.24,0.000002697398,0.000002697398,0.000002697398,0.99999994,0,0,0,0,0,0,0,1,0,0,0,false,false,true,-596.01,-455.00998,16.99,-0.0040380047,-0.0025975944,0.84307855,-0.5377688,-67.511,1168.2109,8.541,-0.00021,0,-1.78561
264.05,2000,0,91.24,0.000002697398,0.000002697398,0.000002697398,0.99999994,0,0,0,0,0,0,0,1,0,0,0,false,false,true,-596.57,-445.27,16.99,-0.004054189,-0.0025652256,0.8470548,-0.5314838,-62.021,1166.231,8.541,-0.00010999999,0,-1.79721
264.05832,2000,0,91.24,0.000002697398,0.000002697398,0.000002697398,0.99999994,0,0,0,0,0,0,0,1,0,0,0,false,false,true,-597.08997,-435.55,16.99,-0.0040703737,-0.0025328568,0.8510125,-0.52512336,-56.470997,1164.141,8.541,0,0,-1.80821
264.06668,2000,0,91.24,0.000002697398,0.000002697398,0.000002697398,0.99999994,0,0,0,0,0,0,0,1,0,0,0,false,false,true,-597.56,-425.84998,16.99,-0.0040919525,-0.002500488,0.85494393,-0.5186981,-50.861,1161.9409,8.541,0,0,-1.81861
264.075,2000,0,91.24,0.000002697398,0.000002697398,0.000002697398,0.99999994,0,0,0,0,0,0,0,1,0,0,0,false,false,true,-597.98,-416.16998,16.99,-0.004108137,-0.0024681191,0.85885113,-0.51220274,-45.201,1159.621,8.541,0,0,-1.8284099
264.08334,2000,0,91.24,0.000002697398,0.000002697398,0.000002697398,0.99999994,0,0,0,0,0,0,0,1,0,0,0,false,false,true,-598.36,-406.50998,16.99,-0.004124322,-0.0024357506,0.86272967,-0.5056427,-39.490997,1157.1909,8.541,0,0,-1.83761
264.09167,2000,0,91.24,0.000002697398,0.000002697398,0.000002697398,0.99999994,0,0,0,0,0,0,0,1,0,0,0,false,false,true,-598.69,-396.87,16.99,-0.004140506,-0.0024033815,0.8665753,-0.49902323,-33.731,1154.641,8.541,0,0,-1.84621
264.1,2000,0,91.24,0.000002697398,0.000002697398,0.000002697398,0.99999994,0,0,0,0,0,0,0,1,0,0,0,false,false,true,-598.97,-387.25,16.99,-0.0041566906,-0.0023710132,0.87038726,-0.49234447,-27.940998,1151.981,8.541,0,-0.00010999999,-1.85421
264.10834,2000,0,91.24,0.000002697398,0.000002697398,0.000002697398,0.99999994,0,0,0,0,0,0,0,1,0,0,0,false,false,true,-599.2,-377.65,16.99,-0.004172875,-0.0023386443,0.87416446,-0.48560637,-22.110998,1149.2009,8.541,0,-0.00010999999,-1.8616099
264.11667,2000,0,91.24,0.000002697398,0.000002697398,0.000002697398,0.99999994,0,0,0,0,0,0,0,1,0,0,0,false,false,true,-599.38,-368.06998,16.99,-0.004189059,-0.0023062753,0.8779061,-0.4788089,-16.261,1146.3009,8.541,0,-0.00021,-1.86841
264.125,2000,0,91.24,0.000002697398,0.000002697398,0.000002697398,0.99999994,0,0,0,0,0,0,0,1,0,0,0,false,false,true,-599.51996,-358.52,16.99,-0.0042052437,-0.0022739067,0.88160837,-0.47195745,-10.3810005,1143.281,8.551001,0,-0.00021,-1.87461
264.13333,2000,0,91.24,0.000002697398,0.000002697398,0.000002697398,0.99999994,0,0,0,0,0,0,0,1,0,0,0,false,false,true,-599.61,-348.99,16.99,-0.004221428,-0.002241538,0.88526756,-0.4650575,-4.4909997,1140.151,8.551001,0,-0.00030999997,-1.8803099
264.14166,2000,0,91.24,0.000002697398,0.000002697398,0.000002697398,0.99999994,0,0,0,0,0,0,0,1,0,0,0,false,false,true,-599.64996,-339.49,16.99,-0.0042376122,-0.0022091689,0.8888831,-0.458109,1.411,1136.901,8.551001,0,-0.00030999997,-1.88541
264.15,2000,0,91.24,0.000002697398,0.000002697398,0.000002697398,0.99999994,0,0,0,0,0,0,0,1,0,0,0,false,false,true,-599.64,-330.02,16.99,-0.004253797,-0.0021768003,0.89245456,-0.45111188,7.3209996,1133.531,8.551001,0,-0.00040999998,-1.89001
264.15833,2000,0,91.24,0.000002697398,0.000002697398,0.000002697398,0.99999994,0,0,0,0,0,0,0,1,0,0,0,false,false,true,-599.58,-320.57,16.99,-0.0042699813,-0.0021444317,0.8959785,-0.44407165,13.231,1130.0409,8.551001,0,-0.00040999998,-1.89401
264.16666,2000,0,91.24,0.000002697398,0.000002697398,0.000002697398,0.99999994,0,0,0,0,0,0,0,1,0,0,0,false,false,true,-599.47,-311.15,16.99,-0.0042861653,-0.0021120626,0.8994544,-0.43698826,19.140999,1126.4309,8.551001,0,-0.00051,-1.8975099
264.175,2000,0,91.24,0.000002697398,0.000002697398,0.000002697398,0.99999994,0,0,0,0,0,0,0,1,0,0,0,false,false,true,-599.31,-301.75998,16.99,-0.00430235,-0.0020796938,0.90288204,-0.4298617,25.040998,1122.7109,8.551001,0,-0.00051,-1.9004099
264.18332,2000,0,91.24,0.000002697398,0.000002697398,0.000002697398,0.99999994,0,0,0,0,0,0,0,1,0,0,0,false,false,true,-599.1,-292.4,16.99,-0.004318534,-0.0020419303,0.9062582,-0.42269737,30.930998,1118.871,8.551001,0,-0.00051,-1.90281
264.19168,2000,0,91.24,0.000002697398,0.000002697398,0.000002697398,0.99999994,0,0,0,0,0,0,0,1,0,0,0,false,false,true,-598.83997,-283.08,16.99,-0.004334718,-0.0020041664,0.9095802,-0.41550067,36.801,1114.9209,8.551001,0,-0.00051,-1.9047099
264.2,2000,0,91.24,0.000002697398,0.000002697398,0.000002697398,0.99999994,0,0,0,0,0,0,0,1,0,0,0,false,false,true,-598.52997,-273.79,16.99,-0.0043509034,-0.0019664033,0.9128504,-0.40826628,42.650997,1110.851,8.551001,0,-0.00051,-1.9060099
264.20834,2000,0,91.24,0.000002697398,0.000002697398,0.000002697398,0.99999994,0,0,0,0,0,0,0,1,0,0,0,false,false,true,-598.17,-264.53,16.99,-0.004367088,-0.0019286397,0.9160635,-0.40100482,48.481,1106.6709,8.551001,0,-0.00051,-1.9068099
264.21667,2000,0,91.24,0.000002697398,0.000002697398,0.000002697398,0.99999994,0,0,0,0,0,0,0,1,0,0,0,false,false,true,-597.76996,-255.31,16.99,-0.0043832716,-0.0018908761,0.9192195,-0.39371642,54.281,1102.381,8.551001,0,-0.00051,-1.90711
264.225,2000,0,91.24,0.000002697398,0.000002697398,0.000002697398,0.99999994,0,0,0,0,0,0,0,1,0,0,0,false,false,true,-597.32,-246.12,16.99,-0.0043994565,-0.0018531126,0.92231846,-0.3864011,60.040997,1097.981,8.551001,0,-0.00051,-1.90691
264.23334,2000,0,91.24,0.000002697398,0.000002697398,0.000002697398,0.99999994,0,0,0,0,0,0,0,1,0,0,0,false,false,true,-596.82,-236.97,16.99,-0.0044156406,-0.0018153489,0.92536026,-0.3790587,65.761,1093.481,8.551001,0,-0.00051,-1.90621
264.24167,2000,0,91.24,0.000002697398,0.000002697398,0.000002697398,0.99999994,0,0,0,0,0,0,0,1,0,0,0,false,false,true,-596.26996,-227.86,16.99,-0.004431825,-0.0017775855,0.92834264,-0.37169483,71.440994,1088.871,8.551001,0.00010999999,-0.00051,-1.90501
264.25,2000,0,91.24,0.000002697398,0.000002697398,0.000002697398,0.99999994,0,0,0,0,0,0,0,1,0,0,0,false,false,true,-595.67,-218.79,16.99,-0.004448009,-0.0017398217,0.93126357,-0.36431468,77.071,1084.161,8.551001,0.00010999999,-0.00040999998,-1.90331
264.25833,2000,0,91.24,0.000002697398,0.000002697398,0.000002697398,0.99999994,0,0,0,0,0,0,0,1,0,0,0,false,false,true,-595.02997,-209.76,16.99,-0.0044641937,-0.0017020581,0.9341233,-0.35691836,82.651,1079.351,8.551001,0.00010999999,-0.00040999998,-1.9011099
264.26666,2000,0,91.24,0.000002697398,0.000002697398,0.000002697398,0.99999994,0,0,0,0,0,0,0,1,0,0,0,false,false,true,-594.33997,-200.76999,16.99,-0.0044803782,-0.0016642946,0.9369219,-0.3495059,88.181,1074.4409,8.551001,0.00010999999,-0.00030999997,-1.89841
264.275,2000,0,91.24,0.000002697398,0.000002697398,0.000002697398,0.99999994,0,0,0,0,0,0,0,1,0,0,0,false,false,true,-593.61,-191.81999,16.99,-0.0044965623,-0.001626531,0.9396576,-0.34208262,93.651,1069.4409,8.551001,0.00010999999,-0.00021,-1.8952099
