time,ball_loc_x,ball_loc_y,ball_loc_z,ball_rot_x,ball_rot_y,ball_rot_z,ball_rot_w,ball_vel_x,ball_vel_y,ball_vel_z,ball_ang_x,ball_ang_y,ball_ang_z,player0_throttle,player0_steer,player0_pitch,player0_yaw,player0_roll,player0_jump,player0_boost,player0_handbrake,player0_loc_x,player0_loc_y,player0_loc_z,player0_rot_x,player0_rot_y,player0_rot_z,player0_rot_w,player0_vel_x,player0_vel_y,player0_vel_z,player0_ang_x,player0_ang_y,player0_ang_z
193.65,2000,0,91.24,0.000002697398,0.000002697398,0.000002697398,0.99999994,0,0,0,0,0,0,1,0,0,0,0,false,true,false,0,-4223.71,16.99,-0.0033582605,0.0033798397,0.7069988,0.70719856,0.38099998,1501.481,8.411,-0.00071,-0.00010999999,0
193.65834,2000,0,91.24,0.000002697398,0.000002697398,0.000002697398,0.99999994,0,0,0,0,0,0,1,1,0,0,0,false,false,true,0,-4211.1997,16.99,-0.0033582605,0.0033798397,0.7069988,0.70719856,-11.081,1500.2009,8.471001,-0.00071,0.00281,0.31921
193.66667,2000,0,91.24,0.000002697398,0.000002697398,0.000002697398,0.99999994,0,0,0,0,0,0,1,1,0,0,0,false,false,true,-0.089999996,-4198.6997,16.99,-0.0033582605,0.0033852346,0.70793664,0.7062597,-20.681,1499.091,8.501,-0.00071,0.00401,0.57241
193.675,2000,0,91.24,0.000002697398,0.000002697398,0.000002697398,0.99999994,0,0,0,0,0,0,1,1,0,0,0,false,false,true,-0.26,-4186.21,16.99,-0.0033582605,0.0033906293,0.7096172,0.7045711,-30.040998,1497.971,8.521,-0.00061,0.0043099998,0.79460996
193.68333,2000,0,91.24,0.000002697398,0.000002697398,0.000002697398,0.99999994,0,0,0,0,0,0,1,1,0,0,0,false,false,true,-0.51,-4173.73,16.99,-0.0033582605,0.0033960242,0.7119449,0.702219,-39.541,1496.8109,8.541,-0.00051,0.00411,0.99121
193.69167,2000,0,91.24,0.000002697398,0.000002697398,0.000002697398,0.99999994,0,0,0,0,0,0,1,1,0,0,0,false,false,true,-0.84,-4161.26,16.99,-0.0033636554,0.0033960242,0.7148382,0.69927347,-49.420998,1495.5509,8.551001,-0.00051,0.00361,1.16671
193.7,2000,0,91.24,0.000002697398,0.000002697398,0.000002697398,0.99999994,0,0,0,0,0,0,1,1,0,0,0,false,false,true,-1.25,-4148.8,16.99,-0.0033690503,0.0033906295,0.7182309,0.6957884,-59.821,1494.1609,8.561,-0.00040999998,0.00301,1.32461
193.70833,2000,0,91.24,0.000002697398,0.000002697398,0.000002697398,0.99999994,0,0,0,0,0,0,1,1,0,0,0,false,false,true,-1.75,-4136.35,16.99,-0.0033798397,0.0033798397,0.72206134,0.6918124,-70.791,1492.601,8.561,-0.00040999998,0.00241,1.4679099
193.71666,2000,0,91.24,0.000002697398,0.000002697398,0.000002697398,0.99999994,0,0,0,0,0,0,1,1,0,0,0,false,false,true,-2.34,-4123.9097,16.99,-0.0033960242,0.00336905,0.7262791,0.68738323,-82.340996,1490.841,8.561,-0.00040999998,0.0018099999,1.59881
193.725,2000,0,91.24,0.000002697398,0.000002697398,0.000002697398,0.99999994,0,0,0,0,0,0,1,1,0,0,0,false,false,true,-3.03,-4111.4897,16.99,-0.0034122085,0.0033528658,0.7308437,0.68252796,-94.421,1488.841,8.561,-0.00030999997,0.00131,1.71911
193.73334,2000,0,91.24,0.000002697398,0.000002697398,0.000002697398,0.99999994,0,0,0,0,0,0,1,1,0,0,0,false,false,true,-3.82,-4099.08,16.99,-0.0034337877,0.0033312866,0.73571575,0.6772734,-106.971,1486.591,8.571,-0.00030999997,0.00081,1.83011
193.74167,2000,0,91.24,0.000002697398,0.000002697398,0.000002697398,0.99999994,0,0,0,0,0,0,1,1,0,0,0,false,false,true,-4.71,-4086.69,16.99,-0.003455367,0.0033097074,0.74086106,0.6716412,-119.90099,1484.0609,8.571,-0.00021,0.00040999998,1.93291
193.75,2000,0,91.24,0.000002697398,0.000002697398,0.000002697398,0.99999994,0,0,0,0,0,0,1,1,0,0,0,false,false,true,-5.71,-4074.3198,16.99,-0.0034823408,0.0032827335,0.74624604,0.66565293,-133.11101,1481.251,8.571,-0.00021,0,2.02841
193.75833,2000,0,91.24,0.000002697398,0.000002697398,0.000002697398,0.99999994,0,0,0,0,0,0,1,1,0,0,0,false,false,true,-6.8199997,-4061.98,16.99,-0.0035093152,0.0032557596,0.7518429,0.6593249,-146.47101,1478.1609,8.571,-0.00010999999,-0.00021,2.11711
193.76666,2000,0,91.24,0.000002697398,0.000002697398,0.000002697398,0.99999994,0,0,0,0,0,0,1,1,0,0,0,false,false,true,-8.04,-4049.66,16.99,-0.0035362889,0.0032233908,0.75762916,0.65266764,-159.86101,1474.8009,8.571,-0.00010999999,-0.00040999998,2.19941
193.775,2000,0,91.24,0.000002697398,0.000002697398,0.000002697398,0.99999994,0,0,0,0,0,0,1,1,0,0,0,false,false,true,-9.37,-4037.3699,16.99,-0.003568658,0.0031910222,0.76357824,0.64569753,-173.131,1471.1909,8.571,-0.00010999999,-0.00061,2.2757099
193.78334,2000,0,91.24,0.000002697398,0.000002697398,0.000002697398,0.99999994,0,0,0,0,0,0,1,1,0,0,0,false,false,true,-10.809999,-4025.1099,16.99,-0.0036010267,0.0031532585,0.76966435,0.6384308,-186.151,1467.361,8.571,0,-0.00081,2.34601
193.79167,2000,0,91.24,0.000002697398,0.000002697398,0.000002697398,0.99999994,0,0,0,0,0,0,1,1,0,0,0,false,false,true,-12.36,-4012.88,16.99,-0.0036333953,0.0031154947,0.7758672,0.630878,-198.761,1463.351,8.571,0,-0.00091,2.41051
193.8,2000,0,91.24,0.000002697398,0.000002697398,0.000002697398,0.99999994,0,0,0,0,0,0,1,1,0,0,0,false,false,true,-14.0199995,-4000.69,16.99,-0.003665764,0.0030777312,0.78216296,0.62305546,-210.801,1459.231,8.571,0,-0.0010099999,2.46911
193.80833,2000,0,91.24,0.000002697398,0.000002697398,0.000002697398,0.99999994,0,0,0,0,0,0,1,1,0,0,0,false,false,true,-15.78,-3988.53,16.99,-0.0036981327,0.0030399675,0.78853273,0.614974,-222.11101,1455.0709,8.571,0,-0.00111,2.52181
193.81667,2000,0,91.24,0.000002697398,0.000002697398,0.000002697398,0.99999994,0,0,0,0,0,0,1,1,0,0,0,false,false,true,-17.63,-3976.4,16.99,-0.0037358964,0.0029968093,0.79495054,0.6066552,-232.531,1450.971,8.571,0,-0.0012099999,2.56841
193.825,2000,0,91.24,0.000002697398,0.000002697398,0.000002697398,0.99999994,0,0,0,0,0,0,1,1,0,0,0,false,false,true,-19.57,-3964.3098,16.99,-0.00377366,0.002953651,0.8013957,0.5981152,-241.881,1447.0309,8.571,0.00010999999,-0.00131,2.60871
193.83333,2000,0,91.24,0.000002697398,0.000002697398,0.000002697398,0.99999994,0,0,0,0,0,0,1,1,0,0,0,false,false,true,-21.59,-3952.25,16.99,-0.0038114234,0.0029104925,0.8078487,0.58937025,-249.991,1443.381,8.571,0.00021,-0.00131,2.64251
193.84166,2000,0,91.24,0.000002697398,0.000002697398,0.000002697398,0.99999994,0,0,0,0,0,0,1,1,0,0,0,false,false,true,-23.67,-3940.22,16.99,-0.0038491874,0.0028619396,0.81428754,0.58044183,-256.681,1440.1709,8.571,0.00030999997,-0.00131,2.66951
193.85,2000,0,91.24,0.000002697398,0.000002697398,0.000002697398,0.99999994,0,0,0,0,0,0,1,1,0,0,0,false,false,true,-25.81,-3928.22,16.99,-0.0038869507,0.0028133863,0.82069135,0.5713515,-261.781,1437.5709,8.561,0.00040999998,-0.00131,2.6895099
193.85834,2000,0,91.24,0.000002697398,0.000002697398,0.000002697398,0.99999994,0,0,0,0,0,0,1,1,0,0,0,false,false,true,-27.99,-3916.24,16.99,-0.0039193192,0.002764833,0.82704103,0.562121,-267.081,1434.721,8.561,0.00040999998,-0.00131,2.70871
193.86667,2000,0,91.24,0.000002697398,0.000002697398,0.000002697398,0.99999994,0,0,0,0,0,0,1,1,0,0,0,false,false,true,-30.22,-3904.28,16.99,-0.003951688,0.0027162798,0.8333331,0.55275023,-272.571,1431.621,8.561,0.00040999998,-0.0012099999,2.7274098
193.875,2000,0,91.24,0.000002697398,0.000002697398,0.000002697398,0.99999994,0,0,0,0,0,0,1,1,0,0,0,false,false,true,-32.489998,-3892.3499,16.99,-0.003984057,0.0026677267,0.83956075,0.54324454,-278.231,1428.251,8.561,0.00040999998,-0.00111,2.7455099
193.88333,2000,0,91.24,0.000002697398,0.000002697398,0.000002697398,0.99999994,0,0,0,0,0,0,1,1,0,0,0,false,false,true,-34.809998,-3880.45,16.99,-0.0040164255,0.0026191734,0.84572077,0.53360397,-284.091,1424.6909,8.561,0.00040999998,-0.00111,2.7634099
193.89166,2000,0,91.24,0.000002697398,0.000002697398,0.000002697398,0.99999994,0,0,0,0,0,0,1,1,0,0,0,false,false,true,-37.18,-3868.5798,16.99,-0.0040487945,0.0025706203,0.8518101,0.5238286,-290.491,1421.4509,8.561,0.00040999998,-0.0010099999,2.78321
193.9,2000,0,91.24,0.000002697398,0.000002697398,0.000002697398,0.99999994,0,0,0,0,0,0,1,1,0,0,0,false,false,true,-39.6,-3856.73,16.99,-0.004081163,0.0025220672,0.85782886,0.5139129,-297.051,1417.971,8.561,0.00040999998,-0.00091,2.80261
193.90834,2000,0,91.24,0.000002697398,0.000002697398,0.000002697398,0.99999994,0,0,0,0,0,0,1,1,0,0,0,false,false,true,-42.079998,-3844.91,16.99,-0.0041135317,0.002473514,0.8637705,0.5038624,-303.751,1414.241,8.561,0.00040999998,-0.00081,2.82161
193.91667,2000,0,91.24,0.000002697398,0.000002697398,0.000002697398,0.99999994,0,0,0,0,0,0,1,1,0,0,0,false,false,true,-44.61,-3833.1199,16.99,-0.0041459007,0.002419566,0.8696351,0.49367157,-310.591,1410.271,8.561,0.00051,-0.00071,2.8403099
193.925,2000,0,91.24,0.000002697398,0.000002697398,0.000002697398,0.99999994,0,0,0,0,0,0,1,1,0,0,0,false,false,true,-47.2,-3821.3699,16.99,-0.0041782698,0.0023656182,0.8754162,0.48334596,-317.541,1406.0509,8.561,0.00051,-0.00061,2.85861
193.93333,2000,0,91.24,0.000002697398,0.000002697398,0.000002697398,0.99999994,0,0,0,0,0,0,1,1,0,0,0,false,false,true,-49.85,-3809.65,16.99,-0.0042052437,0.0023116702,0.88111085,0.47288537,-324.601,1401.591,8.561,0.00051,-0.00051,2.87661
193.94167,2000,0,91.24,0.000002697398,0.000002697398,0.000002697398,0.99999994,0,0,0,0,0,0,1,1,0,0,0,false,false,true,-52.559998,-3797.97,16.99,-0.004232218,0.0022577224,0.88671577,0.46229,-331.751,1396.881,8.561,0.00051,-0.00040999998,2.8942099
193.95,2000,0,91.24,0.000002697398,0.000002697398,0.000002697398,0.99999994,0,0,0,0,0,0,1,1,0,0,0,false,false,true,-55.32,-3786.3298,16.99,-0.0042591915,0.0022037742,0.89222527,0.451565,-338.971,1391.9309,8.561,0.00040999998,-0.00030999997,2.91151
193.95833,2000,0,91.24,0.000002697398,0.000002697398,0.000002697398,0.99999994,0,0,0,0,0,0,1,1,0,0,0,false,false,true,-58.14,-3774.73,16.99,-0.004286165,0.002149826,0.89763623,0.4407106,-346.261,1386.741,8.561,0.00040999998,-0.00030999997,2.92841
193.96666,2000,0,91.24,0.000002697398,0.000002697398,0.000002697398,0.99999994,0,0,0,0,0,0,1,1,0,0,0,false,false,true,-61.03,-3763.17,16.99,-0.0043131392,0.0020958781,0.9029462,0.42972678,-353.601,1381.3109,8.561,0.00040999998,-0.00021,2.94501
193.975,2000,0,91.24,0.000002697398,0.000002697398,0.000002697398,0.99999994,0,0,0,0,0,0,1,1,0,0,0,false,false,true,-63.98,-3751.66,16.99,-0.004340113,0.0020419303,0.90815175,0.4186135,-360.981,1375.641,8.561,0.00040999998,-0.00021,2.96121
193.98334,2000,0,91.24,0.000002697398,0.000002697398,0.000002697398,0.99999994,0,0,0,0,0,0,1,1,0,0,0,false,false,true,-66.99,-3740.2,16.99,-0.0043670875,0.0019879823,0.9132478,0.40737605,-368.381,1369.741,8.561,0.00040999998,-0.00010999999,2.97711
193.99167,2000,0,91.24,0.000002697398,0.000002697398,0.000002697398,0.99999994,0,0,0,0,0,0,1,1,0,0,0,false,false,true,-70.06,-3728.7898,16.99,-0.0043886667,0.0019340344,0.9182316,0.39601463,-375.801,1363.621,8.561,0.00040999998,-0.00010999999,2.99261
194,2000,0,91.24,0.000002697398,0.000002697398,0.000002697398,0.99999994,0,0,0,0,0,0,1,1,0,0,0,false,false,true,-73.189995,-3717.43,16.99,-0.004410245,0.0018800863,0.923098,0.3845344,-383.221,1357.271,8.561,0.00040999998,-0.00010999999,3.0078099
194.00833,2000,0,91.24,0.000002697398,0.000002697398,0.000002697398,0.99999994,0,0,0,0,0,0,1,1,0,0,0,false,false,true,-76.38,-3706.1199,16.99,-0.004431825,0.0018207438,0.9278448,0.37293562,-390.641,1350.7109,8.561,0.00040999998,-0.00010999999,3.02261
194.01666,2000,0,91.24,0.000002697398,0.000002697398,0.000002697398,0.99999994,0,0,0,0,0,0,1,1,0,0,0,false,false,true,-79.64,-3694.8599,16.99,-0.004453404,0.001761401,0.9324669,0.3612234,-398.041,1343.9309,8.561,0.00030999997,-0.00010999999,3.03701
194.025,2000,0,91.24,0.000002697398,0.000002697398,0.000002697398,0.99999994,0,0,0,0,0,0,1,1,0,0,0,false,false,true,-82.96,-3683.66,16.99,-0.004474983,0.0017020581,0.9369641,0.34939262,-405.421,1336.9509,8.561,0.00030999997,-0.00010999999,3.05111
194.03334,2000,0,91.24,0.000002697398,0.000002697398,0.000002697398,0.99999994,0,0,0,0,0,0,1,1,0,0,0,false,false,true,-86.34,-3672.52,16.99,-0.0044965628,0.0016427155,0.9413299,0.33745387,-412.761,1329.771,8.561,0.00030999997,-0.00010999999,3.06481
194.04167,2000,0,91.24,0.000002697398,0.000002697398,0.000002697398,0.99999994,0,0,0,0,0,0,1,1,0,0,0,false,false,true,-89.78,-3661.44,16.99,-0.0045181415,0.0015833727,0.94556177,0.32540727,-420.061,1322.401,8.561,0.00021,-0.00010999999,3.07811
194.05,2000,0,91.24,0.000002697398,0.000002697398,0.000002697398,0.99999994,0,0,0,0,0,0,1,1,0,0,0,false,false,true,-93.28,-3650.42,16.99,-0.004539721,0.00152403,0.9496577,0.31325275,-427.311,1314.841,8.561,0.00021,0,3.0910099
194.05833,2000,0,91.24,0.000002697398,0.000002697398,0.000002697398,0.99999994,0,0,0,0,0,0,1,1,0,0,0,false,false,true,-96.84,-3639.46,16.99,-0.0045613,0.0014646872,0.9536134,0.30099574,-434.501,1307.111,8.561,0.00021,0,3.10351
194.06667,2000,0,91.24,0.000002697398,0.000002697398,0.000002697398,0.99999994,0,0,0,0,0,0,1,1,0,0,0,false,false,true,-100.46,-3628.5698,16.99,-0.0045774844,0.0014053443,0.9574252,0.28864157,-441.631,1299.2109,8.561,0.00021,0,3.11571
194.075,2000,0,91.24,0.000002697398,0.000002697398,0.000002697398,0.99999994,0,0,0,0,0,0,1,1,0,0,0,false,false,true,-104.14,-3617.74,16.99,-0.0045936694,0.0013460018,0.96109104,0.2761903,-448.691,1291.151,8.561,0.00021,0,3.1275098
194.08333,2000,0,91.24,0.000002697398,0.000002697398,0.000002697398,0.99999994,0,0,0,0,0,0,1,1,0,0,0,false,false,true,-107.88,-3606.98,16.99,-0.0046098535,0.0012866589,0.96460867,0.263642,-455.671,1282.9309,8.561,0.00021,0,3.13881
194.09166,2000,0,91.24,0.000002697398,0.000002697398,0.000002697398,0.99999994,0,0,0,0,0,0,1,1,0,0,0,false,false,true,-111.68,-3596.29,16.99,-0.0046260376,0.0012273161,0.9679747,0.2510019,-462.57098,1274.5709,8.561,0.00021,0,3.14971
194.1,2000,0,91.24,0.000002697398,0.000002697398,0.000002697398,0.99999994,0,0,0,0,0,0,1,1,0,0,0,false,false,true,-115.53,-3585.67,16.99,-0.0046422225,0.0011679735,0.97118574,0.2382756,-469.391,1266.0709,8.561,0.00021,0,3.16021
194.10834,2000,0,91.24,0.000002697398,0.000002697398,0.000002697398,0.99999994,0,0,0,0,0,0,1,1,0,0,0,false,false,true,-119.439995,-3575.1199,16.99,-0.0046584066,0.0011086307,0.9742387,0.22546828,-476.121,1257.4509,8.561,0.00021,0,3.17031
194.11667,2000,0,91.24,0.000002697398,0.000002697398,0.000002697398,0.99999994,0,0,0,0,0,0,1,1,0,0,0,false,false,true,-123.409996,-3564.64,16.99,-0.0046745907,0.001043893,0.97713184,0.21258008,-482.771,1248.7109,8.561,0.00030999997,0,3.1800098
194.125,2000,0,91.24,0.000002697398,0.000002697398,0.000002697398,0.99999994,0,0,0,0,0,0,1,1,0,0,0,false,false,true,-127.43,-3554.23,16.99,-0.0046853805,0.0009791554,0.9798624,0.19961631,-489.331,1239.861,8.561,0.00030999997,0,3.1893098
194.13333,2000,0,91.24,0.000002697398,0.000002697398,0.000002697398,0.99999994,0,0,0,0,0,0,1,1,0,0,0,false,false,true,-131.51,-3543.9,16.99,-0.0046961694,0.00091441785,0.98242855,0.18657698,-495.801,1230.9109,8.561,0.00030999997,0,3.1981099
194.14166,2000,0,91.24,0.000002697398,0.000002697398,0.000002697398,0.99999994,0,0,0,0,0,0,1,1,0,0,0,false,false,true,-135.64,-3533.64,16.99,-0.0047069597,0.0008496804,0.9848279,0.17346765,-502.181,1221.861,8.561,0.00030999997,0,3.2065098
194.15,2000,0,91.24,0.000002697398,0.000002697398,0.000002697398,0.99999994,0,0,0,0,0,0,1,1,0,0,0,false,false,true,-139.81999,-3523.46,16.99,-0.004717749,0.0007849428,0.98705775,0.16029346,-508.471,1212.731,8.561,0.00021,0,3.2144098
194.15834,2000,0,91.24,0.000002697398,0.000002697398,0.000002697398,0.99999994,0,0,0,0,0,0,1,1,0,0,0,false,false,true,-144.06,-3513.3499,16.99,-0.0047285384,0.00072020525,0.98911595,0.14706004,-514.67096,1203.521,8.561,0.00021,0,3.22191
194.16667,2000,0,91.24,0.000002697398,0.000002697398,0.000002697398,0.99999994,0,0,0,0,0,0,1,1,0,0,0,false,false,true,-148.34999,-3503.3198,16.99,-0.0047393283,0.00065546774,0.9910012,0.13376717,-520.79095,1194.241,8.561,0.00021,0.00010999999,3.22891
194.175,2000,0,91.24,0.000002697398,0.000002697398,0.000002697398,0.99999994,0,0,0,0,0,0,1,1,0,0,0,false,false,true,-152.69,-3493.3699,16.99,-0.0047447234,0.0005907302,0.9927114,0.120420374,-526.821,1184.901,8.561,0.00021,0.00010999999,3.2355099
194.18333,2000,0,91.24,0.000002697398,0.000002697398,0.000002697398,0.99999994,0,0,0,0,0,0,1,1,0,0,0,false,false,true,-157.08,-3483.5,16.99,-0.004750118,0.00052599265,0.9942448,0.107025094,-532.77094,1175.511,8.561,0.00010999999,0.00010999999,3.24161
194.19167,2000,0,91.24,0.000002697398,0.000002697398,0.000002697398,0.99999994,0,0,0,0,0,0,1,1,0,0,0,false,false,true,-161.51999,-3473.7,16.99,-0.004755513,0.00046125508,0.9955996,0.093586564,-538.65094,1166.0709,8.561,0.00010999999,0.00010999999,3.24721
194.2,2000,0,91.24,0.000002697398,0.000002697398,0.000002697398,0.99999994,0,0,0,0,0,0,1,1,0,0,0,false,false,true,-166.01,-3463.98,16.99,-0.0047609075,0.0003965175,0.9967745,0.08011036,-544.46094,1156.5809,8.561,0.00010999999,0.00010999999,3.25231
194.20833,2000,0,91.24,0.000002697398,0.000002697398,0.000002697398,0.99999994,0,0,0,0,0,0,1,1,0,0,0,false,false,true,-170.55,-3454.3398,16.99,-0.0047663017,0.00033177994,0.9977684,0.06659631,-550.201,1147.0609,8.561,0.00010999999,0.00010999999,3.2569098
194.21666,2000,0,91.24,0.000002697398,0.000002697398,0.000002697398,0.99999994,0,0,0,0,0,0,1,1,0,0,0,false,false,true,-175.12999,-3444.78,16.99,-0.004771697,0.0002670424,0.9985804,0.053049896,-555.881,1137.511,8.561,0.00010999999,0.00021,3.26101
194.225,2000,0,91.24,0.000002697398,0.000002697398,0.000002697398,0.99999994,0,0,0,0,0,0,1,1,0,0,0,false,false,true,-179.76,-3435.2998,16.99,-0.0047716973,0.00020230487,0.99920905,0.039476592,-561.511,1127.9309,8.561,0.00010999999,0.00021,3.2646098
194.23334,2000,0,91.24,0.000002697398,0.000002697398,0.000002697398,0.99999994,0,0,0,0,0,0,1,1,0,0,0,false,false,true,-184.44,-3425.9,16.99,-0.004771697,0.0001375673,0.9996536,0.025881618,-567.09094,1118.3309,8.561,0.00010999999,0.00021,3.26771
194.24167,2000,0,91.24,0.000002697398,0.000002697398,0.000002697398,0.99999994,0,0,0,0,0,0,1,1,0,0,0,false,false,true,-189.17,-3416.5798,16.99,-0.004771697,0.000072829745,0.9999133,0.012270548,-572.631,1108.7109,8.561,0.00010999999,0.00021,3.27031
194.25,2000,0,91.24,0.000002697398,0.000002697398,0.000002697398,0.99999994,0,0,0,0,0,0,1,1,0,0,0,false,false,true,-193.94,-3407.3398,16.99,-0.0047716973,0.000008092195,0.99998766,-0.0013567914,-578.141,1099.0709,8.561,0.00010999999,0.00021,3.27231
194.25833,2000,0,91.24,0.000002697398,0.000002697398,0.000002697398,0.99999994,0,0,0,0,0,0,1,1,0,0,0,false,false,true,-198.76,-3398.18,16.99,-0.004771697,-0.00005664536,0.9998762,-0.014989483,-583.631,1089.411,8.561,0.00010999999,0.00021,3.27381
194.26666,2000,0,91.24,0.000002697398,0.000002697398,0.000002697398,0.99999994,0,0,0,0,0,0,1,1,0,0,0,false,false,true,-203.62,-3389.0999,16.99,-0.004771697,-0.00012138292,0.9995787,-0.028627612,-589.10095,1079.741,8.561,0.00010999999,0.00021,3.27471
194.275,2000,0,91.24,0.000002697398,0.000002697398,0.000002697398,0.99999994,0,0,0,0,0,0,1,1,0,0,0,false,false,true,-208.53,-3380.0999,16.99,-0.004766302,-0.00018612047,0.99909496,-0.0422657,-594.561,1070.0509,8.561,0.00010999999,0.00030999997,3.2750099
194.28334,2000,0,91.24,0.000002697398,0.000002697398,0.000002697398,0.99999994,0,0,0,0,0,0,1,1,0,0,0,false,false,true,-213.48,-3371.18,16.99,-0.004760907,-0.000250858,0.99842525,-0.05589299,-600.03094,1060.351,8.561,0.00010999999,0.00030999997,3.27471
194.29167,2000,0,91.24,0.000002697398,0.000002697398,0.000002697398,0.99999994,0,0,0,0,0,0,1,1,0,0,0,false,false,true,-218.48,-3362.3398,16.99,-0.004755513,-0.00031559556,0.99756986,-0.0695095,-605.511,1050.641,8.561,0.00010999999,0.00030999997,3.27371
194.3,2000,0,91.24,0.000002697398,0.000002697398,0.000002697398,0.99999994,0,0,0,0,0,0,1,1,0,0,0,false,false,true,-223.53,-3353.5798,16.99,-0.004750118,-0.00038033316,0.996529,-0.08310988,-611.011,1040.911,8.561,0.00010999999,0.00030999997,3.27211
194.30833,2000,0,91.24,0.000002697398,0.000002697398,0.000002697398,0.99999994,0,0,0,0,0,0,1,1,0,0,0,false,false,true,-228.62,-3344.91,16.99,-0.004744723,-0.00044507068,0.9953032,-0.09668861,-616.511,1031.141,8.561,0.00010999999,0.00030999997,3.27091
194.31667,2000,0,91.24,0.000002697398,0.000002697398,0.000002697398,0.99999994,0,0,0,0,0,0,1,1,0,0,0,false,false,true,-233.76,-3336.3198,16.99,-0.0047393283,-0.0005098082,0.99389285,-0.11024578,-621.93097,1021.2609,8.561,0,0.00030999997,3.27331
194.325,2000,0,91.24,0.000002697398,0.000002697398,0.000002697398,0.99999994,0,0,0,0,0,0,1,1,0,0,0,false,false,true,-238.93999,-3327.8098,16.99,-0.004728538,-0.0005745457,0.9922966,-0.12379214,-627.28094,1011.28094,8.561,0,0.00030999997,3.27911
194.33333,2000,0,91.24,0.000002697398,0.000002697398,0.000002697398,0.99999994,0,0,0,0,0,0,1,1,0,0,0,false,false,true,-244.17,-3319.38,16.99,-0.004717749,-0.00063928333,0.99051267,-0.13733852,-632.561,1001.2009,8.561,0,0.00030999997,3.2883098
194.34166,2000,0,91.24,0.000002697398,0.000002697398,0.000002697398,0.99999994,0,0,0,0,0,0,1,1,0,0,0,false,false,true,-249.43999,-3311.04,16.99,-0.00470696,-0.00070402096,0.9885382,-0.15089574,-637.78094,991.03094,8.561,0,0.00030999997,3.3008099
194.35,2000,0,91.24,0.000002697398,0.000002697398,0.000002697398,0.99999994,0,0,0,0,0,0,1,1,0,0,0,false,false,true,-254.75,-3302.78,16.99,-0.00469617,-0.0007687585,0.9863698,-0.16447447,-642.941,980.77094,8.561,0,0.00021,3.3166099
194.35834,2000,0,91.24,0.000002697398,0.000002697398,0.000002697398,0.99999994,0,0,0,0,0,0,1,1,0,0,0,false,false,true,-260.11,-3294.6099,16.99,-0.0046853805,-0.000833496,0.9840025,-0.17809099,-648.05096,970.42096,8.561,0,0.00021,3.33561
194.36667,2000,0,91.24,0.000002697398,0.000002697398,0.000002697398,0.99999994,0,0,0,0,0,0,1,1,0,0,0,false,false,true,-265.50998,-3286.52,16.99,-0.004674591,-0.0008982336,0.9814321,-0.19175066,-653.001,959.91095,8.561,-0.00010999999,0.00010999999,3.35971
194.375,2000,0,91.24,0.000002697398,0.000002697398,0.000002697398,0.99999994,0,0,0,0,0,0,1,1,0,0,0,false,false,true,-270.94998,-3278.52,16.99,-0.0046584066,-0.0009629712,0.9786519,-0.20546971,-657.751,949.23096,8.561,-0.00021,0.00010999999,3.38931
194.38333,2000,0,91.24,0.000002697398,0.000002697398,0.000002697398,0.99999994,0,0,0,0,0,0,1,1,0,0,0,false,false,true,-276.43,-3270.6099,16.99,-0.0046422225,-0.0010277088,0.9756527,-0.21926965,-662.30096,938.40094,8.561,-0.00030999997,0,3.42431
194.39166,2000,0,91.24,0.000002697398,0.000002697398,0.000002697398,0.99999994,0,0,0,0,0,0,1,1,0,0,0,false,false,true,-281.94998,-3262.79,16.99,-0.0046260376,-0.0010924462,0.9724251,-0.23316668,-666.66095,927.42096,8.561,-0.00040999998,0,3.4646099
194.4,2000,0,91.24,0.000002697398,0.000002697398,0.000002697398,0.99999994,0,0,0,0,0,0,1,1,0,0,0,false,false,true,-287.50998,-3255.0598,16.99,-0.004609853,-0.0011571838,0.9689586,-0.247177,-670.83093,916.30096,8.561,-0.00051,-0.00010999999,3.51011
194.40834,2000,0,91.24,0.000002697398,0.000002697398,0.000002697398,0.99999994,0,0,0,0,0,0,1,1,0,0,0,false,false,true,-293.1,-3247.42,16.99,-0.0045936694,-0.0012219214,0.9652399,-0.26132226,-674.811,905.061,8.561,-0.00051,-0.00021,3.56071
194.41667,2000,0,91.24,0.000002697398,0.000002697398,0.000002697398,0.99999994,0,0,0,0,0,0,1,1,0,0,0,false,false,true,-298.72,-3239.88,16.99,-0.004577485,-0.0012866589,0.96125686,-0.27561313,-678.60095,893.7009,8.561,-0.00061,-0.00030999997,3.61641
194.425,2000,0,91.24,0.000002697398,0.000002697398,0.000002697398,0.99999994,0,0,0,0,0,0,1,1,0,0,0,false,false,true,-304.37,-3232.43,16.99,-0.0045559052,-0.0013513964,0.95699483,-0.2900658,-682.21094,882.23096,8.561,-0.00061,-0.00040999998,3.6770098
194.43333,2000,0,91.24,0.000002697398,0.000002697398,0.000002697398,0.99999994,0,0,0,0,0,0,1,1,0,0,0,false,false,true,-310.06,-3225.0798,16.99,-0.0045343265,-0.0014161341,0.9524393,-0.3046912,-685.48096,870.52094,8.561,-0.00061,-0.00051,3.7397099
194.44167,2000,0,91.24,0.000002697398,0.000002697398,0.000002697398,0.99999994,0,0,0,0,0,0,1,1,0,0,0,false,false,true,-315.77,-3217.8298,16.99,-0.0045127473,-0.0014808717,0.94757617,-0.31949455,-688.41095,858.59094,8.561,-0.00051,-0.00051,3.80441
194.45,2000,0,91.24,0.000002697398,0.000002697398,0.000002697398,0.99999994,0,0,0,0,0,0,1,1,0,0,0,false,false,true,-321.50998,-3210.67,16.99,-0.004491167,-0.0015510038,0.9423922,-0.3344759,-690.93097,846.53094,8.561,-0.00040999998,-0.00051,3.87041
194.45833,2000,0,91.24,0.000002697398,0.000002697398,0.000002697398,0.99999994,0,0,0,0,0,0,1,1,0,0,0,false,false,true,-327.27,-3203.6199,16.99,-0.004469588,-0.0016211361,0.93687564,-0.34962997,-692.92096,834.561,8.561,-0.00030999997,-0.00051,3.93591
194.46666,2000,0,91.24,0.000002697398,0.000002697398,0.000002697398,0.99999994,0,0,0,0,0,0,1,1,0,0,0,false,false,true,-333.03998,-3196.66,16.99,-0.0044426145,-0.0016912686,0.93101656,-0.36494586,-694.40094,822.72095,8.561,-0.00021,-0.00051,4.00071
194.475,2000,0,91.24,0.000002697398,0.000002697398,0.000002697398,0.99999994,0,0,0,0,0,0,1,1,0,0,0,false,false,true,-338.83,-3189.8,16.99,-0.0044156406,-0.001761401,0.9248045,-0.3804128,-695.391,811.03094,8.561,-0.00010999999,-0.00040999998,4.06481
194.48334,2000,0,91.24,0.000002697398,0.000002697398,0.000002697398,0.99999994,0,0,0,0,0,0,1,1,0,0,0,false,false,true,-344.62,-3183.04,16.99,-0.0043886667,-0.0018369281,0.91822946,-0.39602003,-695.90094,799.52094,8.561,0,-0.00030999997,4.1283097
194.49167,2000,0,91.24,0.000002697398,0.000002697398,0.000002697398,0.99999994,0,0,0,0,0,0,1,1,0,0,0,false,false,true,-350.41998,-3176.38,16.99,-0.0043562977,-0.0019124552,0.91128135,-0.41175672,-695.951,788.22095,8.561,0,-0.00030999997,4.19111
194.5,2000,0,91.24,0.000002697398,0.000002697398,0.000002697398,0.99999994,0,0,0,0,0,0,1,1,0,0,0,false,false,true,-356.22,-3169.8098,16.99,-0.004323929,-0.0019879823,0.9039523,-0.42760664,-695.54095,777.15094,8.561,0,-0.00021,4.25281
194.50833,2000,0,91.24,0.000002697398,0.000002697398,0.000002697398,0.99999994,0,0,0,0,0,0,1,1,0,0,0,false,false,true,-362.02,-3163.3298,16.99,-0.0042861653,-0.0020635095,0.8962324,-0.44355914,-694.53094,766.251,8.561,0.00010999999,-0.00010999999,4.30931
194.51666,2000,0,91.24,0.000002697398,0.000002697398,0.000002697398,0.99999994,0,0,0,0,0,0,1,1,0,0,0,false,false,true,-367.81,-3156.94,16.99,-0.0042484016,-0.0021390365,0.8881254,-0.45957637,-692.93097,755.571,8.561,0.00021,-0.00010999999,4.3607097
194.525,2000,0,91.24,0.000002697398,0.000002697398,0.000002697398,0.99999994,0,0,0,0,0,0,1,1,0,0,0,false,false,true,-373.58,-3150.64,16.99,-0.0042106383,-0.0022145638,0.8796289,-0.47563672,-690.77094,745.131,8.561,0.00030999997,0,4.40701
194.53334,2000,0,91.24,0.000002697398,0.000002697398,0.000002697398,0.99999994,0,0,0,0,0,0,1,1,0,0,0,false,false,true,-379.34,-3144.43,16.99,-0.00416748,-0.0022900908,0.8707472,-0.49170786,-688.08093,734.97095,8.561,0.00040999998,0,4.44821
194.54167,2000,0,91.24,0.000002697398,0.000002697398,0.000002697398,0.99999994,0,0,0,0,0,0,1,1,0,0,0,false,false,true,-385.06998,-3138.3098,16.99,-0.0041243215,-0.002371013,0.8614837,-0.50776285,-684.891,725.11096,8.561,0.00051,0.00010999999,4.4843097
194.55,2000,0,91.24,0.000002697398,0.000002697398,0.000002697398,0.99999994,0,0,0,0,0,0,1,1,0,0,0,false,false,true,-390.78,-3132.27,16.99,-0.0040811636,-0.002451935,0.8518468,-0.5237693,-681.24097,715.59094,8.561,0.00051,0.00021,4.51541
194.55833,2000,0,91.24,0.000002697398,0.000002697398,0.000002697398,0.99999994,0,0,0,0,0,0,1,1,0,0,0,false,false,true,-396.46,-3126.3098,16.99,-0.00403261,-0.0025328568,0.8418438,-0.53970015,-677.16095,706.42096,8.561,0.00051,0.00030999997,4.54151
194.56667,2000,0,91.24,0.000002697398,0.000002697398,0.000002697398,0.99999994,0,0,0,0,0,0,1,1,0,0,0,false,false,true,-402.1,-3120.42,16.99,-0.003984057,-0.0026137787,0.8314801,-0.55553395,-672.691,697.631,8.561,0.00051,0.00030999997,4.56271
194.575,2000,0,91.24,0.000002697398,0.000002697398,0.000002697398,0.99999994,0,0,0,0,0,0,1,1,0,0,0,false,false,true,-407.71,-3114.6099,16.99,-0.003935504,-0.002689306,0.8207704,-0.5712383,-667.881,689.23096,8.561,0.00051,0.00040999998,4.57901
194.58333,2000,0,91.24,0.000002697398,0.000002697398,0.000002697398,0.99999994,0,0,0,0,0,0,1,1,0,0,0,false,false,true,-413.28,-3108.8699,16.99,-0.0038815557,-0.002764833,0.8097239,-0.5867915,-662.77094,681.23096,8.561,0.00051,0.00051,4.59051
194.59166,2000,0,91.24,0.000002697398,0.000002697398,0.000002697398,0.99999994,0,0,0,0,0,0,1,1,0,0,0,false,false,true,-418.8,-3103.19,16.99,-0.003827608,-0.0028403602,0.798352,-0.6021721,-657.40094,673.641,8.561,0.00051,0.00061,4.59731
194.6,2000,0,91.24,0.000002697398,0.000002697398,0.000002697398,0.99999994,0,0,0,0,0,0,1,1,0,0,0,false,false,true,-424.28,-3097.5798,16.99,-0.00377366,-0.0029158874,0.7866716,-0.61735314,-651.821,666.47095,8.561,0.00051,0.00071,4.59941
194.60834,2000,0,91.24,0.000002697398,0.000002697398,0.000002697398,0.99999994,0,0,0,0,0,0,1,1,0,0,0,false,false,true,-429.71,-3092.03,16.99,-0.0037143172,-0.0029914144,0.7746983,-0.63231295,-646.08093,659.71094,8.561,0.00051,0.00081,4.59691
194.61667,2000,0,91.24,0.000002697398,0.000002697398,0.000002697398,0.99999994,0,0,0,0,0,0,1,1,0,0,0,false,false,true,-435.09,-3086.53,16.99,-0.0036549745,-0.0030669416,0.7624449,-0.6470354,-640.21094,653.36096,8.561,0.00040999998,0.00081,4.58981
194.625,2000,0,91.24,0.000002697398,0.000002697398,0.000002697398,0.99999994,0,0,0,0,0,0,1,1,0,0,0,false,false,true,-440.43,-3081.0898,16.99,-0.0035956316,-0.003137074,0.74993086,-0.6614989,-634.261,647.41095,8.561,0.00040999998,0.00081,4.5781097
194.63333,2000,0,91.24,0.000002697398,0.000002697398,0.000002697398,0.99999994,0,0,0,0,0,0,1,1,0,0,0,false,false,true,-445.72,-3075.69,16.99,-0.003536289,-0.0032072065,0.7371777,-0.67568195,-628.28094,641.85095,8.561,0.00040999998,0.00091,4.5619097
194.64166,2000,0,91.24,0.000002697398,0.000002697398,0.000002697398,0.99999994,0,0,0,0,0,0,1,1,0,0,0,false,false,true,-450.96,-3070.3398,16.99,-0.0034715512,-0.0032773386,0.72419983,-0.6895735,-622.30096,636.67096,8.551001,0.00030999997,0.0010099999,4.54131
194.65,2000,0,91.24,0.000002697398,0.000002697398,0.000002697398,0.99999994,0,0,0,0,0,0,1,1,0,0,0,false,false,true,-456.15,-3065.03,16.99,-0.0034068138,-0.003347471,0.7110231,-0.7031523,-616.371,631.84094,8.551001,0.00030999997,0.0010099999,4.51621
194.65834,2000,0,91.24,0.000002697398,0.000002697398,0.000002697398,0.99999994,0,0,0,0,0,0,1,1,0,0,0,false,false,true,-461.28998,-3059.76,16.99,0.0033420764,0.0034122088,-0.6976658,0.7164074,-610.52094,627.35095,8.551001,0.00021,0.0010099999,4.48671
194.66667,2000,0,91.24,0.000002697398,0.000002697398,0.000002697398,0.99999994,0,0,0,0,0,0,1,1,0,0,0,false,false,true,-466.37997,-3054.53,16.99,0.0032773386,0.0034769461,-0.68415177,0.7293239,-604.78094,623.16095,8.551001,0.00021,0.00111,4.45281
194.675,2000,0,91.24,0.000002697398,0.000002697398,0.000002697398,0.99999994,0,0,0,0,0,0,1,1,0,0,0,false,false,true,-471.41998,-3049.3398,16.99,0.0032072063,0.0035416838,-0.6705029,0.7418914,-599.191,619.261,8.551001,0.00010999999,0.0012099999,4.41451
194.68333,2000,0,91.24,0.000002697398,0.000002697398,0.000002697398,0.99999994,0,0,0,0,0,0,1,1,0,0,0,false,false,true,-476.41,-3044.18,16.99,0.0031370737,0.0036064207,-0.65674603,0.7540965,-593.78094,615.61096,8.551001,0.00010999999,0.0012099999,4.37181
194.69167,2000,0,91.24,0.000002697398,0.000002697398,0.000002697398,0.99999994,0,0,0,0,0,0,1,1,0,0,0,false,false,true,-481.36,-3039.05,16.99,0.0030669416,0.003665764,-0.642903,0.7659326,-588.571,612.18097,8.541,0,0.0012099999,4.32471
194.7,2000,0,91.24,0.000002697398,0.000002697398,0.000002697398,0.99999994,0,0,0,0,0,0,1,1,0,0,0,false,false,true,-486.25998,-3033.95,16.99,0.0029968093,0.0037251068,-0.6289952,0.77739435,-583.571,608.92096,8.541,0,0.0012099999,4.27321
194.70833,2000,0,91.24,0.000002697398,0.000002697398,0.000002697398,0.99999994,0,0,0,0,0,0,1,1,0,0,0,false,false,true,-491.12,-3028.88,16.99,0.0029266768,0.0037844495,-0.61505497,0.7884696,-578.78094,605.78094,8.541,0,0.00111,4.2175097
194.71666,2000,0,91.24,0.000002697398,0.000002697398,0.000002697398,0.99999994,0,0,0,0,0,0,1,1,0,0,0,false,false,true,-495.94,-3023.8298,16.99,0.0028565447,0.0038383978,-0.60110396,0.7991565,-574.191,602.72095,8.541,0,0.0010099999,4.15841
194.725,2000,0,91.24,0.000002697398,0.000002697398,0.000002697398,0.99999994,0,0,0,0,0,0,1,1,0,0,0,false,false,true,-500.72,-3018.8098,16.99,0.0027864121,0.0038923454,-0.5871691,0.80945003,-569.77094,599.701,8.541,0,0.00091,4.09721
194.73334,2000,0,91.24,0.000002697398,0.000002697398,0.000002697398,0.99999994,0,0,0,0,0,0,1,1,0,0,0,false,false,true,-505.47,-3013.8098,16.99,0.00271628,0.003940899,-0.57326674,0.8193548,-565.52094,596.71094,8.541,-0.00010999999,0.00081,4.03441
194.74167,2000,0,91.24,0.000002697398,0.000002697398,0.000002697398,0.99999994,0,0,0,0,0,0,1,1,0,0,0,false,false,true,-510.18,-3008.8398,16.99,0.0026461475,0.0039894516,-0.55941284,0.82887524,-561.43097,593.73096,8.541,-0.00021,0.00081,3.9704099
194.75,2000,0,91.24,0.000002697398,0.000002697398,0.000002697398,0.99999994,0,0,0,0,0,0,1,1,0,0,0,false,false,true,-514.86,-3003.89,16.99,0.0025760152,0.00403261,-0.54562366,0.83801657,-557.49097,590.751,8.531,-0.00021,0.00071,3.9056098
194.75833,2000,0,91.24,0.000002697398,0.000002697398,0.000002697398,0.99999994,0,0,0,0,0,0,1,1,0,0,0,false,false,true,-519.51,-2998.97,16.99,0.0025058826,0.0040757684,-0.5319154,0.8467839,-553.691,587.751,8.531,-0.00021,0.00061,3.8403099
194.76666,2000,0,91.24,0.000002697398,0.000002697398,0.000002697398,0.99999994,0,0,0,0,0,0,1,1,0,0,0,false,false,true,-524.12,-2994.0698,16.99,0.0024357506,0.0041189273,-0.518299,0.85518605,-550.03094,584.73096,8.531,-0.00021,0.00051,3.77491
194.775,2000,0,91.24,0.000002697398,0.000002697398,0.000002697398,0.99999994,0,0,0,0,0,0,1,1,0,0,0,false,false,true,-528.7,-2989.2,16.99,0.002371013,0.00415669,-0.5047849,0.86323184,-546.49097,581.68097,8.531,-0.00021,0.00040999998,3.70971
194.78334,2000,0,91.24,0.000002697398,0.000002697398,0.000002697398,0.99999994,0,0,0,0,0,0,1,1,0,0,0,false,false,true,-533.25,-2984.3499,16.99,0.0023062753,0.004194454,-0.49138418,0.8709297,-543.071,578.581,8.531,-0.00021,0.00030999997,3.6449099
194.79167,2000,0,91.24,0.000002697398,0.000002697398,0.000002697398,0.99999994,0,0,0,0,0,0,1,1,0,0,0,false,false,true,-537.77997,-2979.53,16.99,0.0022415377,0.0042322176,-0.47810218,0.8782911,-539.751,575.43097,8.531,-0.00030999997,0.00021,3.5808098
194.8,2000,0,91.24,0.000002697398,0.000002697398,0.000002697398,0.99999994,0,0,0,0,0,0,1,1,0,0,0,false,false,true,-542.27997,-2974.73,16.99,0.0021768003,0.004264586,-0.46494418,0.885327,-536.53094,572.22095,8.531,-0.00030999997,0.00010999999,3.51771
194.80833,2000,0,91.24,0.000002697398,0.000002697398,0.000002697398,0.99999994,0,0,0,0,0,0,1,1,0,0,0,false,false,true,-546.75,-2969.96,16.99,0.0021120629,0.0042969557,-0.45191574,0.89204776,-533.391,568.941,8.531,-0.00030999997,0.00010999999,3.4558098
194.81667,2000,0,91.24,0.000002697398,0.000002697398,0.000002697398,0.99999994,0,0,0,0,0,0,1,1,0,0,0,false,false,true,-551.19,-2965.22,16.99,0.002047325,0.004329324,-0.4390221,0.8984634,-530.331,565.581,8.531,-0.00030999997,0,3.39531
194.825,2000,0,91.24,0.000002697398,0.000002697398,0.000002697398,0.99999994,0,0,0,0,0,0,1,1,0,0,0,false,false,true,-555.61,-2960.51,16.99,0.0019825872,0.004356297,-0.42626867,0.90458375,-527.34094,562.141,8.531,-0.00030999997,0,3.33641
194.83333,2000,0,91.24,0.000002697398,0.000002697398,0.000002697398,0.99999994,0,0,0,0,0,0,1,1,0,0,0,false,false,true,-560,-2955.8298,16.99,0.0019232448,0.0043832716,-0.4136503,0.9104232,-524.40094,558.621,8.531,-0.00030999997,0,3.2792099
194.84166,2000,0,91.24,0.000002697398,0.000002697398,0.000002697398,0.99999994,0,0,0,0,0,0,1,1,0,0,0,false,false,true,-564.37,-2951.17,16.99,0.0018639019,0.004410245,-0.401172,0.91599005,-521.511,555.011,8.531,-0.00030999997,0,3.22401
194.85,2000,0,91.24,0.000002697398,0.000002697398,0.000002697398,0.99999994,0,0,0,0,0,0,1,1,0,0,0,false,false,true,-568.72,-2946.54,16.99,0.0018045595,0.004431825,-0.38882872,0.9212976,-518.66095,551.311,8.531,-0.00030999997,-0.00010999999,3.17091
194.85834,2000,0,91.24,0.000002697398,0.000002697398,0.000002697398,0.99999994,0,0,0,0,0,0,1,1,0,0,0,false,false,true,-573.04,-2941.95,16.99,0.0017452165,0.004453404,-0.37662023,0.9263553,-515.84094,547.511,8.531,-0.00030999997,-0.00021,3.12011
194.86667,2000,0,91.24,0.000002697398,0.000002697398,0.000002697398,0.99999994,0,0,0,0,0,0,1,1,0,0,0,false,false,true,-577.33997,-2937.39,16.99,0.0016858738,0.004474983,-0.36454666,0.9311728,-513.04095,543.621,8.531,-0.00021,-0.00021,3.07161
194.875,2000,0,91.24,0.000002697398,0.000002697398,0.000002697398,0.99999994,0,0,0,0,0,0,1,1,0,0,0,false,false,true,-581.62,-2932.8599,16.99,0.001626531,0.0044965623,-0.35259712,0.93576294,-510.251,539.631,8.531,-0.00010999999,-0.00030999997,3.0257099
194.88333,2000,0,91.24,0.000002697398,0.000002697398,0.000002697398,0.99999994,0,0,0,0,0,0,1,1,0,0,0,false,false,true,-585.87,-2928.3599,16.99,0.0015671883,0.004512747,-0.3407717,0.94013387,-507.471,535.55096,8.531,0,-0.00040999998,2.98241
194.89166,2000,0,91.24,0.000002697398,0.000002697398,0.000002697398,0.99999994,0,0,0,0,0,0,1,1,0,0,0,false,false,true,-590.1,-2923.9,16.99,0.0015132403,0.0045289313,-0.32906494,0.94429517,-504.681,531.371,8.531,0,-0.00040999998,2.94191
194.9,2000,0,91.24,0.000002697398,0.000002697398,0.000002697398,0.99999994,0,0,0,0,0,0,1,1,0,0,0,false,false,true,-594.31,-2919.47,16.99,0.0014592925,0.004545116,-0.3174661,0.94825757,-501.871,527.09094,8.531,0,-0.00040999998,2.90441
194.90834,2000,0,91.24,0.000002697398,0.000002697398,0.000002697398,0.99999994,0,0,0,0,0,0,1,1,0,0,0,false,false,true,-598.49,-2915.0798,16.99,0.0014053442,0.0045612995,-0.30596972,0.9520291,-498.981,522.68097,8.531,0,-0.00040999998,2.86971
194.91667,2000,0,91.24,0.000002697398,0.000002697398,0.000002697398,0.99999994,0,0,0,0,0,0,1,1,0,0,0,false,false,true,-602.64996,-2910.72,16.99,0.0013513966,0.004577485,-0.2945651,0.95561945,-495.991,518.16095,8.521,0,-0.00040999998,2.83771
194.925,2000,0,91.24,0.000002697398,0.000002697398,0.000002697398,0.99999994,0,0,0,0,0,0,1,1,0,0,0,false,false,true,-606.77997,-2906.4,16.99,0.0012974485,0.0045936694,-0.2832468,0.95903516,-492.891,513.55096,8.521,0,-0.00040999998,2.80831
194.93333,2000,0,91.24,0.000002697398,0.000002697398,0.000002697398,0.99999994,0,0,0,0,0,0,1,1,0,0,0,false,false,true,-610.89,-2902.1199,16.99,0.0012435006,0.004604459,-0.272004,0.96228427,-489.661,508.861,8.521,0.00010999999,-0.00040999998,2.78141
194.94167,2000,0,91.24,0.000002697398,0.000002697398,0.000002697398,0.99999994,0,0,0,0,0,0,1,1,0,0,0,false,false,true,-614.97,-2897.88,16.99,0.0011895525,0.004615248,-0.2608313,0.96537256,-486.291,504.10098,8.521,0.00021,-0.00040999998,2.75701
194.95,2000,0,91.24,0.000002697398,0.000002697398,0.000002697398,0.99999994,0,0,0,0,0,0,1,1,0,0,0,false,false,true,-619.01996,-2893.68,16.99,0.0011356047,0.004626038,-0.2497234,0.96830547,-482.781,499.291,8.521,0.00030999997,-0.00040999998,2.73501
194.95833,2000,0,91.24,0.000002697398,0.000002697398,0.000002697398,0.99999994,0,0,0,0,0,0,1,1,0,0,0,false,false,true,-623.04,-2889.52,16.99,0.0010870514,0.004636827,-0.2386748,0.9710878,-479.111,494.441,8.521,0.00040999998,-0.00040999998,2.7153099
194.96666,2000,0,91.24,0.000002697398,0.000002697398,0.000002697398,0.99999994,0,0,0,0,0,0,1,1,0,0,0,false,false,true,-627.02997,-2885.4,16.99,0.0010384982,0.0046476168,-0.22767477,0.97372556,-475.281,489.561,8.521,0.00040999998,-0.00030999997,2.6979098
194.975,2000,0,91.24,0.000002697398,0.000002697398,0.000002697398,0.99999994,0,0,0,0,0,0,1,1,0,0,0,false,false,true,-630.99,-2881.3198,16.99,0.000989945,0.004658406,-0.2167125,0.9762238,-471.281,484.671,8.521,0.00040999998,-0.00030999997,2.6828098
194.98334,2000,0,91.24,0.000002697398,0.000002697398,0.000002697398,0.99999994,0,0,0,0,0,0,1,1,0,0,0,false,false,true,-634.92,-2877.28,16.99,0.0009413919,0.004669196,-0.205788,0.97858495,-467.10098,479.781,8.521,0.00040999998,-0.00030999997,2.6700099
194.99167,2000,0,91.24,0.000002697398,0.000002697398,0.000002697398,0.99999994,0,0,0,0,0,0,1,1,0,0,0,false,false,true,-638.81,-2873.28,16.99,0.00089283875,0.0046799853,-0.19489047,0.9808134,-462.731,474.901,8.521,0.00040999998,-0.00030999997,2.65951
195,2000,0,91.24,0.000002697398,0.000002697398,0.000002697398,0.99999994,0,0,0,0,0,0,1,1,0,0,0,false,false,true,-642.67,-2869.3198,16.99,0.00084428565,0.0046907756,-0.18400913,0.98291296,-458.171,470.051,8.521,0.00040999998,-0.00030999997,2.6512098
195.00833,2000,0,91.24,0.000002697398,0.000002697398,0.000002697398,0.99999994,0,0,0,0,0,0,1,1,0,0,0,false,false,true,-646.49,-2865.4,16.99,0.0007957324,0.0047015646,-0.17313856,0.9848859,-453.421,465.241,8.521,0.00030999997,-0.00030999997,2.64521
195.01666,2000,0,91.24,0.000002697398,0.000002697398,0.000002697398,0.99999994,0,0,0,0,0,0,1,1,0,0,0,false,false,true,-650.26996,-2861.52,16.99,0.00074717926,0.0047069597,-0.16227339,0.9867343,-448.471,460.491,8.521,0.00030999997,-0.00030999997,2.6414099
195.025,2000,0,91.24,0.000002697398,0.000002697398,0.000002697398,0.99999994,0,0,0,0,0,0,1,1,0,0,0,false,false,true,-654.01,-2857.68,16.99,0.0006986261,0.0047123544,-0.15140285,0.9884606,-443.311,455.811,8.521,0.00030999997,-0.00030999997,2.63991
195.03334,2000,0,91.24,0.000002697398,0.000002697398,0.000002697398,0.99999994,0,0,0,0,0,0,1,1,0,0,0,false,false,true,-657.7,-2853.88,16.99,0.00065007294,0.004717749,-0.1405215,0.9900661,-437.951,451.211,8.521,0.00030999997,-0.00030999997,2.6407099
195.04167,2000,0,91.24,0.000002697398,0.000002697398,0.000002697398,0.99999994,0,0,0,0,0,0,1,1,0,0,0,false,false,true,-661.35,-2850.1199,16.99,0.00060151983,0.004723144,-0.12961859,0.9915525,-432.381,446.711,8.521,0.00030999997,-0.00030999997,2.64391
195.05,2000,0,91.24,0.000002697398,0.000002697398,0.000002697398,0.99999994,0,0,0,0,0,0,1,1,0,0,0,false,false,true,-664.95,-2846.4,16.99,0.0005529666,0.0047285384,-0.11868868,0.99292004,-426.591,442.32098,8.521,0.00030999997,-0.00030999997,2.64941
195.05833,2000,0,91.24,0.000002697398,0.000002697398,0.000002697398,0.99999994,0,0,0,0,0,0,1,1,0,0,0,false,false,true,-668.5,-2842.71,16.99,0.00050441345,0.0047339336,-0.107721016,0.9941697,-420.591,438.061,8.521,0.00030999997,-0.00021,2.65731
195.06667,2000,0,91.24,0.000002697398,0.000002697398,0.000002697398,0.99999994,0,0,0,0,0,0,1,1,0,0,0,false,false,true,-672,-2839.06,16.99,0.00045586028,0.0047393283,-0.096704796,0.99530166,-414.371,433.951,8.521,0.00021,-0.00021,2.6677098
195.075,2000,0,91.24,0.000002697398,0.000002697398,0.000002697398,0.99999994,0,0,0,0,0,0,1,1,0,0,0,false,false,true,-675.45,-2835.44,16.99,0.00040191232,0.004744723,-0.085634634,0.9963152,-407.931,430.001,8.521,0.00021,-0.00021,2.68061
195.08333,2000,0,91.24,0.000002697398,0.000002697398,0.000002697398,0.99999994,0,0,0,0,0,0,1,1,0,0,0,false,false,true,-678.85,-2831.8599,16.99,0.00034796435,0.0047501177,-0.074499734,0.9972096,-401.271,426.231,8.521,0.00021,-0.00021,2.69611
195.09166,2000,0,91.24,0.000002697398,0.000002697398,0.000002697398,0.99999994,0,0,0,0,0,0,1,1,0,0,0,false,false,true,-682.19,-2828.31,16.99,0.00029401638,0.004755513,-0.063294694,0.99798346,-394.391,422.651,8.521,0.00021,-0.00021,2.71421
195.1,2000,0,91.24,0.000002697398,0.000002697398,0.000002697398,0.99999994,0,0,0,0,0,0,1,1,0,0,0,false,false,true,-685.48,-2824.79,16.99,0.00024006843,0.004755513,-0.052003346,0.99863553,-387.291,419.291,8.521,0.00030999997,-0.00030999997,2.73511
195.10834,2000,0,91.24,0.000002697398,0.000002697398,0.000002697398,0.99999994,0,0,0,0,0,0,1,1,0,0,0,false,false,true,-688.70996,-2821.3,16.99,0.00018612047,0.004755513,-0.040620286,0.99916327,-379.981,416.161,8.521,0.00040999998,-0.00030999997,2.75881
195.11667,2000,0,91.24,0.000002697398,0.000002697398,0.000002697398,0.99999994,0,0,0,0,0,0,1,1,0,0,0,false,false,true,-691.88,-2817.8298,16.99,0.0001321725,0.004755513,-0.029134722,0.9995641,-372.451,413.291,8.521,0.00040999998,-0.00030999997,2.7855098
195.125,2000,0,91.24,0.000002697398,0.000002697398,0.000002697398,0.99999994,0,0,0,0,0,0,1,1,0,0,0,false,false,true,-694.98,-2814.39,16.99,0.00007822455,0.0047555133,-0.017530475,0.999835,-364.701,410.701,8.521,0.00051,-0.00030999997,2.81531
195.13333,2000,0,91.24,0.000002697398,0.000002697398,0.000002697398,0.99999994,0,0,0,0,0,0,1,1,0,0,0,false,false,true,-698.01996,-2810.97,16.99,0.000024276582,0.004755513,-0.005802145,0.9999718,-356.741,408.401,8.521,0.00051,-0.00030999997,2.84841
195.14166,2000,0,91.24,0.000002697398,0.000002697398,0.000002697398,0.99999994,0,0,0,0,0,0,1,1,0,0,0,false,false,true,-700.99,-2807.5698,16.99,-0.000029671379,0.004755513,0.006066448,0.99997026,-348.571,406.431,8.521,0.00061,-0.00030999997,2.8849099
195.15,2000,0,91.24,0.000002697398,0.000002697398,0.000002697398,0.99999994,0,0,0,0,0,0,1,1,0,0,0,false,false,true,-703.89,-2804.18,16.99,-0.000083619336,0.004755513,0.018086137,0.99982506,-340.201,404.811,8.521,0.00061,-0.00030999997,2.92501
195.15834,2000,0,91.24,0.000002697398,0.000002697398,0.000002697398,0.99999994,0,0,0,0,0,0,1,1,0,0,0,false,false,true,-706.72,-2800.81,16.99,-0.00013756729,0.0047555123,0.030267585,0.9995304,-331.631,403.57098,8.521,0.00061,-0.00030999997,2.96891
195.16667,2000,0,91.24,0.000002697398,0.000002697398,0.000002697398,0.99999994,0,0,0,0,0,0,1,1,0,0,0,false,false,true,-709.48,-2797.45,16.99,-0.00019151528,0.004750118,0.042627152,0.9990797,-322.871,402.741,8.521,0.00061,-0.00030999997,3.0169098
195.175,2000,0,91.24,0.000002697398,0.000002697398,0.000002697398,0.99999994,0,0,0,0,0,0,1,1,0,0,0,false,false,true,-712.17,-2794.0898,16.99,-0.00025085802,0.004744723,0.05518084,0.998465,-313.931,402.291,8.521,0.00061,-0.00030999997,3.06761
195.18333,2000,0,91.24,0.000002697398,0.000002697398,0.000002697398,0.99999994,0,0,0,0,0,0,1,1,0,0,0,false,false,true,-714.79,-2790.74,16.99,-0.0003102008,0.0047393288,0.067939624,0.9976781,-304.801,402.121,8.521,0.00061,-0.00021,3.11731
195.19167,2000,0,91.24,0.000002697398,0.000002697398,0.000002697398,0.99999994,0,0,0,0,0,0,1,1,0,0,0,false,false,true,-717.32996,-2787.39,16.99,-0.00036954356,0.004733934,0.080892615,0.9967115,-295.491,402.271,8.521,0.00061,-0.00010999999,3.16621
195.2,2000,0,91.24,0.000002697398,0.000002697398,0.000002697398,0.99999994,0,0,0,0,0,0,1,1,0,0,0,false,false,true,-719.79,-2784.04,16.99,-0.00042888633,0.004728539,0.09403434,0.9955576,-286.001,402.761,8.521,0.00061,-0.00010999999,3.21451
195.20833,2000,0,91.24,0.000002697398,0.000002697398,0.000002697398,0.99999994,0,0,0,0,0,0,1,1,0,0,0,false,false,true,-722.17,-2780.68,16.99,-0.00048822907,0.0047231438,0.107359566,0.9942089,-276.341,403.641,8.521,0.00061,-0.00010999999,3.26241
195.21666,2000,0,91.24,0.000002697398,0.000002697398,0.000002697398,0.99999994,0,0,0,0,0,0,1,1,0,0,0,false,false,true,-724.47,-2777.3198,16.99,-0.0005475718,0.004717749,0.12086274,0.99265784,-266.521,404.941,8.521,0.00051,0,3.31001
195.225,2000,0,91.24,0.000002697398,0.000002697398,0.000002697398,0.99999994,0,0,0,0,0,0,1,1,0,0,0,false,false,true,-726.69,-2773.95,16.99,-0.0006123094,0.00470696,0.13454403,0.9908962,-256.54102,406.701,8.521,0.00051,0,3.35741
195.23334,2000,0,91.24,0.000002697398,0.000002697398,0.000002697398,0.99999994,0,0,0,0,0,0,1,1,0,0,0,false,false,true,-728.82996,-2770.56,16.99,-0.0006770469,0.00469617,0.14839254,0.9889171,-246.411,408.851,8.521,0.00040999998,0,3.40221
195.24167,2000,0,91.24,0.000002697398,0.000002697398,0.000002697398,0.99999994,0,0,0,0,0,0,1,1,0,0,0,false,false,true,-730.88,-2767.15,16.99,-0.00074178446,0.0046853805,0.16239744,0.986714,-236.131,411.401,8.521,0.00030999997,0,3.44361
195.25,2000,0,91.24,0.000002697398,0.000002697398,0.000002697398,0.99999994,0,0,0,0,0,0,1,1,0,0,0,false,false,true,-732.85,-2763.72,16.99,-0.00080652203,0.0046745907,0.17653729,0.98428243,-225.771,414.271,8.521,0.00021,0,3.48201
195.25833,2000,0,91.24,0.000002697398,0.000002697398,0.000002697398,0.99999994,0,0,0,0,0,0,1,1,0,0,0,false,false,true,-734.73,-2760.27,16.99,-0.00087125966,0.0046638018,0.19080122,0.9816172,-215.371,417.371,8.521,0.00010999999,0,3.51791
195.26666,2000,0,91.24,0.000002697398,0.000002697398,0.000002697398,0.99999994,0,0,0,0,0,0,1,1,0,0,0,false,false,true,-736.51996,-2756.79,16.99,-0.0009413919,0.0046530114,0.20516755,0.9787153,-204.951,420.751,8.521,0,0,3.55121
195.275,2000,0,91.24,0.000002697398,0.000002697398,0.000002697398,0.99999994,0,0,0,0,0,0,1,1,0,0,0,false,false,true,-738.23,-2753.28,16.99,-0.0010115242,0.004636827,0.2196257,0.9755726,-194.511,424.431,8.521,0,0,3.58191
195.28334,2000,0,91.24,0.000002697398,0.000002697398,0.000002697398,0.99999994,0,0,0,0,0,0,1,1,0,0,0,false,false,true,-739.85,-2749.74,16.99,-0.0010816565,0.004620643,0.23415935,0.97218657,-184.271,428.261,8.521,0,0.00010999999,3.60781
195.29167,2000,0,91.24,0.000002697398,0.000002697398,0.000002697398,0.99999994,0,0,0,0,0,0,1,1,0,0,0,false,false,true,-741.38995,-2746.17,16.99,-0.001151789,0.0046044583,0.24874689,0.9685568,-174.271,432.231,8.521,0,0.00010999999,3.62881
195.3,2000,0,91.24,0.000002697398,0.000002697398,0.000002697398,0.99999994,0,0,0,0,0,0,1,1,0,0,0,false,false,true,-742.83997,-2742.5698,16.99,-0.0012219214,0.0045882743,0.26336148,0.9646855,-164.521,436.361,8.521,0,0.00021,3.6449099
195.30833,2000,0,91.24,0.000002697398,0.000002697398,0.000002697398,0.99999994,0,0,0,0,0,0,1,1,0,0,0,false,false,true,-744.20996,-2738.93,16.99,-0.0012920536,0.0045720898,0.27798143,0.9605746,-155.031,440.661,8.521,0,0.00021,3.65601
195.31667,2000,0,91.24,0.000002697398,0.000002697398,0.000002697398,0.99999994,0,0,0,0,0,0,1,1,0,0,0,false,false,true,-745.5,-2735.26,16.99,-0.001362186,0.0045505106,0.29257977,0.95622927,-145.791,445.161,8.521,0,0.00021,3.6621099
195.325,2000,0,91.24,0.000002697398,0.000002697398,0.000002697398,0.99999994,0,0,0,0,0,0,1,1,0,0,0,false,false,true,-746.70996,-2731.55,16.99,-0.0014323182,0.004528931,0.307135,0.95165396,-136.851,449.611,8.521,0,0.00021,3.66921
195.33333,2000,0,91.24,0.000002697398,0.000002697398,0.000002697398,0.99999994,0,0,0,0,0,0,1,1,0,0,0,false,false,true,-747.85,-2727.8,16.99,-0.0015024508,0.0045073526,0.32164714,0.9468477,-128.201,454.041,8.521,0,0.00021,3.6770098
195.34166,2000,0,91.24,0.000002697398,0.000002697398,0.000002697398,0.99999994,0,0,0,0,0,0,1,1,0,0,0,false,false,true,-748.92,-2724.02,16.99,-0.001572583,0.0044857725,0.3361159,0.94180846,-119.840996,458.471,8.521,0,0.00021,3.68521
195.35,2000,0,91.24,0.000002697398,0.000002697398,0.000002697398,0.99999994,0,0,0,0,0,0,1,1,0,0,0,false,false,true,-749.92,-2720.2,16.99,-0.0016427152,0.0044641932,0.3505363,0.9365369,-111.760994,462.911,8.521,0,0.00021,3.6937099
195.35834,2000,0,91.24,0.000002697398,0.000002697398,0.000002697398,0.99999994,0,0,0,0,0,0,1,1,0,0,0,false,false,true,-750.85,-2716.3398,16.99,-0.0017128475,0.0044372194,0.3649081,0.9310312,-103.961,467.371,8.521,0,0.00010999999,3.70241
195.36667,2000,0,91.24,0.000002697398,0.000002697398,0.000002697398,0.99999994,0,0,0,0,0,0,1,1,0,0,0,false,false,true,-751.72,-2712.44,16.99,-0.0017829799,0.004410245,0.3792259,0.9252917,-96.440994,471.861,8.521,0,0.00010999999,3.7111099
195.375,2000,0,91.24,0.000002697398,0.000002697398,0.000002697398,0.99999994,0,0,0,0,0,0,1,1,0,0,0,false,false,true,-752.51996,-2708.51,16.99,-0.0018531125,0.0043832716,0.39348987,0.9193166,-89.211,476.391,8.521,0,0.00010999999,3.71981
195.38333,2000,0,91.24,0.000002697398,0.000002697398,0.000002697398,0.99999994,0,0,0,0,0,0,1,1,0,0,0,false,false,true,-753.26,-2704.54,16.99,-0.0019232448,0.0043562977,0.40768895,0.9131084,-82.270996,480.961,8.521,0,0.00010999999,3.72841
195.39166,2000,0,91.24,0.000002697398,0.000002697398,0.000002697398,0.99999994,0,0,0,0,0,0,1,1,0,0,0,false,false,true,-753.95,-2700.53,16.99,-0.0019879823,0.004323929,0.4218234,0.90666544,-75.631,485.581,8.521,0,0,3.73681
195.4,2000,0,91.24,0.000002697398,0.000002697398,0.000002697398,0.99999994,0,0,0,0,0,0,1,1,0,0,0,false,false,true,-754.57996,-2696.48,16.99,-0.00205272,0.00429156,0.43588772,0.8999884,-69.291,490.251,8.521,0,0,3.74501
195.40834,2000,0,91.24,0.000002697398,0.000002697398,0.000002697398,0.99999994,0,0,0,0,0,0,1,1,0,0,0,false,false,true,-755.16,-2692.39,16.99,-0.0021174573,0.0042591915,0.44987643,0.8930781,-63.260998,494.971,8.521,0,0,3.75291
195.41667,2000,0,91.24,0.000002697398,0.000002697398,0.000002697398,0.99999994,0,0,0,0,0,0,1,1,0,0,0,false,false,true,-755.69,-2688.26,16.99,-0.002182195,0.0042268224,0.4637843,0.8859353,-57.551,499.741,8.521,0,0,3.76051
195.425,2000,0,91.24,0.000002697398,0.000002697398,0.000002697398,0.99999994,0,0,0,0,0,0,1,1,0,0,0,false,false,true,-756.17,-2684.0999,16.99,-0.0022469326,0.004194454,0.47760585,0.87856126,-52.170998,504.551,8.521,0,0,3.7678099
195.43333,2000,0,91.24,0.000002697398,0.000002697398,0.000002697398,0.99999994,0,0,0,0,0,0,1,1,0,0,0,false,false,true,-756.6,-2679.9,16.99,-0.00231167,0.00415669,0.491341,0.8709542,-47.121,509.411,8.521,-0.00010999999,0,3.77471
195.44167,2000,0,91.24,0.000002697398,0.000002697398,0.000002697398,0.99999994,0,0,0,0,0,0,1,1,0,0,0,false,false,true,-756.99,-2675.65,16.99,-0.0023764076,0.004118927,0.50497913,0.86311835,-42.411,514.311,8.521,-0.00010999999,0,3.78121
195.45,2000,0,91.24,0.000002697398,0.000002697398,0.000002697398,0.99999994,0,0,0,0,0,0,1,1,0,0,0,false,false,true,-757.33997,-2671.3599,16.99,-0.0024411452,0.004081163,0.51851463,0.85505545,-38.051,519.24097,8.521,-0.00010999999,0,3.78721
195.45833,2000,0,91.24,0.000002697398,0.000002697398,0.000002697398,0.99999994,0,0,0,0,0,0,1,1,0,0,0,false,false,true,-757.66,-2667.03,16.99,-0.0025058826,0.0040433994,0.53194237,0.8467671,-34.051,524.201,8.521,-0.00021,0,3.7927098
195.46666,2000,0,91.24,0.000002697398,0.000002697398,0.000002697398,0.99999994,0,0,0,0,0,0,1,1,0,0,0,false,false,true,-757.94,-2662.66,16.99,-0.0025706203,0.004005636,0.54525685,0.8382554,-30.421,529.18097,8.521,-0.00021,0,3.79771
195.475,2000,0,91.24,0.000002697398,0.000002697398,0.000002697398,0.99999994,0,0,0,0,0,0,1,1,0,0,0,false,false,true,-758.19,-2658.25,16.99,-0.0026353581,0.003962478,0.55845255,0.8295228,-27.171,534.16095,8.521,-0.00021,-0.00010999999,3.8022099
195.48334,2000,0,91.24,0.000002697398,0.000002697398,0.000002697398,0.99999994,0,0,0,0,0,0,1,1,0,0,0,false,false,true,-758.42,-2653.8,16.99,-0.0027000955,0.0039193192,0.5715242,0.8205713,-24.310999,539.141,8.521,-0.00021,-0.00010999999,3.80611
195.49167,2000,0,91.24,0.000002697398,0.000002697398,0.000002697398,0.99999994,0,0,0,0,0,0,1,1,0,0,0,false,false,true,-758.62,-2649.31,16.99,-0.002764833,0.003876161,0.5844663,0.81140393,-21.841,544.11096,8.521,-0.00021,-0.00010999999,3.8094099
195.5,2000,0,91.24,0.000002697398,0.000002697398,0.000002697398,0.99999994,0,0,0,0,0,0,1,1,0,0,0,false,false,true,-758.8,-2644.78,16.99,-0.0028295706,0.0038330026,0.59727365,0.8020233,-19.780998,549.05096,8.521,-0.00010999999,-0.00010999999,3.8120098
195.50833,2000,0,91.24,0.000002697398,0.000002697398,0.000002697398,0.99999994,0,0,0,0,0,0,1,1,0,0,0,false,false,true,-758.95996,-2640.2,16.99,-0.0028889133,0.0037898442,0.6099353,0.7924368,-18.130999,553.941,8.521,-0.00010999999,-0.00010999999,3.81391
195.51666,2000,0,91.24,0.000002697398,0.000002697398,0.000002697398,0.99999994,0,0,0,0,0,0,1,1,0,0,0,false,false,true,-759.11,-2635.5798,16.99,-0.002948256,0.0037412911,0.62245125,0.782644,-16.901,558.77094,8.521,-0.00010999999,-0.00021,3.81511
195.525,2000,0,91.24,0.000002697398,0.000002697398,0.000002697398,0.99999994,0,0,0,0,0,0,1,1,0,0,0,false,false,true,-759.25,-2630.92,16.99,-0.0030075992,0.0036927382,0.63481086,0.77265286,-16.101,563.53094,8.521,-0.00010999999,-0.00021,3.81561
195.53334,2000,0,91.24,0.000002697398,0.000002697398,0.000002697398,0.99999994,0,0,0,0,0,0,1,1,0,0,0,false,false,true,-759.38,-2626.22,16.99,-0.0030669416,0.003644185,0.64701384,0.7624633,-15.721,568.21094,8.521,-0.00010999999,-0.00021,3.81491
195.54167,2000,0,91.24,0.000002697398,0.000002697398,0.000002697398,0.99999994,0,0,0,0,0,0,1,1,0,0,0,false,false,true,-759.51,-2621.48,16.99,-0.0031262846,0.0035956318,0.65904975,0.7520842,-15.751,572.881,8.521,-0.00010999999,-0.00021,3.8134098
195.55,2000,0,91.24,0.000002697398,0.000002697398,0.000002697398,0.99999994,0,0,0,0,0,0,1,1,0,0,0,false,false,true,-759.63995,-2616.71,16.99,-0.0031856268,0.003547078,0.67091817,0.7415159,-16.171,577.511,8.521,-0.00010999999,-0.00021,3.8113098
195.55833,2000,0,91.24,0.000002697398,0.000002697398,0.000002697398,0.99999994,0,0,0,0,0,0,1,1,0,0,0,false,false,true,-759.76996,-2611.9,16.99,-0.0032449698,0.0034931304,0.68260884,0.73076826,-16.991,582.081,8.521,-0.00010999999,-0.00021,3.80901
195.56667,2000,0,91.24,0.000002697398,0.000002697398,0.000002697398,0.99999994,0,0,0,0,0,0,1,1,0,0,0,false,false,true,-759.91,-2607.05,16.99,-0.003298918,0.0034391829,0.6941214,0.71984214,-18.191,586.561,8.521,-0.00010999999,-0.00021,3.8066099
195.575,2000,0,91.24,0.000002697398,0.000002697398,0.000002697398,0.99999994,0,0,0,0,0,0,1,1,0,0,0,false,false,true,-760.06,-2602.16,16.99,-0.0033528658,0.0033852346,0.70545053,0.708743,-19.771,590.941,8.531,-0.00021,-0.00021,3.80441
195.58333,2000,0,91.24,0.000002697398,0.000002697398,0.000002697398,0.99999994,0,0,0,0,0,0,1,1,0,0,0,false,false,true,-760.22,-2597.24,16.99,-0.0034068138,0.0033312866,0.7165965,0.6974716,-21.730999,595.21094,8.531,-0.00021,-0.00021,3.80311
195.59166,2000,0,91.24,0.000002697398,0.000002697398,0.000002697398,0.99999994,0,0,0,0,0,0,1,1,0,0,0,false,false,true,-760.39996,-2592.28,16.99,-0.0034607619,0.0032773388,0.7275584,0.6860292,-24.060999,599.371,8.531,-0.00021,-0.00021,3.80301
195.6,2000,0,91.24,0.000002697398,0.000002697398,0.000002697398,0.99999994,0,0,0,0,0,0,1,1,0,0,0,false,false,true,-760.6,-2587.29,16.99,-0.0035147096,0.0032233908,0.73833776,0.67441416,-26.751,603.40094,8.531,-0.00021,-0.00021,3.80421
195.60834,2000,0,91.24,0.000002697398,0.000002697398,0.000002697398,0.99999994,0,0,0,0,0,0,1,1,0,0,0,false,false,true,-760.82,-2582.26,16.99,-0.0035686577,0.0031694428,0.74893475,0.66262645,-29.790998,607.30096,8.531,-0.00021,-0.00010999999,3.8066099
195.61667,2000,0,91.24,0.000002697398,0.000002697398,0.000002697398,0.99999994,0,0,0,0,0,0,1,1,0,0,0,false,false,true,-761.07,-2577.2,16.99,-0.003617211,0.003115495,0.75934887,0.6506662,-33.181,611.09094,8.531,-0.00010999999,-0.00010999999,3.8099098
195.625,2000,0,91.24,0.000002697398,0.000002697398,0.000002697398,0.99999994,0,0,0,0,0,0,1,1,0,0,0,false,false,true,-761.35,-2572.1099,16.99,-0.0036657634,0.0030561518,0.7695838,0.63852775,-36.911,614.74097,8.531,-0.00010999999,-0.00010999999,3.81401
195.63333,2000,0,91.24,0.000002697398,0.000002697398,0.000002697398,0.99999994,0,0,0,0,0,0,1,1,0,0,0,false,false,true,-761.66,-2566.99,16.99,-0.0037143172,0.0029968093,0.7796343,0.62621677,-40.961,618.251,8.531,-0.00010999999,-0.00010999999,3.81891
195.64166,2000,0,91.24,0.000002697398,0.000002697398,0.000002697398,0.99999994,0,0,0,0,0,0,1,1,0,0,0,false,false,true,-762,-2561.8398,16.99,-0.0037628703,0.0029374664,0.7894989,0.61373323,-45.321,621.60095,8.531,-0.00010999999,-0.00010999999,3.8245099
195.65,2000,0,91.24,0.000002697398,0.000002697398,0.000002697398,0.99999994,0,0,0,0,0,0,1,1,0,0,0,false,false,true,-762.38,-2556.66,16.99,-0.0038114234,0.0028781237,0.79917675,0.60107696,-49.970997,624.77094,8.531,-0.00010999999,0,3.83071
195.65834,2000,0,91.24,0.000002697398,0.000002697398,0.000002697398,0.99999994,0,0,0,0,0,0,1,1,0,0,0,false,false,true,-762.8,-2551.45,16.99,-0.0038545814,0.0028187807,0.8086702,0.58824265,-54.900997,627.761,8.541,0,0,3.8375099
195.66667,2000,0,91.24,0.000002697398,0.000002697398,0.000002697398,0.99999994,0,0,0,0,0,0,1,1,0,0,0,false,false,true,-763.26,-2546.22,16.99,-0.0038977403,0.0027594382,0.81797355,0.5752358,-60.100998,630.55096,8.541,0,0,3.84481
195.675,2000,0,91.24,0.000002697398,0.000002697398,0.000002697398,0.99999994,0,0,0,0,0,0,1,1,0,0,0,false,false,true,-763.76,-2540.97,16.99,-0.003940899,0.0026947008,0.82708514,0.5620563,-65.561,633.141,8.541,0,0,3.8526099
195.68333,2000,0,91.24,0.000002697398,0.000002697398,0.000002697398,0.99999994,0,0,0,0,0,0,1,1,0,0,0,false,false,true,-764.31,-2535.69,16.99,-0.003984057,0.002629963,0.83599937,0.5487095,-71.261,635.511,8.541,0,0,3.8608098
195.69167,2000,0,91.24,0.000002697398,0.000002697398,0.000002697398,0.99999994,0,0,0,0,0,0,1,1,0,0,0,false,false,true,-764.89996,-2530.39,16.99,-0.0040272153,0.0025652256,0.8447181,0.53519005,-77.181,637.66095,8.541,0,0,3.8694098
