time,ball_loc_x,ball_loc_y,ball_loc_z,ball_rot_x,ball_rot_y,ball_rot_z,ball_rot_w,ball_vel_x,ball_vel_y,ball_vel_z,ball_ang_x,ball_ang_y,ball_ang_z,player0_throttle,player0_steer,player0_pitch,player0_yaw,player0_roll,player0_jump,player0_boost,player0_handbrake,player0_loc_x,player0_loc_y,player0_loc_z,player0_rot_x,player0_rot_y,player0_rot_z,player0_rot_w,player0_vel_x,player0_vel_y,player0_vel_z,player0_ang_x,player0_ang_y,player0_ang_z
281.94168,2000,0,91.24,0.000002697398,0.000002697398,0.000002697398,0.99999994,0,0,0,0,0,0,1,0,0,0,0,false,true,false,0,-2908.3599,16.99,-0.00336905,0.003374445,0.70711225,0.70708513,-0.040999997,2203.701,8.411,-0.00061,0,0
281.95,2000,0,91.24,0.000002697398,0.000002697398,0.000002697398,0.99999994,0,0,0,0,0,0,1,1,0,0,0,false,false,true,0,-2890,16.99,-0.00336905,0.003374445,0.70711225,0.70708513,-10.761001,2202.941,8.461,-0.00061,0.00281,0.29851002
281.95834,2000,0,91.24,0.000002697398,0.000002697398,0.000002697398,0.99999994,0,0,0,0,0,0,1,1,0,0,0,false,false,true,-0.089999996,-2871.64,16.99,-0.00336905,0.0033798397,0.7079904,0.7062058,-20.280998,2202.241,8.491,-0.00061,0.00401,0.54301
281.96667,2000,0,91.24,0.000002697398,0.000002697398,0.000002697398,0.99999994,0,0,0,0,0,0,1,1,0,0,0,false,false,true,-0.26,-2853.29,16.99,-0.00336905,0.0033852346,0.709585,0.70460355,-29.980999,2201.501,8.511001,-0.00051,0.0043099998,0.75800997
281.975,2000,0,91.24,0.000002697398,0.000002697398,0.000002697398,0.99999994,0,0,0,0,0,0,1,1,0,0,0,false,false,true,-0.51,-2834.94,16.99,-0.00336905,0.0033906293,0.7118065,0.70235926,-40.321,2200.681,8.531,-0.00051,0.00421,0.94901
281.98334,2000,0,91.24,0.000002697398,0.000002697398,0.000002697398,0.99999994,0,0,0,0,0,0,1,1,0,0,0,false,false,true,-0.84999996,-2816.5999,16.99,-0.0033690503,0.0033906295,0.7145795,0.6995379,-51.580997,2199.731,8.541,-0.00040999998,0.00381,1.12051
281.99167,2000,0,91.24,0.000002697398,0.000002697398,0.000002697398,0.99999994,0,0,0,0,0,0,1,1,0,0,0,false,false,true,-1.28,-2798.27,16.99,-0.003374445,0.0033852346,0.7178386,0.69619304,-63.900997,2198.6008,8.551001,-0.00040999998,0.00321,1.27601
282,2000,0,91.24,0.000002697398,0.000002697398,0.000002697398,0.99999994,0,0,0,0,0,0,1,1,0,0,0,false,false,true,-1.81,-2779.95,16.99,-0.0033852349,0.00337984,0.7215286,0.6923681,-77.321,2197.251,8.551001,-0.00040999998,0.00261,1.41821
282.00833,2000,0,91.24,0.000002697398,0.000002697398,0.000002697398,0.99999994,0,0,0,0,0,0,1,1,0,0,0,false,false,true,-2.45,-2761.64,16.99,-0.0033960242,0.00336905,0.72560954,0.68808997,-91.811,2195.6309,8.561,-0.00030999997,0.00201,1.54931
282.01666,2000,0,91.24,0.000002697398,0.000002697398,0.000002697398,0.99999994,0,0,0,0,0,0,1,1,0,0,0,false,false,true,-3.22,-2743.3398,16.99,-0.0034122085,0.0033528658,0.7300367,0.6833911,-107.291,2193.701,8.561,-0.00030999997,0.0014099999,1.67081
282.025,2000,0,91.24,0.000002697398,0.000002697398,0.000002697398,0.99999994,0,0,0,0,0,0,1,1,0,0,0,false,false,true,-4.11,-2725.06,16.99,-0.0034337877,0.0033366815,0.73477584,0.678293,-123.65099,2191.431,8.561,-0.00030999997,0.00091,1.78411
282.03333,2000,0,91.24,0.000002697398,0.000002697398,0.000002697398,0.99999994,0,0,0,0,0,0,1,1,0,0,0,false,false,true,-5.14,-2706.8,16.99,-0.003455367,0.0033151023,0.73979807,0.6728118,-140.741,2188.791,8.561,-0.00021,0.00051,1.89001
282.04166,2000,0,91.24,0.000002697398,0.000002697398,0.000002697398,0.99999994,0,0,0,0,0,0,1,1,0,0,0,false,false,true,-6.31,-2688.56,16.99,-0.0034823408,0.0032881282,0.74507457,0.6669639,-158.401,2185.771,8.571,-0.00010999999,0.00010999999,1.9893099
282.05,2000,0,91.24,0.000002697398,0.000002697398,0.000002697398,0.99999994,0,0,0,0,0,0,1,1,0,0,0,false,false,true,-7.6299996,-2670.3499,16.99,-0.003509315,0.0032611543,0.7505773,0.66076523,-176.461,2182.3508,8.571,-0.00010999999,-0.00010999999,2.08251
282.05832,2000,0,91.24,0.000002697398,0.000002697398,0.000002697398,0.99999994,0,0,0,0,0,0,1,1,0,0,0,false,false,true,-9.099999,-2652.16,16.99,-0.0035362889,0.0032287855,0.7562832,0.6542267,-194.72101,2178.541,8.571,0,-0.00030999997,2.16991
282.06668,2000,0,91.24,0.000002697398,0.000002697398,0.000002697398,0.99999994,0,0,0,0,0,0,1,1,0,0,0,false,false,true,-10.719999,-2634.01,16.99,-0.0035686577,0.0031964167,0.76216537,0.6473645,-212.981,2174.3608,8.571,0,-0.00040999998,2.25171
282.075,2000,0,91.24,0.000002697398,0.000002697398,0.000002697398,0.99999994,0,0,0,0,0,0,1,1,0,0,0,false,false,true,-12.49,-2615.89,16.99,-0.0036010265,0.0031640478,0.76820654,0.640184,-231.021,2169.8508,8.571,0,-0.00051,2.3280098
282.08334,2000,0,91.24,0.000002697398,0.000002697398,0.000002697398,0.99999994,0,0,0,0,0,0,1,1,0,0,0,false,false,true,-14.42,-2597.81,16.99,-0.0036333953,0.0031262843,0.7743809,0.6327014,-248.621,2165.061,8.571,0,-0.00061,2.39871
282.09167,2000,0,91.24,0.000002697398,0.000002697398,0.000002697398,0.99999994,0,0,0,0,0,0,1,1,0,0,0,false,false,true,-16.49,-2579.77,16.99,-0.003665764,0.0030885208,0.780668,0.62492746,-265.54102,2160.061,8.571,0,-0.00071,2.46371
282.1,2000,0,91.24,0.000002697398,0.000002697398,0.000002697398,0.99999994,0,0,0,0,0,0,1,1,0,0,0,false,false,true,-18.699999,-2561.77,16.99,-0.0036981322,0.0030507569,0.78704375,0.61687833,-281.531,2154.941,8.571,0,-0.00081,2.52281
282.10834,2000,0,91.24,0.000002697398,0.000002697398,0.000002697398,0.99999994,0,0,0,0,0,0,1,1,0,0,0,false,false,true,-21.05,-2543.81,16.99,-0.0037305015,0.003007599,0.79348534,0.6085704,-296.341,2149.821,8.571,0.00010999999,-0.00091,2.57571
282.11667,2000,0,91.24,0.000002697398,0.000002697398,0.000002697398,0.99999994,0,0,0,0,0,0,1,1,0,0,0,false,false,true,-23.519999,-2525.89,16.99,-0.0037628703,0.0029644405,0.79997087,0.6000196,-309.711,2144.8508,8.571,0.00010999999,-0.0010099999,2.62211
282.125,2000,0,91.24,0.000002697398,0.000002697398,0.000002697398,0.99999994,0,0,0,0,0,0,1,1,0,0,0,false,false,true,-26.099998,-2508.02,16.99,-0.0038006338,0.002921282,0.8064797,0.59124225,-321.371,2140.201,8.571,0.00010999999,-0.00111,2.66151
282.13333,2000,0,91.24,0.000002697398,0.000002697398,0.000002697398,0.99999994,0,0,0,0,0,0,1,1,0,0,0,false,false,true,-28.779999,-2490.18,16.99,-0.0038383976,0.0028781237,0.8129885,0.58225983,-331.041,2136.071,8.571,0.00021,-0.0012099999,2.69351
282.14166,2000,0,91.24,0.000002697398,0.000002697398,0.000002697398,0.99999994,0,0,0,0,0,0,1,1,0,0,0,false,false,true,-31.539999,-2472.38,16.99,-0.0038761613,0.0028295708,0.8194717,0.5730995,-338.441,2132.691,8.561,0.00030999997,-0.00131,2.71751
282.15,2000,0,91.24,0.000002697398,0.000002697398,0.000002697398,0.99999994,0,0,0,0,0,0,1,1,0,0,0,false,false,true,-34.36,-2454.6099,16.99,-0.0039139246,0.0027810175,0.82590914,0.56378263,-346.181,2128.941,8.561,0.00040999998,-0.00131,2.74101
282.15833,2000,0,91.24,0.000002697398,0.000002697398,0.000002697398,0.99999994,0,0,0,0,0,0,1,1,0,0,0,false,false,true,-37.239998,-2436.8699,16.99,-0.0039462927,0.0027324639,0.8322932,0.5543146,-354.231,2124.811,8.561,0.00040999998,-0.0012099999,2.76421
282.16666,2000,0,91.24,0.000002697398,0.000002697398,0.000002697398,0.99999994,0,0,0,0,0,0,1,1,0,0,0,false,false,true,-40.19,-2419.16,16.99,-0.003978662,0.002683911,0.8386234,0.5446904,-362.57098,2120.291,8.561,0.00040999998,-0.00111,2.7871099
282.175,2000,0,91.24,0.000002697398,0.000002697398,0.000002697398,0.99999994,0,0,0,0,0,0,1,1,0,0,0,false,false,true,-43.21,-2401.49,16.99,-0.0040110312,0.0026353581,0.8448922,0.534915,-371.171,2115.3708,8.561,0.00040999998,-0.00111,2.80971
282.18332,2000,0,91.24,0.000002697398,0.000002697398,0.000002697398,0.99999994,0,0,0,0,0,0,1,1,0,0,0,false,false,true,-46.3,-2383.8599,16.99,-0.0040433994,0.0025868048,0.85109574,0.5249885,-379.991,2110.031,8.561,0.00040999998,-0.0010099999,2.83201
282.19168,2000,0,91.24,0.000002697398,0.000002697398,0.000002697398,0.99999994,0,0,0,0,0,0,1,1,0,0,0,false,false,true,-49.469997,-2366.28,16.99,-0.004075769,0.002532857,0.8572302,0.514911,-389.011,2104.281,8.561,0.00040999998,-0.0010099999,2.8540099
282.2,2000,0,91.24,0.000002697398,0.000002697398,0.000002697398,0.99999994,0,0,0,0,0,0,1,1,0,0,0,false,false,true,-52.71,-2348.74,16.99,-0.0041081375,0.002478909,0.8632917,0.5046825,-398.201,2098.1008,8.561,0.00040999998,-0.00091,2.8756099
282.20834,2000,0,91.24,0.000002697398,0.000002697398,0.000002697398,0.99999994,0,0,0,0,0,0,1,1,0,0,0,false,false,true,-56.03,-2331.26,16.99,-0.0041405065,0.002424961,0.8692765,0.49430278,-407.521,2091.491,8.561,0.00040999998,-0.00081,2.89691
282.21667,2000,0,91.24,0.000002697398,0.000002697398,0.000002697398,0.99999994,0,0,0,0,0,0,1,1,0,0,0,false,false,true,-59.43,-2313.8298,16.99,-0.0041728746,0.002371013,0.8751808,0.4837721,-416.951,2084.451,8.561,0.00040999998,-0.00071,2.91781
282.225,2000,0,91.24,0.000002697398,0.000002697398,0.000002697398,0.99999994,0,0,0,0,0,0,1,1,0,0,0,false,false,true,-62.899998,-2296.46,16.99,-0.004205243,0.002317065,0.8809979,0.47309572,-426.451,2076.981,8.561,0.00040999998,-0.00061,2.93821
282.23334,2000,0,91.24,0.000002697398,0.000002697398,0.000002697398,0.99999994,0,0,0,0,0,0,1,1,0,0,0,false,false,true,-66.45,-2279.15,16.99,-0.004232218,0.002263117,0.88672423,0.4622738,-436.001,2069.0808,8.561,0.00040999998,-0.00051,2.95821
282.24167,2000,0,91.24,0.000002697398,0.000002697398,0.000002697398,0.99999994,0,0,0,0,0,0,1,1,0,0,0,false,false,true,-70.08,-2261.91,16.99,-0.0042591915,0.0022091689,0.89235353,0.45131144,-445.57098,2060.751,8.561,0.00040999998,-0.00040999998,2.9776099
282.25,2000,0,91.24,0.000002697398,0.000002697398,0.000002697398,0.99999994,0,0,0,0,0,0,1,1,0,0,0,false,false,true,-73.79,-2244.74,16.99,-0.004286166,0.0021552213,0.89788514,0.4402036,-455.121,2051.991,8.561,0.00030999997,-0.00040999998,2.99651
282.25833,2000,0,91.24,0.000002697398,0.000002697398,0.000002697398,0.99999994,0,0,0,0,0,0,1,1,0,0,0,false,false,true,-77.58,-2227.64,16.99,-0.0043131392,0.002101273,0.90331036,0.4289607,-464.63098,2042.8109,8.561,0.00030999997,-0.00040999998,3.0148098
282.26666,2000,0,91.24,0.000002697398,0.000002697398,0.000002697398,0.99999994,0,0,0,0,0,0,1,1,0,0,0,false,false,true,-81.45,-2210.6199,16.99,-0.004340113,0.002047325,0.90862846,0.4175777,-474.061,2033.2109,8.561,0.00030999997,-0.00040999998,3.03251
282.275,2000,0,91.24,0.000002697398,0.000002697398,0.000002697398,0.99999994,0,0,0,0,0,0,1,1,0,0,0,false,false,true,-85.4,-2193.68,16.99,-0.0043670875,0.0019879823,0.9138315,0.40606514,-483.391,2023.2109,8.561,0.00030999997,-0.00040999998,3.04951
282.28333,2000,0,91.24,0.000002697398,0.000002697398,0.000002697398,0.99999994,0,0,0,0,0,0,1,1,0,0,0,false,false,true,-89.43,-2176.82,16.99,-0.0043940614,0.0019286396,0.91891634,0.39442316,-492.591,2012.8109,8.561,0.00030999997,-0.00030999997,3.0657098
282.29166,2000,0,91.24,0.000002697398,0.000002697398,0.000002697398,0.99999994,0,0,0,0,0,0,1,1,0,0,0,false,false,true,-93.53,-2160.05,16.99,-0.0044210353,0.0018692969,0.92388016,0.38265163,-501.621,2002.0309,8.561,0.00030999997,-0.00030999997,3.08111
282.3,2000,0,91.24,0.000002697398,0.000002697398,0.000002697398,0.99999994,0,0,0,0,0,0,1,1,0,0,0,false,false,true,-97.71,-2143.3699,16.99,-0.004448009,0.0018099541,0.92871565,0.37076148,-510.471,1990.881,8.561,0.00030999997,-0.00021,3.09571
282.30832,2000,0,91.24,0.000002697398,0.000002697398,0.000002697398,0.99999994,0,0,0,0,0,0,1,1,0,0,0,false,false,true,-101.96,-2126.78,16.99,-0.004469588,0.0017506111,0.9334202,0.35875255,-519.10095,1979.381,8.561,0.00030999997,-0.00010999999,3.10931
282.31668,2000,0,91.24,0.000002697398,0.000002697398,0.000002697398,0.99999994,0,0,0,0,0,0,1,1,0,0,0,false,false,true,-106.29,-2110.29,16.99,-0.0044911676,0.0016912686,0.9379894,0.34663048,-527.501,1967.5409,8.561,0.00030999997,-0.00010999999,3.12201
282.325,2000,0,91.24,0.000002697398,0.000002697398,0.000002697398,0.99999994,0,0,0,0,0,0,1,1,0,0,0,false,false,true,-110.689995,-2093.89,16.99,-0.0045127473,0.0016319259,0.9424189,0.33440042,-535.631,1955.391,8.561,0.00030999997,-0.00010999999,3.13361
282.33334,2000,0,91.24,0.000002697398,0.000002697398,0.000002697398,0.99999994,0,0,0,0,0,0,1,1,0,0,0,false,false,true,-115.149994,-2077.5898,16.99,-0.0045343265,0.0015725832,0.9467044,0.32206792,-543.48096,1942.9409,8.561,0.00030999997,-0.00010999999,3.14411
282.34167,2000,0,91.24,0.000002697398,0.000002697398,0.000002697398,0.99999994,0,0,0,0,0,0,1,1,0,0,0,false,false,true,-119.68,-2061.4,16.99,-0.0045559052,0.0015132403,0.95084226,0.3096382,-551.02094,1930.221,8.561,0.00030999997,-0.00010999999,3.15341
282.35,2000,0,91.24,0.000002697398,0.000002697398,0.000002697398,0.99999994,0,0,0,0,0,0,1,1,0,0,0,false,false,true,-124.27,-2045.3099,16.99,-0.004577485,0.0014538977,0.95482904,0.29711682,-558.24097,1917.251,8.571,0.00030999997,-0.00010999999,3.1614099
282.35834,2000,0,91.24,0.000002697398,0.000002697398,0.000002697398,0.99999994,0,0,0,0,0,0,1,1,0,0,0,false,false,true,-128.92,-2029.33,16.99,-0.0045936685,0.0013945546,0.9586595,0.28451452,-565.11096,1904.0609,8.571,0.00030999997,-0.00010999999,3.16811
282.36667,2000,0,91.24,0.000002697398,0.000002697398,0.000002697398,0.99999994,0,0,0,0,0,0,1,1,0,0,0,false,false,true,-133.62999,-2013.46,16.99,-0.004609853,0.0013298172,0.96233135,0.2718367,-571.621,1890.6709,8.571,0.00030999997,-0.00010999999,3.17331
282.375,2000,0,91.24,0.000002697398,0.000002697398,0.000002697398,0.99999994,0,0,0,0,0,0,1,1,0,0,0,false,false,true,-138.39,-1997.7,16.99,-0.0046260376,0.0012650797,0.96584153,0.25908878,-577.761,1877.111,8.571,0.00030999997,-0.00010999999,3.1770098
282.38333,2000,0,91.24,0.000002697398,0.000002697398,0.000002697398,0.99999994,0,0,0,0,0,0,1,1,0,0,0,false,false,true,-143.2,-1982.0599,16.99,-0.004642222,0.0012003421,0.9691864,0.24628146,-584.061,1863.631,8.571,0.00030999997,-0.00010999999,3.18111
282.39166,2000,0,91.24,0.000002697398,0.000002697398,0.000002697398,0.99999994,0,0,0,0,0,0,1,1,0,0,0,false,false,true,-148.06999,-1966.5299,16.99,-0.0046584066,0.0011356047,0.9723654,0.23341489,-590.501,1850.2109,8.571,0.00030999997,0,3.18551
282.4,2000,0,91.24,0.000002697398,0.000002697398,0.000002697398,0.99999994,0,0,0,0,0,0,1,1,0,0,0,false,false,true,-152.98999,-1951.11,16.99,-0.004674591,0.0010708671,0.9753777,0.22048888,-596.77094,1836.751,8.571,0.00030999997,0,3.18901
282.40833,2000,0,91.24,0.000002697398,0.000002697398,0.000002697398,0.99999994,0,0,0,0,0,0,1,1,0,0,0,false,false,true,-157.95999,-1935.7999,16.99,-0.004690775,0.0010061294,0.9782213,0.20750889,-602.881,1823.261,8.571,0.00021,0,3.1916099
282.41666,2000,0,91.24,0.000002697398,0.000002697398,0.000002697398,0.99999994,0,0,0,0,0,0,1,1,0,0,0,false,false,true,-162.98,-1920.61,16.99,-0.0047015646,0.0009413919,0.9808946,0.19448046,-608.83093,1809.761,8.571,0.00021,0,3.19331
282.425,2000,0,91.24,0.000002697398,0.000002697398,0.000002697398,0.99999994,0,0,0,0,0,0,1,1,0,0,0,false,false,true,-168.05,-1905.5299,16.99,-0.0047123544,0.00087665435,0.98339504,0.18141417,-614.621,1796.271,8.571,0.00021,0,3.19401
282.43332,2000,0,91.24,0.000002697398,0.000002697398,0.000002697398,0.99999994,0,0,0,0,0,0,1,1,0,0,0,false,false,true,-173.17,-1890.5599,16.99,-0.0047231438,0.00081191683,0.98572236,0.16831023,-620.261,1782.8009,8.571,0.00021,0,3.1937099
282.44168,2000,0,91.24,0.000002697398,0.000002697398,0.000002697398,0.99999994,0,0,0,0,0,0,1,1,0,0,0,false,false,true,-178.34,-1875.7,16.99,-0.004733933,0.0007471792,0.98787457,0.15517919,-625.761,1769.371,8.571,0.00021,0,3.19241
282.45,2000,0,91.24,0.000002697398,0.000002697398,0.000002697398,0.99999994,0,0,0,0,0,0,1,1,0,0,0,false,false,true,-183.55,-1860.96,16.99,-0.0047447234,0.00068244175,0.9898512,0.14202662,-631.121,1756.001,8.571,0.00021,0.00010999999,3.19011
282.45834,2000,0,91.24,0.000002697398,0.000002697398,0.000002697398,0.99999994,0,0,0,0,0,0,1,1,0,0,0,false,false,true,-188.81,-1846.33,16.99,-0.004750118,0.0006177042,0.9916515,0.12885791,-636.36096,1742.7009,8.571,0.00010999999,0.00021,3.18671
282.46667,2000,0,91.24,0.000002697398,0.000002697398,0.000002697398,0.99999994,0,0,0,0,0,0,1,1,0,0,0,false,false,true,-194.11,-1831.8099,16.99,-0.0047555123,0.00055296655,0.99327505,0.115678325,-641.49097,1729.481,8.571,0.00010999999,0.00021,3.18221
282.475,2000,0,91.24,0.000002697398,0.000002697398,0.000002697398,0.99999994,0,0,0,0,0,0,1,1,0,0,0,false,false,true,-199.45999,-1817.3999,16.99,-0.004760908,0.0004882291,0.9947216,0.10249886,-646.52094,1716.351,8.571,0.00010999999,0.00021,3.17661
282.48334,2000,0,91.24,0.000002697398,0.000002697398,0.000002697398,0.99999994,0,0,0,0,0,0,1,1,0,0,0,false,false,true,-204.84999,-1803.1,16.99,-0.004766302,0.0004234915,0.995991,0.089324676,-651.46094,1703.3309,8.571,0.00010999999,0.00021,3.1698098
282.49167,2000,0,91.24,0.000002697398,0.000002697398,0.000002697398,0.99999994,0,0,0,0,0,0,1,1,0,0,0,false,false,true,-210.28,-1788.9099,16.99,-0.004771697,0.00035875392,0.99708396,0.07616129,-656.33093,1690.4209,8.571,0.00010999999,0.00021,3.16181
282.5,2000,0,91.24,0.000002697398,0.000002697398,0.000002697398,0.99999994,0,0,0,0,0,0,1,1,0,0,0,false,false,true,-215.75,-1774.82,16.99,-0.0047770925,0.0002940164,0.9980008,0.063019566,-661.141,1677.641,8.571,0.00010999999,0.00021,3.15251
282.50833,2000,0,91.24,0.000002697398,0.000002697398,0.000002697398,0.99999994,0,0,0,0,0,0,1,1,0,0,0,false,false,true,-221.26,-1760.84,16.99,-0.004777092,0.00022927884,0.99874246,0.04990473,-665.91095,1664.991,8.571,0,0.00030999997,3.14201
282.51666,2000,0,91.24,0.000002697398,0.000002697398,0.000002697398,0.99999994,0,0,0,0,0,0,1,1,0,0,0,false,false,true,-226.81,-1746.96,16.99,-0.004777092,0.00016454128,0.99931014,0.036827743,-670.66095,1652.481,8.571,0,0.00030999997,3.13021
282.525,2000,0,91.24,0.000002697398,0.000002697398,0.000002697398,0.99999994,0,0,0,0,0,0,1,1,0,0,0,false,false,true,-232.4,-1733.19,16.99,-0.004777092,0.00009980373,0.99970543,0.023793833,-675.40094,1640.111,8.571,0,0.00030999997,3.1170099
282.53333,2000,0,91.24,0.000002697398,0.000002697398,0.000002697398,0.99999994,0,0,0,0,0,0,1,1,0,0,0,false,false,true,-238.03,-1719.52,16.99,-0.0047770925,0.000040460975,0.99993014,0.010808474,-680.15094,1627.891,8.571,0,0.00030999997,3.1024098
282.54166,2000,0,91.24,0.000002697398,0.000002697398,0.000002697398,0.99999994,0,0,0,0,0,0,1,1,0,0,0,false,false,true,-243.7,-1705.95,16.99,-0.004777092,-0.000018881787,0.9999863,-0.0021174573,-684.93097,1615.8209,8.571,0,0.00030999997,3.08641
282.55,2000,0,91.24,0.000002697398,0.000002697398,0.000002697398,0.99999994,0,0,0,0,0,0,1,1,0,0,0,false,false,true,-249.40999,-1692.48,16.99,-0.0047770925,-0.00007822455,0.9998764,-0.014978695,-689.761,1603.9109,8.571,0,0.00030999997,3.06891
282.55832,2000,0,91.24,0.000002697398,0.000002697398,0.000002697398,0.99999994,0,0,0,0,0,0,1,1,0,0,0,false,false,true,-255.15999,-1679.11,16.99,-0.004771697,-0.0001375673,0.99960303,-0.027764445,-694.66095,1592.151,8.571,0,0.00040999998,3.0499098
282.56668,2000,0,91.24,0.000002697398,0.000002697398,0.000002697398,0.99999994,0,0,0,0,0,0,1,1,0,0,0,false,false,true,-260.94998,-1665.84,16.99,-0.004766302,-0.00019691006,0.9991695,-0.040463835,-699.65094,1580.5509,8.571,0,0.00040999998,3.02931
282.575,2000,0,91.24,0.000002697398,0.000002697398,0.000002697398,0.99999994,0,0,0,0,0,0,1,1,0,0,0,false,false,true,-266.78,-1652.6699,16.99,-0.004760907,-0.00025625277,0.9985792,-0.05307151,-704.68097,1569.011,8.571,0,0.00040999998,3.0106099
282.58334,2000,0,91.24,0.000002697398,0.000002697398,0.000002697398,0.99999994,0,0,0,0,0,0,1,1,0,0,0,false,false,true,-272.65,-1639.59,16.99,-0.004755513,-0.00031559556,0.99783504,-0.06559288,-709.701,1557.4509,8.571,0,0.00040999998,2.9967098
282.59167,2000,0,91.24,0.000002697398,0.000002697398,0.000002697398,0.99999994,0,0,0,0,0,0,1,1,0,0,0,false,false,true,-278.56,-1626.61,16.99,-0.0047501177,-0.00037493833,0.99693847,-0.07804411,-714.72095,1545.891,8.571,0,0.00030999997,2.9874098
282.6,2000,0,91.24,0.000002697398,0.000002697398,0.000002697398,0.99999994,0,0,0,0,0,0,1,1,0,0,0,false,false,true,-284.52,-1613.73,16.99,-0.004744723,-0.0004342811,0.99588984,-0.09044679,-719.751,1534.3309,8.571,0,0.00030999997,2.98261
282.60834,2000,0,91.24,0.000002697398,0.000002697398,0.000002697398,0.99999994,0,0,0,0,0,0,1,1,0,0,0,false,false,true,-290.52,-1600.94,16.99,-0.0047393283,-0.00049362384,0.9946888,-0.1028171,-724.65094,1522.611,8.571,0,0.00030999997,2.9860098
282.61667,2000,0,91.24,0.000002697398,0.000002697398,0.000002697398,0.99999994,0,0,0,0,0,0,1,1,0,0,0,false,false,true,-296.56,-1588.25,16.99,-0.0047339336,-0.0005529666,0.9933329,-0.11518202,-729.3909,1510.7109,8.571,-0.00010999999,0.00021,2.99821
282.625,2000,0,91.24,0.000002697398,0.000002697398,0.000002697398,0.99999994,0,0,0,0,0,0,1,1,0,0,0,false,false,true,-302.63998,-1575.6599,16.99,-0.0047231438,-0.0006123093,0.9918169,-0.12757933,-733.97095,1498.641,8.571,-0.00030999997,0.00021,3.01911
282.63333,2000,0,91.24,0.000002697398,0.000002697398,0.000002697398,0.99999994,0,0,0,0,0,0,1,1,0,0,0,false,false,true,-308.75998,-1563.1699,16.99,-0.004712355,-0.00067165215,0.9901334,-0.14004678,-738.3909,1486.4209,8.571,-0.00051,0.00010999999,3.04831
282.64166,2000,0,91.24,0.000002697398,0.000002697398,0.000002697398,0.99999994,0,0,0,0,0,0,1,1,0,0,0,false,false,true,-314.91,-1550.7799,16.99,-0.0047015646,-0.00073099486,0.98827475,-0.15261127,-742.66095,1474.0709,8.571,-0.00071,0,3.08571
282.65,2000,0,91.24,0.000002697398,0.000002697398,0.000002697398,0.99999994,0,0,0,0,0,0,1,1,0,0,0,false,false,true,-321.1,-1538.5,16.99,-0.0046907747,-0.00079033757,0.98623085,-0.16530526,-746.78094,1461.601,8.571,-0.00081,-0.00010999999,3.1312099
282.65833,2000,0,91.24,0.000002697398,0.000002697398,0.000002697398,0.99999994,0,0,0,0,0,0,1,1,0,0,0,false,false,true,-327.32,-1526.32,16.99,-0.004679985,-0.0008496803,0.98399067,-0.1781557,-750.761,1449.0309,8.571,-0.0010099999,-0.00021,3.18461
282.66666,2000,0,91.24,0.000002697398,0.000002697398,0.000002697398,0.99999994,0,0,0,0,0,0,1,1,0,0,0,false,false,true,-333.58,-1514.24,16.99,-0.004669196,-0.00090902316,0.9815405,-0.19119498,-754.60095,1436.361,8.571,-0.00111,-0.00030999997,3.24591
282.675,2000,0,91.24,0.000002697398,0.000002697398,0.000002697398,0.99999994,0,0,0,0,0,0,1,1,0,0,0,false,false,true,-339.87,-1502.27,16.99,-0.004658406,-0.00096836593,0.9788654,-0.20445009,-758.311,1423.611,8.571,-0.0012099999,-0.00040999998,3.3150098
282.68332,2000,0,91.24,0.000002697398,0.000002697398,0.000002697398,0.99999994,0,0,0,0,0,0,1,1,0,0,0,false,false,true,-346.19,-1490.4099,16.99,-0.0046476168,-0.0010277086,0.97594756,-0.21795331,-761.90094,1410.8009,8.571,-0.00131,-0.00051,3.3919098
282.69168,2000,0,91.24,0.000002697398,0.000002697398,0.000002697398,0.99999994,0,0,0,0,0,0,1,1,0,0,0,false,false,true,-352.53998,-1478.65,16.99,-0.0046314327,-0.0010870515,0.9727694,-0.23172627,-765.34094,1397.881,8.571,-0.0014099999,-0.00061,3.47561
282.7,2000,0,91.24,0.000002697398,0.000002697398,0.000002697398,0.99999994,0,0,0,0,0,0,1,1,0,0,0,false,false,true,-358.91998,-1467,16.99,-0.004615248,-0.0011463942,0.96931124,-0.24579054,-768.48096,1384.6809,8.571,-0.0014099999,-0.00071,3.5624099
282.70834,2000,0,91.24,0.000002697398,0.000002697398,0.000002697398,0.99999994,0,0,0,0,0,0,1,1,0,0,0,false,false,true,-365.31998,-1455.46,16.99,-0.0045990637,-0.0012057369,0.965556,-0.26015157,-771.03094,1371.491,8.571,-0.00131,-0.00081,3.6496098
282.71667,2000,0,91.24,0.000002697398,0.000002697398,0.000002697398,0.99999994,0,0,0,0,0,0,1,1,0,0,0,false,false,true,-371.75,-1444.0299,16.99,-0.004582879,-0.0012704745,0.9614885,-0.27480388,-772.97095,1358.4409,8.571,-0.00111,-0.00081,3.73591
282.725,2000,0,91.24,0.000002697398,0.000002697398,0.000002697398,0.99999994,0,0,0,0,0,0,1,1,0,0,0,false,false,true,-378.19,-1432.71,16.99,-0.0045666946,-0.001335212,0.9570945,-0.28973672,-774.311,1345.5609,8.571,-0.00091,-0.00081,3.8213098
282.73334,2000,0,91.24,0.000002697398,0.000002697398,0.000002697398,0.99999994,0,0,0,0,0,0,1,1,0,0,0,false,false,true,-384.63998,-1421.5,16.99,-0.004545116,-0.0014053445,0.95235986,-0.30493936,-775.071,1332.901,8.571,-0.00071,-0.00071,3.90591
282.74167,2000,0,91.24,0.000002697398,0.000002697398,0.000002697398,0.99999994,0,0,0,0,0,0,1,1,0,0,0,false,false,true,-391.1,-1410.39,16.99,-0.0045235357,-0.0014754767,0.94727176,-0.32039544,-775.131,1320.371,8.571,-0.00051,-0.00071,3.9858098
282.75,2000,0,91.24,0.000002697398,0.000002697398,0.000002697398,0.99999994,0,0,0,0,0,0,1,1,0,0,0,false,false,true,-397.56,-1399.39,16.99,-0.0045019574,-0.0015456091,0.9418201,-0.33608356,-774.41095,1307.9409,8.571,-0.00030999997,-0.00061,4.05861
282.75833,2000,0,91.24,0.000002697398,0.000002697398,0.000002697398,0.99999994,0,0,0,0,0,0,1,1,0,0,0,false,false,true,-404.00998,-1388.49,16.99,-0.004474983,-0.0016211362,0.9360027,-0.35196054,-772.92096,1295.6609,8.571,-0.00010999999,-0.00040999998,4.1244097
282.76666,2000,0,91.24,0.000002697398,0.000002697398,0.000002697398,0.99999994,0,0,0,0,0,0,1,1,0,0,0,false,false,true,-410.44998,-1377.69,16.99,-0.004448009,-0.0016966634,0.92981595,-0.36799395,-770.68097,1283.5809,8.571,0,-0.00030999997,4.18321
282.775,2000,0,91.24,0.000002697398,0.000002697398,0.000002697398,0.99999994,0,0,0,0,0,0,1,1,0,0,0,false,false,true,-416.87,-1366.99,16.99,-0.0044210353,-0.0017721906,0.92326,-0.38414603,-767.72095,1271.751,8.571,0.00010999999,-0.00021,4.23511
282.78333,2000,0,91.24,0.000002697398,0.000002697398,0.000002697398,0.99999994,0,0,0,0,0,0,1,1,0,0,0,false,false,true,-423.27,-1356.39,16.99,-0.004388667,-0.0018477178,0.91633725,-0.40037903,-764.071,1260.2109,8.571,0.00021,0,4.28021
282.79166,2000,0,91.24,0.000002697398,0.000002697398,0.000002697398,0.99999994,0,0,0,0,0,0,1,1,0,0,0,false,false,true,-429.63998,-1345.89,16.99,-0.0043562977,-0.0019286396,0.9090521,-0.41665518,-759.77094,1249.021,8.571,0.00030999997,0,4.31871
282.8,2000,0,91.24,0.000002697398,0.000002697398,0.000002697398,0.99999994,0,0,0,0,0,0,1,1,0,0,0,false,false,true,-435.97,-1335.48,16.99,-0.0043239295,-0.0020095618,0.90140647,-0.43294755,-754.86096,1238.2109,8.571,0.00040999998,0.00010999999,4.35061
282.80832,2000,0,91.24,0.000002697398,0.000002697398,0.000002697398,0.99999994,0,0,0,0,0,0,1,1,0,0,0,false,false,true,-442.25998,-1325.1599,16.99,-0.004286165,-0.0020904832,0.89340913,-0.4492182,-749.3909,1227.8309,8.571,0.00051,0.00021,4.3762097
282.81668,2000,0,91.24,0.000002697398,0.000002697398,0.000002697398,0.99999994,0,0,0,0,0,0,1,1,0,0,0,false,false,true,-448.5,-1314.9299,16.99,-0.0042484016,-0.0021714054,0.8850691,-0.46543512,-743.41095,1217.901,8.571,0.00051,0.00030999997,4.3955097
282.825,2000,0,91.24,0.000002697398,0.000002697398,0.000002697398,0.99999994,0,0,0,0,0,0,1,1,0,0,0,false,false,true,-454.69998,-1304.78,16.99,-0.0042052437,-0.0022523275,0.876397,-0.48156565,-736.98096,1208.4609,8.571,0.00051,0.00040999998,4.40871
282.83334,2000,0,91.24,0.000002697398,0.000002697398,0.000002697398,0.99999994,0,0,0,0,0,0,1,1,0,0,0,false,false,true,-460.84,-1294.71,16.99,-0.0041620852,-0.0023332492,0.86740327,-0.49758282,-730.15094,1199.531,8.571,0.00051,0.00051,4.41601
282.84167,2000,0,91.24,0.000002697398,0.000002697398,0.000002697398,0.99999994,0,0,0,0,0,0,1,1,0,0,0,false,false,true,-466.91998,-1284.71,16.99,-0.004118927,-0.0024141711,0.8581003,-0.51345974,-722.98096,1191.131,8.571,0.00051,0.00061,4.4176097
282.85,2000,0,91.24,0.000002697398,0.000002697398,0.000002697398,0.99999994,0,0,0,0,0,0,1,1,0,0,0,false,false,true,-472.94,-1274.78,16.99,-0.004070374,-0.0024950935,0.84850603,-0.52916414,-715.53094,1183.281,8.571,0.00051,0.00071,4.41351
282.85834,2000,0,91.24,0.000002697398,0.000002697398,0.000002697398,0.99999994,0,0,0,0,0,0,1,1,0,0,0,false,false,true,-478.9,-1264.9199,16.99,-0.00402182,-0.0025706203,0.8386306,-0.5446795,-707.86096,1175.981,8.571,0.00051,0.00081,4.40401
282.86667,2000,0,91.24,0.000002697398,0.000002697398,0.000002697398,0.99999994,0,0,0,0,0,0,1,1,0,0,0,false,false,true,-484.8,-1255.12,16.99,-0.003973267,-0.0026461475,0.8284964,-0.5599739,-700.04095,1169.231,8.571,0.00051,0.00081,4.38911
282.875,2000,0,91.24,0.000002697398,0.000002697398,0.000002697398,0.99999994,0,0,0,0,0,0,1,1,0,0,0,false,false,true,-490.62997,-1245.38,16.99,-0.003924714,-0.0027216745,0.81811774,-0.5750308,-692.131,1163.031,8.571,0.00051,0.00091,4.36911
282.88333,2000,0,91.24,0.000002697398,0.000002697398,0.000002697398,0.99999994,0,0,0,0,0,0,1,1,0,0,0,false,false,true,-496.4,-1235.69,16.99,-0.0038707664,-0.0027972017,0.80751413,-0.5898288,-684.18097,1157.371,8.571,0.00051,0.0010099999,4.34401
282.89166,2000,0,91.24,0.000002697398,0.000002697398,0.000002697398,0.99999994,0,0,0,0,0,0,1,1,0,0,0,false,false,true,-502.09998,-1226.0499,16.99,-0.0038168184,-0.002872729,0.7967074,-0.6043463,-676.261,1152.241,8.561,0.00051,0.0010099999,4.3140097
282.9,2000,0,91.24,0.000002697398,0.000002697398,0.000002697398,0.99999994,0,0,0,0,0,0,1,1,0,0,0,false,false,true,-507.74,-1216.45,16.99,-0.0037628703,-0.0029428613,0.7857174,-0.618567,-668.42096,1147.621,8.561,0.00051,0.0010099999,4.27921
282.90833,2000,0,91.24,0.000002697398,0.000002697398,0.000002697398,0.99999994,0,0,0,0,0,0,1,1,0,0,0,false,false,true,-513.31,-1206.89,16.99,-0.0037089223,-0.0030129936,0.7745661,-0.6324748,-660.72095,1143.481,8.561,0.00051,0.00111,4.23971
282.91666,2000,0,91.24,0.000002697398,0.000002697398,0.000002697398,0.99999994,0,0,0,0,0,0,1,1,0,0,0,false,false,true,-518.82,-1197.36,16.99,-0.0036549745,-0.003083126,0.76327246,-0.6460589,-653.21094,1139.7909,8.561,0.00040999998,0.0012099999,4.19561
282.925,2000,0,91.24,0.000002697398,0.000002697398,0.000002697398,0.99999994,0,0,0,0,0,0,1,1,0,0,0,false,false,true,-524.26,-1187.86,16.99,-0.0035956316,-0.0031532582,0.7518618,-0.65930325,-645.941,1136.531,8.561,0.00030999997,0.0012099999,4.14701
282.93332,2000,0,91.24,0.000002697398,0.000002697398,0.000002697398,0.99999994,0,0,0,0,0,0,1,1,0,0,0,false,false,true,-529.64,-1178.39,16.99,-0.0035362889,-0.0032179959,0.74035686,-0.67219687,-638.951,1133.661,8.551001,0.00030999997,0.0012099999,4.09401
282.94168,2000,0,91.24,0.000002697398,0.000002697398,0.000002697398,0.99999994,0,0,0,0,0,0,1,1,0,0,0,false,false,true,-534.95996,-1168.94,16.99,-0.0034769461,-0.0032827335,0.728782,-0.684729,-632.28094,1131.141,8.551001,0.00030999997,0.0012099999,4.03671
282.95,2000,0,91.24,0.000002697398,0.000002697398,0.000002697398,0.99999994,0,0,0,0,0,0,1,1,0,0,0,false,false,true,-540.23,-1159.51,16.99,-0.0034176034,-0.003347471,0.717163,-0.6968889,-625.96094,1128.9209,8.551001,0.00021,0.0012099999,3.9751098
282.95834,2000,0,91.24,0.000002697398,0.000002697398,0.000002697398,0.99999994,0,0,0,0,0,0,1,1,0,0,0,false,false,true,-545.45,-1150.1,16.99,0.0033582605,0.0034068138,-0.70552063,0.7086731,-620.03094,1126.971,8.551001,0.00010999999,0.0012099999,3.90941
282.96667,2000,0,91.24,0.000002697398,0.000002697398,0.000002697398,0.99999994,0,0,0,0,0,0,1,1,0,0,0,false,false,true,-550.62,-1140.71,16.99,0.003298918,0.0034661568,-0.6938841,0.7200708,-614.511,1125.251,8.551001,0.00010999999,0.0012099999,3.83951
282.975,2000,0,91.24,0.000002697398,0.000002697398,0.000002697398,0.99999994,0,0,0,0,0,0,1,1,0,0,0,false,false,true,-555.74,-1131.33,16.99,0.003239575,0.0035201046,-0.6822744,0.7310804,-609.43097,1123.7109,8.541,0.00010999999,0.0012099999,3.76561
282.98334,2000,0,91.24,0.000002697398,0.000002697398,0.000002697398,0.99999994,0,0,0,0,0,0,1,1,0,0,0,false,false,true,-560.82,-1121.97,16.99,0.0031802324,0.0035740524,-0.67071867,0.7416963,-604.80096,1122.3009,8.541,0.00010999999,0.0012099999,3.6877098
282.99167,2000,0,91.24,0.000002697398,0.000002697398,0.000002697398,0.99999994,0,0,0,0,0,0,1,1,0,0,0,false,false,true,-565.86,-1112.62,16.99,0.0031208897,0.0036280004,-0.6592439,0.75191385,-600.621,1120.971,8.541,0,0.0012099999,3.6061099
283,2000,0,91.24,0.000002697398,0.000002697398,0.000002697398,0.99999994,0,0,0,0,0,0,1,1,0,0,0,false,false,true,-570.87,-1103.28,16.99,0.0030615467,0.0036765535,-0.6478716,0.7617344,-596.871,1119.6709,8.541,0,0.00111,3.5220098
283.00833,2000,0,91.24,0.000002697398,0.000002697398,0.000002697398,0.99999994,0,0,0,0,0,0,1,1,0,0,0,false,false,true,-575.83997,-1093.95,16.99,0.003002204,0.0037251068,-0.63662344,0.7711599,-593.53094,1118.381,8.541,0,0.0010099999,3.43591
283.01666,2000,0,91.24,0.000002697398,0.000002697398,0.000002697398,0.99999994,0,0,0,0,0,0,1,1,0,0,0,false,false,true,-580.79,-1084.63,16.99,0.002948256,0.00377366,-0.6255209,0.7801926,-590.581,1117.0709,8.541,0,0.00091,3.34851
283.025,2000,0,91.24,0.000002697398,0.000002697398,0.000002697398,0.99999994,0,0,0,0,0,0,1,1,0,0,0,false,false,true,-585.70996,-1075.32,16.99,0.0028943082,0.0038168184,-0.61457485,0.78884387,-588.02094,1115.721,8.531,0,0.00081,3.26021
283.03333,2000,0,91.24,0.000002697398,0.000002697398,0.000002697398,0.99999994,0,0,0,0,0,0,1,1,0,0,0,false,false,true,-590.61,-1066.02,16.99,0.0028403602,0.0038599768,-0.60380137,0.79712033,-585.821,1114.3109,8.531,-0.00010999999,0.00081,3.1716099
283.04166,2000,0,91.24,0.000002697398,0.000002697398,0.000002697398,0.99999994,0,0,0,0,0,0,1,1,0,0,0,false,false,true,-595.49,-1056.73,16.99,0.002786412,0.0038977398,-0.59321666,0.80502844,-583.97095,1112.8109,8.531,-0.00010999999,0.00071,3.08301
283.05,2000,0,91.24,0.000002697398,0.000002697398,0.000002697398,0.99999994,0,0,0,0,0,0,1,1,0,0,0,false,false,true,-600.36,-1047.46,16.99,0.002732464,0.003935504,-0.5828263,0.81258255,-582.451,1111.2109,8.531,-0.00010999999,0.00061,2.9948099
283.05832,2000,0,91.24,0.000002697398,0.000002697398,0.000002697398,0.99999994,0,0,0,0,0,0,1,1,0,0,0,false,false,true,-605.20996,-1038.2,16.99,0.0026839112,0.0039732675,-0.57264096,0.8197922,-581.251,1109.501,8.531,-0.00010999999,0.00051,2.90731
283.06668,2000,0,91.24,0.000002697398,0.000002697398,0.000002697398,0.99999994,0,0,0,0,0,0,1,1,0,0,0,false,false,true,-610.05,-1028.95,16.99,0.002635358,0.004005636,-0.5626659,0.8266704,-580.35095,1107.661,8.531,-0.00021,0.00040999998,2.8208098
283.075,2000,0,91.24,0.000002697398,0.000002697398,0.000002697398,0.99999994,0,0,0,0,0,0,1,1,0,0,0,false,false,true,-614.89,-1019.72,16.99,0.0025868048,0.0040380047,-0.55291206,0.8332257,-579.73096,1105.6809,8.531,-0.00021,0.00030999997,2.73561
283.08334,2000,0,91.24,0.000002697398,0.000002697398,0.000002697398,0.99999994,0,0,0,0,0,0,1,1,0,0,0,false,false,true,-619.72,-1010.50995,16.99,0.0025382515,0.0040703737,-0.5433794,0.8394734,-579.381,1103.5409,8.531,-0.00021,0.00021,2.6519098
283.09167,2000,0,91.24,0.000002697398,0.000002697398,0.000002697398,0.99999994,0,0,0,0,0,0,1,1,0,0,0,false,false,true,-624.55,-1001.31,16.99,0.0024896984,0.0040973476,-0.5340679,0.8454279,-579.27094,1101.241,8.531,-0.00021,0.00010999999,2.57001
283.1,2000,0,91.24,0.000002697398,0.000002697398,0.000002697398,0.99999994,0,0,0,0,0,0,1,1,0,0,0,false,false,true,-629.38,-992.13,16.99,0.0024465397,0.004124321,-0.52498305,0.85109895,-579.40094,1098.771,8.531,-0.00021,0,2.49001
283.10834,2000,0,91.24,0.000002697398,0.000002697398,0.000002697398,0.99999994,0,0,0,0,0,0,1,1,0,0,0,false,false,true,-634.20996,-982.97,16.99,0.0024033813,0.004151295,-0.5161247,0.8564998,-579.751,1096.121,8.531,-0.00021,0,2.41201
283.11667,2000,0,91.24,0.000002697398,0.000002697398,0.000002697398,0.99999994,0,0,0,0,0,0,1,1,0,0,0,false,false,true,-639.04,-973.83997,16.99,0.0023602233,0.0041728746,-0.5074931,0.8616424,-580.30096,1093.2909,8.531,-0.00021,0,2.33621
283.125,2000,0,91.24,0.000002697398,0.000002697398,0.000002697398,0.99999994,0,0,0,0,0,0,1,1,0,0,0,false,false,true,-643.88,-964.73,16.99,0.0023170651,0.0041944543,-0.49908262,0.86654115,-581.04095,1090.281,8.531,-0.00010999999,0,2.26281
283.13333,2000,0,91.24,0.000002697398,0.000002697398,0.000002697398,0.99999994,0,0,0,0,0,0,1,1,0,0,0,false,false,true,-648.72,-955.63995,16.99,0.0022793014,0.004216033,-0.49088785,0.8712095,-581.951,1087.0809,8.531,-0.00010999999,0,2.19181
283.14166,2000,0,91.24,0.000002697398,0.000002697398,0.000002697398,0.99999994,0,0,0,0,0,0,1,1,0,0,0,false,false,true,-653.57,-946.57996,16.99,0.0022415377,0.0042376122,-0.48290893,0.8756574,-583.02094,1083.6909,8.531,-0.00010999999,0,2.1233099
283.15,2000,0,91.24,0.000002697398,0.000002697398,0.000002697398,0.99999994,0,0,0,0,0,0,1,1,0,0,0,false,false,true,-658.43,-937.55,16.99,0.0022037742,0.0042591915,-0.4751404,0.8798969,-584.23096,1080.111,8.531,-0.00010999999,-0.00010999999,2.05721
283.15833,2000,0,91.24,0.000002697398,0.000002697398,0.000002697398,0.99999994,0,0,0,0,0,0,1,1,0,0,0,false,false,true,-663.3,-928.55,16.99,0.002166011,0.0042753764,-0.4675823,0.8839365,-585.54095,1076.3309,8.521,-0.00010999999,-0.00021,1.99341
283.16666,2000,0,91.24,0.000002697398,0.000002697398,0.000002697398,0.99999994,0,0,0,0,0,0,1,1,0,0,0,false,false,true,-668.18,-919.57996,16.99,0.002128247,0.00429156,-0.46022373,0.88778996,-586.941,1072.371,8.521,0,-0.00021,1.93171
283.175,2000,0,91.24,0.000002697398,0.000002697398,0.000002697398,0.99999994,0,0,0,0,0,0,1,1,0,0,0,false,false,true,-673.07,-910.63995,16.99,0.0020958781,0.0043077446,-0.4530648,0.89146465,-588.41095,1068.231,8.521,0,-0.00021,1.87201
283.18332,2000,0,91.24,0.000002697398,0.000002697398,0.000002697398,0.99999994,0,0,0,0,0,0,1,1,0,0,0,false,false,true,-677.97,-901.74,16.99,0.0020635095,0.004323929,-0.4461001,0.8949702,-589.93097,1063.911,8.521,0,-0.00021,1.8142099
283.19168,2000,0,91.24,0.000002697398,0.000002697398,0.000002697398,0.99999994,0,0,0,0,0,0,1,1,0,0,0,false,false,true,-682.89,-892.87,16.99,0.0020311407,0.004340113,-0.4393242,0.8983157,-591.49097,1059.4309,8.521,0,-0.00021,1.75821
283.2,2000,0,91.24,0.000002697398,0.000002697398,0.000002697398,0.99999994,0,0,0,0,0,0,1,1,0,0,0,false,false,true,-687.82,-884.04,16.99,0.001998772,0.0043562977,-0.43273172,0.90150994,-593.081,1054.7909,8.521,0,-0.00030999997,1.70391
283.20834,2000,0,91.24,0.000002697398,0.000002697398,0.000002697398,0.99999994,0,0,0,0,0,0,1,1,0,0,0,false,false,true,-692.76,-875.25,16.99,0.0019664033,0.004367088,-0.4263227,0.9045584,-594.68097,1050.001,8.521,0,-0.00030999997,1.65131
283.21667,2000,0,91.24,0.000002697398,0.000002697398,0.000002697398,0.99999994,0,0,0,0,0,0,1,1,0,0,0,false,false,true,-697.72,-866.5,16.99,0.0019394292,0.004377877,-0.4200863,0.9074715,-596.29095,1045.0709,8.521,0,-0.00030999997,1.60021
283.225,2000,0,91.24,0.000002697398,0.000002697398,0.000002697398,0.99999994,0,0,0,0,0,0,1,1,0,0,0,false,false,true,-702.69,-857.79,16.99,0.001912455,0.0043886662,-0.4140279,0.91025144,-597.891,1040.011,8.521,0,-0.00030999997,1.55061
283.23334,2000,0,91.24,0.000002697398,0.000002697398,0.000002697398,0.99999994,0,0,0,0,0,0,1,1,0,0,0,false,false,true,-707.67,-849.12,16.99,0.0018854813,0.004399456,-0.40813676,0.9129082,-599.48096,1034.8209,8.521,0,-0.00030999997,1.5024099
283.24167,2000,0,91.24,0.000002697398,0.000002697398,0.000002697398,0.99999994,0,0,0,0,0,0,1,1,0,0,0,false,false,true,-712.67,-840.5,16.99,0.0018585073,0.0044102455,-0.40241283,0.91544574,-601.05096,1029.511,8.521,0.00010999999,-0.00030999997,1.4556099
283.25,2000,0,91.24,0.000002697398,0.000002697398,0.000002697398,0.99999994,0,0,0,0,0,0,1,1,0,0,0,false,false,true,-717.68,-831.92,16.99,0.0018315333,0.0044210353,-0.39685082,0.9178706,-602.59094,1024.091,8.521,0.00010999999,-0.00030999997,1.41011
283.25833,2000,0,91.24,0.000002697398,0.000002697398,0.000002697398,0.99999994,0,0,0,0,0,0,1,1,0,0,0,false,false,true,-722.7,-823.38995,16.99,0.0018045594,0.0044318247,-0.3914506,0.9201866,-604.09094,1018.561,8.521,0.00010999999,-0.00030999997,1.36581
283.26666,2000,0,91.24,0.000002697398,0.000002697398,0.000002697398,0.99999994,0,0,0,0,0,0,1,1,0,0,0,false,false,true,-727.73,-814.89996,16.99,0.0017775851,0.004442614,-0.3862068,0.92239964,-605.55096,1012.93097,8.521,0.00021,-0.00030999997,1.3228099
283.275,2000,0,91.24,0.000002697398,0.000002697398,0.000002697398,0.99999994,0,0,0,0,0,0,1,1,0,0,0,false,false,true,-732.77997,-806.45996,16.99,0.0017560063,0.0044534043,-0.38111952,0.92451334,-606.97095,1007.2009,8.521,0.00021,-0.00030999997,1.28091
283.28333,2000,0,91.24,0.000002697398,0.000002697398,0.000002697398,0.99999994,0,0,0,0,0,0,1,1,0,0,0,false,false,true,-737.83997,-798.07,16.99,0.001734427,0.0044641937,-0.37617788,0.926535,-608.34094,1001.3909,8.521,0.00021,-0.00030999997,1.24011
283.29166,2000,0,91.24,0.000002697398,0.000002697398,0.000002697398,0.99999994,0,0,0,0,0,0,1,1,0,0,0,false,false,true,-742.91,-789.72,16.99,0.0017128475,0.004469588,-0.37138724,0.92846555,-609.66095,995.49097,8.521,0.00021,-0.00040999998,1.20041
283.3,2000,0,91.24,0.000002697398,0.000002697398,0.000002697398,0.99999994,0,0,0,0,0,0,1,1,0,0,0,false,false,true,-747.99,-781.42,16.99,0.0016912686,0.004474983,-0.36673692,0.93031234,-610.92096,989.52094,8.521,0.00021,-0.00040999998,1.16181
283.30832,2000,0,91.24,0.000002697398,0.000002697398,0.000002697398,0.99999994,0,0,0,0,0,0,1,1,0,0,0,false,false,true,-753.07996,-773.17,16.99,0.0016696894,0.0044803782,-0.36222687,0.93207765,-612.121,983.48096,8.521,0.00021,-0.00040999998,1.12421
283.31668,2000,0,91.24,0.000002697398,0.000002697398,0.000002697398,0.99999994,0,0,0,0,0,0,1,1,0,0,0,false,false,true,-758.18,-764.97,16.99,0.0016481102,0.004485773,-0.35785705,0.9337641,-613.261,977.371,8.521,0.00021,-0.00030999997,1.08751
283.325,2000,0,91.24,0.000002697398,0.000002697398,0.000002697398,0.99999994,0,0,0,0,0,0,1,1,0,0,0,false,false,true,-763.29,-756.82996,16.99,0.001626531,0.0044911676,-0.35362214,0.9353761,-614.34094,971.2009,8.521,0.00030999997,-0.00030999997,1.05181
283.33334,2000,0,91.24,0.000002697398,0.000002697398,0.000002697398,0.99999994,0,0,0,0,0,0,1,1,0,0,0,false,false,true,-768.41,-748.74,16.99,0.0016103466,0.0044965623,-0.3495167,0.9369179,-615.35095,964.98096,8.521,0.00030999997,-0.00030999997,1.01701
283.34167,2000,0,91.24,0.000002697398,0.000002697398,0.000002697398,0.99999994,0,0,0,0,0,0,1,1,0,0,0,false,false,true,-773.54,-740.7,16.99,0.0015941623,0.004501958,-0.34554073,0.93839157,-616.30096,958.71094,8.521,0.00030999997,-0.00021,0.98301
283.35,2000,0,91.24,0.000002697398,0.000002697398,0.000002697398,0.99999994,0,0,0,0,0,0,1,1,0,0,0,false,false,true,-778.68,-732.70996,16.99,0.001577978,0.0045073526,-0.34169424,0.939799,-617.18097,952.3909,8.521,0.00030999997,-0.00021,0.94991
283.35834,2000,0,91.24,0.000002697398,0.000002697398,0.000002697398,0.99999994,0,0,0,0,0,0,1,1,0,0,0,false,false,true,-783.82,-724.76996,16.99,0.0015617935,0.004512747,-0.33797178,0.94114405,-617.99097,946.03094,8.521,0.00030999997,-0.00021,0.91761
283.36667,2000,0,91.24,0.000002697398,0.000002697398,0.000002697398,0.99999994,0,0,0,0,0,0,1,1,0,0,0,false,false,true,-788.97,-716.88995,16.99,0.001545609,0.004518141,-0.33437338,0.9424284,-618.73096,939.631,8.521,0.00030999997,-0.00010999999,0.88611
283.375,2000,0,91.24,0.000002697398,0.000002697398,0.000002697398,0.99999994,0,0,0,0,0,0,1,1,0,0,0,false,false,true,-794.13,-709.06,16.99,0.0015294246,0.0045235357,-0.33089375,0.9436558,-619.40094,933.2009,8.521,0.00030999997,-0.00010999999,0.85541
283.38333,2000,0,91.24,0.000002697398,0.000002697398,0.000002697398,0.99999994,0,0,0,0,0,0,1,1,0,0,0,false,false,true,-799.29,-701.27997,16.99,0.0015132403,0.0045289313,-0.32752743,0.9448295,-620.001,926.74097,8.521,0.00030999997,-0.00010999999,0.82541
283.39166,2000,0,91.24,0.000002697398,0.000002697398,0.000002697398,0.99999994,0,0,0,0,0,0,1,1,0,0,0,false,false,true,-804.45996,-693.56,16.99,0.001497056,0.0045343265,-0.32427436,0.945951,-620.53094,920.251,8.521,0.00030999997,-0.00010999999,0.79621
283.4,2000,0,91.24,0.000002697398,0.000002697398,0.000002697398,0.99999994,0,0,0,0,0,0,1,1,0,0,0,false,false,true,-809.63,-685.89,16.99,0.0014808716,0.0045397207,-0.32113454,0.9470215,-620.99097,913.74097,8.521,0.00030999997,-0.00010999999,0.76771
283.40833,2000,0,91.24,0.000002697398,0.000002697398,0.000002697398,0.99999994,0,0,0,0,0,0,1,1,0,0,0,false,false,true,-814.8,-678.27997,16.99,0.001470082,0.0045451154,-0.31810266,0.9480442,-621.381,907.21094,8.521,0.00030999997,-0.00010999999,0.73981
283.41666,2000,0,91.24,0.000002697398,0.000002697398,0.000002697398,0.99999994,0,0,0,0,0,0,1,1,0,0,0,false,false,true,-819.98,-670.72,16.99,0.0014592924,0.0045505106,-0.3151787,0.94902027,-621.701,900.67096,8.521,0.00030999997,-0.00010999999,0.71261
283.425,2000,0,91.24,0.000002697398,0.000002697398,0.000002697398,0.99999994,0,0,0,0,0,0,1,1,0,0,0,false,false,true,-825.16,-663.20996,16.99,0.0014485028,0.0045559052,-0.31235716,0.94995266,-621.951,894.11096,8.521,0.00030999997,-0.00010999999,0.68601
283.43332,2000,0,91.24,0.000002697398,0.000002697398,0.000002697398,0.99999994,0,0,0,0,0,0,1,1,0,0,0,false,false,true,-830.33997,-655.76,16.99,0.0014377133,0.0045613004,-0.30963823,0.9508424,-622.131,887.54095,8.521,0.00021,-0.00010999999,0.66011
283.44168,2000,0,91.24,0.000002697398,0.000002697398,0.000002697398,0.99999994,0,0,0,0,0,0,1,1,0,0,0,false,false,true,-835.51996,-648.36,16.99,0.0014269236,0.0045666946,-0.3070217,0.95169044,-622.24097,880.97095,8.521,0.00021,-0.00010999999,0.63481
283.45,2000,0,91.24,0.000002697398,0.000002697398,0.000002697398,0.99999994,0,0,0,0,0,0,1,1,0,0,0,false,false,true,-840.70996,-641.01996,16.99,0.0014161341,0.00457209,-0.30450237,0.9524995,-622.28094,874.3909,8.521,0.00010999999,-0.00021,0.61001
283.45834,2000,0,91.24,0.000002697398,0.000002697398,0.000002697398,0.99999994,0,0,0,0,0,0,1,1,0,0,0,false,false,true,-845.89996,-633.73,16.99,0.0014053445,0.004577485,-0.30208007,0.9532705,-622.251,867.811,8.521,0.00010999999,-0.00021,0.58581
283.46667,2000,0,91.24,0.000002697398,0.000002697398,0.000002697398,0.99999994,0,0,0,0,0,0,1,1,0,0,0,false,false,true,-851.08997,-626.5,16.99,0.0013945547,0.004582879,-0.2997549,0.95400417,-622.15094,861.23096,8.521,0.00010999999,-0.00021,0.56221
283.475,2000,0,91.24,0.000002697398,0.000002697398,0.000002697398,0.99999994,0,0,0,0,0,0,1,1,0,0,0,false,false,true,-856.26996,-619.32,16.99,0.001383765,0.0045828787,-0.2975214,0.954703,-621.98096,854.66095,8.521,0.00010999999,-0.00030999997,0.53911
283.48334,2000,0,91.24,0.000002697398,0.000002697398,0.000002697398,0.99999994,0,0,0,0,0,0,1,1,0,0,0,false,false,true,-861.44995,-612.2,16.99,0.0013729758,0.0045828796,-0.29537433,0.9553696,-621.751,848.09094,8.521,0.00010999999,-0.00030999997,0.51651
283.49167,2000,0,91.24,0.000002697398,0.000002697398,0.000002697398,0.99999994,0,0,0,0,0,0,1,1,0,0,0,false,false,true,-866.63,-605.13,16.99,0.001362186,0.004582879,-0.2933189,0.95600265,-621.451,841.53094,8.521,0.00010999999,-0.00030999997,0.49441
283.5,2000,0,91.24,0.000002697398,0.000002697398,0.000002697398,0.99999994,0,0,0,0,0,0,1,1,0,0,0,false,false,true,-871.81,-598.12,16.99,0.0013513964,0.004582879,-0.29134974,0.9566046,-621.09094,834.98096,8.521,0.00010999999,-0.00021,0.47281
283.50833,2000,0,91.24,0.000002697398,0.000002697398,0.000002697398,0.99999994,0,0,0,0,0,0,1,1,0,0,0,false,false,true,-876.99,-591.16,16.99,0.0013406068,0.004582879,-0.28946698,0.957176,-620.66095,828.441,8.521,0.00010999999,-0.00021,0.45171002
283.51666,2000,0,91.24,0.000002697398,0.000002697398,0.000002697398,0.99999994,0,0,0,0,0,0,1,1,0,0,0,false,false,true,-882.16,-584.26,16.99,0.001335212,0.004582879,-0.2876651,0.9577191,-620.17096,821.91095,8.521,0.00021,-0.00021,0.43111
283.525,2000,0,91.24,0.000002697398,0.000002697398,0.000002697398,0.99999994,0,0,0,0,0,0,1,1,0,0,0,false,false,true,-887.32996,-577.41,16.99,0.0013298172,0.004582879,-0.28594416,0.9582343,-619.621,815.40094,8.521,0.00021,-0.00010999999,0.41091
283.53333,2000,0,91.24,0.000002697398,0.000002697398,0.000002697398,0.99999994,0,0,0,0,0,0,1,1,0,0,0,false,false,true,-892.49,-570.61,16.99,0.0013244224,0.004582879,-0.28430414,0.95872223,-619.011,808.90094,8.521,0.00021,0,0.39121
283.54166,2000,0,91.24,0.000002697398,0.000002697398,0.000002697398,0.99999994,0,0,0,0,0,0,1,1,0,0,0,false,false,true,-897.64996,-563.87,16.99,0.0013190275,0.0045828787,-0.2827396,0.9591847,-618.34094,802.42096,8.521,0.00021,0,0.37191
283.55,2000,0,91.24,0.000002697398,0.000002697398,0.000002697398,0.99999994,0,0,0,0,0,0,1,1,0,0,0,false,false,true,-902.8,-557.18,16.99,0.0013136328,0.004582879,-0.28125066,0.95962244,-617.61096,795.96094,8.521,0.00021,0,0.35301
283.55832,2000,0,91.24,0.000002697398,0.000002697398,0.000002697398,0.99999994,0,0,0,0,0,0,1,1,0,0,0,false,false,true,-907.94995,-550.55,16.99,0.001308238,0.004582879,-0.27983722,0.96003556,-616.821,789.52094,8.521,0.00021,0,0.33451
283.56668,2000,0,91.24,0.000002697398,0.000002697398,0.000002697398,0.99999994,0,0,0,0,0,0,1,1,0,0,0,false,false,true,-913.08997,-543.97,16.99,0.0013028431,0.0045828787,-0.27849928,0.9604245,-615.97095,783.10095,8.521,0.00021,0,0.31641
283.575,2000,0,91.24,0.000002697398,0.000002697398,0.000002697398,0.99999994,0,0,0,0,0,0,1,1,0,0,0,false,false,true,-918.22,-537.44,16.99,0.0012974484,0.004582879,-0.2772315,0.9607913,-615.071,776.701,8.521,0.00021,0,0.29871002
283.58334,2000,0,91.24,0.000002697398,0.000002697398,0.000002697398,0.99999994,0,0,0,0,0,0,1,1,0,0,0,false,false,true,-923.35,-530.97,16.99,0.0012920536,0.004582879,-0.27603388,0.96113604,-614.11096,770.33093,8.521,0.00021,0,0.28141
283.59167,2000,0,91.24,0.000002697398,0.000002697398,0.000002697398,0.99999994,0,0,0,0,0,0,1,1,0,0,0,false,false,true,-928.47,-524.55,16.99,0.0012866588,0.004582879,-0.27490637,0.96145916,-613.10095,763.98096,8.521,0.00021,0,0.26451
283.6,2000,0,91.24,0.000002697398,0.000002697398,0.000002697398,0.99999994,0,0,0,0,0,0,1,1,0,0,0,false,false,true,-933.57996,-518.18,16.99,0.001281264,0.004582879,-0.27384898,0.9617609,-612.04095,757.66095,8.521,0.00021,0.00010999999,0.24791
283.60834,2000,0,91.24,0.000002697398,0.000002697398,0.000002697398,0.99999994,0,0,0,0,0,0,1,1,0,0,0,false,false,true,-938.68,-511.87,16.99,0.0012758692,0.004582879,-0.27285635,0.962043,-610.92096,751.371,8.521,0.00021,0.00010999999,0.23170999
283.61667,2000,0,91.24,0.000002697398,0.000002697398,0.000002697398,0.99999994,0,0,0,0,0,0,1,1,0,0,0,false,false,true,-943.76996,-505.61,16.99,0.0012704745,0.004582879,-0.27192843,0.96230567,-609.751,745.11096,8.521,0.00021,0.00010999999,0.21580999
283.625,2000,0,91.24,0.000002697398,0.000002697398,0.000002697398,0.99999994,0,0,0,0,0,0,1,1,0,0,0,false,false,true,-948.85,-499.4,16.99,0.0012650797,0.004582879,-0.27106526,0.96254915,-608.53094,738.881,8.521,0.00021,0.00010999999,0.20030999
283.63333,2000,0,91.24,0.000002697398,0.000002697398,0.000002697398,0.99999994,0,0,0,0,0,0,1,1,0,0,0,false,false,true,-953.92,-493.24,16.99,0.0012596849,0.004582879,-0.2702614,0.9627752,-607.261,732.68097,8.521,0.00021,0.00010999999,0.18510999
283.64166,2000,0,91.24,0.000002697398,0.000002697398,0.000002697398,0.99999994,0,0,0,0,0,0,1,1,0,0,0,false,false,true,-958.98,-487.12997,16.99,0.00125429,0.0045828787,-0.2695169,0.9629838,-605.941,726.511,8.521,0.00021,0.00021,0.17020999
283.65,2000,0,91.24,0.000002697398,0.000002697398,0.000002697398,0.99999994,0,0,0,0,0,0,1,1,0,0,0,false,false,true,-964.02997,-481.08,16.99,0.0012542901,0.004582879,-0.2688318,0.96317536,-604.571,720.371,8.521,0.00030999997,0.00021,0.15561
283.65833,2000,0,91.24,0.000002697398,0.000002697398,0.000002697398,0.99999994,0,0,0,0,0,0,1,1,0,0,0,false,false,true,-969.07,-475.08,16.99,0.0012542901,0.004582879,-0.268206,0.9633498,-603.15094,714.261,8.521,0.00030999997,0.00021,0.14130999
283.66666,2000,0,91.24,0.000002697398,0.000002697398,0.000002697398,0.99999994,0,0,0,0,0,0,1,1,0,0,0,false,false,true,-974.1,-469.12997,16.99,0.0012542901,0.004582879,-0.26763955,0.96350735,-601.691,708.18097,8.521,0.00030999997,0.00021,0.12731
283.675,2000,0,91.24,0.000002697398,0.000002697398,0.000002697398,0.99999994,0,0,0,0,0,0,1,1,0,0,0,false,false,true,-979.11,-463.22998,16.99,0.00125429,0.0045828787,-0.267127,0.96364945,-600.18097,702.131,8.521,0.00030999997,0.00021,0.11361
283.68332,2000,0,91.24,0.000002697398,0.000002697398,0.000002697398,0.99999994,0,0,0,0,0,0,1,1,0,0,0,false,false,true,-984.11,-457.38,16.99,0.00125429,0.0045828787,-0.26666844,0.96377647,-598.631,696.121,8.521,0.00021,0.00021,0.100209996
283.69168,2000,0,91.24,0.000002697398,0.000002697398,0.000002697398,0.99999994,0,0,0,0,0,0,1,1,0,0,0,false,false,true,-989.1,-451.58,16.99,0.0012542901,0.004582879,-0.26626387,0.9638884,-597.03094,690.141,8.521,0.00021,0.00030999997,0.08711
283.7,2000,0,91.24,0.000002697398,0.000002697398,0.000002697398,0.99999994,0,0,0,0,0,0,1,1,0,0,0,false,false,true,-994.07996,-445.83,16.99,0.0012542901,0.004582879,-0.2659132,0.9639852,-595.391,684.201,8.521,0.00021,0.00030999997,0.07431
283.70834,2000,0,91.24,0.000002697398,0.000002697398,0.000002697398,0.99999994,0,0,0,0,0,0,1,1,0,0,0,false,false,true,-999.04,-440.13,16.99,0.0012542901,0.004582879,-0.26561648,0.96406704,-593.71094,678.29095,8.521,0.00010999999,0.00030999997,0.061709996
283.71667,2000,0,91.24,0.000002697398,0.000002697398,0.000002697398,0.99999994,0,0,0,0,0,0,1,1,0,0,0,false,false,true,-1003.99,-434.47998,16.99,0.0012542901,0.004582879,-0.2653683,0.96413535,-591.98096,672.42096,8.521,0.00010999999,0.00030999997,0.049409997
283.725,2000,0,91.24,0.000002697398,0.000002697398,0.000002697398,0.99999994,0,0,0,0,0,0,1,1,0,0,0,false,false,true,-1008.92,-428.88,16.99,0.00125429,0.0045828787,-0.2651687,0.9641902,-590.21094,666.58093,8.521,0.00010999999,0.00030999997,0.03741
283.73334,2000,0,91.24,0.000002697398,0.000002697398,0.000002697398,0.99999994,0,0,0,0,0,0,1,1,0,0,0,false,false,true,-1013.83997,-423.33,16.99,0.0012542901,0.004582879,-0.26501766,0.9642318,-588.40094,660.78094,8.521,0.00010999999,0.00030999997,0.02561
283.74167,2000,0,91.24,0.000002697398,0.000002697398,0.000002697398,0.99999994,0,0,0,0,0,0,1,1,0,0,0,false,false,true,-1018.74,-417.81998,16.99,0.0012542901,0.004582879,-0.26491517,0.96426,-586.55096,655.02094,8.521,0.00010999999,0.00030999997,0.014109999
283.75,2000,0,91.24,0.000002697398,0.000002697398,0.000002697398,0.99999994,0,0,0,0,0,0,1,1,0,0,0,false,false,true,-1023.63,-412.36,16.99,0.0012542901,0.004582879,-0.26485583,0.96427625,-584.66095,649.29095,8.521,0.00010999999,0.00030999997,0.00281
283.75833,2000,0,91.24,0.000002697398,0.000002697398,0.000002697398,0.99999994,0,0,0,0,0,0,1,1,0,0,0,false,false,true,-1028.5,-406.94998,16.99,0.0012542901,0.004582879,-0.26484504,0.96427923,-582.73096,643.60095,8.521,0.00010999999,0.00030999997,-0.00811
283.76666,2000,0,91.24,0.000002697398,0.000002697398,0.000002697398,0.99999994,0,0,0,0,0,0,1,1,0,0,0,false,false,true,-1033.36,-401.59,16.99,0.00125429,0.0045828787,-0.26487738,0.96427023,-580.761,637.951,8.521,0.00010999999,0.00030999997,-0.01881
283.775,2000,0,91.24,0.000002697398,0.000002697398,0.000002697398,0.99999994,0,0,0,0,0,0,1,1,0,0,0,false,false,true,-1038.2,-396.27,16.99,0.00125429,0.0045828787,-0.2649529,0.9642495,-578.751,632.33093,8.521,0.00010999999,0.00030999997,-0.02931
283.78333,2000,0,91.24,0.000002697398,0.000002697398,0.000002697398,0.99999994,0,0,0,0,0,0,1,1,0,0,0,false,false,true,-1043.02,-391,16.99,0.00125429,0.0045828787,-0.26507157,0.9642169,-576.71094,626.751,8.521,0.00010999999,0.00030999997,-0.039509997
283.79166,2000,0,91.24,0.000002697398,0.000002697398,0.000002697398,0.99999994,0,0,0,0,0,0,1,1,0,0,0,false,false,true,-1047.83,-385.78,16.99,0.00125429,0.0045828787,-0.26522803,0.96417385,-574.631,621.21094,8.521,0.00010999999,0.00030999997,-0.04951
283.8,2000,0,91.24,0.000002697398,0.000002697398,0.000002697398,0.99999994,0,0,0,0,0,0,1,1,0,0,0,false,false,true,-1052.62,-380.6,16.99,0.0012542901,0.004582879,-0.26542768,0.964119,-572.511,615.71094,8.521,0.00010999999,0.00030999997,-0.059309997
283.80832,2000,0,91.24,0.000002697398,0.000002697398,0.000002697398,0.99999994,0,0,0,0,0,0,1,1,0,0,0,false,false,true,-1057.39,-375.47,16.99,0.0012542901,0.004582879,-0.26566502,0.96405363,-570.36096,610.24097,8.521,0.00010999999,0.00030999997,-0.068909995
283.81668,2000,0,91.24,0.000002697398,0.000002697398,0.000002697398,0.99999994,0,0,0,0,0,0,1,1,0,0,0,false,false,true,-1062.14,-370.38,16.99,0.0012542901,0.004582879,-0.26594016,0.96397775,-568.17096,604.811,8.521,0.00010999999,0.00030999997,-0.078209996
283.825,2000,0,91.24,0.000002697398,0.000002697398,0.000002697398,0.99999994,0,0,0,0,0,0,1,1,0,0,0,false,false,true,-1066.87,-365.34,16.99,0.0012542901,0.004582879,-0.26625308,0.9638914,-565.951,599.42096,8.521,0.00010999999,0.00030999997,-0.087309994
283.83334,2000,0,91.24,0.000002697398,0.000002697398,0.000002697398,0.99999994,0,0,0,0,0,0,1,1,0,0,0,false,false,true,-1071.59,-360.34,16.99,0.0012542901,0.004582879,-0.26660374,0.96379447,-563.691,594.071,8.521,0.00010999999,0.00030999997,-0.096209995
283.84167,2000,0,91.24,0.000002697398,0.000002697398,0.000002697398,0.99999994,0,0,0,0,0,0,1,1,0,0,0,false,false,true,-1076.2899,-355.38998,16.99,0.0012542901,0.004582879,-0.26699215,0.96368694,-561.40094,588.751,8.521,0.00010999999,0.00030999997,-0.10490999
283.85,2000,0,91.24,0.000002697398,0.000002697398,0.000002697398,0.99999994,0,0,0,0,0,0,1,1,0,0,0,false,false,true,-1080.97,-350.47998,16.99,0.0012542901,0.004582879,-0.26741296,0.96357024,-559.071,583.47095,8.521,0.00010999999,0.00030999997,-0.113409996
283.85834,2000,0,91.24,0.000002697398,0.000002697398,0.000002697398,0.99999994,0,0,0,0,0,0,1,1,0,0,0,false,false,true,-1085.63,-345.62,16.99,0.00125429,0.0045828787,-0.26786608,0.9634443,-556.71094,578.23096,8.521,0.00021,0.00030999997,-0.12160999
283.86667,2000,0,91.24,0.000002697398,0.000002697398,0.000002697398,0.99999994,0,0,0,0,0,0,1,1,0,0,0,false,false,true,-1090.27,-340.8,16.99,0.0012596849,0.004582879,-0.26835164,0.9633092,-554.321,573.02094,8.521,0.00021,0.00021,-0.12961
283.875,2000,0,91.24,0.000002697398,0.000002697398,0.000002697398,0.99999994,0,0,0,0,0,0,1,1,0,0,0,false,false,true,-1094.89,-336.02,16.99,0.0012650797,0.004582879,-0.26886955,0.9631648,-551.90094,567.85095,8.521,0.00021,0.00021,-0.13741
283.88333,2000,0,91.24,0.000002697398,0.000002697398,0.000002697398,0.99999994,0,0,0,0,0,0,1,1,0,0,0,false,false,true,-1099.49,-331.28998,16.99,0.0012704745,0.004582879,-0.26941982,0.963011,-549.441,562.72095,8.521,0.00021,0.00021,-0.14501
283.89166,2000,0,91.24,0.000002697398,0.000002697398,0.000002697398,0.99999994,0,0,0,0,0,0,1,1,0,0,0,false,false,true,-1104.07,-326.6,16.99,0.0012758692,0.004582879,-0.27000245,0.9628478,-546.951,557.631,8.521,0.00021,0.00021,-0.15241
283.9,2000,0,91.24,0.000002697398,0.000002697398,0.000002697398,0.99999994,0,0,0,0,0,0,1,1,0,0,0,false,false,true,-1108.63,-321.94998,16.99,0.001281264,0.004582879,-0.27061206,0.96267664,-544.43097,552.571,8.521,0.00010999999,0.00021,-0.15960999
283.90833,2000,0,91.24,0.000002697398,0.000002697398,0.000002697398,0.99999994,0,0,0,0,0,0,1,1,0,0,0,false,false,true,-1113.1699,-317.35,16.99,0.0012866587,0.0045828787,-0.27125406,0.96249586,-541.881,547.55096,8.521,0.00010999999,0.00021,-0.16660999
283.91666,2000,0,91.24,0.000002697398,0.000002697398,0.000002697398,0.99999994,0,0,0,0,0,0,1,1,0,0,0,false,false,true,-1117.69,-312.78998,16.99,0.0012920536,0.004582879,-0.27192304,0.96230716,-539.30096,542.571,8.521,0,0.00021,-0.17341
283.925,2000,0,91.24,0.000002697398,0.000002697398,0.000002697398,0.99999994,0,0,0,0,0,0,1,1,0,0,0,false,false,true,-1122.1799,-308.27,16.99,0.0012974484,0.004582879,-0.27261898,0.9621102,-536.691,537.621,8.521,0,0.00021,-0.18000999
283.93332,2000,0,91.24,0.000002697398,0.000002697398,0.000002697398,0.99999994,0,0,0,0,0,0,1,1,0,0,0,false,false,true,-1126.65,-303.78998,16.99,0.0013028432,0.004582879,-0.27334186,0.9619051,-534.05096,532.71094,8.521,0,0.00010999999,-0.18641
283.94168,2000,0,91.24,0.000002697398,0.000002697398,0.000002697398,0.99999994,0,0,0,0,0,0,1,1,0,0,0,false,false,true,-1131.1,-299.35,16.99,0.001308238,0.004582879,-0.27408636,0.9616932,-531.381,527.831,8.521,0,0.00010999999,-0.19261
283.95,2000,0,91.24,0.000002697398,0.000002697398,0.000002697398,0.99999994,0,0,0,0,0,0,1,1,0,0,0,false,false,true,-1135.53,-294.94998,16.99,0.0013136328,0.004582879,-0.27485782,0.961473,-528.68097,522.99097,8.521,0,0.00010999999,-0.19861
283.95834,2000,0,91.24,0.000002697398,0.000002697398,0.000002697398,0.99999994,0,0,0,0,0,0,1,1,0,0,0,false,false,true,-1139.94,-290.59,16.99,0.0013190276,0.004582879,-0.27565086,0.96124595,-525.951,518.18097,8.521,0,0.00010999999,-0.20440999
