time,ball_loc_x,ball_loc_y,ball_loc_z,ball_rot_x,ball_rot_y,ball_rot_z,ball_rot_w,ball_vel_x,ball_vel_y,ball_vel_z,ball_ang_x,ball_ang_y,ball_ang_z,player0_throttle,player0_steer,player0_pitch,player0_yaw,player0_roll,player0_jump,player0_boost,player0_handbrake,player0_loc_x,player0_loc_y,player0_loc_z,player0_rot_x,player0_rot_y,player0_rot_z,player0_rot_w,player0_vel_x,player0_vel_y,player0_vel_z,player0_ang_x,player0_ang_y,player0_ang_z
81.225,2000,0,91.24,0.000002697398,0.000002697398,0.000002697398,0.99999994,0,0,0,0,0,0,0.5984252,0,0,0,0,false,false,false,0,-4745.3,17.01,-0.00335826,0.0033420757,0.70709044,0.70710707,0,600.93097,8.321,-0.00061,0.00010999999,0
81.23333,2000,0,91.24,0.000002697398,0.000002697398,0.000002697398,0.99999994,0,0,0,0,0,0,1,1,0,0,0,false,false,true,0,-4740.29,17.01,-0.00335826,0.0033420757,0.70709044,0.70710707,-13.301,605.10095,8.351,-0.00051,0.00361,0.36371002
81.24167,2000,0,91.24,0.000002697398,0.000002697398,0.000002697398,0.99999994,0,0,0,0,0,0,1,1,0,0,0,false,false,true,-0.11,-4735.25,17.01,-0.0033528658,0.003347471,0.7081628,0.7060332,-22.841,610.22095,8.361,-0.00040999998,0.00471,0.62011
81.25,2000,0,91.24,0.000002697398,0.000002697398,0.000002697398,0.99999994,0,0,0,0,0,0,1,1,0,0,0,false,false,true,-0.29999998,-4730.1597,17.01,-0.003347471,0.0033528658,0.7099868,0.7041989,-31.491,615.43097,8.361,-0.00040999998,0.00491,0.84191
81.25833,2000,0,91.24,0.000002697398,0.000002697398,0.000002697398,0.99999994,0,0,0,0,0,0,1,1,0,0,0,false,false,true,-0.56,-4725.03,17.01,-0.003347471,0.0033582605,0.7124502,0.7017065,-39.521,620.65094,8.361,-0.00040999998,0.00461,1.03361
81.26667,2000,0,91.24,0.000002697398,0.000002697398,0.000002697398,0.99999994,0,0,0,0,0,0,1,1,0,0,0,false,false,true,-0.89,-4719.86,17.01,-0.003347471,0.0033582605,0.71546584,0.69863147,-47.141,625.821,8.361,-0.00040999998,0.00401,1.19951
81.275,2000,0,91.24,0.000002697398,0.000002697398,0.000002697398,0.99999994,0,0,0,0,0,0,1,1,0,0,0,false,false,true,-1.28,-4714.64,17.01,-0.0033528658,0.0033528658,0.7189464,0.6950492,-54.510998,630.90094,8.361,-0.00040999998,0.00321,1.3436099
81.28333,2000,0,91.24,0.000002697398,0.000002697398,0.000002697398,0.99999994,0,0,0,0,0,0,1,1,0,0,0,false,false,true,-1.73,-4709.38,17.01,-0.0033636554,0.0033420762,0.72282577,0.69101393,-61.731,635.85095,8.361,-0.00040999998,0.00241,1.46921
81.291664,2000,0,91.24,0.000002697398,0.000002697398,0.000002697398,0.99999994,0,0,0,0,0,0,1,1,0,0,0,false,false,true,-2.24,-4704.08,17.01,-0.0033798397,0.0033312866,0.7270443,0.68657404,-68.891,640.631,8.351,-0.00040999998,0.0017099999,1.5792099
81.3,2000,0,91.24,0.000002697398,0.000002697398,0.000002697398,0.99999994,0,0,0,0,0,0,1,1,0,0,0,false,false,true,-2.81,-4698.7397,17.01,-0.0033960238,0.0033151018,0.7315486,0.6817726,-76.041,645.22095,8.351,-0.00040999998,0.00111,1.67611
81.308334,2000,0,91.24,0.000002697398,0.000002697398,0.000002697398,0.99999994,0,0,0,0,0,0,1,1,0,0,0,false,false,true,-3.4399998,-4693.36,17.01,-0.0034176034,0.003293523,0.7362916,0.6766476,-83.201,649.59094,8.351,-0.00040999998,0.00051,1.76201
81.316666,2000,0,91.24,0.000002697398,0.000002697398,0.000002697398,0.99999994,0,0,0,0,0,0,1,1,0,0,0,false,false,true,-4.13,-4687.9497,17.01,-0.0034391826,0.003271944,0.7412377,0.6712257,-90.381,653.74097,8.351,-0.00040999998,0,1.8386099
81.325,2000,0,91.24,0.000002697398,0.000002697398,0.000002697398,0.99999994,0,0,0,0,0,0,1,1,0,0,0,false,false,true,-4.88,-4682.5,17.01,-0.0034661565,0.0032449698,0.7463569,0.66552883,-97.571,657.65094,8.351,-0.00030999997,-0.00030999997,1.90731
81.333336,2000,0,91.24,0.000002697398,0.000002697398,0.000002697398,0.99999994,0,0,0,0,0,0,1,1,0,0,0,false,false,true,-5.69,-4677.02,17.01,-0.0034931304,0.0032179959,0.75162065,0.6595784,-104.751,661.33093,8.351,-0.00030999997,-0.00051,1.9693099
81.34167,2000,0,91.24,0.000002697398,0.000002697398,0.000002697398,0.99999994,0,0,0,0,0,0,1,1,0,0,0,false,false,true,-6.56,-4671.51,17.01,-0.0035201046,0.003191022,0.757006,0.6533905,-111.90099,664.77094,8.351,-0.00021,-0.00071,2.02551
81.35,2000,0,91.24,0.000002697398,0.000002697398,0.000002697398,0.99999994,0,0,0,0,0,0,1,1,0,0,0,false,false,true,-7.49,-4665.9697,17.01,-0.0035470785,0.0031586532,0.76249546,0.64697605,-118.980995,667.99097,8.341001,-0.00021,-0.00091,2.07671
81.35833,2000,0,91.24,0.000002697398,0.000002697398,0.000002697398,0.99999994,0,0,0,0,0,0,1,1,0,0,0,false,false,true,-8.48,-4660.4,17.01,-0.0035794473,0.0031262843,0.7680674,0.64035124,-125.951,670.99097,8.341001,-0.00021,-0.0010099999,2.12351
81.36667,2000,0,91.24,0.000002697398,0.000002697398,0.000002697398,0.99999994,0,0,0,0,0,0,1,1,0,0,0,false,false,true,-9.53,-4654.81,17.01,-0.0036118163,0.0030939158,0.7737016,0.6335323,-132.761,673.80096,8.341001,-0.00010999999,-0.00111,2.16641
81.375,2000,0,91.24,0.000002697398,0.000002697398,0.000002697398,0.99999994,0,0,0,0,0,0,1,1,0,0,0,false,false,true,-10.639999,-4649.1997,17.01,-0.003644185,0.003056152,0.7793873,0.62652427,-139.36101,676.441,8.341001,-0.00010999999,-0.0012099999,2.20581
81.38333,2000,0,91.24,0.000002697398,0.000002697398,0.000002697398,0.99999994,0,0,0,0,0,0,1,1,0,0,0,false,false,true,-11.8,-4643.56,17.01,-0.0036765535,0.0030183885,0.7851139,0.619333,-145.701,678.941,8.341001,-0.00010999999,-0.0012099999,2.2420099
81.39167,2000,0,91.24,0.000002697398,0.000002697398,0.000002697398,0.99999994,0,0,0,0,0,0,1,1,0,0,0,false,false,true,-13.009999,-4637.9,17.01,-0.0037089223,0.0029806248,0.79086304,0.61197454,-151.711,681.34094,8.341001,0,-0.0012099999,2.27531
81.4,2000,0,91.24,0.000002697398,0.000002697398,0.000002697398,0.99999994,0,0,0,0,0,0,1,1,0,0,0,false,false,true,-14.2699995,-4632.2197,17.01,-0.0037412911,0.0029428613,0.7966298,0.6044487,-157.321,683.68097,8.341001,0,-0.0012099999,2.3059099
81.40833,2000,0,91.24,0.000002697398,0.000002697398,0.000002697398,0.99999994,0,0,0,0,0,0,1,1,0,0,0,false,false,true,-15.58,-4626.52,17.01,-0.0037736602,0.002905098,0.8024007,0.5967666,-162.47101,686.011,8.331,0,-0.00111,2.33391
81.416664,2000,0,91.24,0.000002697398,0.000002697398,0.000002697398,0.99999994,0,0,0,0,0,0,1,1,0,0,0,false,false,true,-16.93,-4620.8,17.01,-0.0038060287,0.002867334,0.8081675,0.5889333,-167.091,688.40094,8.331,0,-0.00111,2.35941
81.425,2000,0,91.24,0.000002697398,0.000002697398,0.000002697398,0.99999994,0,0,0,0,0,0,1,1,0,0,0,false,false,true,-18.32,-4615.06,17.01,-0.0038383976,0.0028295706,0.8139183,0.5809597,-171.101,690.91095,8.331,0,-0.0010099999,2.38251
81.433334,2000,0,91.24,0.000002697398,0.000002697398,0.000002697398,0.99999994,0,0,0,0,0,0,1,1,0,0,0,false,false,true,-19.75,-4609.3,17.01,-0.0038707664,0.0027864121,0.81964535,0.5728513,-175.291,693.30096,8.331,0,-0.0010099999,2.40541
81.441666,2000,0,91.24,0.000002697398,0.000002697398,0.000002697398,0.99999994,0,0,0,0,0,0,1,1,0,0,0,false,false,true,-21.21,-4603.52,17.01,-0.003903135,0.0027432537,0.8253453,0.56460804,-179.661,695.55096,8.331,0,-0.00091,2.42811
81.45,2000,0,91.24,0.000002697398,0.000002697398,0.000002697398,0.99999994,0,0,0,0,0,0,1,1,0,0,0,false,false,true,-22.71,-4597.7197,17.01,-0.0039355042,0.0027000958,0.83101475,0.5562299,-184.211,697.66095,8.331,0,-0.00081,2.45061
81.458336,2000,0,91.24,0.000002697398,0.000002697398,0.000002697398,0.99999994,0,0,0,0,0,0,1,1,0,0,0,false,false,true,-24.25,-4591.9097,17.01,-0.0039678724,0.002656937,0.8366501,0.54771686,-188.921,699.631,8.331,0,-0.00071,2.47301
81.46667,2000,0,91.24,0.000002697398,0.000002697398,0.000002697398,0.99999994,0,0,0,0,0,0,1,1,0,0,0,false,false,true,-25.82,-4586.08,17.01,-0.0039948463,0.0026137787,0.842248,0.53906894,-193.80101,701.451,8.331,0.00010999999,-0.00061,2.49521
81.475,2000,0,91.24,0.000002697398,0.000002697398,0.000002697398,0.99999994,0,0,0,0,0,0,1,1,0,0,0,false,false,true,-27.439999,-4580.23,17.01,-0.00402182,0.0025706203,0.84780854,0.53028077,-198.841,703.121,8.331,0.00010999999,-0.00051,2.51721
81.48333,2000,0,91.24,0.000002697398,0.000002697398,0.000002697398,0.99999994,0,0,0,0,0,0,1,1,0,0,0,false,false,true,-29.099998,-4574.37,17.01,-0.0040487945,0.0025274619,0.8533248,0.5213578,-204.031,704.631,8.331,0.00010999999,-0.00040999998,2.53901
81.49167,2000,0,91.24,0.000002697398,0.000002697398,0.000002697398,0.99999994,0,0,0,0,0,0,1,1,0,0,0,false,false,true,-30.8,-4568.5,17.01,-0.004075769,0.002484304,0.8587933,0.5122999,-209.36101,705.97095,8.331,0.00010999999,-0.00040999998,2.56071
81.5,2000,0,91.24,0.000002697398,0.000002697398,0.000002697398,0.99999994,0,0,0,0,0,0,1,1,0,0,0,false,false,true,-32.54,-4562.62,17.01,-0.0041027423,0.0024411452,0.8642108,0.50310713,-214.841,707.15094,8.331,0.00010999999,-0.00040999998,2.58221
81.50833,2000,0,91.24,0.000002697398,0.000002697398,0.000002697398,0.99999994,0,0,0,0,0,0,1,1,0,0,0,false,false,true,-34.329998,-4556.73,17.01,-0.0041297157,0.0023979866,0.8695739,0.4937794,-220.451,708.15094,8.331,0.00010999999,-0.00030999997,2.60351
81.51667,2000,0,91.24,0.000002697398,0.000002697398,0.000002697398,0.99999994,0,0,0,0,0,0,1,1,0,0,0,false,false,true,-36.17,-4550.83,17.01,-0.0041566906,0.002349434,0.87487954,0.484317,-226.19101,708.98096,8.331,0.00010999999,-0.00030999997,2.6247098
81.525,2000,0,91.24,0.000002697398,0.000002697398,0.000002697398,0.99999994,0,0,0,0,0,0,1,1,0,0,0,false,false,true,-38.05,-4544.92,17.01,-0.004183665,0.0023008806,0.88012415,0.47471958,-232.051,709.631,8.331,0.00010999999,-0.00030999997,2.64571
81.53333,2000,0,91.24,0.000002697398,0.000002697398,0.000002697398,0.99999994,0,0,0,0,0,0,1,1,0,0,0,false,false,true,-39.98,-4539.01,17.01,-0.0042106383,0.0022523273,0.8853044,0.46498734,-238.031,710.10095,8.331,0.00010999999,-0.00021,2.6665099
81.541664,2000,0,91.24,0.000002697398,0.000002697398,0.000002697398,0.99999994,0,0,0,0,0,0,1,1,0,0,0,false,false,true,-41.96,-4533.09,17.01,-0.0042376122,0.0022037742,0.8904171,0.45512027,-244.121,710.381,8.331,0.00010999999,-0.00010999999,2.6872098
81.55,2000,0,91.24,0.000002697398,0.000002697398,0.000002697398,0.99999994,0,0,0,0,0,0,1,1,0,0,0,false,false,true,-43.989998,-4527.17,17.01,-0.004264586,0.002155221,0.8954563,0.4451236,-250.311,710.47095,8.331,0.00010999999,-0.00010999999,2.70771
81.558334,2000,0,91.24,0.000002697398,0.000002697398,0.000002697398,0.99999994,0,0,0,0,0,0,1,1,0,0,0,false,false,true,-46.079998,-4521.25,17.01,-0.004286165,0.0021066675,0.9004214,0.43499213,-256.601,710.371,8.331,0.00010999999,0,2.7281098
81.566666,2000,0,91.24,0.000002697398,0.000002697398,0.000002697398,0.99999994,0,0,0,0,0,0,1,1,0,0,0,false,false,true,-48.219997,-4515.33,17.01,-0.0043077446,0.0020581146,0.9053069,0.4247312,-262.981,710.071,8.331,0.00010999999,0,2.7483099
81.575,2000,0,91.24,0.000002697398,0.000002697398,0.000002697398,0.99999994,0,0,0,0,0,0,1,1,0,0,0,false,false,true,-50.41,-4509.4097,17.01,-0.004329324,0.0020095615,0.91011167,0.41433543,-269.451,709.571,8.331,0.00010999999,0,2.76841
81.583336,2000,0,91.24,0.000002697398,0.000002697398,0.000002697398,0.99999994,0,0,0,0,0,0,1,1,0,0,0,false,false,true,-52.66,-4503.5,17.01,-0.0043509034,0.0019610086,0.9148303,0.40381014,-275.991,708.881,8.331,0.00010999999,0,2.78831
81.59167,2000,0,91.24,0.000002697398,0.000002697398,0.000002697398,0.99999994,0,0,0,0,0,0,1,1,0,0,0,false,false,true,-54.96,-4497.59,17.01,-0.004372482,0.0019124552,0.9194596,0.39315537,-282.601,707.98096,8.331,0.00010999999,0,2.80811
81.6,2000,0,91.24,0.000002697398,0.000002697398,0.000002697398,0.99999994,0,0,0,0,0,0,1,1,0,0,0,false,false,true,-57.32,-4491.69,17.01,-0.0043940614,0.0018585073,0.92399645,0.3823711,-289.281,706.881,8.331,0.00010999999,-0.00010999999,2.82771
81.60833,2000,0,91.24,0.000002697398,0.000002697398,0.000002697398,0.99999994,0,0,0,0,0,0,1,1,0,0,0,false,false,true,-59.73,-4485.8,17.01,-0.0044156406,0.0018045594,0.92843765,0.37145743,-296.021,705.58093,8.331,0.00010999999,-0.00010999999,2.84721
81.61667,2000,0,91.24,0.000002697398,0.000002697398,0.000002697398,0.99999994,0,0,0,0,0,0,1,1,0,0,0,false,false,true,-62.199997,-4479.92,17.01,-0.0044372194,0.0017506111,0.93277794,0.36041954,-302.811,704.071,8.331,0.00010999999,-0.00010999999,2.86661
81.625,2000,0,91.24,0.000002697398,0.000002697398,0.000002697398,0.99999994,0,0,0,0,0,0,1,1,0,0,0,false,false,true,-64.72,-4474.05,17.01,-0.004458799,0.0016966634,0.9370165,0.34925234,-309.641,702.36096,8.331,0.00010999999,-0.00010999999,2.88581
81.63333,2000,0,91.24,0.000002697398,0.000002697398,0.000002697398,0.99999994,0,0,0,0,0,0,1,1,0,0,0,false,false,true,-67.299995,-4468.1997,17.01,-0.0044803782,0.0016427154,0.941148,0.33796096,-316.511,700.441,8.331,0.00010999999,-0.00010999999,2.9049098
81.64167,2000,0,91.24,0.000002697398,0.000002697398,0.000002697398,0.99999994,0,0,0,0,0,0,1,1,0,0,0,false,false,true,-69.939995,-4462.36,17.01,-0.004501957,0.0015887674,0.94516927,0.32654554,-323.411,698.311,8.331,0.00010999999,-0.00010999999,2.92381
81.65,2000,0,91.24,0.000002697398,0.000002697398,0.000002697398,0.99999994,0,0,0,0,0,0,1,1,0,0,0,false,false,true,-72.64,-4456.54,17.01,-0.0045235357,0.0015348194,0.9490775,0.315006,-330.341,695.98096,8.331,0.00010999999,0,2.94261
81.65833,2000,0,91.24,0.000002697398,0.000002697398,0.000002697398,0.99999994,0,0,0,0,0,0,1,1,0,0,0,false,false,true,-75.39,-4450.7397,17.01,-0.0045397207,0.0014808716,0.95286787,0.30334786,-337.291,693.441,8.331,0.00010999999,0,2.96131
81.666664,2000,0,91.24,0.000002697398,0.000002697398,0.000002697398,0.99999994,0,0,0,0,0,0,1,1,0,0,0,false,false,true,-78.2,-4444.96,17.01,-0.004555905,0.0014269234,0.9565388,0.2915655,-344.251,690.691,8.331,0.00010999999,0,2.97981
81.675,2000,0,91.24,0.000002697398,0.000002697398,0.000002697398,0.99999994,0,0,0,0,0,0,1,1,0,0,0,false,false,true,-81.07,-4439.1997,17.01,-0.00457209,0.001367581,0.96008587,0.27966464,-351.221,687.73096,8.331,0.00010999999,0,2.99821
81.683334,2000,0,91.24,0.000002697398,0.000002697398,0.000002697398,0.99999994,0,0,0,0,0,0,1,1,0,0,0,false,false,true,-84,-4433.4697,17.01,-0.0045882743,0.0013082381,0.96350425,0.26765037,-358.191,684.571,8.331,0.00010999999,0,3.01651
81.691666,2000,0,91.24,0.000002697398,0.000002697398,0.000002697398,0.99999994,0,0,0,0,0,0,1,1,0,0,0,false,false,true,-86.979996,-4427.76,17.01,-0.004604458,0.0012488952,0.9667925,0.2555174,-365.151,681.201,8.331,0.00010999999,0,3.03471
81.7,2000,0,91.24,0.000002697398,0.000002697398,0.000002697398,0.99999994,0,0,0,0,0,0,1,1,0,0,0,false,false,true,-90.02,-4422.08,17.01,-0.0046206433,0.0011895526,0.96994656,0.24327119,-372.101,677.631,8.331,0.00010999999,0,3.0527098
81.708336,2000,0,91.24,0.000002697398,0.000002697398,0.000002697398,0.99999994,0,0,0,0,0,0,1,1,0,0,0,false,false,true,-93.119995,-4416.4297,17.01,-0.0046368274,0.0011302099,0.9729617,0.23091702,-379.031,673.86096,8.331,0.00010999999,0,3.07061
81.71667,2000,0,91.24,0.000002697398,0.000002697398,0.000002697398,0.99999994,0,0,0,0,0,0,1,1,0,0,0,false,false,true,-96.28,-4410.81,17.01,-0.0046530114,0.001070867,0.9758365,0.21844962,-385.941,669.891,8.331,0.00010999999,0,3.08841
81.725,2000,0,91.24,0.000002697398,0.000002697398,0.000002697398,0.99999994,0,0,0,0,0,0,1,1,0,0,0,false,false,true,-99.5,-4405.23,17.01,-0.0046638013,0.0010115242,0.97856677,0.20587426,-392.82098,665.72095,8.331,0.00010999999,0,3.1061099
81.73333,2000,0,91.24,0.000002697398,0.000002697398,0.000002697398,0.99999994,0,0,0,0,0,0,1,1,0,0,0,false,false,true,-102.77,-4399.6797,17.01,-0.0046745907,0.0009521815,0.9811495,0.19319111,-399.661,661.35095,8.331,0.00010999999,0,3.12371
81.74167,2000,0,91.24,0.000002697398,0.000002697398,0.000002697398,0.99999994,0,0,0,0,0,0,1,1,0,0,0,false,false,true,-106.1,-4394.17,17.01,-0.00468538,0.00089283864,0.98358065,0.18040533,-406.461,656.79095,8.331,0.00010999999,0,3.14111
81.75,2000,0,91.24,0.000002697398,0.000002697398,0.000002697398,0.99999994,0,0,0,0,0,0,1,1,0,0,0,false,false,true,-109.49,-4388.6997,17.01,-0.00469617,0.000833496,0.98585755,0.16751719,-413.221,652.03094,8.331,0.00010999999,0,3.1584098
81.75833,2000,0,91.24,0.000002697398,0.000002697398,0.000002697398,0.99999994,0,0,0,0,0,0,1,1,0,0,0,false,false,true,-112.93,-4383.27,17.01,-0.0047069597,0.0007687585,0.9879771,0.15452643,-419.931,647.08093,8.331,0.00010999999,0,3.1756098
81.76667,2000,0,91.24,0.000002697398,0.000002697398,0.000002697398,0.99999994,0,0,0,0,0,0,1,1,0,0,0,false,false,true,-116.43,-4377.88,17.01,-0.0047177486,0.00070402084,0.9899354,0.14143856,-426.591,641.941,8.331,0.00010999999,0,3.19271
81.775,2000,0,91.24,0.000002697398,0.000002697398,0.000002697398,0.99999994,0,0,0,0,0,0,1,1,0,0,0,false,false,true,-119.979996,-4372.53,17.01,-0.0047285384,0.00063928333,0.99172914,0.12825908,-433.191,636.621,8.331,0.00010999999,0,3.20971
81.78333,2000,0,91.24,0.000002697398,0.000002697398,0.000002697398,0.99999994,0,0,0,0,0,0,1,1,0,0,0,false,false,true,-123.59,-4367.2197,17.01,-0.0047339336,0.00057454576,0.993356,0.11498241,-439.721,631.11096,8.331,0.00010999999,0,3.22661
81.791664,2000,0,91.24,0.000002697398,0.000002697398,0.000002697398,0.99999994,0,0,0,0,0,0,1,1,0,0,0,false,false,true,-127.25,-4361.96,17.01,-0.004739328,0.00050980813,0.9948118,0.10161949,-446.191,625.42096,8.331,0,0,3.2434099
81.8,2000,0,91.24,0.000002697398,0.000002697398,0.000002697398,0.99999994,0,0,0,0,0,0,1,1,0,0,0,false,false,true,-130.97,-4356.75,17.01,-0.004744723,0.00044507068,0.99609447,0.08816479,-452.581,619.561,8.331,0,0,3.26011
81.808334,2000,0,91.24,0.000002697398,0.000002697398,0.000002697398,0.99999994,0,0,0,0,0,0,1,1,0,0,0,false,false,true,-134.73999,-4351.59,17.01,-0.004750118,0.00038033316,0.99720037,0.07462378,-458.901,613.52094,8.331,0,0,3.27671
81.816666,2000,0,91.24,0.000002697398,0.000002697398,0.000002697398,0.99999994,0,0,0,0,0,0,1,1,0,0,0,false,false,true,-138.56,-4346.48,17.01,-0.004755513,0.00031559556,0.9981262,0.06100191,-465.141,607.311,8.331,0,0,3.29321
81.825,2000,0,91.24,0.000002697398,0.000002697398,0.000002697398,0.99999994,0,0,0,0,0,0,1,1,0,0,0,false,false,true,-142.44,-4341.42,17.01,-0.0047609075,0.00025085802,0.99886936,0.047299042,-471.301,600.93097,8.331,0,0,3.30961
81.833336,2000,0,91.24,0.000002697398,0.000002697398,0.000002697398,0.99999994,0,0,0,0,0,0,1,1,0,0,0,false,false,true,-146.37,-4336.4097,17.01,-0.004766302,0.00018612047,0.99942654,0.033520732,-477.371,594.381,8.331,0,0,3.3259099
81.84167,2000,0,91.24,0.000002697398,0.000002697398,0.000002697398,0.99999994,0,0,0,0,0,0,1,1,0,0,0,false,false,true,-150.34999,-4331.46,17.01,-0.0047663017,0.0001213829,0.9997951,0.019666811,-483.35098,587.67096,8.331,0,0,3.34211
81.85,2000,0,91.24,0.000002697398,0.000002697398,0.000002697398,0.99999994,0,0,0,0,0,0,1,1,0,0,0,false,false,true,-154.37999,-4326.56,17.01,-0.004766302,0.00005664536,0.9999721,0.0057427604,-489.241,580.80096,8.331,0,0,3.3582098
81.85833,2000,0,91.24,0.000002697398,0.000002697398,0.000002697398,0.99999994,0,0,0,0,0,0,1,1,0,0,0,false,false,true,-158.45999,-4321.7197,17.01,-0.0047663026,-0.000008092195,0.9999546,-0.008251383,-495.041,573.77094,8.331,0,0,3.37421
81.86667,2000,0,91.24,0.000002697398,0.000002697398,0.000002697398,0.99999994,0,0,0,0,0,0,1,1,0,0,0,false,false,true,-162.59,-4316.94,17.01,-0.0047663026,-0.00007282975,0.9997397,-0.022310264,-500.741,566.581,8.331,0,0,3.39021
81.875,2000,0,91.24,0.000002697398,0.000002697398,0.000002697398,0.99999994,0,0,0,0,0,0,1,1,0,0,0,false,false,true,-166.76,-4312.2197,17.01,-0.004766302,-0.0001375673,0.99932486,-0.036428485,-506.341,559.24097,8.331,0,0,3.4061098
81.88333,2000,0,91.24,0.000002697398,0.000002697398,0.000002697398,0.99999994,0,0,0,0,0,0,1,1,0,0,0,false,false,true,-170.98,-4307.56,17.01,-0.004766302,-0.00020769965,0.99870723,-0.050606094,-511.841,551.751,8.331,0,0,3.4219098
81.89167,2000,0,91.24,0.000002697398,0.000002697398,0.000002697398,0.99999994,0,0,0,0,0,0,1,1,0,0,0,false,false,true,-175.25,-4302.96,17.01,-0.004760907,-0.00027783198,0.9978843,-0.0648376,-517.24097,544.11096,8.331,0,0.00010999999,3.43761
81.9,2000,0,91.24,0.000002697398,0.000002697398,0.000002697398,0.99999994,0,0,0,0,0,0,1,1,0,0,0,false,false,true,-179.56,-4298.4297,17.01,-0.004755513,-0.00034796435,0.9968534,-0.07912307,-522.53094,536.321,8.331,0,0.00010999999,3.4532099
81.90833,2000,0,91.24,0.000002697398,0.000002697398,0.000002697398,0.99999994,0,0,0,0,0,0,1,1,0,0,0,false,false,true,-183.90999,-4293.96,17.01,-0.004750118,-0.00041809672,0.99561185,-0.093457095,-527.72095,528.391,8.331,0,0.00010999999,3.4688098
81.916664,2000,0,91.24,0.000002697398,0.000002697398,0.000002697398,0.99999994,0,0,0,0,0,0,1,1,0,0,0,false,false,true,-188.31,-4289.56,17.01,-0.004744723,-0.00048822907,0.9941574,-0.1078343,-532.80096,520.321,8.331,0,0.00010999999,3.48431
81.925,2000,0,91.24,0.000002697398,0.000002697398,0.000002697398,0.99999994,0,0,0,0,0,0,1,1,0,0,0,false,false,true,-192.75,-4285.2197,17.01,-0.0047393283,-0.00055836135,0.99248725,-0.12225464,-537.77094,512.10095,8.331,0,0.00010999999,3.4997098
81.933334,2000,0,91.24,0.000002697398,0.000002697398,0.000002697398,0.99999994,0,0,0,0,0,0,1,1,0,0,0,false,false,true,-197.23,-4280.9497,17.01,-0.004728538,-0.00062849367,0.9905991,-0.13671272,-542.631,503.751,8.331,0,0.00021,3.5150099
81.941666,2000,0,91.24,0.000002697398,0.000002697398,0.000002697398,0.99999994,0,0,0,0,0,0,1,1,0,0,0,false,false,true,-201.75,-4276.75,17.01,-0.004717749,-0.0006986261,0.9884911,-0.15120323,-547.381,495.261,8.331,0,0.00021,3.53021
81.95,2000,0,91.24,0.000002697398,0.000002697398,0.000002697398,0.99999994,0,0,0,0,0,0,1,1,0,0,0,false,false,true,-206.31,-4272.62,17.01,-0.00470696,-0.00076875853,0.9861603,-0.16572608,-552.011,486.63098,8.331,0,0.00021,3.54541
81.958336,2000,0,91.24,0.000002697398,0.000002697398,0.000002697398,0.99999994,0,0,0,0,0,0,1,1,0,0,0,false,false,true,-210.90999,-4268.56,17.01,-0.0046961694,-0.0008388907,0.9836044,-0.18027586,-556.53094,477.861,8.331,-0.00010999999,0.00021,3.56051
81.96667,2000,0,91.24,0.000002697398,0.000002697398,0.000002697398,0.99999994,0,0,0,0,0,0,1,1,0,0,0,false,false,true,-215.54999,-4264.58,17.01,-0.0046799853,-0.00090902316,0.98082197,-0.1948473,-560.93097,468.961,8.331,-0.00010999999,0.00021,3.57551
81.975,2000,0,91.24,0.000002697398,0.000002697398,0.000002697398,0.99999994,0,0,0,0,0,0,1,1,0,0,0,false,false,true,-220.22,-4260.67,17.01,-0.0046638013,-0.0009791554,0.9778109,-0.20943488,-565.22095,459.921,8.331,-0.00021,0.00021,3.59041
81.98333,2000,0,91.24,0.000002697398,0.000002697398,0.000002697398,0.99999994,0,0,0,0,0,0,1,1,0,0,0,false,false,true,-224.93,-4256.84,17.01,-0.0046476163,-0.0010492877,0.9745685,-0.2240386,-569.391,450.751,8.331,-0.00021,0.00021,3.6052098
81.99167,2000,0,91.24,0.000002697398,0.000002697398,0.000002697398,0.99999994,0,0,0,0,0,0,1,1,0,0,0,false,false,true,-229.67,-4253.08,17.01,-0.0046314327,-0.0011194203,0.9710931,-0.23865324,-573.441,441.441,8.331,-0.00021,0.00021,3.6198099
82,2000,0,91.24,0.000002697398,0.000002697398,0.000002697398,0.99999994,0,0,0,0,0,0,1,1,0,0,0,false,false,true,-234.45,-4249.4,17.01,-0.0046152477,-0.0011895524,0.9673829,-0.25327313,-577.371,432.001,8.331,-0.00030999997,0.00021,3.63431
82.00833,2000,0,91.24,0.000002697398,0.000002697398,0.000002697398,0.99999994,0,0,0,0,0,0,1,1,0,0,0,false,false,true,-239.26,-4245.8,17.01,-0.004593669,-0.0012596849,0.9634368,-0.26789308,-581.18097,422.421,8.331,-0.00030999997,0.00021,3.64871
82.01667,2000,0,91.24,0.000002697398,0.000002697398,0.000002697398,0.99999994,0,0,0,0,0,0,1,1,0,0,0,false,false,true,-244.09999,-4242.28,17.01,-0.00457209,-0.0013298173,0.9592532,-0.28250772,-584.86096,412.701,8.331,-0.00030999997,0.00010999999,3.66321
82.025,2000,0,91.24,0.000002697398,0.000002697398,0.000002697398,0.99999994,0,0,0,0,0,0,1,1,0,0,0,false,false,true,-248.97,-4238.84,17.01,-0.0045505106,-0.0013999495,0.9548292,-0.29711682,-588.331,402.861,8.331,-0.00030999997,0,3.67971
82.03333,2000,0,91.24,0.000002697398,0.000002697398,0.000002697398,0.99999994,0,0,0,0,0,0,1,1,0,0,0,false,false,true,-253.87,-4235.48,17.01,-0.0045289313,-0.001470082,0.9501618,-0.31172058,-591.59094,392.891,8.331,-0.00040999998,0,3.69821
82.041664,2000,0,91.24,0.000002697398,0.000002697398,0.000002697398,0.99999994,0,0,0,0,0,0,1,1,0,0,0,false,false,true,-258.8,-4232.21,17.01,-0.0045073526,-0.0015402144,0.9452458,-0.3263244,-594.641,382.801,8.331,-0.00040999998,0,3.71871
82.05,2000,0,91.24,0.000002697398,0.000002697398,0.000002697398,0.99999994,0,0,0,0,0,0,1,1,0,0,0,false,false,true,-263.75998,-4229.02,17.01,-0.0044803787,-0.0016103467,0.94007534,-0.34093356,-597.48096,372.601,8.331,-0.00040999998,0,3.74121
82.058334,2000,0,91.24,0.000002697398,0.000002697398,0.000002697398,0.99999994,0,0,0,0,0,0,1,1,0,0,0,false,false,true,-268.74,-4225.9097,17.01,-0.0044534043,-0.0016804792,0.93464583,-0.3555481,-600.10095,362.291,8.331,-0.00040999998,0,3.76561
82.066666,2000,0,91.24,0.000002697398,0.000002697398,0.000002697398,0.99999994,0,0,0,0,0,0,1,1,0,0,0,false,false,true,-273.74,-4222.89,17.01,-0.0044264295,-0.0017506111,0.92895246,-0.37016803,-602.511,351.871,8.331,-0.00040999998,0,3.79191
82.075,2000,0,91.24,0.000002697398,0.000002697398,0.000002697398,0.99999994,0,0,0,0,0,0,1,1,0,0,0,false,false,true,-278.75998,-4219.96,17.01,-0.004399456,-0.0018207437,0.9229881,-0.3847988,-604.701,341.351,8.331,-0.00040999998,-0.00010999999,3.8201098
82.083336,2000,0,91.24,0.000002697398,0.000002697398,0.000002697398,0.99999994,0,0,0,0,0,0,1,1,0,0,0,false,false,true,-283.8,-4217.12,17.01,-0.0043670875,-0.0018908761,0.9167468,-0.39944032,-606.68097,330.731,8.331,-0.00051,-0.00010999999,3.85021
82.09167,2000,0,91.24,0.000002697398,0.000002697398,0.000002697398,0.99999994,0,0,0,0,0,0,1,1,0,0,0,false,false,true,-288.86,-4214.36,17.01,-0.004334719,-0.0019610086,0.91022223,-0.4140927,-608.441,320.011,8.331,-0.00051,-0.00021,3.88221
82.1,2000,0,91.24,0.000002697398,0.000002697398,0.000002697398,0.99999994,0,0,0,0,0,0,1,1,0,0,0,false,false,true,-293.93,-4211.69,17.01,-0.0043023503,-0.002031141,0.9034053,-0.42876118,-609.98096,309.201,8.331,-0.00051,-0.00030999997,3.9161098
82.10833,2000,0,91.24,0.000002697398,0.000002697398,0.000002697398,0.99999994,0,0,0,0,0,0,1,1,0,0,0,false,false,true,-299.00998,-4209.11,17.01,-0.004269981,-0.0020958781,0.89628845,-0.44344583,-611.30096,298.301,8.331,-0.00051,-0.00030999997,3.95191
82.11667,2000,0,91.24,0.000002697398,0.000002697398,0.000002697398,0.99999994,0,0,0,0,0,0,1,1,0,0,0,false,false,true,-304.1,-4206.62,17.01,-0.0042376122,-0.0021660107,0.88886654,-0.45814136,-612.391,287.311,8.331,-0.00040999998,-0.00030999997,3.98961
82.125,2000,0,91.24,0.000002697398,0.000002697398,0.000002697398,0.99999994,0,0,0,0,0,0,1,1,0,0,0,false,false,true,-309.19998,-4204.23,17.01,-0.0041998485,-0.002236143,0.8811284,-0.472853,-613.261,276.241,8.331,-0.00040999998,-0.00030999997,4.02921
82.13333,2000,0,91.24,0.000002697398,0.000002697398,0.000002697398,0.99999994,0,0,0,0,0,0,1,1,0,0,0,false,false,true,-314.31,-4201.9297,17.01,-0.0041620852,-0.0023062753,0.8730648,-0.48758084,-613.85095,265.071,8.331,-0.00040999998,-0.00030999997,4.07021
82.14167,2000,0,91.24,0.000002697398,0.000002697398,0.000002697398,0.99999994,0,0,0,0,0,0,1,1,0,0,0,false,false,true,-319.43,-4199.7197,17.01,-0.0041243215,-0.0023764076,0.86467206,-0.5023141,-614.10095,253.811,8.331,-0.00040999998,-0.00030999997,4.1118097
82.15,2000,0,91.24,0.000002697398,0.000002697398,0.000002697398,0.99999994,0,0,0,0,0,0,1,1,0,0,0,false,false,true,-324.55,-4197.6,17.01,-0.0040811626,-0.0024465397,0.85594016,-0.51705265,-614.001,242.461,8.331,-0.00040999998,-0.00030999997,4.15411
82.15833,2000,0,91.24,0.000002697398,0.000002697398,0.000002697398,0.99999994,0,0,0,0,0,0,1,1,0,0,0,false,false,true,-329.66998,-4195.58,17.01,-0.0040380047,-0.0025166722,0.84686196,-0.5317913,-613.49097,231.071,8.331,-0.00030999997,-0.00030999997,4.19731
82.166664,2000,0,91.24,0.000002697398,0.000002697398,0.000002697398,0.99999994,0,0,0,0,0,0,1,1,0,0,0,false,false,true,-334.78,-4193.65,17.01,-0.003994846,-0.0025868046,0.83743286,-0.54651916,-612.561,219.671,8.331,-0.00030999997,-0.00030999997,4.24141
82.175,2000,0,91.24,0.000002697398,0.000002697398,0.000002697398,0.99999994,0,0,0,0,0,0,1,1,0,0,0,false,false,true,-339.88,-4191.82,17.01,-0.0039462927,-0.0026569369,0.82764554,-0.5612308,-611.201,208.281,8.331,-0.00030999997,-0.00030999997,4.28641
82.183334,2000,0,91.24,0.000002697398,0.000002697398,0.000002697398,0.99999994,0,0,0,0,0,0,1,1,0,0,0,false,false,true,-344.97,-4190.08,17.01,-0.0038977405,-0.0027270697,0.8174915,-0.575921,-609.41095,196.911,8.331,-0.00021,-0.00030999997,4.33221
82.191666,2000,0,91.24,0.000002697398,0.000002697398,0.000002697398,0.99999994,0,0,0,0,0,0,1,1,0,0,0,false,false,true,-350.05,-4188.44,17.01,-0.0038491872,-0.0027972017,0.80696195,-0.5905841,-607.201,185.631,8.331,-0.00010999999,-0.00030999997,4.37851
82.2,2000,0,91.24,0.000002697398,0.000002697398,0.000002697398,0.99999994,0,0,0,0,0,0,1,1,0,0,0,false,false,true,-355.11,-4186.89,17.01,-0.0038006338,-0.002867334,0.796052,-0.6052094,-604.58093,174.58101,8.331,-0.00010999999,-0.00030999997,4.42411
82.208336,2000,0,91.24,0.000002697398,0.000002697398,0.000002697398,0.99999994,0,0,0,0,0,0,1,1,0,0,0,false,false,true,-360.15,-4185.4297,17.01,-0.003746686,-0.0029374664,0.7847604,-0.6197808,-601.561,163.771,8.331,-0.00010999999,-0.00030999997,4.46911
82.21667,2000,0,91.24,0.000002697398,0.000002697398,0.000002697398,0.99999994,0,0,0,0,0,0,1,1,0,0,0,false,false,true,-365.16,-4184.06,17.01,-0.003692738,-0.003007599,0.7730825,-0.6342875,-598.16095,153.22101,8.331,0,-0.00030999997,4.51341
82.225,2000,0,91.24,0.000002697398,0.000002697398,0.000002697398,0.99999994,0,0,0,0,0,0,1,1,0,0,0,false,false,true,-370.13998,-4182.78,17.01,-0.00363879,-0.0030777312,0.7610179,-0.64871323,-594.40094,142.951,8.331,0,-0.00030999997,4.5570097
82.23333,2000,0,91.24,0.000002697398,0.000002697398,0.000002697398,0.99999994,0,0,0,0,0,0,1,1,0,0,0,false,false,true,-375.09,-4181.59,17.01,-0.0035794473,-0.0031478636,0.7485623,-0.66304725,-590.30096,132.97101,8.331,0,-0.00021,4.59981
82.24167,2000,0,91.24,0.000002697398,0.000002697398,0.000002697398,0.99999994,0,0,0,0,0,0,1,1,0,0,0,false,false,true,-380.00998,-4180.48,17.01,-0.0035201046,-0.0032126012,0.7357159,-0.67727333,-585.881,123.291,8.331,0,-0.00021,4.64181
82.25,2000,0,91.24,0.000002697398,0.000002697398,0.000002697398,0.99999994,0,0,0,0,0,0,1,1,0,0,0,false,false,true,-384.88998,-4179.4497,17.01,-0.003455367,-0.0032773386,0.7224799,-0.69137543,-581.16095,113.921,8.331,0,-0.00010999999,4.68301
82.25833,2000,0,91.24,0.000002697398,0.000002697398,0.000002697398,0.99999994,0,0,0,0,0,0,1,1,0,0,0,false,false,true,-389.72998,-4178.5,17.01,-0.0033906293,-0.0033420762,0.70885044,-0.7053426,-576.16095,104.870995,8.331,0,0,4.72341
82.26667,2000,0,91.24,0.000002697398,0.000002697398,0.000002697398,0.99999994,0,0,0,0,0,0,1,1,0,0,0,false,false,true,-394.53,-4177.63,17.01,0.003325892,0.0034068138,-0.6948335,0.7191547,-570.90094,96.141,8.331,0.00010999999,0,4.76291
82.275,2000,0,91.24,0.000002697398,0.000002697398,0.000002697398,0.99999994,0,0,0,0,0,0,1,1,0,0,0,false,false,true,-399.28998,-4176.83,17.01,0.0032557594,0.0034715512,-0.680424,0.7328031,-565.41095,87.741,8.331,0.00010999999,0,4.8014097
82.28333,2000,0,91.24,0.000002697398,0.000002697398,0.000002697398,0.99999994,0,0,0,0,0,0,1,1,0,0,0,false,false,true,-404,-4176.1,17.01,0.0031856273,0.003536289,-0.665626,0.7462703,-559.71094,79.681,8.331,0.00021,0,4.83901
82.291664,2000,0,91.24,0.000002697398,0.000002697398,0.000002697398,0.99999994,0,0,0,0,0,0,1,1,0,0,0,false,false,true,-408.66,-4175.44,17.01,0.003115495,0.0036010267,-0.650445,0.7595384,-553.821,71.951,8.331,0.00021,0.00010999999,4.8755097
82.3,2000,0,91.24,0.000002697398,0.000002697398,0.000002697398,0.99999994,0,0,0,0,0,0,1,1,0,0,0,false,false,true,-413.28,-4174.84,17.01,0.0030399675,0.003665764,-0.6348809,0.7725952,-547.73096,64.581,8.331,0.00021,0.00021,4.90981
82.308334,2000,0,91.24,0.000002697398,0.000002697398,0.000002697398,0.99999994,0,0,0,0,0,0,1,1,0,0,0,false,false,true,-417.84,-4174.3,17.01,0.0029644405,0.0037305015,-0.6189446,0.7854201,-541.42096,57.611,8.331,0.00021,0.00021,4.94051
82.316666,2000,0,91.24,0.000002697398,0.000002697398,0.000002697398,0.99999994,0,0,0,0,0,0,1,1,0,0,0,false,false,true,-422.34998,-4173.82,17.01,0.0028889133,0.0037898442,-0.6026468,0.7979937,-534.92096,51.040997,8.331,0.00021,0.00030999997,4.96761
82.325,2000,0,91.24,0.000002697398,0.000002697398,0.000002697398,0.99999994,0,0,0,0,0,0,1,1,0,0,0,false,false,true,-426.81,-4173.39,17.01,0.0028079913,0.0038491872,-0.58600384,0.81029415,-528.261,44.871,8.321,0.00021,0.00040999998,4.9910097
82.333336,2000,0,91.24,0.000002697398,0.000002697398,0.000002697398,0.99999994,0,0,0,0,0,0,1,1,0,0,0,false,false,true,-431.21,-4173.02,17.01,0.0027270692,0.003908529,-0.56902635,0.8223053,-521.47095,39.091,8.321,0.00021,0.00051,5.01061
82.34167,2000,0,91.24,0.000002697398,0.000002697398,0.000002697398,0.99999994,0,0,0,0,0,0,1,1,0,0,0,false,false,true,-435.56,-4172.69,17.01,0.0026461475,0.0039678724,-0.551736,0.8340051,-514.581,33.701,8.321,0.00021,0.00051,5.02641
82.35,2000,0,91.24,0.000002697398,0.000002697398,0.000002697398,0.99999994,0,0,0,0,0,0,1,1,0,0,0,false,false,true,-439.84998,-4172.4097,17.01,0.0025598307,0.0040272153,-0.5341489,0.8453769,-507.611,28.690998,8.321,0.00010999999,0.00061,5.0384097
82.35833,2000,0,91.24,0.000002697398,0.000002697398,0.000002697398,0.99999994,0,0,0,0,0,0,1,1,0,0,0,false,false,true,-444.08,-4172.17,17.01,0.002473514,0.004081163,-0.5162866,0.85640246,-500.60098,24.050999,8.321,0.00010999999,0.00061,5.04641
82.36667,2000,0,91.24,0.000002697398,0.000002697398,0.000002697398,0.99999994,0,0,0,0,0,0,1,1,0,0,0,false,false,true,-448.25,-4171.9697,17.01,0.0023871975,0.0041351113,-0.4981655,0.86706877,-493.581,19.771,8.321,0,0.00061,5.0503097
82.375,2000,0,91.24,0.000002697398,0.000002697398,0.000002697398,0.99999994,0,0,0,0,0,0,1,1,0,0,0,false,false,true,-452.36,-4171.8,17.01,0.0023008802,0.0041890587,-0.47981226,0.87735796,-486.57098,15.831,8.321,0,0.00071,5.0500097
82.38333,2000,0,91.24,0.000002697398,0.000002697398,0.000002697398,0.99999994,0,0,0,0,0,0,1,1,0,0,0,false,false,true,-456.41,-4171.67,17.01,0.0022091689,0.0042376122,-0.46124876,0.88725793,-479.561,12.191,8.321,0,0.00071,5.04531
82.39167,2000,0,91.24,0.000002697398,0.000002697398,0.000002697398,0.99999994,0,0,0,0,0,0,1,1,0,0,0,false,false,true,-460.41,-4171.57,17.01,0.0021174573,0.0042861653,-0.44249636,0.8967575,-472.541,8.821,8.321,0,0.00071,5.03611
82.4,2000,0,91.24,0.000002697398,0.000002697398,0.000002697398,0.99999994,0,0,0,0,0,0,1,1,0,0,0,false,false,true,-464.34998,-4171.5,17.01,0.0020257458,0.0043347185,-0.4235821,0.905845,-465.531,5.711,8.321,0,0.00071,5.02251
82.40833,2000,0,91.24,0.000002697398,0.000002697398,0.000002697398,0.99999994,0,0,0,0,0,0,1,1,0,0,0,false,false,true,-468.22998,-4171.4497,17.01,0.0019340344,0.004377877,-0.404533,0.9145108,-458.551,2.8409998,8.321,-0.00010999999,0.00061,5.00441
82.416664,2000,0,91.24,0.000002697398,0.000002697398,0.000002697398,0.99999994,0,0,0,0,0,0,1,1,0,0,0,false,false,true,-472.05,-4171.4297,17.01,0.0018423229,0.0044210353,-0.38537604,0.92274714,-451.641,0.211,8.311,-0.00010999999,0.00061,4.98141
82.425,2000,0,91.24,0.000002697398,0.000002697398,0.000002697398,0.99999994,0,0,0,0,0,0,1,1,0,0,0,false,false,true,-475.81,-4171.4297,17.01,0.0017506114,0.004458799,-0.3661435,0.930546,-444.651,-2.241,8.311,-0.00021,0.00051,4.95741
82.433334,2000,0,91.24,0.000002697398,0.000002697398,0.000002697398,0.99999994,0,0,0,0,0,0,1,1,0,0,0,false,false,true,-479.52,-4171.4497,17.01,0.0016588998,0.0044965623,-0.34684622,0.9379097,-437.591,-4.521,8.311,-0.00030999997,0.00040999998,4.93281
82.441666,2000,0,91.24,0.000002697398,0.000002697398,0.000002697398,0.99999994,0,0,0,0,0,0,1,1,0,0,0,false,false,true,-483.16998,-4171.4897,17.01,0.0015617936,0.004528932,-0.3274951,0.9448407,-430.461,-6.621,8.311,-0.00040999998,0.00030999997,4.9078097
82.45,2000,0,91.24,0.000002697398,0.000002697398,0.000002697398,0.99999994,0,0,0,0,0,0,1,1,0,0,0,false,false,true,-486.75998,-4171.54,17.01,0.0014646873,0.0045613004,-0.3081061,0.9513399,-423.271,-8.541,8.311,-0.00051,0.00021,4.88241
82.458336,2000,0,91.24,0.000002697398,0.000002697398,0.000002697398,0.99999994,0,0,0,0,0,0,1,1,0,0,0,false,false,true,-490.28998,-4171.61,17.01,0.0013675808,0.004588274,-0.28869012,0.9574106,-416.031,-10.271,8.311,-0.00051,0.00010999999,4.85681
82.46667,2000,0,91.24,0.000002697398,0.000002697398,0.000002697398,0.99999994,0,0,0,0,0,0,1,1,0,0,0,false,false,true,-493.75998,-4171.6997,17.01,0.0012704745,0.004615248,-0.26925796,0.96305615,-408.741,-11.821,8.311,-0.00051,0.00010999999,4.8312097
82.475,2000,0,91.24,0.000002697398,0.000002697398,0.000002697398,0.99999994,0,0,0,0,0,0,1,1,0,0,0,false,false,true,-497.16998,-4171.8,17.01,0.0011733681,0.004642222,-0.2498205,0.96828026,-401.411,-13.181,8.311,-0.00051,0,4.80571
82.48333,2000,0,91.24,0.000002697398,0.000002697398,0.000002697398,0.99999994,0,0,0,0,0,0,1,1,0,0,0,false,false,true,-500.52,-4171.9097,17.01,0.0010762617,0.0046638013,-0.23038296,0.9730882,-394.041,-14.351,8.311,-0.00040999998,0,4.78051
82.49167,2000,0,91.24,0.000002697398,0.000002697398,0.000002697398,0.99999994,0,0,0,0,0,0,1,1,0,0,0,false,false,true,-503.8,-4172.03,17.01,0.0009791554,0.0046853805,-0.21095622,0.97748375,-386.631,-15.321,8.311,-0.00040999998,0,4.75581
82.5,2000,0,91.24,0.000002697398,0.000002697398,0.000002697398,0.99999994,0,0,0,0,0,0,1,1,0,0,0,false,false,true,-507.02,-4172.1597,17.01,0.0008820492,0.004701565,-0.19154567,0.981472,-379.191,-16.101,8.311,-0.00030999997,-0.00010999999,4.73171
82.50833,2000,0,91.24,0.000002697398,0.000002697398,0.000002697398,0.99999994,0,0,0,0,0,0,1,1,0,0,0,false,false,true,-510.18,-4172.29,17.01,0.00079033757,0.0047177486,-0.17216209,0.9850569,-371.721,-16.681,8.311,-0.00021,-0.00010999999,4.70841
82.51667,2000,0,91.24,0.000002697398,0.000002697398,0.000002697398,0.99999994,0,0,0,0,0,0,1,1,0,0,0,false,false,true,-513.27997,-4172.4297,17.01,0.0006986261,0.0047339336,-0.15280549,0.98824465,-364.211,-17.060999,8.311,-0.00021,-0.00021,4.68611
82.525,2000,0,91.24,0.000002697398,0.000002697398,0.000002697398,0.99999994,0,0,0,0,0,0,1,1,0,0,0,false,false,true,-516.31,-4172.57,17.01,0.0006069146,0.004744723,-0.13348125,0.99103975,-356.681,-17.241,8.311,-0.00021,-0.00030999997,4.66491
82.53333,2000,0,91.24,0.000002697398,0.000002697398,0.000002697398,0.99999994,0,0,0,0,0,0,1,1,0,0,0,false,false,true,-519.27997,-4172.71,17.01,0.000515203,0.004755513,-0.114194766,0.9934468,-349.121,-17.210999,8.311,-0.00021,-0.00030999997,4.64501
82.541664,2000,0,91.24,0.000002697398,0.000002697398,0.000002697398,0.99999994,0,0,0,0,0,0,1,1,0,0,0,false,false,true,-522.19,-4172.85,17.01,0.0004234915,0.0047609075,-0.094946094,0.9954709,-341.541,-16.970999,8.311,-0.00021,-0.00030999997,4.62661
82.55,2000,0,91.24,0.000002697398,0.000002697398,0.000002697398,0.99999994,0,0,0,0,0,0,1,1,0,0,0,false,false,true,-525.04,-4172.9897,17.01,0.00033177997,0.004766302,-0.07574053,0.997116,-333.931,-16.511,8.311,-0.00010999999,-0.00030999997,4.60991
82.558334,2000,0,91.24,0.000002697398,0.000002697398,0.000002697398,0.99999994,0,0,0,0,0,0,1,1,0,0,0,false,false,true,-527.82,-4173.13,17.01,0.00024006843,0.004771697,-0.05657274,0.998387,-326.301,-15.831,8.311,-0.00010999999,-0.00030999997,4.59501
82.566666,2000,0,91.24,0.000002697398,0.000002697398,0.000002697398,0.99999994,0,0,0,0,0,0,1,1,0,0,0,false,false,true,-530.54,-4173.26,17.01,0.00014835688,0.0047716964,-0.0374481,0.999287,-318.661,-14.9210005,8.311,0,-0.00040999998,4.58211
82.575,2000,0,91.24,0.000002697398,0.000002697398,0.000002697398,0.99999994,0,0,0,0,0,0,1,1,0,0,0,false,false,true,-533.2,-4173.38,17.01,0.000056645353,0.0047716964,-0.01836127,0.9998199,-311.011,-13.781,8.311,0,-0.00040999998,4.57131
82.583336,2000,0,91.24,0.000002697398,0.000002697398,0.000002697398,0.99999994,0,0,0,0,0,0,1,1,0,0,0,false,false,true,-535.79,-4173.4897,17.01,-0.000035066172,0.004771697,0.0006824417,0.9999883,-303.351,-12.391,8.311,0,-0.00040999998,4.56291
82.59167,2000,0,91.24,0.000002697398,0.000002697398,0.000002697398,0.99999994,0,0,0,0,0,0,1,1,0,0,0,false,false,true,-538.32,-4173.59,17.01,-0.00012677768,0.0047663017,0.019693784,0.99979454,-295.681,-10.751,8.311,0,-0.00040999998,4.5570097
82.6,2000,0,91.24,0.000002697398,0.000002697398,0.000002697398,0.99999994,0,0,0,0,0,0,1,1,0,0,0,false,false,true,-540.77997,-4173.6797,17.01,-0.00021848925,0.0047609075,0.038672764,0.9992405,-288.021,-8.851,8.311,0,-0.00040999998,4.55381
82.60833,2000,0,91.24,0.000002697398,0.000002697398,0.000002697398,0.99999994,0,0,0,0,0,0,1,1,0,0,0,false,false,true,-543.18,-4173.75,17.01,-0.00031020076,0.004755513,0.05762477,0.9983269,-280.371,-6.6809998,8.311,0.00010999999,-0.00040999998,4.5535097
82.61667,2000,0,91.24,0.000002697398,0.000002697398,0.000002697398,0.99999994,0,0,0,0,0,0,1,1,0,0,0,false,false,true,-545.51996,-4173.81,17.01,-0.00040191232,0.004744723,0.0765551,0.9970539,-272.731,-4.231,8.311,0.00021,-0.00040999998,4.5563097
82.625,2000,0,91.24,0.000002697398,0.000002697398,0.000002697398,0.99999994,0,0,0,0,0,0,1,1,0,0,0,false,false,true,-547.79,-4173.84,17.01,-0.00049362384,0.0047339336,0.09546935,0.99542093,-265.121,-1.4810001,8.311,0.00030999997,-0.00040999998,4.56251
82.63333,2000,0,91.24,0.000002697398,0.000002697398,0.000002697398,0.99999994,0,0,0,0,0,0,1,1,0,0,0,false,false,true,-550,-4173.85,17.01,-0.00057994056,0.0047231438,0.1143728,0.99342644,-257.54102,1.561,8.311,0.00040999998,-0.00040999998,4.57231
82.64167,2000,0,91.24,0.000002697398,0.000002697398,0.000002697398,0.99999994,0,0,0,0,0,0,1,1,0,0,0,false,false,true,-552.14996,-4173.84,17.01,-0.0006662573,0.0047069597,0.13327624,0.99106747,-250.011,4.921,8.311,0.00051,-0.00040999998,4.58591
82.65,2000,0,91.24,0.000002697398,0.000002697398,0.000002697398,0.99999994,0,0,0,0,0,0,1,1,0,0,0,false,false,true,-554.23,-4173.8,17.01,-0.0007525741,0.0046907756,0.15219049,0.9883397,-242.541,8.621,8.311,0.00051,-0.00030999997,4.6037097
82.65833,2000,0,91.24,0.000002697398,0.000002697398,0.000002697398,0.99999994,0,0,0,0,0,0,1,1,0,0,0,false,false,true,-556.25,-4173.73,17.01,-0.00083889085,0.004674591,0.17112093,0.98523855,-235.141,12.621,8.311,0.00051,-0.00030999997,4.6244097
82.666664,2000,0,91.24,0.000002697398,0.000002697398,0.000002697398,0.99999994,0,0,0,0,0,0,1,1,0,0,0,false,false,true,-558.20996,-4173.62,17.01,-0.00092520745,0.0046584057,0.1900729,0.98175836,-227.821,16.831,8.311,0.00051,-0.00021,4.64521
82.675,2000,0,91.24,0.000002697398,0.000002697398,0.000002697398,0.99999994,0,0,0,0,0,0,1,1,0,0,0,false,false,true,-560.11,-4173.48,17.01,-0.0010115242,0.004636827,0.20903562,0.97789645,-220.58101,21.271,8.311,0.00051,-0.00021,4.66641
82.683334,2000,0,91.24,0.000002697398,0.000002697398,0.000002697398,0.99999994,0,0,0,0,0,0,1,1,0,0,0,false,false,true,-561.95,-4173.3,17.01,-0.001097841,0.004615248,0.22800921,0.97364736,-213.421,25.950998,8.311,0.00051,-0.00021,4.6883097
82.691666,2000,0,91.24,0.000002697398,0.000002697398,0.000002697398,0.99999994,0,0,0,0,0,0,1,1,0,0,0,false,false,true,-563.73,-4173.08,17.01,-0.0011841578,0.0045936694,0.2469828,0.9690082,-206.33101,30.890999,8.311,0.00051,-0.00010999999,4.71141
82.7,2000,0,91.24,0.000002697398,0.000002697398,0.000002697398,0.99999994,0,0,0,0,0,0,1,1,0,0,0,false,false,true,-565.45,-4172.82,17.01,-0.0012704745,0.0045666946,0.26595637,0.96397334,-199.291,36.131,8.311,0.00040999998,-0.00010999999,4.73661
82.708336,2000,0,91.24,0.000002697398,0.000002697398,0.000002697398,0.99999994,0,0,0,0,0,0,1,1,0,0,0,false,false,true,-567.11,-4172.52,17.01,-0.0013567912,0.0045397207,0.28492993,0.95853657,-192.181,41.771,8.311,0.00030999997,0,4.76671
82.71667,2000,0,91.24,0.000002697398,0.000002697398,0.000002697398,0.99999994,0,0,0,0,0,0,1,1,0,0,0,false,false,true,-568.70996,-4172.17,17.01,-0.0014431081,0.0045127473,0.30390894,0.9526893,-185.351,47.621,8.311,0.00030999997,0,4.79491
82.725,2000,0,91.24,0.000002697398,0.000002697398,0.000002697398,0.99999994,0,0,0,0,0,0,1,1,0,0,0,false,false,true,-570.25,-4171.77,17.01,-0.0015294247,0.0044803782,0.3228825,0.94642717,-179.05101,53.521,8.311,0.00040999998,0,4.8168097
82.73333,2000,0,91.24,0.000002697398,0.000002697398,0.000002697398,0.99999994,0,0,0,0,0,0,1,1,0,0,0,false,false,true,-571.74,-4171.32,17.01,-0.0016157415,0.0044480097,0.34181288,0.9397561,-173.19101,59.501,8.311,0.00061,0,4.8344097
82.74167,2000,0,91.24,0.000002697398,0.000002697398,0.000002697398,0.99999994,0,0,0,0,0,0,1,1,0,0,0,false,false,true,-573.18,-4170.82,17.01,-0.0017020582,0.004415641,0.36067316,0.93268025,-167.531,65.751,8.311,0.00071,0,4.85331
82.75,2000,0,91.24,0.000002697398,0.000002697398,0.000002697398,0.99999994,0,0,0,0,0,0,1,1,0,0,0,false,false,true,-574.58,-4170.27,17.01,-0.0017883751,0.0043778773,0.37945792,0.9251969,-162.08101,72.270996,8.311,0.00071,0,4.87361
82.75833,2000,0,91.24,0.000002697398,0.000002697398,0.000002697398,0.99999994,0,0,0,0,0,0,1,1,0,0,0,false,false,true,-575.93,-4169.67,17.01,-0.0018746917,0.004340113,0.39816713,0.91730064,-156.811,79.131,8.311,0.00071,0,4.89741
82.76667,2000,0,91.24,0.000002697398,0.000002697398,0.000002697398,0.99999994,0,0,0,0,0,0,1,1,0,0,0,false,false,true,-577.24,-4169.01,17.01,-0.0019610086,0.0043023503,0.4168009,0.9089855,-151.781,86.300995,8.311,0.00071,0,4.92261
82.775,2000,0,91.24,0.000002697398,0.000002697398,0.000002697398,0.99999994,0,0,0,0,0,0,1,1,0,0,0,false,false,true,-578.5,-4168.29,17.01,-0.0020473248,0.004259191,0.43535358,0.900247,-147.02101,93.781,8.311,0.00071,0,4.94901
82.78333,2000,0,91.24,0.000002697398,0.000002697398,0.000002697398,0.99999994,0,0,0,0,0,0,1,1,0,0,0,false,false,true,-579.73,-4167.51,17.01,-0.0021336419,0.004216033,0.4538255,0.891078,-142.511,101.451,8.311,0.00071,0.00010999999,4.97431
82.791664,2000,0,91.24,0.000002697398,0.000002697398,0.000002697398,0.99999994,0,0,0,0,0,0,1,1,0,0,0,false,false,true,-580.92,-4166.6597,17.01,-0.0022199587,0.0041674804,0.47219482,0.8814815,-138.291,109.241,8.311,0.00061,0.00010999999,4.9980097
82.808334,2000,0,91.24,0.000002697398,0.000002697398,0.000002697398,0.99999994,0,0,0,0,0,0,1,1,0,0,0,false,false,true,-583.19,-4164.77,17.01,-0.0023871972,0.0040703737,0.50856125,0.8610128,-130.851,124.851,8.301001,0.00040999998,0.00021,5.03751
82.816666,2000,0,91.24,0.000002697398,0.000002697398,0.000002697398,0.99999994,0,0,0,0,0,0,1,1,0,0,0,false,false,true,-584.27997,-4163.73,17.01,-0.0024681191,0.00402182,0.5265206,0.8501492,-127.65099,132.651,8.301001,0.00030999997,0.00021,5.05361
82.825,2000,0,91.24,0.000002697398,0.000002697398,0.000002697398,0.99999994,0,0,0,0,0,0,1,1,0,0,0,false,false,true,-585.33997,-4162.62,17.01,-0.002549041,0.0039678724,0.5443019,0.83887607,-124.800995,140.44101,8.301001,0.00021,0.00010999999,5.06731
82.833336,2000,0,91.24,0.000002697398,0.000002697398,0.000002697398,0.99999994,0,0,0,0,0,0,1,1,0,0,0,false,false,true,-586.38,-4161.4497,17.01,-0.002629963,0.0039139246,0.561889,0.8271991,-122.311,148.211,8.301001,0.00010999999,0.00010999999,5.07861
82.84167,2000,0,91.24,0.000002697398,0.000002697398,0.000002697398,0.99999994,0,0,0,0,0,0,1,1,0,0,0,false,false,true,-587.39996,-4160.21,17.01,-0.002710885,0.0038599768,0.5792657,0.81512505,-120.131,156.091,8.301001,0,0.00010999999,5.0844097
82.85,2000,0,91.24,0.000002697398,0.000002697398,0.000002697398,0.99999994,0,0,0,0,0,0,1,1,0,0,0,false,false,true,-588.39996,-4158.9097,17.01,-0.002791807,0.0038006338,0.5964051,0.80266964,-118.270996,164.08101,8.301001,-0.00010999999,0.00010999999,5.08621
82.85833,2000,0,91.24,0.000002697398,0.000002697398,0.000002697398,0.99999994,0,0,0,0,0,0,1,1,0,0,0,false,false,true,-589.39,-4157.54,17.01,-0.002872729,0.0037412911,0.61328006,0.78985137,-116.72099,172.251,8.301001,-0.00021,0.00010999999,5.0826097
82.86667,2000,0,91.24,0.000002697398,0.000002697398,0.000002697398,0.99999994,0,0,0,0,0,0,1,1,0,0,0,false,false,true,-590.36,-4156.1,17.01,-0.0029536507,0.003681948,0.6298691,0.7766868,-115.421,180.821,8.301001,-0.00040999998,0.00021,5.07151
82.875,2000,0,91.24,0.000002697398,0.000002697398,0.000002697398,0.99999994,0,0,0,0,0,0,1,1,0,0,0,false,false,true,-591.32,-4154.59,17.01,-0.003029178,0.0036226057,0.64613986,0.76320434,-114.541,189.19101,8.301001,-0.00040999998,0.00021,5.06131
82.88333,2000,0,91.24,0.000002697398,0.000002697398,0.000002697398,0.99999994,0,0,0,0,0,0,1,1,0,0,0,false,false,true,-592.26996,-4153.01,17.01,-0.0031047051,0.003557868,0.6620924,0.74940723,-114.101,197.311,8.301001,-0.00040999998,0.00010999999,5.05271
82.89167,2000,0,91.24,0.000002697398,0.000002697398,0.000002697398,0.99999994,0,0,0,0,0,0,1,1,0,0,0,false,false,true,-593.22,-4151.37,17.01,-0.0031802324,0.0034931304,0.67772114,0.7353037,-114.061,205.261,8.301001,-0.00040999998,0,5.04421
82.9,2000,0,91.24,0.000002697398,0.000002697398,0.000002697398,0.99999994,0,0,0,0,0,0,1,1,0,0,0,false,false,true,-594.17,-4149.6597,17.01,-0.003255759,0.0034283926,0.6930261,0.7208968,-114.410995,213.071,8.301001,-0.00040999998,0,5.0352097
82.90833,2000,0,91.24,0.000002697398,0.000002697398,0.000002697398,0.99999994,0,0,0,0,0,0,1,1,0,0,0,false,false,true,-595.12,-4147.88,17.01,-0.003325892,0.0033582605,0.70799613,0.70620036,-115.141,220.741,8.301001,-0.00040999998,0,5.02561
82.916664,2000,0,91.24,0.000002697398,0.000002697398,0.000002697398,0.99999994,0,0,0,0,0,0,1,1,0,0,0,false,false,true,-596.08,-4146.04,17.01,-0.0033960242,0.0032881282,0.72262985,0.691219,-116.251,228.261,8.301001,-0.00040999998,-0.00010999999,5.0152097
82.925,2000,0,91.24,0.000002697398,0.000002697398,0.000002697398,0.99999994,0,0,0,0,0,0,1,1,0,0,0,false,false,true,-597.05,-4144.14,17.01,-0.0034661568,0.003217996,0.7369158,0.67596793,-117.741,235.61101,8.301001,-0.00040999998,-0.00021,5.00411
82.933334,2000,0,91.24,0.000002697398,0.000002697398,0.000002697398,0.99999994,0,0,0,0,0,0,1,1,0,0,0,false,false,true,-598.02997,-4142.1797,17.01,-0.0035362889,0.0031478636,0.7508482,0.66045773,-119.590996,242.791,8.301001,-0.00040999998,-0.00021,4.99231
82.941666,2000,0,91.24,0.000002697398,0.000002697398,0.000002697398,0.99999994,0,0,0,0,0,0,1,1,0,0,0,false,false,true,-599.02997,-4140.1597,17.01,-0.0036010265,0.0030723363,0.76442134,0.64469945,-121.800995,249.781,8.301001,-0.00040999998,-0.00030999997,4.97991
82.95,2000,0,91.24,0.000002697398,0.000002697398,0.000002697398,0.99999994,0,0,0,0,0,0,1,1,0,0,0,false,false,true,-600.04,-4138.08,17.01,-0.0036657641,0.0029968095,0.77763474,0.62869847,-124.370995,256.561,8.301001,-0.00040999998,-0.00030999997,4.96691
82.958336,2000,0,91.24,0.000002697398,0.000002697398,0.000002697398,0.99999994,0,0,0,0,0,0,1,1,0,0,0,false,false,true,-601.07996,-4135.94,17.01,-0.0037305015,0.002921282,0.7904789,0.61247087,-127.281,263.121,8.301001,-0.00040999998,-0.00030999997,4.95331
82.96667,2000,0,91.24,0.000002697398,0.000002697398,0.000002697398,0.99999994,0,0,0,0,0,0,1,1,0,0,0,false,false,true,-602.14,-4133.75,17.01,-0.0037898442,0.0028457548,0.80294997,0.59602743,-130.52101,269.451,8.301001,-0.00040999998,-0.00030999997,4.93931
82.975,2000,0,91.24,0.000002697398,0.000002697398,0.000002697398,0.99999994,0,0,0,0,0,0,1,1,0,0,0,false,false,true,-603.23,-4131.5,17.01,-0.0038491872,0.0027702278,0.81504434,0.579379,-134.091,275.521,8.301001,-0.00040999998,-0.00040999998,4.92491
82.98333,2000,0,91.24,0.000002697398,0.000002697398,0.000002697398,0.99999994,0,0,0,0,0,0,1,1,0,0,0,false,false,true,-604.35,-4129.1997,17.01,-0.0039085294,0.002689306,0.8267625,0.562531,-137.97101,281.331,8.301001,-0.00030999997,-0.00051,4.9102097
82.99167,2000,0,91.24,0.000002697398,0.000002697398,0.000002697398,0.99999994,0,0,0,0,0,0,1,1,0,0,0,false,false,true,-605.5,-4126.85,17.01,-0.003967872,0.0026083835,0.83809745,0.54549956,-142.141,286.861,8.301001,-0.00030999997,-0.00051,4.89531
83,2000,0,91.24,0.000002697398,0.000002697398,0.000002697398,0.99999994,0,0,0,0,0,0,1,1,0,0,0,false,false,true,-606.68,-4124.46,17.01,-0.0040218197,0.0025274616,0.84905046,0.52829003,-146.601,292.091,8.301001,-0.00021,-0.00051,4.88031
83.00833,2000,0,91.24,0.000002697398,0.000002697398,0.000002697398,0.99999994,0,0,0,0,0,0,1,1,0,0,0,false,false,true,-607.89996,-4122.03,17.01,-0.0040757684,0.00244654,0.85961574,0.5109188,-151.321,297.011,8.301001,-0.00021,-0.00051,4.8653097
83.01667,2000,0,91.24,0.000002697398,0.000002697398,0.000002697398,0.99999994,0,0,0,0,0,0,1,1,0,0,0,false,false,true,-609.16,-4119.55,17.01,-0.0041243215,0.002365618,0.86979455,0.49339104,-156.30101,301.611,8.301001,-0.00010999999,-0.00051,4.85031
83.025,2000,0,91.24,0.000002697398,0.000002697398,0.000002697398,0.99999994,0,0,0,0,0,0,1,1,0,0,0,false,false,true,-610.45996,-4117.04,17.01,-0.004172875,0.0022793016,0.87958807,0.4757123,-161.511,305.881,8.301001,-0.00010999999,-0.00051,4.83541
83.03333,2000,0,91.24,0.000002697398,0.000002697398,0.000002697398,0.99999994,0,0,0,0,0,0,1,1,0,0,0,false,false,true,-611.81,-4114.4897,17.01,-0.0042214277,0.0021929846,0.8889944,0.4578932,-166.94101,309.811,8.301001,-0.00010999999,-0.00051,4.8207097
83.041664,2000,0,91.24,0.000002697398,0.000002697398,0.000002697398,0.99999994,0,0,0,0,0,0,1,1,0,0,0,false,false,true,-613.2,-4111.9097,17.01,-0.004264586,0.0021066677,0.8980122,0.43994462,-172.571,313.381,8.301001,-0.00010999999,-0.00051,4.8063097
83.05,2000,0,91.24,0.000002697398,0.000002697398,0.000002697398,0.99999994,0,0,0,0,0,0,1,1,0,0,0,false,false,true,-614.64,-4109.3,17.01,-0.004307744,0.002020351,0.9066428,0.4218719,-178.371,316.591,8.301001,-0.00010999999,-0.00051,4.7923098
83.058334,2000,0,91.24,0.000002697398,0.000002697398,0.000002697398,0.99999994,0,0,0,0,0,0,1,1,0,0,0,false,false,true,-616.13,-4106.6597,17.01,-0.0043509034,0.0019340345,0.91488516,0.40368605,-184.33101,319.431,8.301001,-0.00010999999,-0.00051,4.77881
83.066666,2000,0,91.24,0.000002697398,0.000002697398,0.000002697398,0.99999994,0,0,0,0,0,0,1,1,0,0,0,false,false,true,-617.67,-4104,17.01,-0.0043886667,0.0018477177,0.9227405,0.3853922,-190.44101,321.901,8.301001,-0.00010999999,-0.00051,4.76601
83.075,2000,0,91.24,0.000002697398,0.000002697398,0.000002697398,0.99999994,0,0,0,0,0,0,1,1,0,0,0,false,false,true,-619.26,-4101.32,17.01,-0.0044264304,0.0017614011,0.9302103,0.36699596,-196.72101,324.021,8.301001,-0.00010999999,-0.00051,4.75501
83.083336,2000,0,91.24,0.000002697398,0.000002697398,0.000002697398,0.99999994,0,0,0,0,0,0,1,1,0,0,0,false,false,true,-620.89996,-4098.62,17.01,-0.0044641937,0.0016750842,0.9372977,0.3484971,-203.141,325.781,8.301001,-0.00010999999,-0.00051,4.7456098
83.09167,2000,0,91.24,0.000002697398,0.000002697398,0.000002697398,0.99999994,0,0,0,0,0,0,1,1,0,0,0,false,false,true,-622.58997,-4095.9,17.01,-0.0044965623,0.0015887675,0.94400525,0.32989573,-209.681,327.171,8.301001,0,-0.00051,4.73771
83.1,2000,0,91.24,0.000002697398,0.000002697398,0.000002697398,0.99999994,0,0,0,0,0,0,1,1,0,0,0,false,false,true,-624.33997,-4093.17,17.01,-0.0045289313,0.0014970559,0.9503333,0.31119728,-216.311,328.191,8.301001,0,-0.00051,4.73141
83.10833,2000,0,91.24,0.000002697398,0.000002697398,0.000002697398,0.99999994,0,0,0,0,0,0,1,1,0,0,0,false,false,true,-626.14,-4090.43,17.01,-0.0045613004,0.0014053445,0.9562836,0.29240176,-223.021,328.841,8.301001,0,-0.00051,4.72671
83.11667,2000,0,91.24,0.000002697398,0.000002697398,0.000002697398,0.99999994,0,0,0,0,0,0,1,1,0,0,0,false,false,true,-628,-4087.69,17.01,-0.0045882743,0.0013136329,0.961856,0.2735145,-229.771,329.121,8.301001,0,-0.00040999998,4.72361
83.125,2000,0,91.24,0.000002697398,0.000002697398,0.000002697398,0.99999994,0,0,0,0,0,0,1,1,0,0,0,false,false,true,-629.91,-4084.95,17.01,-0.004615248,0.0012219213,0.967053,0.2545302,-236.631,329.051,8.301001,0,-0.00040999998,4.7217097
83.13333,2000,0,91.24,0.000002697398,0.000002697398,0.000002697398,0.99999994,0,0,0,0,0,0,1,1,0,0,0,false,false,true,-631.88,-4082.21,17.01,-0.0046422225,0.0011302099,0.9718737,0.23545413,-243.58101,328.621,8.301001,0,-0.00030999997,4.72091
83.14167,2000,0,91.24,0.000002697398,0.000002697398,0.000002697398,0.99999994,0,0,0,0,0,0,1,1,0,0,0,false,false,true,-633.91,-4079.47,17.01,-0.0046638018,0.0010384984,0.97631705,0.21629173,-250.61101,327.841,8.311,0,-0.00021,4.72111
83.15,2000,0,91.24,0.000002697398,0.000002697398,0.000002697398,0.99999994,0,0,0,0,0,0,1,1,0,0,0,false,false,true,-636,-4076.74,17.01,-0.0046853805,0.0009467867,0.9803821,0.19704838,-257.691,326.701,8.311,0,-0.00010999999,4.72221
83.15833,2000,0,91.24,0.000002697398,0.000002697398,0.000002697398,0.99999994,0,0,0,0,0,0,1,1,0,0,0,false,false,true,-638.14996,-4074.02,17.01,-0.0047015646,0.0008550752,0.9840687,0.17772414,-264.811,325.211,8.311,0,0,4.72411
83.166664,2000,0,91.24,0.000002697398,0.000002697398,0.000002697398,0.99999994,0,0,0,0,0,0,1,1,0,0,0,false,false,true,-640.36,-4071.3098,17.01,-0.004717749,0.00076336367,0.9873764,0.15831897,-271.951,323.371,8.311,0,0,4.72681
83.175,2000,0,91.24,0.000002697398,0.000002697398,0.000002697398,0.99999994,0,0,0,0,0,0,1,1,0,0,0,false,false,true,-642.63,-4068.6099,17.01,-0.0047339336,0.0006716521,0.9903027,0.13884367,-279.091,321.181,8.311,0,0,4.73021
83.183334,2000,0,91.24,0.000002697398,0.000002697398,0.000002697398,0.99999994,0,0,0,0,0,0,1,1,0,0,0,false,false,true,-644.95996,-4065.93,17.01,-0.0047447234,0.0005799406,0.9928469,0.11929826,-286.221,318.641,8.311,0,0,4.7343097
83.191666,2000,0,91.24,0.000002697398,0.000002697398,0.000002697398,0.99999994,0,0,0,0,0,0,1,1,0,0,0,false,false,true,-647.35,-4063.27,17.01,-0.0047555133,0.0004882291,0.9950067,0.09969357,-293.321,315.761,8.311,0,0,4.73911
83.2,2000,0,91.24,0.000002697398,0.000002697398,0.000002697398,0.99999994,0,0,0,0,0,0,1,1,0,0,0,false,false,true,-649.79,-4060.64,17.01,-0.0047663017,0.00039651748,0.9967809,0.08002943,-300.371,312.541,8.311,0,0,4.7445097
83.208336,2000,0,91.24,0.000002697398,0.000002697398,0.000002697398,0.99999994,0,0,0,0,0,0,1,1,0,0,0,false,false,true,-652.29,-4058.03,17.01,-0.004771697,0.000304806,0.9981681,0.060311377,-307.361,308.981,8.311,0,0,4.75041
83.21667,2000,0,91.24,0.000002697398,0.000002697398,0.000002697398,0.99999994,0,0,0,0,0,0,1,1,0,0,0,false,false,true,-654.85,-4055.45,17.01,-0.004777092,0.00020769965,0.9991662,0.04054476,-314.281,305.091,8.311,0,0,4.75691
83.225,2000,0,91.24,0.000002697398,0.000002697398,0.000002697398,0.99999994,0,0,0,0,0,0,1,1,0,0,0,false,false,true,-657.47,-4052.91,17.01,-0.0047824867,0.00011059332,0.9997735,0.020734983,-321.111,300.881,8.311,0,0,4.76391
83.23333,2000,0,91.24,0.000002697398,0.000002697398,0.000002697398,0.99999994,0,0,0,0,0,0,1,1,0,0,0,false,false,true,-660.14996,-4050.4,17.01,-0.004782487,0.0000134869915,0.99998814,0.000887444,-327.851,296.351,8.311,0,0,4.77131
83.24167,2000,0,91.24,0.000002697398,0.000002697398,0.000002697398,0.99999994,0,0,0,0,0,0,1,1,0,0,0,false,false,true,-662.88,-4047.93,17.01,-0.0047824867,-0.000083619336,0.99980813,-0.018992463,-334.471,291.501,8.311,-0.00010999999,0,4.77921
83.25,2000,0,91.24,0.000002697398,0.000002697398,0.000002697398,0.99999994,0,0,0,0,0,0,1,1,0,0,0,false,false,true,-665.67,-4045.5,17.01,-0.004782487,-0.00018072568,0.99923164,-0.038899347,-340.971,286.341,8.311,-0.00021,0,4.78751
83.25833,2000,0,91.24,0.000002697398,0.000002697398,0.000002697398,0.99999994,0,0,0,0,0,0,1,1,0,0,0,false,false,true,-668.51,-4043.1099,17.01,-0.0047770916,-0.00027783198,0.99825686,-0.058822364,-347.331,280.881,8.311,-0.00030999997,0.00010999999,4.79621
83.26667,2000,0,91.24,0.000002697398,0.000002697398,0.000002697398,0.99999994,0,0,0,0,0,0,1,1,0,0,0,false,false,true,-671.39996,-4040.77,17.01,-0.004771697,-0.00036954353,0.9968824,-0.07875623,-353.551,275.121,8.311,-0.00030999997,0.00010999999,4.80531
83.275,2000,0,91.24,0.000002697398,0.000002697398,0.000002697398,0.99999994,0,0,0,0,0,0,1,1,0,0,0,false,false,true,-674.35,-4038.48,17.01,-0.004760907,-0.00046125503,0.9951055,-0.098700866,-359.611,269.071,8.311,-0.00030999997,0.00010999999,4.8147097
83.28333,2000,0,91.24,0.000002697398,0.000002697398,0.000002697398,0.99999994,0,0,0,0,0,0,1,1,0,0,0,false,false,true,-677.35,-4036.24,17.01,-0.004750117,-0.00055296655,0.99292564,-0.11864011,-365.511,262.731,8.311,-0.00030999997,0.00010999999,4.82451
