time,ball_loc_x,ball_loc_y,ball_loc_z,ball_rot_x,ball_rot_y,ball_rot_z,ball_rot_w,ball_vel_x,ball_vel_y,ball_vel_z,ball_ang_x,ball_ang_y,ball_ang_z,player0_throttle,player0_steer,player0_pitch,player0_yaw,player0_roll,player0_jump,player0_boost,player0_handbrake,player0_loc_x,player0_loc_y,player0_loc_z,player0_rot_x,player0_rot_y,player0_rot_z,player0_rot_w,player0_vel_x,player0_vel_y,player0_vel_z,player0_ang_x,player0_ang_y,player0_ang_z
249.30833,2000,0,91.24,0.000002697398,0.000002697398,0.000002697398,0.99999994,0,0,0,0,0,0,1,0,0,0,0,false,true,false,0,-3330.1099,16.99,-0.00336905,0.003374445,0.70711225,0.70708513,-0.031,2005.4609,8.411,-0.00061,0,0
249.31667,2000,0,91.24,0.000002697398,0.000002697398,0.000002697398,0.99999994,0,0,0,0,0,0,0,1,0,0,0,false,false,true,0,-3313.4,16.99,-0.00336905,0.003374445,0.70711225,0.70708513,-10.971,2004.591,8.461,-0.00061,0.00281,0.30451
249.325,2000,0,91.24,0.000002697398,0.000002697398,0.000002697398,0.99999994,0,0,0,0,0,0,0,1,0,0,0,false,false,true,-0.089999996,-3296.69,16.99,-0.00336905,0.0033798397,0.70800656,0.7061896,-20.571,2003.7909,8.501,-0.00061,0.00401,0.55291
249.33333,2000,0,91.24,0.000002697398,0.000002697398,0.000002697398,0.99999994,0,0,0,0,0,0,0,1,0,0,0,false,false,true,-0.26,-3279.99,16.99,-0.00336905,0.0033852346,0.70963323,0.704555,-30.251,2002.9609,8.521,-0.00051,0.00441,0.77161
249.34166,2000,0,91.24,0.000002697398,0.000002697398,0.000002697398,0.99999994,0,0,0,0,0,0,0,1,0,0,0,false,false,true,-0.51,-3263.3,16.99,-0.0033690503,0.0033906295,0.71189696,0.70226765,-40.451,2002.0509,8.531,-0.00051,0.0043099998,0.96630996
249.35,2000,0,91.24,0.000002697398,0.000002697398,0.000002697398,0.99999994,0,0,0,0,0,0,0,1,0,0,0,false,false,true,-0.84999996,-3246.6199,16.99,-0.00336905,0.0033906293,0.7147168,0.69939756,-51.450996,2001.0209,8.541,-0.00040999998,0.00391,1.14121
249.35834,2000,0,91.24,0.000002697398,0.000002697398,0.000002697398,0.99999994,0,0,0,0,0,0,0,1,0,0,0,false,false,true,-1.28,-3229.94,16.99,-0.003374445,0.0033852346,0.7180322,0.69599336,-63.371,1999.8109,8.551001,-0.00040999998,0.00331,1.29991
249.36667,2000,0,91.24,0.000002697398,0.000002697398,0.000002697398,0.99999994,0,0,0,0,0,0,0,1,0,0,0,false,false,true,-1.81,-3213.27,16.99,-0.0033852346,0.0033798397,0.72179246,0.6920929,-76.260994,1998.391,8.561,-0.00040999998,0.00271,1.44511
249.375,2000,0,91.24,0.000002697398,0.000002697398,0.000002697398,0.99999994,0,0,0,0,0,0,0,1,0,0,0,false,false,true,-2.45,-3196.6199,16.99,-0.0033960242,0.00336905,0.725947,0.6877339,-90.101,1996.7109,8.561,-0.00030999997,0.00211,1.57881
249.38333,2000,0,91.24,0.000002697398,0.000002697398,0.000002697398,0.99999994,0,0,0,0,0,0,0,1,0,0,0,false,false,true,-3.1999998,-3179.98,16.99,-0.0034122085,0.0033528658,0.7304556,0.68294334,-104.821,1994.731,8.561,-0.00030999997,0.00151,1.7028099
249.39166,2000,0,91.24,0.000002697398,0.000002697398,0.000002697398,0.99999994,0,0,0,0,0,0,0,1,0,0,0,false,false,true,-4.0699997,-3163.3599,16.99,-0.0034337877,0.0033312866,0.73528343,0.6777427,-120.321,1992.4209,8.561,-0.00030999997,0.0010099999,1.81831
249.4,2000,0,91.24,0.000002697398,0.000002697398,0.000002697398,0.99999994,0,0,0,0,0,0,0,1,0,0,0,false,false,true,-5.0699997,-3146.76,16.99,-0.003455367,0.0033097074,0.74039614,0.67215365,-136.47101,1989.751,8.571,-0.00030999997,0.00061,1.9262099
249.40834,2000,0,91.24,0.000002697398,0.000002697398,0.000002697398,0.99999994,0,0,0,0,0,0,0,1,0,0,0,false,false,true,-6.21,-3130.18,16.99,-0.0034823408,0.0032827335,0.7457645,0.6661924,-153.121,1986.7109,8.571,-0.00021,0.00021,2.02721
249.41667,2000,0,91.24,0.000002697398,0.000002697398,0.000002697398,0.99999994,0,0,0,0,0,0,0,1,0,0,0,false,false,true,-7.49,-3113.6199,16.99,-0.0035093152,0.0032557596,0.7513647,0.6598698,-170.101,1983.2909,8.571,-0.00021,0,2.12181
249.425,2000,0,91.24,0.000002697398,0.000002697398,0.000002697398,0.99999994,0,0,0,0,0,0,0,1,0,0,0,false,false,true,-8.91,-3097.0898,16.99,-0.0035362889,0.0032233908,0.7571687,0.65320176,-187.241,1979.501,8.571,-0.00010999999,-0.00021,2.2104099
249.43333,2000,0,91.24,0.000002697398,0.000002697398,0.000002697398,0.99999994,0,0,0,0,0,0,0,1,0,0,0,false,false,true,-10.469999,-3080.5898,16.99,-0.003568658,0.0031910222,0.7631537,0.6461993,-204.351,1975.361,8.571,-0.00010999999,-0.00040999998,2.29321
249.44167,2000,0,91.24,0.000002697398,0.000002697398,0.000002697398,0.99999994,0,0,0,0,0,0,0,1,0,0,0,false,false,true,-12.17,-3064.13,16.99,-0.0036010265,0.0031586532,0.76929265,0.63887846,-221.231,1970.9109,8.571,0,-0.00061,2.37021
249.45,2000,0,91.24,0.000002697398,0.000002697398,0.000002697398,0.99999994,0,0,0,0,0,0,0,1,0,0,0,false,false,true,-14.009999,-3047.71,16.99,-0.0036333953,0.0031208897,0.7755644,0.6312502,-237.671,1966.2009,8.571,0,-0.00071,2.44141
249.45833,2000,0,91.24,0.000002697398,0.000002697398,0.000002697398,0.99999994,0,0,0,0,0,0,0,1,0,0,0,false,false,true,-15.99,-3031.3198,16.99,-0.003665764,0.003083126,0.7819437,0.6233306,-253.441,1961.3009,8.571,0,-0.00081,2.50671
249.46666,2000,0,91.24,0.000002697398,0.000002697398,0.000002697398,0.99999994,0,0,0,0,0,0,0,1,0,0,0,false,false,true,-18.1,-3014.98,16.99,-0.0036981327,0.0030399675,0.7884107,0.6151305,-268.331,1956.3009,8.571,0,-0.00091,2.5659099
249.475,2000,0,91.24,0.000002697398,0.000002697398,0.000002697398,0.99999994,0,0,0,0,0,0,0,1,0,0,0,false,false,true,-20.34,-2998.68,16.99,-0.0037358964,0.0029968093,0.7949423,0.60666597,-282.101,1951.3209,8.571,0,-0.0010099999,2.61871
249.48334,2000,0,91.24,0.000002697398,0.000002697398,0.000002697398,0.99999994,0,0,0,0,0,0,0,1,0,0,0,false,false,true,-22.689999,-2982.42,16.99,-0.00377366,0.002953651,0.8015165,0.5979534,-294.501,1946.491,8.571,0,-0.00111,2.66481
249.49167,2000,0,91.24,0.000002697398,0.000002697398,0.000002697398,0.99999994,0,0,0,0,0,0,0,1,0,0,0,false,false,true,-25.14,-2966.2,16.99,-0.0038114234,0.0029104925,0.8081044,0.5890196,-305.301,1941.981,8.571,0.00010999999,-0.0012099999,2.7039099
249.5,2000,0,91.24,0.000002697398,0.000002697398,0.000002697398,0.99999994,0,0,0,0,0,0,0,1,0,0,0,false,false,true,-27.68,-2950.02,16.99,-0.0038491872,0.0028619394,0.81468713,0.5798807,-314.241,1937.981,8.571,0.00021,-0.00131,2.7355099
249.50833,2000,0,91.24,0.000002697398,0.000002697398,0.000002697398,0.99999994,0,0,0,0,0,0,0,1,0,0,0,false,false,true,-30.3,-2933.8699,16.99,-0.0038869507,0.0028133863,0.82124287,0.5705585,-321.081,1934.721,8.561,0.00030999997,-0.00131,2.75911
249.51666,2000,0,91.24,0.000002697398,0.000002697398,0.000002697398,0.99999994,0,0,0,0,0,0,0,1,0,0,0,false,false,true,-32.98,-2917.75,16.99,-0.0039247135,0.0027648327,0.8277477,0.5610797,-328.211,1931.121,8.561,0.00040999998,-0.00131,2.7820098
249.525,2000,0,91.24,0.000002697398,0.000002697398,0.000002697398,0.99999994,0,0,0,0,0,0,0,1,0,0,0,false,false,true,-35.719997,-2901.66,16.99,-0.0039624777,0.0027162798,0.8341976,0.55144465,-335.621,1927.1609,8.561,0.00040999998,-0.0012099999,2.8045099
249.53334,2000,0,91.24,0.000002697398,0.000002697398,0.000002697398,0.99999994,0,0,0,0,0,0,0,1,0,0,0,false,false,true,-38.52,-2885.5999,16.99,-0.0039948463,0.0026677267,0.8405848,0.5416585,-343.281,1922.841,8.561,0.00051,-0.00111,2.8266098
249.54167,2000,0,91.24,0.000002697398,0.000002697398,0.000002697398,0.99999994,0,0,0,0,0,0,0,1,0,0,0,false,false,true,-41.379997,-2869.5798,16.99,-0.0040272153,0.0026137787,0.84690577,0.5317212,-351.161,1918.141,8.561,0.00051,-0.0010099999,2.84831
249.55,2000,0,91.24,0.000002697398,0.000002697398,0.000002697398,0.99999994,0,0,0,0,0,0,0,1,0,0,0,false,false,true,-44.309998,-2853.5999,16.99,-0.004059584,0.0025598307,0.85315645,0.5216329,-359.231,1913.0609,8.561,0.00051,-0.00091,2.8696098
249.55833,2000,0,91.24,0.000002697398,0.000002697398,0.000002697398,0.99999994,0,0,0,0,0,0,0,1,0,0,0,false,false,true,-47.3,-2837.66,16.99,-0.0040919525,0.0025058826,0.85933316,0.51139355,-367.471,1907.601,8.561,0.00040999998,-0.00081,2.89041
249.56667,2000,0,91.24,0.000002697398,0.000002697398,0.000002697398,0.99999994,0,0,0,0,0,0,0,1,0,0,0,false,false,true,-50.36,-2821.76,16.99,-0.0041243215,0.0024519349,0.865429,0.5010085,-375.851,1901.751,8.561,0.00040999998,-0.00071,2.9107099
249.575,2000,0,91.24,0.000002697398,0.000002697398,0.000002697398,0.99999994,0,0,0,0,0,0,0,1,0,0,0,false,false,true,-53.489998,-2805.91,16.99,-0.00415669,0.0023979868,0.8714404,0.49047783,-384.341,1895.501,8.561,0.00040999998,-0.00061,2.93061
249.58333,2000,0,91.24,0.000002697398,0.000002697398,0.000002697398,0.99999994,0,0,0,0,0,0,0,1,0,0,0,false,false,true,-56.69,-2790.1099,16.99,-0.0041890587,0.0023440386,0.87736374,0.47980148,-392.911,1888.861,8.561,0.00030999997,-0.00051,2.9500098
249.59166,2000,0,91.24,0.000002697398,0.000002697398,0.000002697398,0.99999994,0,0,0,0,0,0,0,1,0,0,0,false,false,true,-59.96,-2774.3699,16.99,-0.0042214277,0.0022900908,0.88319594,0.4689795,-401.531,1881.8209,8.561,0.00030999997,-0.00040999998,2.9688098
249.6,2000,0,91.24,0.000002697398,0.000002697398,0.000002697398,0.99999994,0,0,0,0,0,0,0,1,0,0,0,false,false,true,-63.309998,-2758.69,16.99,-0.0042484016,0.002236143,0.88893026,0.45801726,-410.181,1874.391,8.561,0.00030999997,-0.00030999997,2.98701
249.60834,2000,0,91.24,0.000002697398,0.000002697398,0.000002697398,0.99999994,0,0,0,0,0,0,0,1,0,0,0,false,false,true,-66.729996,-2743.0698,16.99,-0.004275376,0.002182195,0.89456093,0.4469201,-418.831,1866.5709,8.561,0.00030999997,-0.00030999997,3.0046098
249.61667,2000,0,91.24,0.000002697398,0.000002697398,0.000002697398,0.99999994,0,0,0,0,0,0,0,1,0,0,0,false,false,true,-70.22,-2727.51,16.99,-0.00430235,0.002128247,0.9000848,0.4356881,-427.451,1858.361,8.561,0.00030999997,-0.00030999997,3.02161
249.625,2000,0,91.24,0.000002697398,0.000002697398,0.000002697398,0.99999994,0,0,0,0,0,0,0,1,0,0,0,false,false,true,-73.78,-2712.02,16.99,-0.0043293233,0.0020742987,0.90549886,0.42432114,-436.011,1849.771,8.561,0.00030999997,-0.00030999997,3.03791
249.63333,2000,0,91.24,0.000002697398,0.000002697398,0.000002697398,0.99999994,0,0,0,0,0,0,0,1,0,0,0,false,false,true,-77.409996,-2696.6099,16.99,-0.004356297,0.002020351,0.9107976,0.41282487,-444.491,1840.8109,8.561,0.00030999997,-0.00030999997,3.05351
249.64166,2000,0,91.24,0.000002697398,0.000002697398,0.000002697398,0.99999994,0,0,0,0,0,0,0,1,0,0,0,false,false,true,-81.11,-2681.27,16.99,-0.0043832716,0.0019610084,0.91597587,0.4012044,-452.861,1831.491,8.561,0.00030999997,-0.00030999997,3.06831
249.65,2000,0,91.24,0.000002697398,0.000002697398,0.000002697398,0.99999994,0,0,0,0,0,0,0,1,0,0,0,false,false,true,-84.88,-2666.01,16.99,-0.0044102455,0.0019016657,0.9210308,0.38945994,-461.10098,1821.8209,8.561,0.00030999997,-0.00021,3.08231
249.65834,2000,0,91.24,0.000002697398,0.000002697398,0.000002697398,0.99999994,0,0,0,0,0,0,0,1,0,0,0,false,false,true,-88.72,-2650.8298,16.99,-0.00443722,0.0018423229,0.9259554,0.3776021,-469.181,1811.8109,8.561,0.00030999997,-0.00021,3.09551
249.66667,2000,0,91.24,0.000002697398,0.000002697398,0.000002697398,0.99999994,0,0,0,0,0,0,0,1,0,0,0,false,false,true,-92.63,-2635.73,16.99,-0.004458799,0.0017829802,0.93074954,0.36562565,-477.081,1801.471,8.561,0.00030999997,-0.00010999999,3.10771
249.675,2000,0,91.24,0.000002697398,0.000002697398,0.000002697398,0.99999994,0,0,0,0,0,0,0,1,0,0,0,false,false,true,-96.61,-2620.72,16.99,-0.0044803782,0.0017236373,0.93540657,0.35354123,-484.771,1790.8209,8.561,0.00030999997,-0.00010999999,3.11901
249.68333,2000,0,91.24,0.000002697398,0.000002697398,0.000002697398,0.99999994,0,0,0,0,0,0,0,1,0,0,0,false,false,true,-100.65,-2605.8,16.99,-0.0045019574,0.0016642946,0.9399224,0.34135428,-492.231,1779.881,8.561,0.00030999997,-0.00010999999,3.12931
249.69167,2000,0,91.24,0.000002697398,0.000002697398,0.000002697398,0.99999994,0,0,0,0,0,0,0,1,0,0,0,false,false,true,-104.75,-2590.97,16.99,-0.004523536,0.0016049518,0.94429314,0.32907033,-499.451,1768.6609,8.561,0.00030999997,-0.00010999999,3.13851
249.7,2000,0,91.24,0.000002697398,0.000002697398,0.000002697398,0.99999994,0,0,0,0,0,0,0,1,0,0,0,false,false,true,-108.909996,-2576.23,16.99,-0.0045451154,0.0015456091,0.94851536,0.3166946,-506.401,1757.1909,8.561,0.00030999997,-0.00010999999,3.14651
249.70833,2000,0,91.24,0.000002697398,0.000002697398,0.000002697398,0.99999994,0,0,0,0,0,0,0,1,0,0,0,false,false,true,-113.13,-2561.5898,16.99,-0.004566695,0.0014862665,0.95258564,0.30423263,-513.061,1745.481,8.561,0.00030999997,-0.00010999999,3.15341
249.71666,2000,0,91.24,0.000002697398,0.000002697398,0.000002697398,0.99999994,0,0,0,0,0,0,0,1,0,0,0,false,false,true,-117.409996,-2547.04,16.99,-0.004588274,0.0014269236,0.9565009,0.29168963,-519.42096,1733.5609,8.561,0.00030999997,-0.00010999999,3.15901
249.725,2000,0,91.24,0.000002697398,0.000002697398,0.000002697398,0.99999994,0,0,0,0,0,0,0,1,0,0,0,false,false,true,-121.74,-2532.5898,16.99,-0.0046044583,0.0013675808,0.96025676,0.27907658,-525.46094,1721.4509,8.561,0.00030999997,-0.00010999999,3.16331
249.73334,2000,0,91.24,0.000002697398,0.000002697398,0.000002697398,0.99999994,0,0,0,0,0,0,0,1,0,0,0,false,false,true,-126.119995,-2518.24,16.99,-0.0046206424,0.0013028431,0.9638508,0.2663987,-531.17096,1709.1809,8.561,0.00030999997,-0.00010999999,3.16621
249.74167,2000,0,91.24,0.000002697398,0.000002697398,0.000002697398,0.99999994,0,0,0,0,0,0,0,1,0,0,0,false,false,true,-130.55,-2504,16.99,-0.0046368274,0.0012381058,0.9672811,0.25366157,-536.53094,1696.771,8.561,0.00030999997,-0.00010999999,3.1677098
249.75,2000,0,91.24,0.000002697398,0.000002697398,0.000002697398,0.99999994,0,0,0,0,0,0,0,1,0,0,0,false,false,true,-135.02,-2489.8599,16.99,-0.0046530114,0.0011733681,0.97054535,0.24087049,-541.54095,1684.251,8.561,0.00030999997,-0.00010999999,3.16761
249.75833,2000,0,91.24,0.000002697398,0.000002697398,0.000002697398,0.99999994,0,0,0,0,0,0,0,1,0,0,0,false,false,true,-139.53,-2475.8198,16.99,-0.0046691964,0.0011086307,0.97363955,0.22804159,-546.191,1671.641,8.561,0.00030999997,-0.00010999999,3.16601
249.76666,2000,0,91.24,0.000002697398,0.000002697398,0.000002697398,0.99999994,0,0,0,0,0,0,0,1,0,0,0,false,false,true,-144.08,-2461.89,16.99,-0.00468538,0.0010438929,0.9765624,0.21518035,-550.47095,1658.971,8.561,0.00030999997,-0.00010999999,3.16271
249.775,2000,0,91.24,0.000002697398,0.000002697398,0.000002697398,0.99999994,0,0,0,0,0,0,0,1,0,0,0,false,false,true,-148.67,-2448.06,16.99,-0.0047015646,0.0009791554,0.9793134,0.20229213,-554.381,1646.271,8.561,0.00030999997,0,3.1577098
249.78334,2000,0,91.24,0.000002697398,0.000002697398,0.000002697398,0.99999994,0,0,0,0,0,0,0,1,0,0,0,false,false,true,-153.29,-2434.3398,16.99,-0.0047123544,0.00091441796,0.98189056,0.18938777,-557.92096,1633.5709,8.561,0.00030999997,0,3.15091
249.79167,2000,0,91.24,0.000002697398,0.000002697398,0.000002697398,0.99999994,0,0,0,0,0,0,0,1,0,0,0,false,false,true,-157.94,-2420.73,16.99,-0.0047231433,0.0008496803,0.9842918,0.17648332,-561.081,1620.901,8.561,0.00030999997,0,3.14231
249.8,2000,0,91.24,0.000002697398,0.000002697398,0.000002697398,0.99999994,0,0,0,0,0,0,0,1,0,0,0,false,false,true,-162.62,-2407.22,16.99,-0.004733934,0.0007849429,0.98651856,0.16357891,-563.871,1608.2809,8.561,0.00030999997,0,3.13171
249.80833,2000,0,91.24,0.000002697398,0.000002697398,0.000002697398,0.99999994,0,0,0,0,0,0,0,1,0,0,0,false,false,true,-167.31999,-2393.82,16.99,-0.0047447234,0.0007202053,0.98856926,0.15069075,-566.29095,1595.741,8.561,0.00030999997,0,3.1191099
249.81667,2000,0,91.24,0.000002697398,0.000002697398,0.000002697398,0.99999994,0,0,0,0,0,0,0,1,0,0,0,false,false,true,-172.04,-2380.52,16.99,-0.0047555123,0.0006554677,0.9904442,0.13782944,-568.35095,1583.3109,8.561,0.00030999997,0,3.10441
249.825,2000,0,91.24,0.000002697398,0.000002697398,0.000002697398,0.99999994,0,0,0,0,0,0,0,1,0,0,0,false,false,true,-176.78,-2367.3298,16.99,-0.0047609075,0.00059073017,0.99214435,0.12500602,-570.061,1571.021,8.561,0.00030999997,0,3.08761
249.83333,2000,0,91.24,0.000002697398,0.000002697398,0.000002697398,0.99999994,0,0,0,0,0,0,0,1,0,0,0,false,false,true,-181.53,-2354.24,16.99,-0.0047663026,0.00052599265,0.9936705,0.11223107,-571.42096,1558.901,8.561,0.00021,0,3.06861
249.84166,2000,0,91.24,0.000002697398,0.000002697398,0.000002697398,0.99999994,0,0,0,0,0,0,0,1,0,0,0,false,false,true,-186.29,-2341.25,16.99,-0.004771697,0.00046664986,0.9950244,0.09951553,-572.451,1546.971,8.561,0.00021,0,3.0473099
249.85,2000,0,91.24,0.000002697398,0.000002697398,0.000002697398,0.99999994,0,0,0,0,0,0,0,1,0,0,0,false,false,true,-191.06,-2328.3599,16.99,-0.004777092,0.00040730712,0.9962076,0.08687544,-573.16095,1535.261,8.561,0.00021,0,3.0236099
249.85834,2000,0,91.24,0.000002697398,0.000002697398,0.000002697398,0.99999994,0,0,0,0,0,0,0,1,0,0,0,false,false,true,-195.84,-2315.57,16.99,-0.0047824867,0.00034796435,0.99722314,0.07431626,-573.571,1523.7909,8.561,0.00021,0,2.99751
249.86667,2000,0,91.24,0.000002697398,0.000002697398,0.000002697398,0.99999994,0,0,0,0,0,0,0,1,0,0,0,false,false,true,-200.62,-2302.8699,16.99,-0.004787882,0.0002886216,0.99807364,0.06185429,-573.701,1512.591,8.561,0.00030999997,0,2.9688098
249.875,2000,0,91.24,0.000002697398,0.000002697398,0.000002697398,0.99999994,0,0,0,0,0,0,0,1,0,0,0,false,false,true,-205.4,-2290.26,16.99,-0.004793276,0.00022927884,0.99876225,0.049505517,-573.561,1501.6709,8.561,0.00040999998,0,2.93751
249.88333,2000,0,91.24,0.000002697398,0.000002697398,0.000002697398,0.99999994,0,0,0,0,0,0,0,1,0,0,0,false,false,true,-210.18,-2277.75,16.99,-0.0047932756,0.00016993606,0.9992934,0.037275508,-573.17096,1491.0609,8.561,0.00051,0,2.9035099
249.89166,2000,0,91.24,0.000002697398,0.000002697398,0.000002697398,0.99999994,0,0,0,0,0,0,0,1,0,0,0,false,false,true,-214.95999,-2265.32,16.99,-0.0047932756,0.000110593304,0.99967116,0.025185687,-572.561,1480.7809,8.561,0.00051,0,2.86671
249.9,2000,0,91.24,0.000002697398,0.000002697398,0.000002697398,0.99999994,0,0,0,0,0,0,0,1,0,0,0,false,false,true,-219.73,-2252.98,16.99,-0.004793276,0.000051250565,0.99990076,0.013241611,-571.74097,1470.841,8.561,0.00061,0,2.82701
249.90834,2000,0,91.24,0.000002697398,0.000002697398,0.000002697398,0.99999994,0,0,0,0,0,0,0,1,0,0,0,false,false,true,-224.48999,-2240.72,16.99,-0.0047932765,-0.000008092195,0.9999874,0.0014646873,-570.74097,1461.271,8.561,0.00061,0,2.7843099
249.91667,2000,0,91.24,0.000002697398,0.000002697398,0.000002697398,0.99999994,0,0,0,0,0,0,0,1,0,0,0,false,false,true,-229.25,-2228.54,16.99,-0.0047932756,-0.00006743494,0.999937,-0.010134165,-569.59094,1452.0809,8.561,0.00061,0,2.73861
249.925,2000,0,91.24,0.000002697398,0.000002697398,0.000002697398,0.99999994,0,0,0,0,0,0,0,1,0,0,0,false,false,true,-234,-2216.44,16.99,-0.0047932756,-0.00012677768,0.9997563,-0.021544201,-568.311,1443.2809,8.561,0.00061,0,2.68971
249.93333,2000,0,91.24,0.000002697398,0.000002697398,0.000002697398,0.99999994,0,0,0,0,0,0,0,1,0,0,0,false,false,true,-238.73999,-2204.41,16.99,-0.0047932765,-0.00018072568,0.99945205,-0.03274924,-566.86096,1434.721,8.561,0.00061,0,2.64271
249.94167,2000,0,91.24,0.000002697398,0.000002697398,0.000002697398,0.99999994,0,0,0,0,0,0,0,1,0,0,0,false,false,true,-243.45999,-2192.45,16.99,-0.0047932756,-0.0002346736,0.99903065,-0.04375466,-565.251,1426.401,8.561,0.00061,0,2.59831
249.95,2000,0,91.24,0.000002697398,0.000002697398,0.000002697398,0.99999994,0,0,0,0,0,0,0,1,0,0,0,false,false,true,-248.17,-2180.56,16.99,-0.004787881,-0.00028862155,0.9984985,-0.05456587,-563.49097,1418.341,8.561,0.00051,0,2.55621
249.95833,2000,0,91.24,0.000002697398,0.000002697398,0.000002697398,0.99999994,0,0,0,0,0,0,0,1,0,0,0,false,false,true,-252.87,-2168.74,16.99,-0.0047824867,-0.00034256955,0.99786067,-0.06519906,-561.55096,1410.4409,8.561,0.00040999998,0,2.51881
249.96666,2000,0,91.24,0.000002697398,0.000002697398,0.000002697398,0.99999994,0,0,0,0,0,0,0,1,0,0,0,false,false,true,-257.55,-2156.99,16.99,-0.004777092,-0.0003965175,0.9971213,-0.0756704,-559.381,1402.591,8.561,0.00021,0,2.48911
249.975,2000,0,91.24,0.000002697398,0.000002697398,0.000002697398,0.99999994,0,0,0,0,0,0,0,1,0,0,0,false,false,true,-262.21,-2145.3,16.99,-0.0047716964,-0.00044507062,0.9962829,-0.086006865,-556.98096,1394.8209,8.561,0,0,2.4667099
249.98334,2000,0,91.24,0.000002697398,0.000002697398,0.000002697398,0.99999994,0,0,0,0,0,0,0,1,0,0,0,false,false,true,-266.85,-2133.68,16.99,-0.004766302,-0.00049362384,0.9953465,-0.09624084,-554.36096,1387.151,8.561,-0.00010999999,0,2.45131
249.99167,2000,0,91.24,0.000002697398,0.000002697398,0.000002697398,0.99999994,0,0,0,0,0,0,0,1,0,0,0,false,false,true,-271.47,-2122.1199,16.99,-0.0047609075,-0.000542177,0.99431187,-0.10639929,-551.54095,1379.601,8.561,-0.00021,-0.00010999999,2.44271
250,2000,0,91.24,0.000002697398,0.000002697398,0.000002697398,0.99999994,0,0,0,0,0,0,0,1,0,0,0,false,false,true,-276.07,-2110.6199,16.99,-0.004755513,-0.00059073017,0.99317735,-0.11651457,-548.53094,1372.1909,8.561,-0.00030999997,-0.00010999999,2.44071
250.00833,2000,0,91.24,0.000002697398,0.000002697398,0.000002697398,0.99999994,0,0,0,0,0,0,0,1,0,0,0,false,false,true,-280.63998,-2099.18,16.99,-0.0047501177,-0.00063928333,0.99194115,-0.12660824,-545.34094,1364.9409,8.561,-0.00040999998,-0.00021,2.4451098
250.01666,2000,0,91.24,0.000002697398,0.000002697398,0.000002697398,0.99999994,0,0,0,0,0,0,0,1,0,0,0,false,false,true,-285.18,-2087.81,16.99,-0.004744723,-0.0006878365,0.9905998,-0.13670734,-541.98096,1357.871,8.561,-0.00061,-0.00021,2.45571
250.025,2000,0,91.24,0.000002697398,0.000002697398,0.000002697398,0.99999994,0,0,0,0,0,0,0,1,0,0,0,false,false,true,-289.69998,-2076.49,16.99,-0.0047393288,-0.0007309949,0.9891496,-0.14683342,-538.46094,1351.001,8.561,-0.00071,-0.00021,2.4725099
250.03334,2000,0,91.24,0.000002697398,0.000002697398,0.000002697398,0.99999994,0,0,0,0,0,0,0,1,0,0,0,false,false,true,-294.19,-2065.23,16.99,-0.0047339336,-0.0007741532,0.98758477,-0.15701343,-534.80096,1344.351,8.561,-0.00081,-0.00021,2.49531
250.04167,2000,0,91.24,0.000002697398,0.000002697398,0.000002697398,0.99999994,0,0,0,0,0,0,0,1,0,0,0,false,false,true,-298.65,-2054.03,16.99,-0.004728539,-0.0008173117,0.9858987,-0.16727439,-531.02094,1337.9409,8.561,-0.00091,-0.00021,2.5241098
250.05,2000,0,91.24,0.000002697398,0.000002697398,0.000002697398,0.99999994,0,0,0,0,0,0,0,1,0,0,0,false,false,true,-303.08,-2042.88,16.99,-0.0047177486,-0.0008604699,0.9840851,-0.1776324,-527.09094,1331.7009,8.571,-0.00091,-0.00021,2.5571098
250.05833,2000,0,91.24,0.000002697398,0.000002697398,0.000002697398,0.99999994,0,0,0,0,0,0,0,1,0,0,0,false,false,true,-307.47,-2031.7799,16.99,-0.0047069597,-0.00090902316,0.98213637,-0.18810916,-522.97095,1325.501,8.571,-0.00091,-0.00030999997,2.59131
250.06667,2000,0,91.24,0.000002697398,0.000002697398,0.000002697398,0.99999994,0,0,0,0,0,0,0,1,0,0,0,false,false,true,-311.83,-2020.73,16.99,-0.0046961694,-0.0009575762,0.9800476,-0.19870457,-518.691,1319.341,8.571,-0.00091,-0.00030999997,2.6270099
250.075,2000,0,91.24,0.000002697398,0.000002697398,0.000002697398,0.99999994,0,0,0,0,0,0,0,1,0,0,0,false,false,true,-316.15,-2009.74,16.99,-0.0046853805,-0.0010061294,0.97781426,-0.2094187,-514.28094,1313.271,8.571,-0.00081,-0.00040999998,2.66361
250.08333,2000,0,91.24,0.000002697398,0.000002697398,0.000002697398,0.99999994,0,0,0,0,0,0,0,1,0,0,0,false,false,true,-320.44,-1998.7999,16.99,-0.004674591,-0.0010546828,0.9754301,-0.2202569,-509.751,1307.3009,8.571,-0.00081,-0.00040999998,2.70111
250.09166,2000,0,91.24,0.000002697398,0.000002697398,0.000002697398,0.99999994,0,0,0,0,0,0,0,1,0,0,0,false,false,true,-324.69,-1987.9099,16.99,-0.0046638013,-0.0011032358,0.97288984,-0.23121916,-505.031,1301.3109,8.571,-0.00071,-0.00040999998,2.73681
250.1,2000,0,91.24,0.000002697398,0.000002697398,0.000002697398,0.99999994,0,0,0,0,0,0,0,1,0,0,0,false,false,true,-328.9,-1977.07,16.99,-0.004653012,-0.0011517891,0.9701895,-0.24230012,-500.091,1295.231,8.571,-0.00061,-0.00040999998,2.7690098
250.10834,2000,0,91.24,0.000002697398,0.000002697398,0.000002697398,0.99999994,0,0,0,0,0,0,0,1,0,0,0,false,false,true,-333.07,-1966.2799,16.99,-0.004642222,-0.0012003421,0.96732914,-0.25347814,-494.931,1289.091,8.571,-0.00051,-0.00030999997,2.79771
250.11667,2000,0,91.24,0.000002697398,0.000002697398,0.000002697398,0.99999994,0,0,0,0,0,0,0,1,0,0,0,false,false,true,-337.19,-1955.5399,16.99,-0.0046260376,-0.0012542901,0.9643087,-0.26473713,-489.551,1282.9109,8.571,-0.00030999997,-0.00021,2.8231099
250.125,2000,0,91.24,0.000002697398,0.000002697398,0.000002697398,0.99999994,0,0,0,0,0,0,0,1,0,0,0,false,false,true,-341.27,-1944.85,16.99,-0.0046098535,-0.0013082381,0.9611282,-0.27606088,-483.951,1276.7109,8.571,-0.00021,-0.00021,2.8452098
250.13333,2000,0,91.24,0.000002697398,0.000002697398,0.000002697398,0.99999994,0,0,0,0,0,0,0,1,0,0,0,false,false,true,-345.3,-1934.21,16.99,-0.004593669,-0.001362186,0.95778865,-0.28743312,-478.141,1270.511,8.571,-0.00010999999,-0.00021,2.8640099
250.14166,2000,0,91.24,0.000002697398,0.000002697398,0.000002697398,0.99999994,0,0,0,0,0,0,0,1,0,0,0,false,false,true,-349.28,-1923.62,16.99,-0.004577485,-0.0014161341,0.95429015,-0.2988432,-472.13098,1264.3309,8.571,0,-0.00010999999,2.87971
250.15,2000,0,91.24,0.000002697398,0.000002697398,0.000002697398,0.99999994,0,0,0,0,0,0,0,1,0,0,0,false,false,true,-353.21,-1913.08,16.99,-0.0045612995,-0.0014700819,0.95063645,-0.31026936,-465.921,1258.1909,8.571,0,-0.00010999999,2.89231
250.15834,2000,0,91.24,0.000002697398,0.000002697398,0.000002697398,0.99999994,0,0,0,0,0,0,0,1,0,0,0,false,false,true,-357.09,-1902.59,16.99,-0.0045451154,-0.0015240299,0.9468291,-0.321701,-459.531,1252.111,8.571,0,0,2.9019098
250.16667,2000,0,91.24,0.000002697398,0.000002697398,0.000002697398,0.99999994,0,0,0,0,0,0,0,1,0,0,0,false,false,true,-360.91998,-1892.1599,16.99,-0.0045289313,-0.0015779779,0.9428696,-0.33312723,-452.961,1246.101,8.571,0.00010999999,0,2.90851
250.175,2000,0,91.24,0.000002697398,0.000002697398,0.000002697398,0.99999994,0,0,0,0,0,0,0,1,0,0,0,false,false,true,-364.69,-1881.7799,16.99,-0.004507352,-0.0016319258,0.9387643,-0.34452647,-446.231,1240.1909,8.571,0.00010999999,0,2.91221
250.18333,2000,0,91.24,0.000002697398,0.000002697398,0.000002697398,0.99999994,0,0,0,0,0,0,0,1,0,0,0,false,false,true,-368.41,-1871.44,16.99,-0.0044857734,-0.001685874,0.9345142,-0.35589337,-439.35098,1234.391,8.571,0.00021,0,2.91311
250.19167,2000,0,91.24,0.000002697398,0.000002697398,0.000002697398,0.99999994,0,0,0,0,0,0,0,1,0,0,0,false,false,true,-372.06998,-1861.1499,16.99,-0.0044641937,-0.0017398217,0.930125,-0.36721167,-432.341,1228.721,8.571,0.00030999997,0,2.9112098
250.2,2000,0,91.24,0.000002697398,0.000002697398,0.000002697398,0.99999994,0,0,0,0,0,0,0,1,0,0,0,false,false,true,-375.66998,-1850.9099,16.99,-0.0044426145,-0.0017937698,0.92560303,-0.37846527,-425.211,1223.1909,8.571,0.00030999997,0.00010999999,2.90661
250.20833,2000,0,91.24,0.000002697398,0.000002697398,0.000002697398,0.99999994,0,0,0,0,0,0,0,1,0,0,0,false,false,true,-379.21,-1840.72,16.99,-0.0044210353,-0.0018477177,0.920951,-0.38964877,-417.971,1217.8109,8.571,0.00040999998,0.00021,2.8993099
250.21666,2000,0,91.24,0.000002697398,0.000002697398,0.000002697398,0.99999994,0,0,0,0,0,0,0,1,0,0,0,false,false,true,-382.69,-1830.57,16.99,-0.0043994565,-0.0019016658,0.9161767,-0.4007459,-410.641,1212.601,8.571,0.00040999998,0.00021,2.88941
250.225,2000,0,91.24,0.000002697398,0.000002697398,0.000002697398,0.99999994,0,0,0,0,0,0,0,1,0,0,0,false,false,true,-386.11,-1820.46,16.99,-0.004377877,-0.0019556135,0.911286,-0.41174594,-403.241,1207.5709,8.571,0.00040999998,0.00030999997,2.8770099
250.23334,2000,0,91.24,0.000002697398,0.000002697398,0.000002697398,0.99999994,0,0,0,0,0,0,0,1,0,0,0,false,false,true,-389.47,-1810.3999,16.99,-0.004356298,-0.0020095618,0.9062858,-0.42263806,-395.791,1202.721,8.571,0.00040999998,0.00040999998,2.86211
250.24167,2000,0,91.24,0.000002697398,0.000002697398,0.000002697398,0.99999994,0,0,0,0,0,0,0,1,0,0,0,false,false,true,-392.77,-1800.38,16.99,-0.004329324,-0.0020635095,0.90118074,-0.43341687,-388.301,1198.0709,8.571,0.00040999998,0.00051,2.84481
250.25,2000,0,91.24,0.000002697398,0.000002697398,0.000002697398,0.99999994,0,0,0,0,0,0,0,1,0,0,0,false,false,true,-396.00998,-1790.3999,16.99,-0.00430235,-0.0021174573,0.8959811,-0.44406623,-380.791,1193.621,8.571,0.00040999998,0.00051,2.82511
250.25833,2000,0,91.24,0.000002697398,0.000002697398,0.000002697398,0.99999994,0,0,0,0,0,0,0,1,0,0,0,false,false,true,-399.18,-1780.45,16.99,-0.004275376,-0.0021714054,0.89069253,-0.45458075,-373.281,1189.371,8.571,0.00040999998,0.00051,2.80311
250.26666,2000,0,91.24,0.000002697398,0.000002697398,0.000002697398,0.99999994,0,0,0,0,0,0,0,1,0,0,0,false,false,true,-402.28998,-1770.5399,16.99,-0.0042484016,-0.0022253534,0.88532126,-0.46495497,-365.791,1185.3309,8.571,0.00040999998,0.00051,2.77891
250.275,2000,0,91.24,0.000002697398,0.000002697398,0.000002697398,0.99999994,0,0,0,0,0,0,0,1,0,0,0,false,false,true,-405.34,-1760.6599,16.99,-0.0042214277,-0.0022793014,0.87987936,-0.47517276,-358.341,1181.501,8.571,0.00040999998,0.00051,2.75241
250.28334,2000,0,91.24,0.000002697398,0.000002697398,0.000002697398,0.99999994,0,0,0,0,0,0,0,1,0,0,0,false,false,true,-408.33,-1750.8099,16.99,-0.004194454,-0.0023278545,0.87437105,-0.4852341,-350.941,1177.881,8.571,0.00030999997,0.00051,2.72381
250.29167,2000,0,91.24,0.000002697398,0.000002697398,0.000002697398,0.99999994,0,0,0,0,0,0,0,1,0,0,0,false,false,true,-411.25,-1740.99,16.99,-0.0041674804,-0.0023764079,0.86880666,-0.4951282,-343.611,1174.471,8.561,0.00030999997,0.00051,2.69311
250.3,2000,0,91.24,0.000002697398,0.000002697398,0.000002697398,0.99999994,0,0,0,0,0,0,0,1,0,0,0,false,false,true,-414.11,-1731.2,16.99,-0.004140506,-0.0024249607,0.863197,-0.50484425,-336.371,1171.271,8.561,0.00030999997,0.00051,2.66031
250.30833,2000,0,91.24,0.000002697398,0.000002697398,0.000002697398,0.99999994,0,0,0,0,0,0,0,1,0,0,0,false,false,true,-416.91,-1721.44,16.99,-0.0041135317,-0.002473514,0.85754746,-0.51438224,-329.231,1168.281,8.561,0.00030999997,0.00051,2.62551
250.31667,2000,0,91.24,0.000002697398,0.000002697398,0.000002697398,0.99999994,0,0,0,0,0,0,0,1,0,0,0,false,false,true,-419.65,-1711.7,16.99,-0.0040865582,-0.0025220674,0.85186976,-0.5237316,-322.211,1165.491,8.561,0.00030999997,0.00061,2.5887098
250.325,2000,0,91.24,0.000002697398,0.000002697398,0.000002697398,0.99999994,0,0,0,0,0,0,0,1,0,0,0,false,false,true,-422.34,-1701.99,16.99,-0.004059584,-0.0025706203,0.846173,-0.5328865,-315.321,1162.901,8.561,0.00021,0.00061,2.55001
250.33333,2000,0,91.24,0.000002697398,0.000002697398,0.000002697398,0.99999994,0,0,0,0,0,0,0,1,0,0,0,false,false,true,-424.97,-1692.2999,16.99,-0.00403261,-0.0026137787,0.8404631,-0.5418473,-308.581,1160.501,8.561,0.00010999999,0.00061,2.50941
250.34166,2000,0,91.24,0.000002697398,0.000002697398,0.000002697398,0.99999994,0,0,0,0,0,0,0,1,0,0,0,false,false,true,-427.53998,-1682.63,16.99,-0.004005636,-0.002656937,0.8347533,-0.5506031,-302.001,1158.2909,8.561,0.00010999999,0.00061,2.46701
250.35,2000,0,91.24,0.000002697398,0.000002697398,0.000002697398,0.99999994,0,0,0,0,0,0,0,1,0,0,0,false,false,true,-430.06,-1672.98,16.99,-0.003978662,-0.0027000955,0.8290499,-0.5591538,-295.591,1156.261,8.561,0.00010999999,0.00071,2.4228098
250.35834,2000,0,91.24,0.000002697398,0.000002697398,0.000002697398,0.99999994,0,0,0,0,0,0,0,1,0,0,0,false,false,true,-432.52,-1663.34,16.99,-0.0039462927,-0.0027432535,0.82336324,-0.56749415,-289.361,1154.401,8.561,0,0.00071,2.37691
250.36667,2000,0,91.24,0.000002697398,0.000002697398,0.000002697398,0.99999994,0,0,0,0,0,0,0,1,0,0,0,false,false,true,-434.93,-1653.72,16.99,-0.0039139246,-0.0027864121,0.81770396,-0.5756188,-283.331,1152.7009,8.551001,0,0.00071,2.32931
250.375,2000,0,91.24,0.000002697398,0.000002697398,0.000002697398,0.99999994,0,0,0,0,0,0,0,1,0,0,0,false,false,true,-437.28998,-1644.11,16.99,-0.0038869507,-0.0028241756,0.81207895,-0.5835276,-277.501,1151.151,8.551001,0,0.00061,2.28001
250.38333,2000,0,91.24,0.000002697398,0.000002697398,0.000002697398,0.99999994,0,0,0,0,0,0,0,1,0,0,0,false,false,true,-439.59998,-1634.52,16.99,-0.0038599768,-0.0028619394,0.8064994,-0.59121525,-271.881,1149.751,8.551001,0,0.00061,2.22911
250.39166,2000,0,91.24,0.000002697398,0.000002697398,0.000002697398,0.99999994,0,0,0,0,0,0,0,1,0,0,0,false,false,true,-441.87,-1624.94,16.99,-0.0038330026,-0.0028997029,0.8009725,-0.5986817,-266.481,1148.481,8.551001,0,0.00061,2.17671
250.4,2000,0,91.24,0.000002697398,0.000002697398,0.000002697398,0.99999994,0,0,0,0,0,0,0,1,0,0,0,false,false,true,-444.09,-1615.37,16.99,-0.0038060287,-0.0029374664,0.7955098,-0.6059215,-261.311,1147.341,8.551001,0,0.00061,2.12281
250.40834,2000,0,91.24,0.000002697398,0.000002697398,0.000002697398,0.99999994,0,0,0,0,0,0,0,1,0,0,0,false,false,true,-446.27,-1605.8099,16.99,-0.0037790546,-0.00297523,0.7901187,-0.6129348,-256.361,1146.3109,8.551001,0,0.00061,2.06751
250.41667,2000,0,91.24,0.000002697398,0.000002697398,0.000002697398,0.99999994,0,0,0,0,0,0,0,1,0,0,0,false,false,true,-448.41,-1596.26,16.99,-0.0037520807,-0.003007599,0.78481126,-0.61971605,-251.651,1145.391,8.551001,0,0.00061,2.01081
250.425,2000,0,91.24,0.000002697398,0.000002697398,0.000002697398,0.99999994,0,0,0,0,0,0,0,1,0,0,0,false,false,true,-450.50998,-1586.72,16.99,-0.0037251068,-0.0030399675,0.77959067,-0.6262708,-247.171,1144.5609,8.551001,0,0.00061,1.9528099
250.43333,2000,0,91.24,0.000002697398,0.000002697398,0.000002697398,0.99999994,0,0,0,0,0,0,0,1,0,0,0,false,false,true,-452.56998,-1577.1799,16.99,-0.0036981322,-0.003072336,0.77446896,-0.63259345,-242.931,1143.8209,8.551001,0,0.00061,1.89351
250.44167,2000,0,91.24,0.000002697398,0.000002697398,0.000002697398,0.99999994,0,0,0,0,0,0,0,1,0,0,0,false,false,true,-454.59,-1567.65,16.99,-0.0036711588,-0.0031047051,0.76945376,-0.6386843,-238.931,1143.161,8.541,0,0.00061,1.83301
250.45,2000,0,91.24,0.000002697398,0.000002697398,0.000002697398,0.99999994,0,0,0,0,0,0,0,1,0,0,0,false,false,true,-456.58,-1558.12,16.99,-0.0036441851,-0.0031316795,0.7645529,-0.64454305,-235.161,1142.5709,8.541,0,0.00061,1.77141
250.45833,2000,0,91.24,0.000002697398,0.000002697398,0.000002697398,0.99999994,0,0,0,0,0,0,0,1,0,0,0,false,false,true,-458.53998,-1548.6,16.99,-0.0036172108,-0.0031586532,0.7597737,-0.6501698,-231.631,1142.031,8.541,0,0.00061,1.70881
250.46666,2000,0,91.24,0.000002697398,0.000002697398,0.000002697398,0.99999994,0,0,0,0,0,0,0,1,0,0,0,false,false,true,-460.47,-1539.08,16.99,-0.003590237,-0.003185627,0.75512373,-0.6555646,-228.33101,1141.5509,8.541,0,0.00051,1.64521
250.475,2000,0,91.24,0.000002697398,0.000002697398,0.000002697398,0.99999994,0,0,0,0,0,0,0,1,0,0,0,false,false,true,-462.37,-1529.57,16.99,-0.0035686577,-0.0032126012,0.75061035,-0.6607275,-225.251,1141.111,8.541,0,0.00040999998,1.58081
250.48334,2000,0,91.24,0.000002697398,0.000002697398,0.000002697398,0.99999994,0,0,0,0,0,0,0,1,0,0,0,false,false,true,-464.25,-1520.0599,16.99,-0.0035470785,-0.003239575,0.7462411,-0.6656583,-222.391,1140.7109,8.541,0,0.00040999998,1.51571
250.49167,2000,0,91.24,0.000002697398,0.000002697398,0.000002697398,0.99999994,0,0,0,0,0,0,0,1,0,0,0,false,false,true,-466.09998,-1510.5499,16.99,-0.0035254993,-0.0032611543,0.7420229,-0.6703572,-219.741,1140.341,8.541,0,0.00040999998,1.45021
250.5,2000,0,91.24,0.000002697398,0.000002697398,0.000002697398,0.99999994,0,0,0,0,0,0,0,1,0,0,0,false,false,true,-467.93,-1501.0499,16.99,-0.00350392,-0.0032827335,0.7379579,-0.67482954,-217.291,1139.991,8.541,0,0.00040999998,1.38441
250.50833,2000,0,91.24,0.000002697398,0.000002697398,0.000002697398,0.99999994,0,0,0,0,0,0,0,1,0,0,0,false,false,true,-469.74,-1491.5499,16.99,-0.0034823408,-0.0033043127,0.7340529,-0.67907524,-215.031,1139.661,8.541,0,0.00040999998,1.31841
250.51666,2000,0,91.24,0.000002697398,0.000002697398,0.000002697398,0.99999994,0,0,0,0,0,0,0,1,0,0,0,false,false,true,-471.53,-1482.0499,16.99,-0.0034607616,-0.003325892,0.7303091,-0.6830998,-212.951,1139.351,8.541,0,0.00030999997,1.2524099
250.525,2000,0,91.24,0.000002697398,0.000002697398,0.000002697398,0.99999994,0,0,0,0,0,0,0,1,0,0,0,false,false,true,-473.3,-1472.5599,16.99,-0.0034445776,-0.0033420764,0.7267331,-0.6869032,-211.041,1139.0509,8.541,0,0.00021,1.18651
250.53334,2000,0,91.24,0.000002697398,0.000002697398,0.000002697398,0.99999994,0,0,0,0,0,0,0,1,0,0,0,false,false,true,-475.06,-1463.07,16.99,-0.003428393,-0.0033582605,0.7233305,-0.69048524,-209.291,1138.761,8.541,0,0.00021,1.12081
250.54167,2000,0,91.24,0.000002697398,0.000002697398,0.000002697398,0.99999994,0,0,0,0,0,0,0,1,0,0,0,false,false,true,-476.8,-1453.58,16.99,-0.0034122085,-0.003374445,0.72009665,-0.6938571,-207.69101,1138.481,8.541,0,0.00021,1.05541
250.55,2000,0,91.24,0.000002697398,0.000002697398,0.000002697398,0.99999994,0,0,0,0,0,0,0,1,0,0,0,false,false,true,-478.53,-1444.09,16.99,-0.0033960242,-0.0033906293,0.7170371,-0.6970184,-206.241,1138.2009,8.541,0,0.00021,0.99031
250.55833,2000,0,91.24,0.000002697398,0.000002697398,0.000002697398,0.99999994,0,0,0,0,0,0,0,1,0,0,0,false,false,true,-480.25,-1434.6,16.99,-0.0033798397,-0.0034068138,0.7141566,-0.69996935,-204.921,1137.9209,8.541,0,0.00021,0.92561
250.56667,2000,0,91.24,0.000002697398,0.000002697398,0.000002697398,0.99999994,0,0,0,0,0,0,0,1,0,0,0,false,false,true,-481.96,-1425.12,16.99,-0.0033636556,-0.0034229984,0.7114495,-0.7027208,-203.731,1137.651,8.541,0,0.00010999999,0.86140996
250.575,2000,0,91.24,0.000002697398,0.000002697398,0.000002697398,0.99999994,0,0,0,0,0,0,0,1,0,0,0,false,false,true,-483.66,-1415.64,16.99,-0.0033528658,-0.0034337877,0.70892537,-0.7052671,-202.661,1137.371,8.541,0,0,0.79781
250.58333,2000,0,91.24,0.000002697398,0.000002697398,0.000002697398,0.99999994,0,0,0,0,0,0,0,1,0,0,0,false,false,true,-485.34998,-1406.1599,16.99,0.0033420762,0.0034445773,-0.706578,0.7076188,-201.701,1137.091,8.541,0,0,0.73471
250.59166,2000,0,91.24,0.000002697398,0.000002697398,0.000002697398,0.99999994,0,0,0,0,0,0,0,1,0,0,0,false,false,true,-487.03,-1396.6799,16.99,0.0033312866,0.003455367,-0.7044093,0.70977765,-200.841,1136.8109,8.541,0,0,0.67231
250.6,2000,0,91.24,0.000002697398,0.000002697398,0.000002697398,0.99999994,0,0,0,0,0,0,0,1,0,0,0,false,false,true,-488.69998,-1387.21,16.99,0.0033204972,0.0034661568,-0.7024187,0.71174777,-200.071,1136.531,8.541,0,0,0.61051
250.60834,2000,0,91.24,0.000002697398,0.000002697398,0.000002697398,0.99999994,0,0,0,0,0,0,0,1,0,0,0,false,false,true,-490.37,-1377.74,16.99,0.0033097074,0.0034769461,-0.7006059,0.71353215,-199.381,1136.241,8.541,0,0,0.54941
250.61667,2000,0,91.24,0.000002697398,0.000002697398,0.000002697398,0.99999994,0,0,0,0,0,0,0,1,0,0,0,false,false,true,-492.03,-1368.27,16.99,0.0033043127,0.0034823408,-0.69897133,0.7151335,-198.771,1135.9509,8.541,0,0,0.48901
250.625,2000,0,91.24,0.000002697398,0.000002697398,0.000002697398,0.99999994,0,0,0,0,0,0,0,1,0,0,0,false,false,true,-493.69,-1358.7999,16.99,0.0032989178,0.0034877358,-0.6975147,0.7165543,-198.231,1135.661,8.541,0,0,0.42931
250.63333,2000,0,91.24,0.000002697398,0.000002697398,0.000002697398,0.99999994,0,0,0,0,0,0,0,1,0,0,0,false,false,true,-495.34,-1349.34,16.99,0.003293523,0.0034931304,-0.69623077,0.71780187,-197.751,1135.371,8.541,0,0,0.37031
250.64166,2000,0,91.24,0.000002697398,0.000002697398,0.000002697398,0.99999994,0,0,0,0,0,0,0,1,0,0,0,false,false,true,-496.99,-1339.88,16.99,0.0032881282,0.0034985254,-0.6951248,0.71887296,-197.321,1135.0709,8.541,0,0,0.31201002
250.65,2000,0,91.24,0.000002697398,0.000002697398,0.000002697398,0.99999994,0,0,0,0,0,0,0,1,0,0,0,false,false,true,-498.62997,-1330.4199,16.99,0.0032827335,0.00350392,-0.6941915,0.7197742,-196.931,1134.771,8.541,0,0,0.25441
250.65834,2000,0,91.24,0.000002697398,0.000002697398,0.000002697398,0.99999994,0,0,0,0,0,0,0,1,0,0,0,false,false,true,-500.27,-1320.96,16.99,0.003277338,0.0035093145,-0.6934254,0.7205122,-196.58101,1134.471,8.541,0,0,0.19750999
250.66667,2000,0,91.24,0.000002697398,0.000002697398,0.000002697398,0.99999994,0,0,0,0,0,0,0,1,0,0,0,false,false,true,-501.91,-1311.51,16.99,0.003271944,0.0035147096,-0.69283205,0.72108287,-196.261,1134.1709,8.541,0,0,0.14141
250.675,2000,0,91.24,0.000002697398,0.000002697398,0.000002697398,0.99999994,0,0,0,0,0,0,0,1,0,0,0,false,false,true,-503.55,-1302.0599,16.99,0.003271944,0.0035147096,-0.6924058,0.7214922,-195.961,1133.871,8.541,0,-0.00010999999,0.086009994
250.68333,2000,0,91.24,0.000002697398,0.000002697398,0.000002697398,0.99999994,0,0,0,0,0,0,0,1,0,0,0,false,false,true,-505.18,-1292.61,16.99,0.0032719434,0.0035147092,-0.69214684,0.72174054,-195.671,1133.5809,8.541,0,-0.00010999999,0.03131
250.69167,2000,0,91.24,0.000002697398,0.000002697398,0.000002697398,0.99999994,0,0,0,0,0,0,0,1,0,0,0,false,false,true,-506.81,-1283.1599,16.99,0.003271944,0.0035147096,-0.69205517,0.7218285,-195.391,1133.2909,8.541,0,-0.00010999999,-0.02261
250.7,2000,0,91.24,0.000002697398,0.000002697398,0.000002697398,0.99999994,0,0,0,0,0,0,0,1,0,0,0,false,false,true,-508.44,-1273.72,16.99,0.003271944,0.0035147096,-0.6921253,0.7217612,-195.11101,1133.001,8.541,0,-0.00010999999,-0.07581
250.70833,2000,0,91.24,0.000002697398,0.000002697398,0.000002697398,0.99999994,0,0,0,0,0,0,0,1,0,0,0,false,false,true,-510.06998,-1264.28,16.99,0.003271944,0.0035147096,-0.6923519,0.7215439,-194.821,1132.721,8.541,0,-0.00010999999,-0.12831
250.71666,2000,0,91.24,0.000002697398,0.000002697398,0.000002697398,0.99999994,0,0,0,0,0,0,0,1,0,0,0,false,false,true,-511.69,-1254.84,16.99,0.003271944,0.0035147096,-0.69273496,0.72117615,-194.521,1132.4409,8.541,0,-0.00010999999,-0.18011
250.725,2000,0,91.24,0.000002697398,0.000002697398,0.000002697398,0.99999994,0,0,0,0,0,0,0,1,0,0,0,false,false,true,-513.31,-1245.4,16.99,0.0032773386,0.003509315,-0.69327444,0.7206576,-194.201,1132.1709,8.541,0,-0.00021,-0.23121
250.73334,2000,0,91.24,0.000002697398,0.000002697398,0.000002697398,0.99999994,0,0,0,0,0,0,0,1,0,0,0,false,false,true,-514.93,-1235.97,16.99,0.003282733,0.0035039196,-0.69397026,0.71998745,-193.851,1131.911,8.541,0,-0.00021,-0.28161
250.74167,2000,0,91.24,0.000002697398,0.000002697398,0.000002697398,0.99999994,0,0,0,0,0,0,0,1,0,0,0,false,false,true,-516.55,-1226.5399,16.99,0.0032881282,0.0034985254,-0.69481194,0.71917534,-193.47101,1131.661,8.541,0,-0.00021,-0.33131
250.75,2000,0,91.24,0.000002697398,0.000002697398,0.000002697398,0.99999994,0,0,0,0,0,0,0,1,0,0,0,false,false,true,-518.16,-1217.11,16.99,0.0032935233,0.0034931307,-0.69580466,0.718215,-193.05101,1131.4209,8.541,0,-0.00021,-0.38031
250.75833,2000,0,91.24,0.000002697398,0.000002697398,0.000002697398,0.99999994,0,0,0,0,0,0,0,1,0,0,0,false,false,true,-519.76996,-1207.6799,16.99,0.0032989178,0.0034877358,-0.69694287,0.71711046,-192.58101,1131.1909,8.541,0,-0.00021,-0.42861
250.76666,2000,0,91.24,0.000002697398,0.000002697398,0.000002697398,0.99999994,0,0,0,0,0,0,0,1,0,0,0,false,false,true,-521.37,-1198.25,16.99,0.0033043127,0.0034823408,-0.69822145,0.7158656,-192.061,1130.971,8.541,0,-0.00021,-0.47621
250.775,2000,0,91.24,0.000002697398,0.000002697398,0.000002697398,0.99999994,0,0,0,0,0,0,0,1,0,0,0,false,false,true,-522.97,-1188.83,16.99,0.0033097074,0.0034769461,-0.6996403,0.714479,-191.481,1130.761,8.541,0,-0.00021,-0.52311
250.78334,2000,0,91.24,0.000002697398,0.000002697398,0.000002697398,0.99999994,0,0,0,0,0,0,0,1,0,0,0,false,false,true,-524.57,-1179.41,16.99,0.003320497,0.0034715512,-0.701194,0.7129543,-190.841,1130.5609,8.541,0,-0.00021,-0.56921
250.79167,2000,0,91.24,0.000002697398,0.000002697398,0.000002697398,0.99999994,0,0,0,0,0,0,0,1,0,0,0,false,false,true,-526.16,-1169.99,16.99,0.0033312866,0.0034607616,-0.7028826,0.7112896,-190.131,1130.371,8.541,0,-0.00021,-0.61461
250.8,2000,0,91.24,0.000002697398,0.000002697398,0.000002697398,0.99999994,0,0,0,0,0,0,0,1,0,0,0,false,false,true,-527.74,-1160.57,16.99,0.0033420762,0.0034499723,-0.70470065,0.7094884,-189.351,1130.1909,8.541,0,-0.00021,-0.65931
250.80833,2000,0,91.24,0.000002697398,0.000002697398,0.000002697398,0.99999994,0,0,0,0,0,0,0,1,0,0,0,false,false,true,-529.32,-1151.15,16.99,0.0033528658,0.0034391826,-0.7066482,0.7075487,-188.491,1130.011,8.541,0,-0.00021,-0.70321
250.81667,2000,0,91.24,0.000002697398,0.000002697398,0.000002697398,0.99999994,0,0,0,0,0,0,0,1,0,0,0,false,false,true,-530.89,-1141.73,16.99,-0.0033636554,-0.003428393,0.708716,-0.7054775,-187.541,1129.841,8.541,0,-0.00021,-0.74631
250.825,2000,0,91.24,0.000002697398,0.000002697398,0.000002697398,0.99999994,0,0,0,0,0,0,0,1,0,0,0,false,false,true,-532.45,-1132.3099,16.99,-0.003374445,-0.0034176034,0.7109055,-0.70327103,-186.501,1129.6809,8.541,0,-0.00010999999,-0.78871
250.83333,2000,0,91.24,0.000002697398,0.000002697398,0.000002697398,0.99999994,0,0,0,0,0,0,0,1,0,0,0,false,false,true,-534,-1122.9,16.99,-0.0033852346,-0.0034068138,0.71321416,-0.70092964,-185.371,1129.531,8.541,0,-0.00010999999,-0.83031
250.84166,2000,0,91.24,0.000002697398,0.000002697398,0.000002697398,0.99999994,0,0,0,0,0,0,0,1,0,0,0,false,false,true,-535.54,-1113.49,16.99,-0.0033960238,-0.0033960238,0.71563405,-0.69845873,-184.141,1129.381,8.541,0,-0.00010999999,-0.87101
250.85,2000,0,91.24,0.000002697398,0.000002697398,0.000002697398,0.99999994,0,0,0,0,0,0,0,1,0,0,0,false,false,true,-537.07,-1104.08,16.99,-0.0034068138,-0.0033852346,0.7181627,-0.69585854,-182.811,1129.241,8.541,0,-0.00010999999,-0.91091
250.85834,2000,0,91.24,0.000002697398,0.000002697398,0.000002697398,0.99999994,0,0,0,0,0,0,0,1,0,0,0,false,false,true,-538.58997,-1094.6699,16.99,-0.0034176034,-0.003374445,0.72079766,-0.69312876,-181.371,1129.101,8.541,0,-0.00010999999,-0.94991
250.86667,2000,0,91.24,0.000002697398,0.000002697398,0.000002697398,0.99999994,0,0,0,0,0,0,0,1,0,0,0,false,false,true,-540.1,-1085.26,16.99,-0.003433788,-0.0033582607,0.7235364,-0.69026953,-179.821,1128.9609,8.541,0,-0.00021,-0.98801
250.875,2000,0,91.24,0.000002697398,0.000002697398,0.000002697398,0.99999994,0,0,0,0,0,0,0,1,0,0,0,false,false,true,-541.6,-1075.85,16.99,-0.0034499725,-0.0033420764,0.7263708,-0.6872862,-178.161,1128.8209,8.541,0,-0.00021,-1.02521
250.88333,2000,0,91.24,0.000002697398,0.000002697398,0.000002697398,0.99999994,0,0,0,0,0,0,0,1,0,0,0,false,false,true,-543.08,-1066.44,16.99,-0.0034661568,-0.0033258921,0.7292984,-0.6841788,-176.381,1128.6809,8.541,0,-0.00021,-1.06141
250.89166,2000,0,91.24,0.000002697398,0.000002697398,0.000002697398,0.99999994,0,0,0,0,0,0,0,1,0,0,0,false,false,true,-544.55,-1057.03,16.99,-0.003482341,-0.0033097076,0.7323166,-0.6809473,-174.481,1128.531,8.541,0,-0.00021,-1.09661
250.9,2000,0,91.24,0.000002697398,0.000002697398,0.000002697398,0.99999994,0,0,0,0,0,0,0,1,0,0,0,false,false,true,-546,-1047.63,16.99,-0.003498525,-0.0032935226,0.73542255,-0.67759156,-172.451,1128.381,8.541,0,-0.00021,-1.13081
250.90834,2000,0,91.24,0.000002697398,0.000002697398,0.000002697398,0.99999994,0,0,0,0,0,0,0,1,0,0,0,false,false,true,-547.44,-1038.23,16.99,-0.0035147096,-0.0032773386,0.7386085,-0.6741174,-170.30101,1128.221,8.541,0,-0.00021,-1.1640099
250.91667,2000,0,91.24,0.000002697398,0.000002697398,0.000002697398,0.99999994,0,0,0,0,0,0,0,1,0,0,0,false,false,true,-548.86,-1028.83,16.99,-0.0035308937,-0.0032611538,0.7418717,-0.6705244,-168.021,1128.0409,8.541,0,-0.00021,-1.19621
250.925,2000,0,91.24,0.000002697398,0.000002697398,0.000002697398,0.99999994,0,0,0,0,0,0,0,1,0,0,0,false,false,true,-550.26,-1019.43,16.99,-0.0035470785,-0.0032449698,0.7452048,-0.6668182,-165.61101,1127.851,8.541,-0.00010999999,-0.00021,-1.22751
250.93333,2000,0,91.24,0.000002697398,0.000002697398,0.000002697398,0.99999994,0,0,0,0,0,0,0,1,0,0,0,false,false,true,-551.64,-1010.02997,16.99,-0.0035632628,-0.0032233908,0.7486051,-0.6629987,-163.071,1127.641,8.541,-0.00010999999,-0.00021,-1.25781
250.94167,2000,0,91.24,0.000002697398,0.000002697398,0.000002697398,0.99999994,0,0,0,0,0,0,0,1,0,0,0,false,false,true,-553,-1000.63,16.99,-0.0035794475,-0.0032018118,0.7520698,-0.65906596,-160.41101,1127.401,8.541,-0.00010999999,-0.00021,-1.28721
250.95,2000,0,91.24,0.000002697398,0.000002697398,0.000002697398,0.99999994,0,0,0,0,0,0,0,1,0,0,0,false,false,true,-554.33997,-991.23,16.99,-0.0035956316,-0.0031802324,0.7555917,-0.6550251,-157.621,1127.141,8.541,-0.00010999999,-0.00021,-1.31571
250.95833,2000,0,91.24,0.000002697398,0.000002697398,0.000002697398,0.99999994,0,0,0,0,0,0,0,1,0,0,0,false,false,true,-555.64996,-981.83997,16.99,-0.003611816,-0.0031586532,0.759173,-0.65087116,-154.701,1126.851,8.541,-0.00010999999,-0.00021,-1.34331
250.96666,2000,0,91.24,0.000002697398,0.000002697398,0.000002697398,0.99999994,0,0,0,0,0,0,0,1,0,0,0,false,false,true,-556.94,-972.44995,16.99,-0.0036280006,-0.0031370742,0.7628063,-0.64660925,-151.66101,1126.521,8.541,0,-0.00021,-1.37001
250.975,2000,0,91.24,0.000002697398,0.000002697398,0.000002697398,0.99999994,0,0,0,0,0,0,0,1,0,0,0,false,false,true,-558.2,-963.06,16.99,-0.0036441844,-0.0031154945,0.76648444,-0.64224476,-148.491,1126.161,8.541,0,-0.00021,-1.39591
250.98334,2000,0,91.24,0.000002697398,0.000002697398,0.000002697398,0.99999994,0,0,0,0,0,0,0,1,0,0,0,false,false,true,-559.44,-953.68,16.99,-0.0036603694,-0.0030939158,0.7702053,-0.637778,-145.201,1125.761,8.541,0,-0.00021,-1.42091
250.99167,2000,0,91.24,0.000002697398,0.000002697398,0.000002697398,0.99999994,0,0,0,0,0,0,0,1,0,0,0,false,false,true,-560.64996,-944.3,16.99,-0.0036819484,-0.0030723363,0.7739663,-0.6332085,-141.791,1125.3109,8.541,0,-0.00030999997,-1.44511
251,2000,0,91.24,0.000002697398,0.000002697398,0.000002697398,0.99999994,0,0,0,0,0,0,0,1,0,0,0,false,false,true,-561.83,-934.92,16.99,-0.0037035276,-0.003050757,0.77776515,-0.6285366,-138.261,1124.8109,8.541,0,-0.00030999997,-1.46851
251.00833,2000,0,91.24,0.000002697398,0.000002697398,0.000002697398,0.99999994,0,0,0,0,0,0,0,1,0,0,0,false,false,true,-562.98,-925.55,16.99,-0.003725107,-0.0030291781,0.78159505,-0.6237676,-134.61101,1124.261,8.541,0,-0.00030999997,-1.49111
251.01666,2000,0,91.24,0.000002697398,0.000002697398,0.000002697398,0.99999994,0,0,0,0,0,0,0,1,0,0,0,false,false,true,-564.1,-916.18,16.99,-0.003746686,-0.003007599,0.78545386,-0.61890143,-130.841,1123.661,8.541,0,-0.00030999997,-1.51291
251.025,2000,0,91.24,0.000002697398,0.000002697398,0.000002697398,0.99999994,0,0,0,0,0,0,0,1,0,0,0,false,false,true,-565.19,-906.82,16.99,-0.0037682652,-0.0029806248,0.78933936,-0.6139382,-126.961,1123.001,8.541,-0.00010999999,-0.00030999997,-1.5340099
251.03334,2000,0,91.24,0.000002697398,0.000002697398,0.000002697398,0.99999994,0,0,0,0,0,0,0,1,0,0,0,false,false,true,-566.25,-897.45996,16.99,-0.0037898442,-0.002953651,0.7932493,-0.6088779,-122.97099,1122.281,8.541,-0.00010999999,-0.00030999997,-1.55431
251.04167,2000,0,91.24,0.000002697398,0.000002697398,0.000002697398,0.99999994,0,0,0,0,0,0,0,1,0,0,0,false,false,true,-567.26996,-888.11,16.99,-0.0038114237,-0.002926677,0.79717743,-0.6037259,-118.870995,1121.491,8.541,-0.00010999999,-0.00021,-1.57391
251.05,2000,0,91.24,0.000002697398,0.000002697398,0.000002697398,0.99999994,0,0,0,0,0,0,0,1,0,0,0,false,false,true,-568.26,-878.76,16.99,-0.0038330022,-0.0028997026,0.80111766,-0.5984874,-114.660995,1120.631,8.541,-0.00010999999,-0.00010999999,-1.5928099
251.05833,2000,0,91.24,0.000002697398,0.000002697398,0.000002697398,0.99999994,0,0,0,0,0,0,0,1,0,0,0,false,false,true,-569.22,-869.42,16.99,-0.0038545819,-0.002872729,0.80507207,-0.5931574,-110.351,1119.7009,8.541,-0.00010999999,-0.00010999999,-1.6109099
251.06667,2000,0,91.24,0.000002697398,0.000002697398,0.000002697398,0.99999994,0,0,0,0,0,0,0,1,0,0,0,false,false,true,-570.14,-860.08997,16.99,-0.0038761613,-0.002845755,0.8090348,-0.587741,-105.940994,1118.7009,8.541,-0.00010999999,0,-1.62831
251.075,2000,0,91.24,0.000002697398,0.000002697398,0.000002697398,0.99999994,0,0,0,0,0,0,0,1,0,0,0,false,false,true,-571.01996,-850.76996,16.99,-0.0038977403,-0.002818781,0.8130039,-0.58223826,-101.431,1117.621,8.541,-0.00010999999,0,-1.64511
251.08333,2000,0,91.24,0.000002697398,0.000002697398,0.000002697398,0.99999994,0,0,0,0,0,0,0,1,0,0,0,false,false,true,-571.87,-841.45996,16.99,-0.0039193192,-0.002791807,0.81697756,-0.57664925,-96.83099,1116.4609,8.541,-0.00010999999,0,-1.66121
251.09166,2000,0,91.24,0.000002697398,0.000002697398,0.000002697398,0.99999994,0,0,0,0,0,0,0,1,0,0,0,false,false,true,-572.68,-832.16,16.99,-0.0039408985,-0.002764833,0.8209502,-0.5709793,-92.141,1115.221,8.541,-0.00021,0,-1.67661
251.1,2000,0,91.24,0.000002697398,0.000002697398,0.000002697398,0.99999994,0,0,0,0,0,0,0,1,0,0,0,false,false,true,-573.45,-822.87,16.99,-0.0039570834,-0.0027378593,0.82492036,-0.56522846,-87.370995,1113.891,8.541,-0.00021,0,-1.69141
251.10834,2000,0,91.24,0.000002697398,0.000002697398,0.000002697398,0.99999994,0,0,0,0,0,0,0,1,0,0,0,false,false,true,-574.18,-813.58997,16.99,-0.003973267,-0.002710885,0.8288824,-0.55940205,-82.510994,1112.471,8.541,-0.00021,0,-1.70551
251.11667,2000,0,91.24,0.000002697398,0.000002697398,0.000002697398,0.99999994,0,0,0,0,0,0,0,1,0,0,0,false,false,true,-574.87,-804.32,16.99,-0.0039894516,-0.002683911,0.83283514,-0.55350006,-77.581,1110.9609,8.541,-0.00021,0,-1.71901
251.125,2000,0,91.24,0.000002697398,0.000002697398,0.000002697398,0.99999994,0,0,0,0,0,0,0,1,0,0,0,false,false,true,-575.51996,-795.06,16.99,-0.004005636,-0.002656937,0.836777,-0.54752266,-72.571,1109.351,8.541,-0.00021,0,-1.73181
251.13333,2000,0,91.24,0.000002697398,0.000002697398,0.000002697398,0.99999994,0,0,0,0,0,0,0,1,0,0,0,false,false,true,-576.12,-785.82,16.99,-0.00402182,-0.0026245683,0.84070647,-0.54146963,-67.491,1107.651,8.541,-0.00021,0,-1.74401
251.14166,2000,0,91.24,0.000002697398,0.000002697398,0.000002697398,0.99999994,0,0,0,0,0,0,0,1,0,0,0,false,false,true,-576.68,-776.58997,16.99,-0.004038005,-0.0025921997,0.84461886,-0.53534657,-62.350998,1105.851,8.541,-0.00021,-0.00010999999,-1.75561
251.15,2000,0,91.24,0.000002697398,0.000002697398,0.000002697398,0.99999994,0,0,0,0,0,0,0,1,0,0,0,false,false,true,-577.2,-767.37,16.99,-0.004054189,-0.0025598307,0.8485126,-0.5291533,-57.150997,1103.9509,8.541,-0.00010999999,-0.00010999999,-1.76661
251.15834,2000,0,91.24,0.000002697398,0.000002697398,0.000002697398,0.99999994,0,0,0,0,0,0,0,1,0,0,0,false,false,true,-577.68,-758.17,16.99,-0.0040703737,-0.0025274619,0.8523834,-0.52289534,-51.891,1101.9509,8.541,0,-0.00010999999,-1.77701
251.16667,2000,0,91.24,0.000002697398,0.000002697398,0.000002697398,0.99999994,0,0,0,0,0,0,0,1,0,0,0,false,false,true,-578.11,-748.99,16.99,-0.0040919525,-0.0024950933,0.8562332,-0.5165672,-46.580997,1099.851,8.541,0,-0.00021,-1.7868099
251.175,2000,0,91.24,0.000002697398,0.000002697398,0.000002697398,0.99999994,0,0,0,0,0,0,0,1,0,0,0,false,false,true,-578.5,-739.82,16.99,-0.0041135317,-0.0024627245,0.8600544,-0.5101797,-41.220997,1097.641,8.541,0,-0.00021,-1.7961099
251.18333,2000,0,91.24,0.000002697398,0.000002697398,0.000002697398,0.99999994,0,0,0,0,0,0,0,1,0,0,0,false,false,true,-578.83997,-730.67,16.99,-0.004135111,-0.0024303556,0.8638492,-0.5037275,-35.810997,1095.3309,8.541,0,-0.00021,-1.8048099
251.19167,2000,0,91.24,0.000002697398,0.000002697398,0.000002697398,0.99999994,0,0,0,0,0,0,0,1,0,0,0,false,false,true,-579.14,-721.54,16.99,-0.00415669,-0.0023979868,0.8676135,-0.497216,-30.370998,1092.911,8.541,0,-0.00010999999,-1.81291
251.2,2000,0,91.24,0.000002697398,0.000002697398,0.000002697398,0.99999994,0,0,0,0,0,0,0,1,0,0,0,false,false,true,-579.39,-712.43,16.99,-0.0041728746,-0.002365618,0.8713432,-0.49065048,-24.890999,1090.381,8.541,0,0,-1.8205099
251.20833,2000,0,91.24,0.000002697398,0.000002697398,0.000002697398,0.99999994,0,0,0,0,0,0,0,1,0,0,0,false,false,true,-579.6,-703.33997,16.99,-0.004189059,-0.0023332492,0.8750406,-0.48402566,-19.380999,1087.741,8.541,0,0,-1.82751
251.21666,2000,0,91.24,0.000002697398,0.000002697398,0.000002697398,0.99999994,0,0,0,0,0,0,0,1,0,0,0,false,false,true,-579.76,-694.27997,16.99,-0.0042052437,-0.0023008806,0.8787018,-0.4773469,-13.851,1084.991,8.541,0,0,-1.83401
251.225,2000,0,91.24,0.000002697398,0.000002697398,0.000002697398,0.99999994,0,0,0,0,0,0,0,1,0,0,0,false,false,true,-579.88,-685.24,16.99,-0.0042214277,-0.0022685118,0.8823232,-0.4706195,-8.301001,1082.131,8.541,0,0,-1.8399099
251.23334,2000,0,91.24,0.000002697398,0.000002697398,0.000002697398,0.99999994,0,0,0,0,0,0,0,1,0,0,0,false,false,true,-579.95,-676.22,16.99,-0.0042376122,-0.002236143,0.8859041,-0.46384364,-2.731,1079.161,8.551001,0,0,-1.84531
251.24167,2000,0,91.24,0.000002697398,0.000002697398,0.000002697398,0.99999994,0,0,0,0,0,0,0,1,0,0,0,false,false,true,-579.97,-667.23,16.99,-0.0042537972,-0.0022037744,0.8894439,-0.45701927,2.8409998,1076.091,8.551001,0,-0.00010999999,-1.8501099
251.25,2000,0,91.24,0.000002697398,0.000002697398,0.000002697398,0.99999994,0,0,0,0,0,0,0,1,0,0,0,false,false,true,-579.95,-658.26,16.99,-0.004269981,-0.0021714054,0.89293927,-0.45015156,8.4210005,1072.911,8.551001,0,-0.00010999999,-1.8544099
251.25833,2000,0,91.24,0.000002697398,0.000002697398,0.000002697398,0.99999994,0,0,0,0,0,0,0,1,0,0,0,false,false,true,-579.88,-649.32,16.99,-0.0042861653,-0.0021390365,0.8963897,-0.44324082,14.001,1069.621,8.551001,0,-0.00010999999,-1.85821
251.26666,2000,0,91.24,0.000002697398,0.000002697398,0.000002697398,0.99999994,0,0,0,0,0,0,0,1,0,0,0,false,false,true,-579.76,-640.41,16.99,-0.00430235,-0.0021066677,0.89979476,-0.43628696,19.581,1066.221,8.551001,0,-0.00021,-1.8615099
251.275,2000,0,91.24,0.000002697398,0.000002697398,0.000002697398,0.99999994,0,0,0,0,0,0,0,1,0,0,0,false,false,true,-579.6,-631.51996,16.99,-0.004318534,-0.002074299,0.90315145,-0.42929524,25.151,1062.7109,8.551001,0,-0.00021,-1.8643099
251.28334,2000,0,91.24,0.000002697398,0.000002697398,0.000002697398,0.99999994,0,0,0,0,0,0,0,1,0,0,0,false,false,true,-579.39,-622.66,16.99,-0.0043347185,-0.0020419303,0.90645933,-0.42226577,30.710999,1059.091,8.551001,0,-0.00021,-1.8666099
251.29167,2000,0,91.24,0.000002697398,0.000002697398,0.000002697398,0.99999994,0,0,0,0,0,0,0,1,0,0,0,false,false,true,-579.13,-613.82996,16.99,-0.0043509034,-0.0020095618,0.90971565,-0.41520402,36.260998,1055.371,8.551001,0,-0.00021,-1.86841
251.3,2000,0,91.24,0.000002697398,0.000002697398,0.000002697398,0.99999994,0,0,0,0,0,0,0,1,0,0,0,false,false,true,-578.83,-605.04,16.99,-0.0043670875,-0.0019771927,0.9129202,-0.40810978,41.791,1051.5409,8.551001,0,-0.00021,-1.86971
251.30833,2000,0,91.24,0.000002697398,0.000002697398,0.000002697398,0.99999994,0,0,0,0,0,0,0,1,0,0,0,false,false,true,-578.48,-596.27997,16.99,-0.0043832716,-0.001944824,0.9160728,-0.4009832,47.301,1047.611,8.551001,-0.00010999999,-0.00021,-1.87051
251.31667,2000,0,91.24,0.000002697398,0.000002697398,0.000002697398,0.99999994,0,0,0,0,0,0,0,1,0,0,0,false,false,true,-578.08997,-587.55,16.99,-0.0043994565,-0.0019124553,0.91917086,-0.39382976,52.781,1043.5809,8.551001,-0.00010999999,-0.00021,-1.8708099
251.325,2000,0,91.24,0.000002697398,0.000002697398,0.000002697398,0.99999994,0,0,0,0,0,0,0,1,0,0,0,false,false,true,-577.64996,-578.85,16.99,-0.0044156406,-0.0018746917,0.92221206,-0.38665462,58.231,1039.4409,8.551001,-0.00021,-0.00021,-1.87061
251.33333,2000,0,91.24,0.000002697398,0.000002697398,0.000002697398,0.99999994,0,0,0,0,0,0,0,1,0,0,0,false,false,true,-577.16,-570.19,16.99,-0.004431825,-0.0018369282,0.92519873,-0.37945253,63.641,1035.2109,8.551001,-0.00021,-0.00021,-1.86991
251.34166,2000,0,91.24,0.000002697398,0.000002697398,0.000002697398,0.99999994,0,0,0,0,0,0,0,1,0,0,0,false,false,true,-576.63,-561.56,16.99,-0.004448009,-0.0017991646,0.92812634,-0.37223428,69.011,1030.881,8.551001,-0.00021,-0.00021,-1.8687099
251.35,2000,0,91.24,0.000002697398,0.000002697398,0.000002697398,0.99999994,0,0,0,0,0,0,0,1,0,0,0,false,false,true,-576.05,-552.97,16.99,-0.0044641937,-0.001761401,0.9309973,-0.3649944,74.340996,1026.4509,8.551001,-0.00021,-0.00021,-1.86711
251.35834,2000,0,91.24,0.000002697398,0.000002697398,0.000002697398,0.99999994,0,0,0,0,0,0,0,1,0,0,0,false,false,true,-575.43,-544.42,16.99,-0.0044803787,-0.0017236375,0.93380946,-0.3577384,79.620995,1021.93097,8.551001,-0.00021,-0.00010999999,-1.86501
