time,ball_loc_x,ball_loc_y,ball_loc_z,ball_rot_x,ball_rot_y,ball_rot_z,ball_rot_w,ball_vel_x,ball_vel_y,ball_vel_z,ball_ang_x,ball_ang_y,ball_ang_z,player0_throttle,player0_steer,player0_pitch,player0_yaw,player0_roll,player0_jump,player0_boost,player0_handbrake,player0_loc_x,player0_loc_y,player0_loc_z,player0_rot_x,player0_rot_y,player0_rot_z,player0_rot_w,player0_vel_x,player0_vel_y,player0_vel_z,player0_ang_x,player0_ang_y,player0_ang_z
167.36667,2000,0,91.24,0.000002697398,0.000002697398,0.000002697398,0.99999994,0,0,0,0,0,0,1,0,0,0,0,false,false,false,0,-3542.3098,17.01,-0.003347471,0.00336905,0.70708513,0.7071124,0,1300.0409,8.321,-0.00071,-0.00010999999,0
167.375,2000,0,91.24,0.000002697398,0.000002697398,0.000002697398,0.99999994,0,0,0,0,0,0,1,1,0,0,0,false,false,true,0,-3531.48,17.01,-0.003347471,0.00336905,0.70708513,0.7071124,-12.791,1300.371,8.331,-0.00071,0.00311,0.35531
167.38333,2000,0,91.24,0.000002697398,0.000002697398,0.000002697398,0.99999994,0,0,0,0,0,0,1,1,0,0,0,false,false,true,-0.11,-3520.64,17.01,-0.003347471,0.003374445,0.7081304,0.70606554,-23.101,1300.971,8.341001,-0.00071,0.0043099998,0.62861
167.39166,2000,0,91.24,0.000002697398,0.000002697398,0.000002697398,0.99999994,0,0,0,0,0,0,1,1,0,0,0,false,false,true,-0.29999998,-3509.7998,17.01,-0.003347471,0.0033798397,0.709976,0.7042097,-32.951,1301.5709,8.341001,-0.00071,0.00461,0.86581
167.4,2000,0,91.24,0.000002697398,0.000002697398,0.000002697398,0.99999994,0,0,0,0,0,0,1,1,0,0,0,false,false,true,-0.57,-3498.95,17.01,-0.003347471,0.0033852346,0.71251386,0.7016418,-42.731,1302.111,8.341001,-0.00061,0.00441,1.07311
167.40834,2000,0,91.24,0.000002697398,0.000002697398,0.000002697398,0.99999994,0,0,0,0,0,0,1,1,0,0,0,false,false,true,-0.93,-3488.0999,17.01,-0.0033528658,0.0033852346,0.7156448,0.69844806,-52.700996,1302.5409,8.341001,-0.00061,0.00391,1.25571
167.41667,2000,0,91.24,0.000002697398,0.000002697398,0.000002697398,0.99999994,0,0,0,0,0,0,1,1,0,0,0,false,false,true,-1.37,-3477.25,17.01,-0.0033582605,0.0033798397,0.71929026,0.6946932,-63.021,1302.8209,8.341001,-0.00051,0.00321,1.41771
167.425,2000,0,91.24,0.000002697398,0.000002697398,0.000002697398,0.99999994,0,0,0,0,0,0,1,1,0,0,0,false,false,true,-1.9,-3466.39,17.01,-0.0033690496,0.0033690496,0.7233822,0.69043124,-73.751,1302.9109,8.341001,-0.00051,0.00251,1.5627099
167.43333,2000,0,91.24,0.000002697398,0.000002697398,0.000002697398,0.99999994,0,0,0,0,0,0,1,1,0,0,0,false,false,true,-2.51,-3455.53,17.01,-0.0033852346,0.0033582605,0.7278634,0.6857055,-84.921,1302.771,8.341001,-0.00051,0.0018099999,1.69331
167.44167,2000,0,91.24,0.000002697398,0.000002697398,0.000002697398,0.99999994,0,0,0,0,0,0,1,1,0,0,0,false,false,true,-3.22,-3444.67,17.01,-0.0034068138,0.0033420762,0.7326828,0.68055344,-96.510994,1302.381,8.341001,-0.00040999998,0.00111,1.81181
167.45,2000,0,91.24,0.000002697398,0.000002697398,0.000002697398,0.99999994,0,0,0,0,0,0,1,1,0,0,0,false,false,true,-4.02,-3433.8198,17.01,-0.003428393,0.003320497,0.7378002,0.6750022,-108.471,1301.7109,8.341001,-0.00030999997,0.00061,1.92001
167.45833,2000,0,91.24,0.000002697398,0.000002697398,0.000002697398,0.99999994,0,0,0,0,0,0,1,1,0,0,0,false,false,true,-4.92,-3422.97,17.01,-0.0034553665,0.0032935226,0.74317616,0.6690786,-120.730995,1300.761,8.341001,-0.00030999997,0.00010999999,2.0192099
167.46666,2000,0,91.24,0.000002697398,0.000002697398,0.000002697398,0.99999994,0,0,0,0,0,0,1,1,0,0,0,false,false,true,-5.93,-3412.13,17.01,-0.0034823408,0.003266549,0.7487772,0.6628045,-133.19101,1299.511,8.341001,-0.00021,-0.00021,2.11041
167.475,2000,0,91.24,0.000002697398,0.000002697398,0.000002697398,0.99999994,0,0,0,0,0,0,1,1,0,0,0,false,false,true,-7.04,-3401.2998,17.01,-0.0035147092,0.0032341802,0.75457543,0.65619576,-145.761,1297.971,8.341001,-0.00021,-0.00040999998,2.19451
167.48334,2000,0,91.24,0.000002697398,0.000002697398,0.000002697398,0.99999994,0,0,0,0,0,0,1,1,0,0,0,false,false,true,-8.25,-3390.48,17.01,-0.0035470785,0.0032018116,0.7605439,0.64926887,-158.33101,1296.1609,8.341001,-0.00010999999,-0.00061,2.27211
167.49167,2000,0,91.24,0.000002697398,0.000002697398,0.000002697398,0.99999994,0,0,0,0,0,0,1,1,0,0,0,false,false,true,-9.57,-3379.68,17.01,-0.0035794475,0.003169443,0.7666563,0.6420399,-170.781,1294.091,8.341001,0,-0.00081,2.34361
167.5,2000,0,91.24,0.000002697398,0.000002697398,0.000002697398,0.99999994,0,0,0,0,0,0,1,1,0,0,0,false,false,true,-10.99,-3368.9,17.01,-0.003611816,0.0031316793,0.7728875,0.6345249,-182.981,1291.8009,8.341001,0,-0.00091,2.40941
167.50833,2000,0,91.24,0.000002697398,0.000002697398,0.000002697398,0.99999994,0,0,0,0,0,0,1,1,0,0,0,false,false,true,-12.509999,-3358.13,17.01,-0.003644185,0.0030939155,0.77921796,0.6267347,-194.80101,1289.3309,8.341001,0,-0.0010099999,2.4697099
167.51666,2000,0,91.24,0.000002697398,0.000002697398,0.000002697398,0.99999994,0,0,0,0,0,0,1,1,0,0,0,false,false,true,-14.13,-3347.39,17.01,-0.0036765537,0.0030561523,0.785624,0.6186857,-206.11101,1286.751,8.341001,0,-0.00111,2.52461
167.525,2000,0,91.24,0.000002697398,0.000002697398,0.000002697398,0.99999994,0,0,0,0,0,0,1,1,0,0,0,false,false,true,-15.849999,-3336.67,17.01,-0.0037143172,0.0030129936,0.7920877,0.61038846,-216.771,1284.121,8.341001,0,-0.0012099999,2.57411
167.53334,2000,0,91.24,0.000002697398,0.000002697398,0.000002697398,0.99999994,0,0,0,0,0,0,1,1,0,0,0,false,false,true,-17.66,-3325.97,17.01,-0.003752081,0.0029698354,0.7985878,0.6018593,-226.631,1281.531,8.341001,0.00010999999,-0.00131,2.6182098
167.54167,2000,0,91.24,0.000002697398,0.000002697398,0.000002697398,0.99999994,0,0,0,0,0,0,1,1,0,0,0,false,false,true,-19.55,-3315.29,17.01,-0.0037898442,0.0029266768,0.80510795,0.59310883,-235.551,1279.091,8.341001,0.00021,-0.00131,2.65691
167.55,2000,0,91.24,0.000002697398,0.000002697398,0.000002697398,0.99999994,0,0,0,0,0,0,1,1,0,0,0,false,false,true,-21.51,-3304.63,17.01,-0.003827608,0.0028781237,0.8116252,0.5841588,-243.381,1276.9109,8.341001,0.00030999997,-0.00131,2.6900098
167.55833,2000,0,91.24,0.000002697398,0.000002697398,0.000002697398,0.99999994,0,0,0,0,0,0,1,1,0,0,0,false,false,true,-23.539999,-3293.99,17.01,-0.0038653715,0.0028295706,0.81812143,0.5750254,-249.961,1275.131,8.341001,0.00030999997,-0.00131,2.7174098
167.56667,2000,0,91.24,0.000002697398,0.000002697398,0.000002697398,0.99999994,0,0,0,0,0,0,1,1,0,0,0,false,false,true,-25.619999,-3283.3599,17.01,-0.003903135,0.0027810175,0.8245801,0.5657248,-255.151,1273.901,8.341001,0.00040999998,-0.00131,2.73891
167.575,2000,0,91.24,0.000002697398,0.000002697398,0.000002697398,0.99999994,0,0,0,0,0,0,1,1,0,0,0,false,false,true,-27.75,-3272.74,17.01,-0.003935504,0.002732464,0.8309821,0.5562784,-260.561,1272.4609,8.341001,0.00040999998,-0.0012099999,2.75981
167.58333,2000,0,91.24,0.000002697398,0.000002697398,0.000002697398,0.99999994,0,0,0,0,0,0,1,1,0,0,0,false,false,true,-29.92,-3262.14,17.01,-0.0039678724,0.002683911,0.8373236,0.5466865,-266.181,1270.8009,8.341001,0.00040999998,-0.00111,2.78031
167.59166,2000,0,91.24,0.000002697398,0.000002697398,0.000002697398,0.99999994,0,0,0,0,0,0,1,1,0,0,0,false,false,true,-32.14,-3251.55,17.01,-0.004000241,0.002635358,0.84360117,0.53694874,-272.001,1268.9109,8.341001,0.00040999998,-0.0010099999,2.80051
167.6,2000,0,91.24,0.000002697398,0.000002697398,0.000002697398,0.99999994,0,0,0,0,0,0,1,1,0,0,0,false,false,true,-34.41,-3240.98,17.01,-0.00403261,0.0025868048,0.84980774,0.5270709,-278.011,1266.7909,8.341001,0.00040999998,-0.0010099999,2.8203099
167.60834,2000,0,91.24,0.000002697398,0.000002697398,0.000002697398,0.99999994,0,0,0,0,0,0,1,1,0,0,0,false,false,true,-36.73,-3230.42,17.01,-0.0040649786,0.0025382515,0.8559433,0.5170473,-284.191,1264.4409,8.341001,0.00040999998,-0.00091,2.83981
167.61667,2000,0,91.24,0.000002697398,0.000002697398,0.000002697398,0.99999994,0,0,0,0,0,0,1,1,0,0,0,false,false,true,-39.1,-3219.88,17.01,-0.004097348,0.002484304,0.8620012,0.50688356,-290.531,1261.861,8.341001,0.00040999998,-0.00081,2.85901
167.625,2000,0,91.24,0.000002697398,0.000002697398,0.000002697398,0.99999994,0,0,0,0,0,0,1,1,0,0,0,false,false,true,-41.52,-3209.3599,17.01,-0.004129716,0.0024303556,0.86797804,0.49657935,-297.011,1259.0409,8.341001,0.00040999998,-0.00071,2.87781
167.63333,2000,0,91.24,0.000002697398,0.000002697398,0.000002697398,0.99999994,0,0,0,0,0,0,1,1,0,0,0,false,false,true,-44,-3198.8699,17.01,-0.0041620852,0.0023764076,0.8738705,0.48613504,-303.621,1255.981,8.341001,0.00040999998,-0.00061,2.8963099
167.64166,2000,0,91.24,0.000002697398,0.000002697398,0.000002697398,0.99999994,0,0,0,0,0,0,1,1,0,0,0,false,false,true,-46.53,-3188.4,17.01,-0.0041944534,0.0023224594,0.8796723,0.47555578,-310.351,1252.6809,8.341001,0.00040999998,-0.00051,2.91451
167.65,2000,0,91.24,0.000002697398,0.000002697398,0.000002697398,0.99999994,0,0,0,0,0,0,1,1,0,0,0,false,false,true,-49.12,-3177.96,17.01,-0.0042214277,0.0022685118,0.8853836,0.4648363,-317.191,1249.141,8.341001,0.00040999998,-0.00040999998,2.93241
167.65834,2000,0,91.24,0.000002697398,0.000002697398,0.000002697398,0.99999994,0,0,0,0,0,0,1,1,0,0,0,false,false,true,-51.76,-3167.55,17.01,-0.0042484016,0.0022145638,0.8909979,0.45398197,-324.121,1245.361,8.341001,0.00040999998,-0.00030999997,2.9500098
167.66667,2000,0,91.24,0.000002697398,0.000002697398,0.000002697398,0.99999994,0,0,0,0,0,0,1,1,0,0,0,false,false,true,-54.46,-3157.17,17.01,-0.004275376,0.0021606158,0.8965097,0.44299808,-331.131,1241.341,8.341001,0.00040999998,-0.00030999997,2.96731
167.675,2000,0,91.24,0.000002697398,0.000002697398,0.000002697398,0.99999994,0,0,0,0,0,0,1,1,0,0,0,false,false,true,-57.219997,-3146.8298,17.01,-0.0043023503,0.002106668,0.9019186,0.43187943,-338.211,1237.091,8.341001,0.00040999998,-0.00030999997,2.98431
167.68333,2000,0,91.24,0.000002697398,0.000002697398,0.000002697398,0.99999994,0,0,0,0,0,0,1,1,0,0,0,false,false,true,-60.039997,-3136.52,17.01,-0.0043293242,0.0020527202,0.90721905,0.4206312,-345.351,1232.601,8.341001,0.00040999998,-0.00030999997,3.00091
167.69167,2000,0,91.24,0.000002697398,0.000002697398,0.000002697398,0.99999994,0,0,0,0,0,0,1,1,0,0,0,false,false,true,-62.92,-3126.25,17.01,-0.0043562977,0.001998772,0.91240805,0.40925354,-352.531,1227.881,8.341001,0.00040999998,-0.00021,3.01721
167.7,2000,0,91.24,0.000002697398,0.000002697398,0.000002697398,0.99999994,0,0,0,0,0,0,1,1,0,0,0,false,false,true,-65.86,-3116.02,17.01,-0.004383271,0.001939429,0.9174804,0.39775172,-359.741,1222.9309,8.341001,0.00040999998,-0.00021,3.03321
167.70833,2000,0,91.24,0.000002697398,0.000002697398,0.000002697398,0.99999994,0,0,0,0,0,0,1,1,0,0,0,false,false,true,-68.86,-3105.8298,17.01,-0.004404851,0.0018800865,0.9224336,0.38612586,-366.981,1217.751,8.341001,0.00040999998,-0.00010999999,3.04891
167.71666,2000,0,91.24,0.000002697398,0.000002697398,0.000002697398,0.99999994,0,0,0,0,0,0,1,1,0,0,0,false,false,true,-71.92,-3095.68,17.01,-0.00442643,0.0018207437,0.9272646,0.374376,-374.231,1212.351,8.341001,0.00030999997,-0.00010999999,3.0643098
167.725,2000,0,91.24,0.000002697398,0.000002697398,0.000002697398,0.99999994,0,0,0,0,0,0,1,1,0,0,0,false,false,true,-75.04,-3085.5798,17.01,-0.004448009,0.001761401,0.93196857,0.36250737,-381.481,1206.731,8.341001,0.00021,-0.00010999999,3.0794098
167.73334,2000,0,91.24,0.000002697398,0.000002697398,0.000002697398,0.99999994,0,0,0,0,0,0,1,1,0,0,0,false,false,true,-78.22,-3075.52,17.01,-0.0044695884,0.0017020581,0.9365429,0.35052013,-388.731,1200.901,8.341001,0.00021,-0.00010999999,3.09421
167.74167,2000,0,91.24,0.000002697398,0.000002697398,0.000002697398,0.99999994,0,0,0,0,0,0,1,1,0,0,0,false,false,true,-81.46,-3065.51,17.01,-0.0044911676,0.0016427154,0.9409831,0.33841953,-395.961,1194.861,8.341001,0.00010999999,-0.00010999999,3.10871
167.75,2000,0,91.24,0.000002697398,0.000002697398,0.000002697398,0.99999994,0,0,0,0,0,0,1,1,0,0,0,false,false,true,-84.759995,-3055.55,17.01,-0.004512747,0.0015833727,0.9452885,0.3262003,-403.171,1188.621,8.341001,0.00010999999,-0.00010999999,3.12281
167.75833,2000,0,91.24,0.000002697398,0.000002697398,0.000002697398,0.99999994,0,0,0,0,0,0,1,1,0,0,0,false,false,true,-88.119995,-3045.64,17.01,-0.004534326,0.0015240299,0.9494528,0.3138731,-410.35098,1182.1809,8.341001,0.00010999999,0,3.13661
167.76666,2000,0,91.24,0.000002697398,0.000002697398,0.000002697398,0.99999994,0,0,0,0,0,0,1,1,0,0,0,false,false,true,-91.54,-3035.79,17.01,-0.0045559052,0.0014646872,0.9534737,0.3014381,-417.491,1175.5509,8.341001,0.00010999999,0,3.15011
167.775,2000,0,91.24,0.000002697398,0.000002697398,0.000002697398,0.99999994,0,0,0,0,0,0,1,1,0,0,0,false,false,true,-95.02,-3025.99,17.01,-0.0045720893,0.0014053442,0.95734864,0.2888951,-424.581,1168.741,8.341001,0.00010999999,0,3.16331
167.78334,2000,0,91.24,0.000002697398,0.000002697398,0.000002697398,0.99999994,0,0,0,0,0,0,1,1,0,0,0,false,false,true,-98.56,-3016.25,17.01,-0.004588274,0.0013460016,0.96107394,0.2762497,-431.621,1161.751,8.341001,0.00010999999,0,3.17621
167.79167,2000,0,91.24,0.000002697398,0.000002697398,0.000002697398,0.99999994,0,0,0,0,0,0,1,1,0,0,0,false,false,true,-102.159996,-3006.5698,17.01,-0.004604459,0.0012866589,0.96464556,0.26350716,-438.60098,1154.591,8.341001,0.00010999999,0,3.18871
167.8,2000,0,91.24,0.000002697398,0.000002697398,0.000002697398,0.99999994,0,0,0,0,0,0,1,1,0,0,0,false,false,true,-105.81,-2996.95,17.01,-0.004620643,0.0012273161,0.9680614,0.25066742,-445.521,1147.261,8.341001,0.00010999999,0,3.2009099
167.80833,2000,0,91.24,0.000002697398,0.000002697398,0.000002697398,0.99999994,0,0,0,0,0,0,1,1,0,0,0,false,false,true,-109.52,-2987.39,17.01,-0.0046368274,0.0011625787,0.971318,0.23773612,-452.371,1139.781,8.341001,0.00010999999,0,3.21281
167.81667,2000,0,91.24,0.000002697398,0.000002697398,0.000002697398,0.99999994,0,0,0,0,0,0,1,1,0,0,0,false,false,true,-113.29,-2977.89,17.01,-0.0046530114,0.001097841,0.9744132,0.22471298,-459.151,1132.151,8.341001,0.00010999999,0,3.22431
167.825,2000,0,91.24,0.000002697398,0.000002697398,0.000002697398,0.99999994,0,0,0,0,0,0,1,1,0,0,0,false,false,true,-117.119995,-2968.46,17.01,-0.004669196,0.0010331034,0.9773438,0.21160363,-465.85098,1124.381,8.341001,0.00010999999,0,3.2355099
167.83333,2000,0,91.24,0.000002697398,0.000002697398,0.000002697398,0.99999994,0,0,0,0,0,0,1,1,0,0,0,false,false,true,-121,-2959.0898,17.01,-0.0046799853,0.00096836593,0.98010784,0.19840787,-472.481,1116.471,8.341001,0.00010999999,0,3.24631
167.84166,2000,0,91.24,0.000002697398,0.000002697398,0.000002697398,0.99999994,0,0,0,0,0,0,1,1,0,0,0,false,false,true,-124.939995,-2949.79,17.01,-0.004690775,0.00090362836,0.98270214,0.18513119,-479.031,1108.4409,8.341001,0.00010999999,0,3.25681
167.85,2000,0,91.24,0.000002697398,0.000002697398,0.000002697398,0.99999994,0,0,0,0,0,0,1,1,0,0,0,false,false,true,-128.93,-2940.55,17.01,-0.0047015646,0.0008388908,0.9851239,0.17177907,-485.501,1100.2909,8.341001,0.00010999999,0,3.2669098
167.85834,2000,0,91.24,0.000002697398,0.000002697398,0.000002697398,0.99999994,0,0,0,0,0,0,1,1,0,0,0,false,false,true,-132.98,-2931.38,17.01,-0.0047123544,0.0007741532,0.9873712,0.15835135,-491.891,1092.021,8.341001,0.00010999999,0,3.27671
167.86667,2000,0,91.24,0.000002697398,0.000002697398,0.000002697398,0.99999994,0,0,0,0,0,0,1,1,0,0,0,false,false,true,-137.08,-2922.28,17.01,-0.0047231433,0.00070941565,0.9894406,0.14485894,-498.201,1083.651,8.341001,0.00010999999,0,3.28611
167.875,2000,0,91.24,0.000002697398,0.000002697398,0.000002697398,0.99999994,0,0,0,0,0,0,1,1,0,0,0,false,false,true,-141.23,-2913.25,17.01,-0.0047339336,0.00064467813,0.9913316,0.13129635,-504.431,1075.1809,8.341001,0.00010999999,0,3.29521
167.88333,2000,0,91.24,0.000002697398,0.000002697398,0.000002697398,0.99999994,0,0,0,0,0,0,1,1,0,0,0,false,false,true,-145.43,-2904.29,17.01,-0.0047447234,0.0005799406,0.9930407,0.11767442,-510.581,1066.621,8.341001,0.00010999999,0,3.30391
167.89166,2000,0,91.24,0.000002697398,0.000002697398,0.000002697398,0.99999994,0,0,0,0,0,0,1,1,0,0,0,false,false,true,-149.68,-2895.4,17.01,-0.004750118,0.00051520305,0.9945665,0.103993215,-516.65094,1057.971,8.341001,0.00010999999,0.00010999999,3.3122098
167.9,2000,0,91.24,0.000002697398,0.000002697398,0.000002697398,0.99999994,0,0,0,0,0,0,1,1,0,0,0,false,false,true,-153.98999,-2886.5798,17.01,-0.004755513,0.00045046548,0.9959069,0.09025797,-522.65094,1049.241,8.341001,0.00010999999,0.00010999999,3.32021
167.90834,2000,0,91.24,0.000002697398,0.000002697398,0.000002697398,0.99999994,0,0,0,0,0,0,1,1,0,0,0,false,false,true,-158.34999,-2877.8398,17.01,-0.0047609075,0.0003857279,0.99706006,0.07647418,-528.571,1040.4409,8.341001,0.00010999999,0.00010999999,3.3278098
167.91667,2000,0,91.24,0.000002697398,0.000002697398,0.000002697398,0.99999994,0,0,0,0,0,0,1,1,0,0,0,false,false,true,-162.75,-2869.17,17.01,-0.004766302,0.00032099037,0.9980246,0.062641926,-534.43097,1031.5709,8.341001,0.00010999999,0.00010999999,3.3350098
167.925,2000,0,91.24,0.000002697398,0.000002697398,0.000002697398,0.99999994,0,0,0,0,0,0,1,1,0,0,0,false,false,true,-167.2,-2860.5698,17.01,-0.004771697,0.0002562528,0.9987987,0.048766427,-540.22095,1022.631,8.341001,0.00010999999,0.00010999999,3.34181
167.93333,2000,0,91.24,0.000002697398,0.000002697398,0.000002697398,0.99999994,0,0,0,0,0,0,1,1,0,0,0,false,false,true,-171.7,-2852.05,17.01,-0.0047716973,0.00019151528,0.999381,0.03485325,-545.951,1013.631,8.341001,0.00010999999,0.00021,3.34831
167.94167,2000,0,91.24,0.000002697398,0.000002697398,0.000002697398,0.99999994,0,0,0,0,0,0,1,1,0,0,0,false,false,true,-176.25,-2843.5999,17.01,-0.004771697,0.0001267777,0.99977,0.020907616,-551.631,1004.58093,8.341001,0.00010999999,0.00021,3.35441
167.95,2000,0,91.24,0.000002697398,0.000002697398,0.000002697398,0.99999994,0,0,0,0,0,0,1,1,0,0,0,false,false,true,-180.84999,-2835.23,17.01,-0.0047716973,0.00006204016,0.99996454,0.006935011,-557.261,995.47095,8.341001,0.00010999999,0.00021,3.36011
167.95833,2000,0,91.24,0.000002697398,0.000002697398,0.000002697398,0.99999994,0,0,0,0,0,0,1,1,0,0,0,false,false,true,-185.48999,-2826.93,17.01,-0.0047716973,-0.0000026973983,0.99996364,-0.0070645283,-562.84094,986.311,8.341001,0.00021,0.00021,3.36531
167.96666,2000,0,91.24,0.000002697398,0.000002697398,0.000002697398,0.99999994,0,0,0,0,0,0,1,1,0,0,0,false,false,true,-190.18,-2818.71,17.01,-0.004771697,-0.000072829745,0.99976623,-0.021085644,-568.381,977.10095,8.341001,0.00021,0.00021,3.37011
167.975,2000,0,91.24,0.000002697398,0.000002697398,0.000002697398,0.99999994,0,0,0,0,0,0,1,1,0,0,0,false,false,true,-194.92,-2810.5698,17.01,-0.004771697,-0.00014296209,0.9993715,-0.035122946,-573.891,967.85095,8.341001,0.00021,0.00021,3.3745098
167.98334,2000,0,91.24,0.000002697398,0.000002697398,0.000002697398,0.99999994,0,0,0,0,0,0,1,1,0,0,0,false,false,true,-199.7,-2802.5,17.01,-0.0047663026,-0.00021309446,0.99877894,-0.04917104,-579.381,958.55096,8.341001,0.00021,0.00030999997,3.3784099
167.99167,2000,0,91.24,0.000002697398,0.000002697398,0.000002697398,0.99999994,0,0,0,0,0,0,1,1,0,0,0,false,false,true,-204.53,-2794.51,17.01,-0.004760907,-0.00028322675,0.9979878,-0.063224554,-584.85095,949.2009,8.341001,0.00010999999,0.00030999997,3.3819098
168,2000,0,91.24,0.000002697398,0.000002697398,0.000002697398,0.99999994,0,0,0,0,0,0,1,1,0,0,0,false,false,true,-209.4,-2786.5999,17.01,-0.004755513,-0.00035335915,0.99699813,-0.07727805,-590.311,939.80096,8.341001,0,0.00030999997,3.3849099
168.00833,2000,0,91.24,0.000002697398,0.000002697398,0.000002697398,0.99999994,0,0,0,0,0,0,1,1,0,0,0,false,false,true,-214.31999,-2778.77,17.01,-0.0047501177,-0.0004180967,0.9958091,-0.091331534,-595.761,930.35095,8.341001,0,0.00030999997,3.38741
168.01666,2000,0,91.24,0.000002697398,0.000002697398,0.000002697398,0.99999994,0,0,0,0,0,0,1,1,0,0,0,false,false,true,-219.28,-2771.02,17.01,-0.0047447234,-0.0004828343,0.9944206,-0.10537968,-601.22095,920.85095,8.341001,0,0.00030999997,3.38931
168.025,2000,0,91.24,0.000002697398,0.000002697398,0.000002697398,0.99999994,0,0,0,0,0,0,1,1,0,0,0,false,false,true,-224.29,-2763.3499,17.01,-0.004733933,-0.00054757175,0.99283326,-0.119411565,-606.641,911.27094,8.341001,0,0.00040999998,3.39241
168.03334,2000,0,91.24,0.000002697398,0.000002697398,0.000002697398,0.99999994,0,0,0,0,0,0,1,1,0,0,0,false,false,true,-229.34999,-2755.76,17.01,-0.0047231433,-0.00061230926,0.9910463,-0.13343267,-611.96094,901.571,8.341001,0,0.00040999998,3.39881
168.04167,2000,0,91.24,0.000002697398,0.000002697398,0.000002697398,0.99999994,0,0,0,0,0,0,1,1,0,0,0,false,false,true,-234.45,-2748.25,17.01,-0.0047123544,-0.0006770469,0.9890574,-0.14745381,-617.191,891.751,8.341001,0,0.00030999997,3.4084098
168.05,2000,0,91.24,0.000002697398,0.000002697398,0.000002697398,0.99999994,0,0,0,0,0,0,1,1,0,0,0,false,false,true,-239.59,-2740.8198,17.01,-0.004701565,-0.0007417845,0.98686355,-0.16148578,-622.33093,881.811,8.341001,0,0.00030999997,3.4212098
168.05833,2000,0,91.24,0.000002697398,0.000002697398,0.000002697398,0.99999994,0,0,0,0,0,0,1,1,0,0,0,false,false,true,-244.78,-2733.47,17.01,-0.0046907756,-0.0008065221,0.9844609,-0.17553926,-627.391,871.761,8.341001,0,0.00030999997,3.43711
168.06667,2000,0,91.24,0.000002697398,0.000002697398,0.000002697398,0.99999994,0,0,0,0,0,0,1,1,0,0,0,false,false,true,-250.01,-2726.21,17.01,-0.004679986,-0.00087125966,0.98184603,-0.18961972,-632.371,861.61096,8.341001,0,0.00030999997,3.45611
168.075,2000,0,91.24,0.000002697398,0.000002697398,0.000002697398,0.99999994,0,0,0,0,0,0,1,1,0,0,0,false,false,true,-255.28,-2719.03,17.01,-0.0046638013,-0.0009413919,0.97901386,-0.20373793,-637.27094,851.35095,8.341001,0,0.00030999997,3.47821
168.08333,2000,0,91.24,0.000002697398,0.000002697398,0.000002697398,0.99999994,0,0,0,0,0,0,1,1,0,0,0,false,false,true,-260.59,-2711.94,17.01,-0.0046476168,-0.0010115242,0.9759584,-0.21790475,-642.10095,840.98096,8.331,0,0.00021,3.50331
168.09166,2000,0,91.24,0.000002697398,0.000002697398,0.000002697398,0.99999994,0,0,0,0,0,0,1,1,0,0,0,false,false,true,-265.94,-2704.93,17.01,-0.0046314322,-0.0010816565,0.97267413,-0.23212548,-646.72095,830.441,8.331,0,0.00010999999,3.53331
168.1,2000,0,91.24,0.000002697398,0.000002697398,0.000002697398,0.99999994,0,0,0,0,0,0,1,1,0,0,0,false,false,true,-271.33,-2698.01,17.01,-0.004615248,-0.001151789,0.96915096,-0.24642172,-651.131,819.74097,8.331,-0.00010999999,0,3.56821
168.10834,2000,0,91.24,0.000002697398,0.000002697398,0.000002697398,0.99999994,0,0,0,0,0,0,1,1,0,0,0,false,false,true,-276.75998,-2691.18,17.01,-0.0045990637,-0.0012219213,0.9653799,-0.26080433,-655.321,808.90094,8.331,-0.00021,0,3.60791
168.11667,2000,0,91.24,0.000002697398,0.000002697398,0.000002697398,0.99999994,0,0,0,0,0,0,1,1,0,0,0,false,false,true,-282.22,-2684.44,17.01,-0.0045774844,-0.0012920536,0.96134955,-0.2752894,-659.30096,797.92096,8.331,-0.00030999997,0,3.65231
168.125,2000,0,91.24,0.000002697398,0.000002697398,0.000002697398,0.99999994,0,0,0,0,0,0,1,1,0,0,0,false,false,true,-287.71,-2677.79,17.01,-0.0045559052,-0.001362186,0.9570488,-0.28988776,-663.071,786.811,8.331,-0.00040999998,-0.00010999999,3.70131
168.13333,2000,0,91.24,0.000002697398,0.000002697398,0.000002697398,0.99999994,0,0,0,0,0,0,1,1,0,0,0,false,false,true,-293.24,-2671.23,17.01,-0.0045343265,-0.0014323185,0.9524652,-0.30461028,-666.641,775.58093,8.331,-0.00051,-0.00030999997,3.75491
168.14166,2000,0,91.24,0.000002697398,0.000002697398,0.000002697398,0.99999994,0,0,0,0,0,0,1,1,0,0,0,false,false,true,-298.8,-2664.77,17.01,-0.004512747,-0.0015024507,0.9475834,-0.31947294,-669.92096,764.17096,8.331,-0.00061,-0.00040999998,3.8115098
168.15,2000,0,91.24,0.000002697398,0.000002697398,0.000002697398,0.99999994,0,0,0,0,0,0,1,1,0,0,0,false,false,true,-304.38,-2658.4,17.01,-0.0044911676,-0.0015725831,0.9423903,-0.33448133,-672.84094,752.54095,8.331,-0.00061,-0.00051,3.87001
168.15834,2000,0,91.24,0.000002697398,0.000002697398,0.000002697398,0.99999994,0,0,0,0,0,0,1,1,0,0,0,false,false,true,-309.99,-2652.13,17.01,-0.0044641932,-0.0016427152,0.9368736,-0.34963536,-675.391,740.71094,8.331,-0.00061,-0.00051,3.93031
168.16667,2000,0,91.24,0.000002697398,0.000002697398,0.000002697398,0.99999994,0,0,0,0,0,0,1,1,0,0,0,false,false,true,-315.62,-2645.96,17.01,-0.00443722,-0.0017128477,0.9310229,-0.36492968,-677.52094,728.79095,8.331,-0.00061,-0.00051,3.99171
168.175,2000,0,91.24,0.000002697398,0.000002697398,0.000002697398,0.99999994,0,0,0,0,0,0,1,1,0,0,0,false,false,true,-321.27,-2639.89,17.01,-0.0044102455,-0.0017829802,0.9248245,-0.38036424,-679.131,716.98096,8.331,-0.00051,-0.00051,4.05251
168.18333,2000,0,91.24,0.000002697398,0.000002697398,0.000002697398,0.99999994,0,0,0,0,0,0,1,1,0,0,0,false,false,true,-326.93,-2633.91,17.01,-0.0043832716,-0.0018531125,0.91827136,-0.3959229,-680.24097,705.30096,8.331,-0.00040999998,-0.00051,4.11261
168.19167,2000,0,91.24,0.000002697398,0.000002697398,0.000002697398,0.99999994,0,0,0,0,0,0,1,1,0,0,0,false,false,true,-332.6,-2628.03,17.01,-0.004350903,-0.0019232448,0.911352,-0.41160026,-680.871,693.78094,8.331,-0.00030999997,-0.00051,4.17211
168.2,2000,0,91.24,0.000002697398,0.000002697398,0.000002697398,0.99999994,0,0,0,0,0,0,1,1,0,0,0,false,false,true,-338.27,-2622.25,17.01,-0.004318534,-0.001998772,0.90405947,-0.42738006,-681.04095,682.451,8.331,-0.00010999999,-0.00040999998,4.23091
168.20833,2000,0,91.24,0.000002697398,0.000002697398,0.000002697398,0.99999994,0,0,0,0,0,0,1,1,0,0,0,false,false,true,-343.94998,-2616.56,17.01,-0.0042861653,-0.002074299,0.89638454,-0.44325164,-680.77094,671.33093,8.331,0,-0.00030999997,4.2891097
168.21666,2000,0,91.24,0.000002697398,0.000002697398,0.000002697398,0.99999994,0,0,0,0,0,0,1,1,0,0,0,false,false,true,-349.62,-2610.97,17.01,-0.0042484016,-0.0021498261,0.88832074,-0.4591987,-680.08093,660.441,8.331,0,-0.00021,4.3467097
168.225,2000,0,91.24,0.000002697398,0.000002697398,0.000002697398,0.99999994,0,0,0,0,0,0,1,1,0,0,0,false,false,true,-355.28998,-2605.47,17.01,-0.0042106383,-0.0022253534,0.87985915,-0.47521052,-678.90094,649.77094,8.331,0,-0.00021,4.40151
168.23334,2000,0,91.24,0.000002697398,0.000002697398,0.000002697398,0.99999994,0,0,0,0,0,0,1,1,0,0,0,false,false,true,-360.94998,-2600.06,17.01,-0.0041674804,-0.0023008806,0.87099683,-0.4912655,-677.16095,639.33093,8.331,0,-0.00010999999,4.45151
168.24167,2000,0,91.24,0.000002697398,0.000002697398,0.000002697398,0.99999994,0,0,0,0,0,0,1,1,0,0,0,false,false,true,-366.59,-2594.73,17.01,-0.0041243215,-0.0023764076,0.86173475,-0.5073366,-674.891,629.141,8.331,0.00010999999,0,4.4966097
168.25,2000,0,91.24,0.000002697398,0.000002697398,0.000002697398,0.99999994,0,0,0,0,0,0,1,1,0,0,0,false,false,true,-372.21,-2589.49,17.01,-0.004081163,-0.0024519349,0.85207886,-0.52339166,-672.121,619.24097,8.331,0.00021,0,4.53691
168.25833,2000,0,91.24,0.000002697398,0.000002697398,0.000002697398,0.99999994,0,0,0,0,0,0,1,1,0,0,0,false,false,true,-377.81,-2584.3298,17.01,-0.00403261,-0.0025274619,0.8420339,-0.53940344,-668.881,609.65094,8.331,0.00030999997,0.00010999999,4.57251
168.26666,2000,0,91.24,0.000002697398,0.000002697398,0.000002697398,0.99999994,0,0,0,0,0,0,1,1,0,0,0,false,false,true,-383.38,-2579.25,17.01,-0.003984057,-0.002602989,0.83160627,-0.5553451,-665.21094,600.391,8.331,0.00040999998,0.00021,4.60331
168.275,2000,0,91.24,0.000002697398,0.000002697398,0.000002697398,0.99999994,0,0,0,0,0,0,1,1,0,0,0,false,false,true,-388.91998,-2574.25,17.01,-0.003935504,-0.0026785163,0.8208042,-0.5711897,-661.141,591.48096,8.331,0.00051,0.00030999997,4.62941
168.28334,2000,0,91.24,0.000002697398,0.000002697398,0.000002697398,0.99999994,0,0,0,0,0,0,1,1,0,0,0,false,false,true,-394.43,-2569.3198,17.01,-0.0038815557,-0.0027540433,0.8096341,-0.58691555,-656.71094,582.941,8.331,0.00051,0.00040999998,4.65081
168.29167,2000,0,91.24,0.000002697398,0.000002697398,0.000002697398,0.99999994,0,0,0,0,0,0,1,1,0,0,0,false,false,true,-399.9,-2564.46,17.01,-0.0038276075,-0.0028295703,0.79810774,-0.60249573,-651.96094,574.78094,8.331,0.00051,0.00051,4.66751
168.3,2000,0,91.24,0.000002697398,0.000002697398,0.000002697398,0.99999994,0,0,0,0,0,0,1,1,0,0,0,false,false,true,-405.33,-2559.67,17.01,-0.00377366,-0.0029050978,0.78623945,-0.6179034,-646.93097,567.02094,8.331,0.00051,0.00061,4.67961
168.30833,2000,0,91.24,0.000002697398,0.000002697398,0.000002697398,0.99999994,0,0,0,0,0,0,1,1,0,0,0,false,false,true,-410.72,-2554.94,17.01,-0.0037143172,-0.0029806248,0.77404153,-0.6331168,-641.67096,559.65094,8.331,0.00051,0.00071,4.68721
168.31667,2000,0,91.24,0.000002697398,0.000002697398,0.000002697398,0.99999994,0,0,0,0,0,0,1,1,0,0,0,false,false,true,-416.06998,-2550.28,17.01,-0.0036549745,-0.003056152,0.76152796,-0.6481144,-636.21094,552.68097,8.331,0.00051,0.00081,4.69021
168.325,2000,0,91.24,0.000002697398,0.000002697398,0.000002697398,0.99999994,0,0,0,0,0,0,1,1,0,0,0,false,false,true,-421.37,-2545.67,17.01,-0.0035956318,-0.0031316795,0.74871993,-0.6628693,-630.60095,546.11096,8.331,0.00051,0.00091,4.6887097
168.33333,2000,0,91.24,0.000002697398,0.000002697398,0.000002697398,0.99999994,0,0,0,0,0,0,1,1,0,0,0,false,false,true,-426.62,-2541.1199,17.01,-0.0035308942,-0.0032072063,0.73562646,-0.6773705,-624.881,539.93097,8.331,0.00040999998,0.0010099999,4.68281
168.34166,2000,0,91.24,0.000002697398,0.000002697398,0.000002697398,0.99999994,0,0,0,0,0,0,1,1,0,0,0,false,false,true,-431.83,-2536.6199,17.01,-0.0034661568,-0.0032773388,0.7222733,-0.69159126,-619.09094,534.131,8.331,0.00040999998,0.0010099999,4.67241
168.35,2000,0,91.24,0.000002697398,0.000002697398,0.000002697398,0.99999994,0,0,0,0,0,0,1,1,0,0,0,false,false,true,-436.99,-2532.17,17.01,-0.003401419,-0.003347471,0.7086732,-0.70552063,-613.27094,528.701,8.331,0.00030999997,0.0010099999,4.65761
168.35834,2000,0,91.24,0.000002697398,0.000002697398,0.000002697398,0.99999994,0,0,0,0,0,0,1,1,0,0,0,false,false,true,-442.09998,-2527.76,17.01,0.0033312866,0.0034176034,-0.69484967,0.71913904,-607.451,523.621,8.331,0.00030999997,0.00111,4.63841
168.36667,2000,0,91.24,0.000002697398,0.000002697398,0.000002697398,0.99999994,0,0,0,0,0,0,1,1,0,0,0,false,false,true,-447.16,-2523.4,17.01,0.0032611543,0.0034877358,-0.68082315,0.7324322,-601.68097,518.871,8.321,0.00021,0.00111,4.61481
168.375,2000,0,91.24,0.000002697398,0.000002697398,0.000002697398,0.99999994,0,0,0,0,0,0,1,1,0,0,0,false,false,true,-452.16998,-2519.0798,17.01,0.0031910222,0.0035524736,-0.6666133,0.7453884,-595.98096,514.43097,8.321,0.00021,0.00111,4.58671
168.38333,2000,0,91.24,0.000002697398,0.000002697398,0.000002697398,0.99999994,0,0,0,0,0,0,1,1,0,0,0,false,false,true,-457.13998,-2514.79,17.01,0.0031208897,0.0036172108,-0.65224683,0.7579915,-590.391,510.271,8.321,0.00010999999,0.00111,4.5542097
168.39166,2000,0,91.24,0.000002697398,0.000002697398,0.000002697398,0.99999994,0,0,0,0,0,0,1,1,0,0,0,false,false,true,-462.06,-2510.54,17.01,0.003050757,0.0036819484,-0.63774556,0.77023214,-584.941,506.371,8.321,0.00010999999,0.00111,4.5173097
168.4,2000,0,91.24,0.000002697398,0.000002697398,0.000002697398,0.99999994,0,0,0,0,0,0,1,1,0,0,0,false,false,true,-466.93,-2506.3198,17.01,0.0029806248,0.0037412911,-0.62313634,0.7820985,-579.65094,502.701,8.321,0,0.00111,4.4759097
168.40834,2000,0,91.24,0.000002697398,0.000002697398,0.000002697398,0.99999994,0,0,0,0,0,0,1,1,0,0,0,false,false,true,-471.75998,-2502.13,17.01,0.002905098,0.003800634,-0.60844094,0.7935847,-574.511,499.191,8.321,0,0.00111,4.43001
168.41667,2000,0,91.24,0.000002697398,0.000002697398,0.000002697398,0.99999994,0,0,0,0,0,0,1,1,0,0,0,false,false,true,-476.55,-2497.97,17.01,0.0028295706,0.0038599768,-0.59369147,0.80467844,-569.53094,495.811,8.311,0,0.00111,4.37981
168.425,2000,0,91.24,0.000002697398,0.000002697398,0.000002697398,0.99999994,0,0,0,0,0,0,1,1,0,0,0,false,false,true,-481.3,-2493.8398,17.01,0.0027540433,0.0039139246,-0.57890964,0.8153776,-564.701,492.521,8.311,-0.00010999999,0.0010099999,4.3263097
168.43333,2000,0,91.24,0.000002697398,0.000002697398,0.000002697398,0.99999994,0,0,0,0,0,0,1,1,0,0,0,false,false,true,-486.00998,-2489.74,17.01,0.0026785163,0.0039678724,-0.5641171,0.82568085,-559.99097,489.281,8.311,-0.00010999999,0.00091,4.27081
168.44167,2000,0,91.24,0.000002697398,0.000002697398,0.000002697398,0.99999994,0,0,0,0,0,0,1,1,0,0,0,false,false,true,-490.68,-2485.66,17.01,0.002602989,0.0040164255,-0.5493353,0.8355882,-555.40094,486.081,8.311,-0.00021,0.00081,4.21381
168.45,2000,0,91.24,0.000002697398,0.000002697398,0.000002697398,0.99999994,0,0,0,0,0,0,1,1,0,0,0,false,false,true,-495.31,-2481.6099,17.01,0.0025274619,0.0040649786,-0.53458047,0.8451039,-550.91095,482.901,8.311,-0.00021,0.00071,4.1557097
168.45833,2000,0,91.24,0.000002697398,0.000002697398,0.000002697398,0.99999994,0,0,0,0,0,0,1,1,0,0,0,false,false,true,-499.9,-2477.5898,17.01,0.002451935,0.0041081375,-0.51986885,0.85423267,-546.52094,479.741,8.311,-0.00021,0.00061,4.09681
168.46666,2000,0,91.24,0.000002697398,0.000002697398,0.000002697398,0.99999994,0,0,0,0,0,0,1,1,0,0,0,false,false,true,-504.44998,-2473.5898,17.01,0.0023818025,0.0041512954,-0.5052111,0.86298245,-542.23096,476.591,8.311,-0.00021,0.00051,4.03741
168.475,2000,0,91.24,0.000002697398,0.000002697398,0.000002697398,0.99999994,0,0,0,0,0,0,1,1,0,0,0,false,false,true,-508.97,-2469.6199,17.01,0.0023116702,0.0041944543,-0.49062353,0.87135845,-538.02094,473.441,8.311,-0.00030999997,0.00040999998,3.9779098
168.48334,2000,0,91.24,0.000002697398,0.000002697398,0.000002697398,0.99999994,0,0,0,0,0,0,1,1,0,0,0,false,false,true,-513.45,-2465.67,17.01,0.0022415377,0.0042322176,-0.47611687,0.8793689,-533.891,470.281,8.311,-0.00040999998,0.00030999997,3.91851
168.49167,2000,0,91.24,0.000002697398,0.000002697398,0.000002697398,0.99999994,0,0,0,0,0,0,1,1,0,0,0,false,false,true,-517.89996,-2461.75,17.01,0.0021714056,0.0042699813,-0.46169654,0.887025,-529.84094,467.111,8.301001,-0.00040999998,0.00030999997,3.85951
168.5,2000,0,91.24,0.000002697398,0.000002697398,0.000002697398,0.99999994,0,0,0,0,0,0,1,1,0,0,0,false,false,true,-522.32,-2457.8599,17.01,0.002101273,0.00430235,-0.44737324,0.89433444,-525.85095,463.911,8.301001,-0.00040999998,0.00021,3.80121
168.50833,2000,0,91.24,0.000002697398,0.000002697398,0.000002697398,0.99999994,0,0,0,0,0,0,1,1,0,0,0,false,false,true,-526.7,-2453.99,17.01,0.0020311407,0.0043347185,-0.43315253,0.9013079,-521.92096,460.681,8.301001,-0.00040999998,0.00010999999,3.74381
168.51666,2000,0,91.24,0.000002697398,0.000002697398,0.000002697398,0.99999994,0,0,0,0,0,0,1,1,0,0,0,false,false,true,-531.05,-2450.15,17.01,0.0019610084,0.0043670875,-0.4190397,0.9079552,-518.03094,457.421,8.301001,-0.00040999998,0.00010999999,3.68751
168.525,2000,0,91.24,0.000002697398,0.000002697398,0.000002697398,0.99999994,0,0,0,0,0,0,1,1,0,0,0,false,false,true,-535.37,-2446.3398,17.01,0.0018908761,0.0043940614,-0.40504012,0.9142863,-514.18097,454.121,8.301001,-0.00040999998,0,3.63251
168.53334,2000,0,91.24,0.000002697398,0.000002697398,0.000002697398,0.99999994,0,0,0,0,0,0,1,1,0,0,0,false,false,true,-539.64996,-2442.56,17.01,0.0018207438,0.0044210358,-0.39115393,0.9203128,-510.361,450.771,8.301001,-0.00040999998,0,3.57901
168.54167,2000,0,91.24,0.000002697398,0.000002697398,0.000002697398,0.99999994,0,0,0,0,0,0,1,1,0,0,0,false,false,true,-543.89996,-2438.8,17.01,0.0017506114,0.004448009,-0.3773863,0.9260435,-506.561,447.371,8.301001,-0.00030999997,0,3.52721
168.55,2000,0,91.24,0.000002697398,0.000002697398,0.000002697398,0.99999994,0,0,0,0,0,0,1,1,0,0,0,false,false,true,-548.12,-2435.0698,17.01,0.0016858738,0.004474983,-0.36373743,0.93148917,-502.781,443.921,8.301001,-0.00021,0,3.47731
168.55833,2000,0,91.24,0.000002697398,0.000002697398,0.000002697398,0.99999994,0,0,0,0,0,0,1,1,0,0,0,false,false,true,-552.31,-2431.3699,17.01,0.0016211363,0.0044965628,-0.35020187,0.936662,-499.001,440.421,8.301001,-0.00021,-0.00010999999,3.42941
168.56667,2000,0,91.24,0.000002697398,0.000002697398,0.000002697398,0.99999994,0,0,0,0,0,0,1,1,0,0,0,false,false,true,-556.47,-2427.7,17.01,0.0015563987,0.0045181415,-0.3367849,0.94156945,-495.221,436.871,8.301001,-0.00021,-0.00021,3.38371
168.575,2000,0,91.24,0.000002697398,0.000002697398,0.000002697398,0.99999994,0,0,0,0,0,0,1,1,0,0,0,false,false,true,-560.6,-2424.06,17.01,0.0014916611,0.0045397207,-0.3234759,0.9462243,-491.431,433.261,8.301001,-0.00010999999,-0.00021,3.3403099
168.58333,2000,0,91.24,0.000002697398,0.000002697398,0.000002697398,0.99999994,0,0,0,0,0,0,1,1,0,0,0,false,false,true,-564.7,-2420.45,17.01,0.0014269236,0.0045613,-0.31027478,0.95063484,-487.621,429.60098,8.301001,-0.00010999999,-0.00030999997,3.2994099
168.59166,2000,0,91.24,0.000002697398,0.000002697398,0.000002697398,0.99999994,0,0,0,0,0,0,1,1,0,0,0,false,false,true,-568.76,-2416.8699,17.01,0.0013621862,0.004577485,-0.2971762,0.9548107,-483.791,425.891,8.301001,0,-0.00040999998,3.2611098
168.6,2000,0,91.24,0.000002697398,0.000002697398,0.000002697398,0.99999994,0,0,0,0,0,0,1,1,0,0,0,false,false,true,-572.79,-2413.3198,17.01,0.0013028431,0.0045936685,-0.28417465,0.9587605,-479.931,422.131,8.301001,0,-0.00040999998,3.22551
168.60834,2000,0,91.24,0.000002697398,0.000002697398,0.000002697398,0.99999994,0,0,0,0,0,0,1,1,0,0,0,false,false,true,-576.79,-2409.8,17.01,0.0012435005,0.004609853,-0.27126488,0.9624928,-476.041,418.32098,8.301001,0,-0.00040999998,3.1928098
168.61667,2000,0,91.24,0.000002697398,0.000002697398,0.000002697398,0.99999994,0,0,0,0,0,0,1,1,0,0,0,false,false,true,-580.76,-2406.31,17.01,0.0011841577,0.0046260376,-0.25843596,0.96601653,-472.10098,414.461,8.301001,0,-0.00051,3.16321
168.625,2000,0,91.24,0.000002697398,0.000002697398,0.000002697398,0.99999994,0,0,0,0,0,0,1,1,0,0,0,false,false,true,-584.69,-2402.8599,17.01,0.0011248149,0.0046368265,-0.24568261,0.9693384,-468.031,410.521,8.301001,0,-0.00051,3.13671
168.63333,2000,0,91.24,0.000002697398,0.000002697398,0.000002697398,0.99999994,0,0,0,0,0,0,1,1,0,0,0,false,false,true,-588.58997,-2399.44,17.01,0.0010654721,0.0046476168,-0.23299403,0.9724664,-463.82098,406.531,8.301001,0,-0.00051,3.1131098
168.64166,2000,0,91.24,0.000002697398,0.000002697398,0.000002697398,0.99999994,0,0,0,0,0,0,1,1,0,0,0,false,false,true,-592.45996,-2396.05,17.01,0.0010061295,0.0046584066,-0.2203594,0.97540706,-459.461,402.501,8.301001,0.00010999999,-0.00051,3.0924098
168.65,2000,0,91.24,0.000002697398,0.000002697398,0.000002697398,0.99999994,0,0,0,0,0,0,1,1,0,0,0,false,false,true,-596.29,-2392.7,17.01,0.0009467867,0.004669196,-0.20777328,0.9781653,-454.941,398.451,8.301001,0.00010999999,-0.00040999998,3.07441
168.65834,2000,0,91.24,0.000002697398,0.000002697398,0.000002697398,0.99999994,0,0,0,0,0,0,1,1,0,0,0,false,false,true,-600.08,-2389.38,17.01,0.00088744384,0.004679985,-0.19522493,0.9807468,-450.241,394.391,8.301001,0.00021,-0.00040999998,3.0592098
168.66667,2000,0,91.24,0.000002697398,0.000002697398,0.000002697398,0.99999994,0,0,0,0,0,0,1,1,0,0,0,false,false,true,-603.82996,-2386.0898,17.01,0.00082810124,0.0046907756,-0.182709,0.9831555,-445.361,390.351,8.301001,0.00021,-0.00040999998,3.04671
168.675,2000,0,91.24,0.000002697398,0.000002697398,0.000002697398,0.99999994,0,0,0,0,0,0,1,1,0,0,0,false,false,true,-607.54,-2382.8398,17.01,0.00076875853,0.004701565,-0.17021455,0.9853955,-440.301,386.341,8.301001,0.00030999997,-0.00040999998,3.03681
168.68333,2000,0,91.24,0.000002697398,0.000002697398,0.000002697398,0.99999994,0,0,0,0,0,0,1,1,0,0,0,false,false,true,-611.20996,-2379.6199,17.01,0.00070941565,0.0047069592,-0.15773092,0.9874705,-435.041,382.371,8.301001,0.00030999997,-0.00040999998,3.02961
168.69167,2000,0,91.24,0.000002697398,0.000002697398,0.000002697398,0.99999994,0,0,0,0,0,0,1,1,0,0,0,false,false,true,-614.83997,-2376.43,17.01,0.000650073,0.004712355,-0.14525275,0.9893831,-429.581,378.471,8.301001,0.00040999998,-0.00040999998,3.0250099
168.7,2000,0,91.24,0.000002697398,0.000002697398,0.000002697398,0.99999994,0,0,0,0,0,0,1,1,0,0,0,false,false,true,-618.42,-2373.28,17.01,0.00059073017,0.004717749,-0.13276914,0.99113554,-423.921,374.651,8.301001,0.00051,-0.00030999997,3.02311
168.70833,2000,0,91.24,0.000002697398,0.000002697398,0.000002697398,0.99999994,0,0,0,0,0,0,1,1,0,0,0,false,false,true,-621.95,-2370.16,17.01,0.00053138734,0.0047231433,-0.12027473,0.9927291,-418.051,370.931,8.301001,0.00051,-0.00030999997,3.02381
168.71666,2000,0,91.24,0.000002697398,0.000002697398,0.000002697398,0.99999994,0,0,0,0,0,0,1,1,0,0,0,false,false,true,-625.43,-2367.07,17.01,0.00047204466,0.0047285384,-0.107758775,0.99416566,-411.971,367.331,8.301001,0.00061,-0.00021,3.02721
168.725,2000,0,91.24,0.000002697398,0.000002697398,0.000002697398,0.99999994,0,0,0,0,0,0,1,1,0,0,0,false,false,true,-628.86,-2364.01,17.01,0.0004127019,0.0047339336,-0.09521044,0.9954458,-405.681,363.871,8.301001,0.00071,-0.00021,3.0334098
168.73334,2000,0,91.24,0.000002697398,0.000002697398,0.000002697398,0.99999994,0,0,0,0,0,0,1,1,0,0,0,false,false,true,-632.24,-2360.98,17.01,0.00035335918,0.0047393288,-0.08261891,0.9965699,-399.171,360.57098,8.301001,0.00071,-0.00021,3.04241
168.74167,2000,0,91.24,0.000002697398,0.000002697398,0.000002697398,0.99999994,0,0,0,0,0,0,1,1,0,0,0,false,false,true,-635.57,-2357.98,17.01,0.00029401638,0.004744723,-0.06997885,0.9975371,-392.451,357.441,8.301001,0.00081,-0.00021,3.05421
168.75,2000,0,91.24,0.000002697398,0.000002697398,0.000002697398,0.99999994,0,0,0,0,0,0,1,1,0,0,0,false,false,true,-638.83997,-2355,17.01,0.00023467363,0.0047501177,-0.05727946,0.9983468,-385.511,354.511,8.301001,0.00081,-0.00021,3.06891
168.75833,2000,0,91.24,0.000002697398,0.000002697398,0.000002697398,0.99999994,0,0,0,0,0,0,1,1,0,0,0,false,false,true,-642.05,-2352.05,17.01,0.00017533088,0.0047501177,-0.044509932,0.99899757,-378.361,351.801,8.301001,0.00091,-0.00021,3.0866098
168.76666,2000,0,91.24,0.000002697398,0.000002697398,0.000002697398,0.99999994,0,0,0,0,0,0,1,1,0,0,0,false,false,true,-645.2,-2349.1199,17.01,0.00011598813,0.004750118,-0.03165949,0.9994874,-370.991,349.331,8.301001,0.00091,-0.00021,3.10741
168.775,2000,0,91.24,0.000002697398,0.000002697398,0.000002697398,0.99999994,0,0,0,0,0,0,1,1,0,0,0,false,false,true,-648.29,-2346.21,17.01,0.000056645364,0.004750118,-0.01871733,0.9998135,-363.411,347.121,8.301001,0.00091,-0.00021,3.13151
168.78334,2000,0,91.24,0.000002697398,0.000002697398,0.000002697398,0.99999994,0,0,0,0,0,0,1,1,0,0,0,false,false,true,-651.32,-2343.32,17.01,-0.0000026973983,0.004750118,-0.005672671,0.9999726,-355.621,345.201,8.301001,0.00091,-0.00021,3.15891
168.79167,2000,0,91.24,0.000002697398,0.000002697398,0.000002697398,0.99999994,0,0,0,0,0,0,1,1,0,0,0,false,false,true,-654.27997,-2340.44,17.01,-0.000062040155,0.0047501177,0.0074906745,0.9999606,-347.631,343.591,8.301001,0.0010099999,-0.00021,3.18981
168.8,2000,0,91.24,0.000002697398,0.000002697398,0.000002697398,0.99999994,0,0,0,0,0,0,1,1,0,0,0,false,false,true,-657.18,-2337.5798,17.01,-0.0001213829,0.004750117,0.02077814,0.99977267,-339.441,342.321,8.301001,0.0010099999,-0.00021,3.2244098
168.80833,2000,0,91.24,0.000002697398,0.000002697398,0.000002697398,0.99999994,0,0,0,0,0,0,1,1,0,0,0,false,false,true,-660.01,-2334.73,17.01,-0.00018072566,0.004744723,0.034205873,0.9994035,-331.061,341.421,8.301001,0.0010099999,-0.00021,3.26291
168.81667,2000,0,91.24,0.000002697398,0.000002697398,0.000002697398,0.99999994,0,0,0,0,0,0,1,1,0,0,0,false,false,true,-662.76996,-2331.88,17.01,-0.00024006845,0.0047393288,0.047789972,0.9988461,-322.491,340.921,8.301001,0.0010099999,-0.00021,3.30561
168.825,2000,0,91.24,0.000002697398,0.000002697398,0.000002697398,0.99999994,0,0,0,0,0,0,1,1,0,0,0,false,false,true,-665.45996,-2329.04,17.01,-0.0002994112,0.0047339336,0.06154139,0.9980932,-313.751,340.851,8.301001,0.0010099999,-0.00010999999,3.35271
168.83333,2000,0,91.24,0.000002697398,0.000002697398,0.000002697398,0.99999994,0,0,0,0,0,0,1,1,0,0,0,false,false,true,-668.07,-2326.2,17.01,-0.0003587539,0.004728538,0.07547614,0.9971362,-304.831,341.081,8.301001,0.0010099999,0,3.39961
168.84166,2000,0,91.24,0.000002697398,0.000002697398,0.000002697398,0.99999994,0,0,0,0,0,0,1,1,0,0,0,false,false,true,-670.61,-2323.3599,17.01,-0.00042349144,0.0047231433,0.08959441,0.9959669,-295.741,341.621,8.301001,0.00091,0,3.4458098
168.85,2000,0,91.24,0.000002697398,0.000002697398,0.000002697398,0.99999994,0,0,0,0,0,0,1,1,0,0,0,false,false,true,-673.07,-2320.51,17.01,-0.00048822907,0.004717749,0.103885315,0.99457794,-286.491,342.501,8.301001,0.00081,0,3.49151
168.85834,2000,0,91.24,0.000002697398,0.000002697398,0.000002697398,0.99999994,0,0,0,0,0,0,1,1,0,0,0,false,false,true,-675.45996,-2317.66,17.01,-0.00055296667,0.004712355,0.118343376,0.99296135,-277.081,343.761,8.301001,0.00071,0,3.53681
168.86667,2000,0,91.24,0.000002697398,0.000002697398,0.000002697398,0.99999994,0,0,0,0,0,0,1,1,0,0,0,false,false,true,-677.76996,-2314.8,17.01,-0.0006177041,0.0047015646,0.13296334,0.99110955,-267.521,345.441,8.301001,0.00071,0,3.58191
168.875,2000,0,91.24,0.000002697398,0.000002697398,0.000002697398,0.99999994,0,0,0,0,0,0,1,1,0,0,0,false,false,true,-680,-2311.92,17.01,-0.0006824417,0.004690775,0.14773977,0.98901486,-257.821,347.571,8.301001,0.00061,0,3.6270099
168.88333,2000,0,91.24,0.000002697398,0.000002697398,0.000002697398,0.99999994,0,0,0,0,0,0,1,1,0,0,0,false,false,true,-682.14996,-2309.02,17.01,-0.0007525741,0.004679986,0.16266719,0.9866696,-247.991,350.201,8.301001,0.00051,0,3.6723099
168.89166,2000,0,91.24,0.000002697398,0.000002697398,0.000002697398,0.99999994,0,0,0,0,0,0,1,1,0,0,0,false,false,true,-684.22,-2306.0999,17.01,-0.0008227065,0.0046691964,0.17774573,0.984065,-238.031,353.301,8.301001,0.00040999998,0.00010999999,3.7160099
168.9,2000,0,91.24,0.000002697398,0.000002697398,0.000002697398,0.99999994,0,0,0,0,0,0,1,1,0,0,0,false,false,true,-686.2,-2303.16,17.01,-0.00089283875,0.004658406,0.19295913,0.9811953,-228.021,356.701,8.301001,0.00030999997,0.00010999999,3.7567098
168.90834,2000,0,91.24,0.000002697398,0.000002697398,0.000002697398,0.99999994,0,0,0,0,0,0,1,1,0,0,0,false,false,true,-688.1,-2300.19,17.01,-0.0009629712,0.0046422225,0.20829116,0.97805536,-218.011,360.341,8.301001,0.00021,0.00010999999,3.79461
168.91667,2000,0,91.24,0.000002697398,0.000002697398,0.000002697398,0.99999994,0,0,0,0,0,0,1,1,0,0,0,false,false,true,-689.92,-2297.19,17.01,-0.0010331034,0.0046260376,0.22372574,0.97464055,-208.011,364.251,8.301001,0.00021,0.00010999999,3.82981
168.925,2000,0,91.24,0.000002697398,0.000002697398,0.000002697398,0.99999994,0,0,0,0,0,0,1,1,0,0,0,false,false,true,-691.64996,-2294.15,17.01,-0.0011032359,0.0046098535,0.23925206,0.9709459,-198.031,368.461,8.301001,0.00010999999,0.00010999999,3.86231
168.93333,2000,0,91.24,0.000002697398,0.000002697398,0.000002697398,0.99999994,0,0,0,0,0,0,1,1,0,0,0,false,false,true,-693.3,-2291.0798,17.01,-0.0011787629,0.004593669,0.25484848,0.9669693,-188.161,372.921,8.301001,0,0.00010999999,3.8910098
168.94167,2000,0,91.24,0.000002697398,0.000002697398,0.000002697398,0.99999994,0,0,0,0,0,0,1,1,0,0,0,false,false,true,-694.87,-2287.97,17.01,-0.0012542901,0.0045720898,0.2704934,0.9627101,-178.561,377.511,8.301001,0,0.00010999999,3.91461
168.95,2000,0,91.24,0.000002697398,0.000002697398,0.000002697398,0.99999994,0,0,0,0,0,0,1,1,0,0,0,false,false,true,-696.36,-2284.82,17.01,-0.0013298172,0.0045505106,0.28615996,0.95817006,-169.231,382.251,8.301001,0,0.00021,3.93331
168.95833,2000,0,91.24,0.000002697398,0.000002697398,0.000002697398,0.99999994,0,0,0,0,0,0,1,1,0,0,0,false,false,true,-697.76996,-2281.63,17.01,-0.0014053443,0.0045289313,0.30182654,0.953351,-160.171,387.171,8.301001,0,0.00030999997,3.94711
168.96666,2000,0,91.24,0.000002697398,0.000002697398,0.000002697398,0.99999994,0,0,0,0,0,0,1,1,0,0,0,false,false,true,-699.1,-2278.4,17.01,-0.0014808716,0.004507352,0.31746605,0.9482577,-151.381,392.281,8.301001,0,0.00030999997,3.9558098
168.975,2000,0,91.24,0.000002697398,0.000002697398,0.000002697398,0.99999994,0,0,0,0,0,0,1,1,0,0,0,false,false,true,-700.36,-2275.13,17.01,-0.0015563988,0.0044857734,0.3330517,0.94289654,-142.881,397.561,8.301001,0,0.00030999997,3.96011
168.98334,2000,0,91.24,0.000002697398,0.000002697398,0.000002697398,0.99999994,0,0,0,0,0,0,1,1,0,0,0,false,false,true,-701.55,-2271.82,17.01,-0.0016319259,0.0044587995,0.34856185,0.93727374,-134.701,402.801,8.301001,0,0.00030999997,3.96551
168.99167,2000,0,91.24,0.000002697398,0.000002697398,0.000002697398,0.99999994,0,0,0,0,0,0,1,1,0,0,0,false,false,true,-702.67,-2268.46,17.01,-0.0017074529,0.0044318247,0.36400172,0.9313861,-126.840996,408.021,8.301001,0,0.00030999997,3.9716098
169,2000,0,91.24,0.000002697398,0.000002697398,0.000002697398,0.99999994,0,0,0,0,0,0,1,1,0,0,0,false,false,true,-703.73,-2265.06,17.01,-0.0017775854,0.004404851,0.3793662,0.9252344,-119.300995,413.231,8.301001,0,0.00030999997,3.9781098
169.00833,2000,0,91.24,0.000002697398,0.000002697398,0.000002697398,0.99999994,0,0,0,0,0,0,1,1,0,0,0,false,false,true,-704.72,-2261.6199,17.01,-0.0018477177,0.004377877,0.39464974,0.9188193,-112.071,418.451,8.301001,0,0.00021,3.98491
169.01666,2000,0,91.24,0.000002697398,0.000002697398,0.000002697398,0.99999994,0,0,0,0,0,0,1,1,0,0,0,false,false,true,-705.64996,-2258.13,17.01,-0.0019178501,0.0043455088,0.4098524,0.9121395,-105.160995,423.691,8.301001,0,0.00010999999,3.9918098
169.025,2000,0,91.24,0.000002697398,0.000002697398,0.000002697398,0.99999994,0,0,0,0,0,0,1,1,0,0,0,false,false,true,-706.52997,-2254.5999,17.01,-0.0019879823,0.0043131392,0.42496857,0.9051956,-98.561,428.951,8.301001,-0.00010999999,0,3.99861
169.03334,2000,0,91.24,0.000002697398,0.000002697398,0.000002697398,0.99999994,0,0,0,0,0,0,1,1,0,0,0,false,false,true,-707.35,-2251.03,17.01,-0.0020581146,0.0042807707,0.43998778,0.8979911,-92.291,434.241,8.301001,-0.00021,0,4.00531
169.04167,2000,0,91.24,0.000002697398,0.000002697398,0.000002697398,0.99999994,0,0,0,0,0,0,1,1,0,0,0,false,false,true,-708.12,-2247.41,17.01,-0.002128247,0.0042484016,0.45490986,0.89052474,-86.340996,439.561,8.301001,-0.00021,0,4.0117097
169.05,2000,0,91.24,0.000002697398,0.000002697398,0.000002697398,0.99999994,0,0,0,0,0,0,1,1,0,0,0,false,false,true,-708.83997,-2243.75,17.01,-0.0021983793,0.0042106383,0.46972936,0.88279766,-80.730995,444.911,8.301001,-0.00021,0,4.01781
169.05833,2000,0,91.24,0.000002697398,0.000002697398,0.000002697398,0.99999994,0,0,0,0,0,0,1,1,0,0,0,false,false,true,-709.51,-2240.04,17.01,-0.0022685118,0.0041728746,0.48444107,0.87481093,-75.461,450.291,8.301001,-0.00021,0,4.02361
169.06667,2000,0,91.24,0.000002697398,0.000002697398,0.000002697398,0.99999994,0,0,0,0,0,0,1,1,0,0,0,false,false,true,-710.13995,-2236.29,17.01,-0.0023386443,0.0041351113,0.4990395,0.8665662,-70.541,455.691,8.301001,-0.00021,0,4.0289097
169.075,2000,0,91.24,0.000002697398,0.000002697398,0.000002697398,0.99999994,0,0,0,0,0,0,1,1,0,0,0,false,false,true,-710.73,-2232.49,17.01,-0.0024087764,0.0040973476,0.5135137,0.85806817,-65.980995,461.121,8.301001,-0.00021,-0.00010999999,4.03381
169.08333,2000,0,91.24,0.000002697398,0.000002697398,0.000002697398,0.99999994,0,0,0,0,0,0,1,1,0,0,0,false,false,true,-711.27997,-2228.65,17.01,-0.0024789087,0.004054189,0.5278639,0.8493156,-61.781,466.561,8.301001,-0.00021,-0.00010999999,4.03821
169.09166,2000,0,91.24,0.000002697398,0.000002697398,0.000002697398,0.99999994,0,0,0,0,0,0,1,1,0,0,0,false,false,true,-711.79,-2224.76,17.01,-0.0025490413,0.0040110312,0.5420793,0.84031385,-57.950996,472.011,8.301001,-0.00021,-0.00010999999,4.04201
169.1,2000,0,91.24,0.000002697398,0.000002697398,0.000002697398,0.99999994,0,0,0,0,0,0,1,1,0,0,0,false,false,true,-712.26996,-2220.8298,17.01,-0.0026191734,0.0039678724,0.5561543,0.83106536,-54.510998,477.461,8.301001,-0.00021,-0.00010999999,4.04521
169.10834,2000,0,91.24,0.000002697398,0.000002697398,0.000002697398,0.99999994,0,0,0,0,0,0,1,1,0,0,0,false,false,true,-712.72,-2216.8499,17.01,-0.002689306,0.003924714,0.57008374,0.8215727,-51.461,482.901,8.301001,-0.00021,-0.00010999999,4.04771
169.11667,2000,0,91.24,0.000002697398,0.000002697398,0.000002697398,0.99999994,0,0,0,0,0,0,1,1,0,0,0,false,false,true,-713.14996,-2212.8298,17.01,-0.0027540433,0.0038815557,0.5838567,0.8118427,-48.810997,488.311,8.301001,-0.00021,-0.00021,4.04951
169.125,2000,0,91.24,0.000002697398,0.000002697398,0.000002697398,0.99999994,0,0,0,0,0,0,1,1,0,0,0,false,false,true,-713.56,-2208.76,17.01,-0.002818781,0.0038330026,0.5974732,0.8018747,-46.560997,493.681,8.301001,-0.00010999999,-0.00030999997,4.05061
169.13333,2000,0,91.24,0.000002697398,0.000002697398,0.000002697398,0.99999994,0,0,0,0,0,0,1,1,0,0,0,false,false,true,-713.95,-2204.65,17.01,-0.0028835186,0.0037844495,0.6109226,0.791676,-44.731,499.001,8.301001,-0.00010999999,-0.00030999997,4.05091
169.14166,2000,0,91.24,0.000002697398,0.000002697398,0.000002697398,0.99999994,0,0,0,0,0,0,1,1,0,0,0,false,false,true,-714.32,-2200.49,17.01,-0.002948256,0.0037358964,0.62419915,0.78125066,-43.321,504.251,8.301001,-0.00010999999,-0.00030999997,4.05041
169.15,2000,0,91.24,0.000002697398,0.000002697398,0.000002697398,0.99999994,0,0,0,0,0,0,1,1,0,0,0,false,false,true,-714.68,-2196.29,17.01,-0.0030129936,0.003687343,0.6372924,0.7706073,-42.341,509.421,8.301001,-0.00010999999,-0.00030999997,4.04901
169.15834,2000,0,91.24,0.000002697398,0.000002697398,0.000002697398,0.99999994,0,0,0,0,0,0,1,1,0,0,0,false,false,true,-715.02997,-2192.04,17.01,-0.003077731,0.0036333948,0.6502021,0.7597462,-41.791,514.49097,8.301001,-0.00010999999,-0.00040999998,4.04661
169.16667,2000,0,91.24,0.000002697398,0.000002697398,0.000002697398,0.99999994,0,0,0,0,0,0,1,1,0,0,0,false,false,true,-715.38,-2187.75,17.01,-0.0031424689,0.0035794475,0.6629178,0.748677,-41.650997,519.54095,8.301001,-0.00010999999,-0.00040999998,4.04271
169.175,2000,0,91.24,0.000002697398,0.000002697398,0.000002697398,0.99999994,0,0,0,0,0,0,1,1,0,0,0,false,false,true,-715.73,-2183.42,17.01,-0.0032018118,0.0035254995,0.6754338,0.7374052,-41.911,524.561,8.301001,-0.00010999999,-0.00040999998,4.03801
169.18333,2000,0,91.24,0.000002697398,0.000002697398,0.000002697398,0.99999994,0,0,0,0,0,0,1,1,0,0,0,false,false,true,-716.07996,-2179.05,17.01,-0.0032611543,0.0034715512,0.6877447,0.72593695,-42.560997,529.52094,8.301001,-0.00010999999,-0.00040999998,4.03271
169.19167,2000,0,91.24,0.000002697398,0.000002697398,0.000002697398,0.99999994,0,0,0,0,0,0,1,1,0,0,0,false,false,true,-716.43,-2174.64,17.01,-0.003320497,0.0034176034,0.6998453,0.7142784,-43.600998,534.40094,8.301001,-0.00010999999,-0.00040999998,4.02711
169.2,2000,0,91.24,0.000002697398,0.000002697398,0.000002697398,0.99999994,0,0,0,0,0,0,1,1,0,0,0,false,false,true,-716.79,-2170.19,17.01,-0.0033798397,0.0033582605,0.711732,0.70243484,-45.031,539.17096,8.301001,-0.00010999999,-0.00040999998,4.02141
169.20833,2000,0,91.24,0.000002697398,0.000002697398,0.000002697398,0.99999994,0,0,0,0,0,0,1,1,0,0,0,false,false,true,-717.17,-2165.7,17.01,-0.0034391826,0.0032989178,0.72340274,0.6904097,-46.830997,543.811,8.301001,-0.00010999999,-0.00030999997,4.01581
169.21666,2000,0,91.24,0.000002697398,0.000002697398,0.000002697398,0.99999994,0,0,0,0,0,0,1,1,0,0,0,false,false,true,-717.56,-2161.17,17.01,-0.0034931304,0.003239575,0.73485565,0.6782067,-49.001,548.30096,8.301001,-0.00010999999,-0.00021,4.01051
169.225,2000,0,91.24,0.000002697398,0.000002697398,0.000002697398,0.99999994,0,0,0,0,0,0,1,1,0,0,0,false,false,true,-717.97,-2156.5999,17.01,-0.0035470785,0.0031802324,0.7460873,0.66583097,-51.531,552.641,8.301001,-0.00021,-0.00021,4.0061097
169.23334,2000,0,91.24,0.000002697398,0.000002697398,0.000002697398,0.99999994,0,0,0,0,0,0,1,1,0,0,0,false,false,true,-718.39996,-2151.99,17.01,-0.0036010265,0.0031208897,0.75709903,0.65328264,-54.420998,556.831,8.301001,-0.00021,-0.00021,4.00311
169.24167,2000,0,91.24,0.000002697398,0.000002697398,0.000002697398,0.99999994,0,0,0,0,0,0,1,1,0,0,0,false,false,true,-718.85,-2147.3499,17.01,-0.0036549745,0.0030615467,0.7678919,0.64056164,-57.650997,560.85095,8.301001,-0.00021,-0.00021,4.00151
169.25,2000,0,91.24,0.000002697398,0.000002697398,0.000002697398,0.99999994,0,0,0,0,0,0,1,1,0,0,0,false,false,true,-719.32996,-2142.68,17.01,-0.0037089223,0.003002204,0.7784664,0.627668,-61.211,564.68097,8.301001,-0.00021,-0.00021,4.00141
169.25833,2000,0,91.24,0.000002697398,0.000002697398,0.000002697398,0.99999994,0,0,0,0,0,0,1,1,0,0,0,false,false,true,-719.83997,-2137.97,17.01,-0.0037574756,0.0029374664,0.788823,0.6146018,-65.111,568.35095,8.301001,-0.00021,-0.00021,4.00241
169.26666,2000,0,91.24,0.000002697398,0.000002697398,0.000002697398,0.99999994,0,0,0,0,0,0,1,1,0,0,0,false,false,true,-720.38,-2133.23,17.01,-0.0038060287,0.002872729,0.7989617,0.6013629,-69.340996,571.86096,8.311,-0.00021,-0.00010999999,4.00441
169.275,2000,0,91.24,0.000002697398,0.000002697398,0.000002697398,0.99999994,0,0,0,0,0,0,1,1,0,0,0,false,false,true,-720.95996,-2128.46,17.01,-0.0038545819,0.0028079913,0.80888206,0.5879514,-73.881,575.191,8.311,-0.00021,-0.00010999999,4.00731
169.28334,2000,0,91.24,0.000002697398,0.000002697398,0.000002697398,0.99999994,0,0,0,0,0,0,1,1,0,0,0,false,false,true,-721.57996,-2123.67,17.01,-0.0039031352,0.002743254,0.81858754,0.5743619,-78.711,578.321,8.311,-0.00021,0,4.0110097
169.29167,2000,0,91.24,0.000002697398,0.000002697398,0.000002697398,0.99999994,0,0,0,0,0,0,1,1,0,0,0,false,false,true,-722.24,-2118.8499,17.01,-0.0039462927,0.002678516,0.82807314,0.56059957,-83.821,581.251,8.311,-0.00021,0,4.01541
169.3,2000,0,91.24,0.000002697398,0.000002697398,0.000002697398,0.99999994,0,0,0,0,0,0,1,1,0,0,0,false,false,true,-722.94,-2114.01,17.01,-0.0039894516,0.0026137787,0.8373378,0.5466649,-89.201,583.96094,8.311,-0.00021,0,4.0205097
169.30833,2000,0,91.24,0.000002697398,0.000002697398,0.000002697398,0.99999994,0,0,0,0,0,0,1,1,0,0,0,false,false,true,-723.68,-2109.14,17.01,-0.00403261,0.002549041,0.84637696,0.5325628,-94.83099,586.451,8.311,-0.00021,0,4.02621
169.31667,2000,0,91.24,0.000002697398,0.000002697398,0.000002697398,0.99999994,0,0,0,0,0,0,1,1,0,0,0,false,false,true,-724.47,-2104.25,17.01,-0.004075769,0.002484304,0.8551927,0.51828814,-100.690994,588.701,8.311,-0.00010999999,0,4.03251
169.325,2000,0,91.24,0.000002697398,0.000002697398,0.000002697398,0.99999994,0,0,0,0,0,0,1,1,0,0,0,false,false,true,-725.31,-2099.3398,17.01,-0.004118927,0.0024141711,0.8637801,0.5038462,-106.770996,590.71094,8.311,-0.00010999999,0,4.03931
169.33333,2000,0,91.24,0.000002697398,0.000002697398,0.000002697398,0.99999994,0,0,0,0,0,0,1,1,0,0,0,false,false,true,-726.2,-2094.42,17.01,-0.00415669,0.0023440388,0.8721377,0.48923704,-113.061,592.47095,8.311,-0.00010999999,0,4.04661
169.34166,2000,0,91.24,0.000002697398,0.000002697398,0.000002697398,0.99999994,0,0,0,0,0,0,1,1,0,0,0,false,false,true,-727.13995,-2089.48,17.01,-0.004194454,0.0022739065,0.88026375,0.4744606,-119.541,593.98096,8.311,-0.00010999999,0,4.05431
169.35,2000,0,91.24,0.000002697398,0.000002697398,0.000002697398,0.99999994,0,0,0,0,0,0,1,1,0,0,0,false,false,true,-728.13995,-2084.53,17.01,-0.0042322176,0.0022037742,0.88815325,0.45952243,-126.201,595.23096,8.311,-0.00010999999,0,4.06251
169.35834,2000,0,91.24,0.000002697398,0.000002697398,0.000002697398,0.99999994,0,0,0,0,0,0,1,1,0,0,0,false,false,true,-729.19,-2079.57,17.01,-0.0042699804,0.0021336416,0.8958045,0.44442225,-133.02101,596.21094,8.311,-0.00010999999,0,4.07101
169.36667,2000,0,91.24,0.000002697398,0.000002697398,0.000002697398,0.99999994,0,0,0,0,0,0,1,1,0,0,0,false,false,true,-730.3,-2074.5999,17.01,-0.0043077446,0.0020635095,0.9032131,0.42916572,-139.991,596.92096,8.311,0,0,4.07991
169.375,2000,0,91.24,0.000002697398,0.000002697398,0.000002697398,0.99999994,0,0,0,0,0,0,1,1,0,0,0,false,false,true,-731.47,-2069.63,17.01,-0.0043401136,0.0019879825,0.9103767,0.41375282,-147.101,597.36096,8.311,0,0,4.08911
169.38333,2000,0,91.24,0.000002697398,0.000002697398,0.000002697398,0.99999994,0,0,0,0,0,0,1,1,0,0,0,false,false,true,-732.7,-2064.65,17.01,-0.0043724827,0.0019124553,0.9172934,0.39818335,-154.341,597.52094,8.311,0,0,4.09861
169.39166,2000,0,91.24,0.000002697398,0.000002697398,0.000002697398,0.99999994,0,0,0,0,0,0,1,1,0,0,0,false,false,true,-733.99,-2059.67,17.01,-0.0044048512,0.0018369282,0.9239585,0.38246283,-161.69101,597.41095,8.311,0,0,4.10841
