time,ball_loc_x,ball_loc_y,ball_loc_z,ball_rot_x,ball_rot_y,ball_rot_z,ball_rot_w,ball_vel_x,ball_vel_y,ball_vel_z,ball_ang_x,ball_ang_y,ball_ang_z,player0_throttle,player0_steer,player0_pitch,player0_yaw,player0_roll,player0_jump,player0_boost,player0_handbrake,player0_loc_x,player0_loc_y,player0_loc_z,player0_rot_x,player0_rot_y,player0_rot_z,player0_rot_w,player0_vel_x,player0_vel_y,player0_vel_z,player0_ang_x,player0_ang_y,player0_ang_z
40.933334,2000,0,91.24,0.000002697398,0.000002697398,0.000002697398,0.99999994,0,0,0,0,0,0,0.2992126,0,0,0,0,false,false,false,0,-4891.84,17.01,-0.0033582605,0.0033582605,0.707107,0.7070905,0,301.621,8.321,-0.00061,0,0
40.941666,2000,0,91.24,0.000002697398,0.000002697398,0.000002697398,0.99999994,0,0,0,0,0,0,0,1,0,0,0,false,false,true,0,-4889.33,17.01,-0.0033582605,0.0033582605,0.707107,0.7070905,-8.361,298.061,8.351,-0.00081,0.00211,0.22320999
40.95,2000,0,91.24,0.000002697398,0.000002697398,0.000002697398,0.99999994,0,0,0,0,0,0,0,1,0,0,0,false,false,true,-0.07,-4886.85,17.01,-0.0033582605,0.0033636554,0.7077645,0.70643234,-13.691,295.771,8.361,-0.00091,0.00261,0.36601
40.958332,2000,0,91.24,0.000002697398,0.000002697398,0.000002697398,0.99999994,0,0,0,0,0,0,0,1,0,0,0,false,false,true,-0.17999999,-4884.3896,17.01,-0.0033582605,0.00336905,0.7088398,0.7053534,-18.341,293.771,8.361,-0.00091,0.00271,0.48901
40.966667,2000,0,91.24,0.000002697398,0.000002697398,0.000002697398,0.99999994,0,0,0,0,0,0,0,1,0,0,0,false,false,true,-0.32999998,-4881.94,17.01,-0.0033582605,0.003374445,0.7102755,0.7039076,-22.440998,292.021,8.361,-0.00091,0.00251,0.59441
40.975,2000,0,91.24,0.000002697398,0.000002697398,0.000002697398,0.99999994,0,0,0,0,0,0,0,1,0,0,0,false,false,true,-0.52,-4879.51,17.01,-0.0033636556,0.0033744453,0.7120141,0.702149,-26.081,290.481,8.361,-0.00081,0.00211,0.68441
40.983334,2000,0,91.24,0.000002697398,0.000002697398,0.000002697398,0.99999994,0,0,0,0,0,0,0,1,0,0,0,false,false,true,-0.74,-4877.09,17.01,-0.00336905,0.003374445,0.71401405,0.700115,-29.350998,289.121,8.351,-0.00071,0.0016099999,0.76091
40.991665,2000,0,91.24,0.000002697398,0.000002697398,0.000002697398,0.99999994,0,0,0,0,0,0,0,1,0,0,0,false,false,true,-0.97999996,-4874.6797,17.01,-0.003374445,0.00336905,0.7162287,0.6978492,-32.301,287.911,8.351,-0.00061,0.00111,0.82581
41,2000,0,91.24,0.000002697398,0.000002697398,0.000002697398,0.99999994,0,0,0,0,0,0,0,1,0,0,0,false,false,true,-1.25,-4872.28,17.01,-0.0033852346,0.0033636554,0.71862787,0.69537836,-35.001,286.831,8.341001,-0.00061,0.00071,0.88080996
41.008335,2000,0,91.24,0.000002697398,0.000002697398,0.000002697398,0.99999994,0,0,0,0,0,0,0,1,0,0,0,false,false,true,-1.54,-4869.8896,17.01,-0.0033960242,0.0033528658,0.7211764,0.6927349,-37.481,285.861,8.341001,-0.00051,0.00030999997,0.92721
41.016666,2000,0,91.24,0.000002697398,0.000002697398,0.000002697398,0.99999994,0,0,0,0,0,0,0,1,0,0,0,false,false,true,-1.8499999,-4867.51,17.01,-0.0034068138,0.0033420762,0.72384524,0.68994576,-39.771,284.981,8.341001,-0.00051,0,0.96641
41.025,2000,0,91.24,0.000002697398,0.000002697398,0.000002697398,0.99999994,0,0,0,0,0,0,0,1,0,0,0,false,false,true,-2.18,-4865.13,17.01,-0.0034229981,0.0033312866,0.72661585,0.6870272,-41.900997,284.181,8.341001,-0.00051,-0.00021,0.99951
41.033333,2000,0,91.24,0.000002697398,0.000002697398,0.000002697398,0.99999994,0,0,0,0,0,0,0,1,0,0,0,false,false,true,-2.53,-4862.76,17.01,-0.0034391829,0.0033204972,0.7294707,0.68399537,-43.891,283.441,8.331,-0.00040999998,-0.00040999998,1.02731
41.041668,2000,0,91.24,0.000002697398,0.000002697398,0.000002697398,0.99999994,0,0,0,0,0,0,0,1,0,0,0,false,false,true,-2.8999999,-4860.4,17.01,-0.003455367,0.0033043127,0.73239195,0.68086636,-45.760998,282.761,8.331,-0.00030999997,-0.00061,1.05061
41.05,2000,0,91.24,0.000002697398,0.000002697398,0.000002697398,0.99999994,0,0,0,0,0,0,0,1,0,0,0,false,false,true,-3.28,-4858.04,17.01,-0.0034715512,0.0032881282,0.73536795,0.67765105,-47.510998,282.131,8.331,-0.00030999997,-0.00071,1.07011
41.058334,2000,0,91.24,0.000002697398,0.000002697398,0.000002697398,0.99999994,0,0,0,0,0,0,0,1,0,0,0,false,false,true,-3.6799998,-4855.69,17.01,-0.0034877358,0.003271944,0.73838204,0.6743656,-49.150997,281.54102,8.331,-0.00021,-0.00081,1.08641
41.066666,2000,0,91.24,0.000002697398,0.000002697398,0.000002697398,0.99999994,0,0,0,0,0,0,0,1,0,0,0,false,false,true,-4.0899997,-4853.34,17.01,-0.00350392,0.0032557594,0.7414279,0.6710154,-50.681,280.991,8.331,-0.00021,-0.00091,1.09991
41.075,2000,0,91.24,0.000002697398,0.000002697398,0.000002697398,0.99999994,0,0,0,0,0,0,0,1,0,0,0,false,false,true,-4.5099998,-4851,17.01,-0.0035201046,0.003239575,0.7444946,0.66761124,-52.111,280.481,8.331,-0.00021,-0.00091,1.11101
41.083332,2000,0,91.24,0.000002697398,0.000002697398,0.000002697398,0.99999994,0,0,0,0,0,0,0,1,0,0,0,false,false,true,-4.94,-4848.6597,17.01,-0.0035362889,0.0032233908,0.7475763,0.6641586,-53.431,280.011,8.331,-0.00010999999,-0.0010099999,1.12011
41.091667,2000,0,91.24,0.000002697398,0.000002697398,0.000002697398,0.99999994,0,0,0,0,0,0,0,1,0,0,0,false,false,true,-5.39,-4846.33,17.01,-0.0035524734,0.0032018116,0.7506675,0.6606627,-54.630997,279.581,8.321,-0.00010999999,-0.0010099999,1.1274099
41.1,2000,0,91.24,0.000002697398,0.000002697398,0.000002697398,0.99999994,0,0,0,0,0,0,0,1,0,0,0,false,false,true,-5.85,-4844,17.01,-0.003568658,0.0031802326,0.7537627,0.6571292,-55.711,279.191,8.321,-0.00010999999,-0.0010099999,1.13321
41.108334,2000,0,91.24,0.000002697398,0.000002697398,0.000002697398,0.99999994,0,0,0,0,0,0,0,1,0,0,0,false,false,true,-6.31,-4841.67,17.01,-0.003584842,0.0031586532,0.75685674,0.6535632,-56.670998,278.841,8.321,-0.00010999999,-0.0010099999,1.13771
41.116665,2000,0,91.24,0.000002697398,0.000002697398,0.000002697398,0.99999994,0,0,0,0,0,0,0,1,0,0,0,false,false,true,-6.7799997,-4839.35,17.01,-0.0036010265,0.003137074,0.75994456,0.6499702,-57.490997,278.54102,8.321,-0.00010999999,-0.0010099999,1.14111
41.125,2000,0,91.24,0.000002697398,0.000002697398,0.000002697398,0.99999994,0,0,0,0,0,0,0,1,0,0,0,false,false,true,-7.2599998,-4837.03,17.01,-0.003617211,0.003115495,0.7630258,0.6463503,-58.161,278.29102,8.321,-0.00021,-0.00091,1.14361
41.133335,2000,0,91.24,0.000002697398,0.000002697398,0.000002697398,0.99999994,0,0,0,0,0,0,0,1,0,0,0,false,false,true,-7.74,-4834.71,17.01,-0.0036333953,0.0030939155,0.76609564,0.6427088,-58.670998,278.091,8.321,-0.00021,-0.00091,1.1453099
41.141666,2000,0,91.24,0.000002697398,0.000002697398,0.000002697398,0.99999994,0,0,0,0,0,0,0,1,0,0,0,false,false,true,-8.23,-4832.3896,17.01,-0.0036495796,0.0030723363,0.7691539,0.6390457,-59.211,277.881,8.321,-0.00030999997,-0.00081,1.14691
41.15,2000,0,91.24,0.000002697398,0.000002697398,0.000002697398,0.99999994,0,0,0,0,0,0,0,1,0,0,0,false,false,true,-8.72,-4830.07,17.01,-0.003665764,0.003056152,0.77220035,0.6353611,-59.771,277.651,8.321,-0.00030999997,-0.00071,1.14851
41.158333,2000,0,91.24,0.000002697398,0.000002697398,0.000002697398,0.99999994,0,0,0,0,0,0,0,1,0,0,0,false,false,true,-9.22,-4827.76,17.01,-0.0036819484,0.0030399675,0.7752306,0.6316602,-60.360996,277.411,8.321,-0.00030999997,-0.00071,1.15011
41.166668,2000,0,91.24,0.000002697398,0.000002697398,0.000002697398,0.99999994,0,0,0,0,0,0,0,1,0,0,0,false,false,true,-9.719999,-4825.4497,17.01,-0.0036981327,0.0030237832,0.77824885,0.62793773,-60.970997,277.151,8.321,-0.00030999997,-0.00071,1.15161
41.175,2000,0,91.24,0.000002697398,0.000002697398,0.000002697398,0.99999994,0,0,0,0,0,0,0,1,0,0,0,false,false,true,-10.23,-4823.1396,17.01,-0.0037143172,0.003007599,0.7812549,0.6241937,-61.610996,276.881,8.321,-0.00030999997,-0.00071,1.15311
41.183334,2000,0,91.24,0.000002697398,0.000002697398,0.000002697398,0.99999994,0,0,0,0,0,0,0,1,0,0,0,false,false,true,-10.74,-4820.83,17.01,-0.0037305015,0.0029914144,0.78424436,0.62043357,-62.271,276.591,8.321,-0.00021,-0.00071,1.15461
41.191666,2000,0,91.24,0.000002697398,0.000002697398,0.000002697398,0.99999994,0,0,0,0,0,0,0,1,0,0,0,false,false,true,-11.259999,-4818.53,17.01,-0.003746686,0.0029698352,0.7872214,0.61665183,-62.950996,276.281,8.321,-0.00021,-0.00071,1.1561099
41.2,2000,0,91.24,0.000002697398,0.000002697398,0.000002697398,0.99999994,0,0,0,0,0,0,0,1,0,0,0,false,false,true,-11.78,-4816.23,17.01,-0.0037628706,0.0029482562,0.7901817,0.61285394,-63.650997,275.961,8.321,-0.00021,-0.00061,1.15751
41.208332,2000,0,91.24,0.000002697398,0.000002697398,0.000002697398,0.99999994,0,0,0,0,0,0,0,1,0,0,0,false,false,true,-12.309999,-4813.9297,17.01,-0.0037790546,0.0029266768,0.7931293,0.60903436,-64.370995,275.621,8.321,-0.00021,-0.00051,1.15891
41.216667,2000,0,91.24,0.000002697398,0.000002697398,0.000002697398,0.99999994,0,0,0,0,0,0,0,1,0,0,0,false,false,true,-12.849999,-4811.63,17.01,-0.0037952394,0.0029104927,0.7960601,0.6051986,-65.111,275.261,8.321,-0.00021,-0.00051,1.16031
41.225,2000,0,91.24,0.000002697398,0.000002697398,0.000002697398,0.99999994,0,0,0,0,0,0,0,1,0,0,0,false,false,true,-13.389999,-4809.34,17.01,-0.0038114234,0.0028889133,0.79897785,0.6013413,-65.870995,274.891,8.321,-0.00021,-0.00040999998,1.16161
41.233334,2000,0,91.24,0.000002697398,0.000002697398,0.000002697398,0.99999994,0,0,0,0,0,0,0,1,0,0,0,false,false,true,-13.94,-4807.05,17.01,-0.0038276082,0.0028727292,0.8018785,0.5974679,-66.651,274.501,8.321,-0.00021,-0.00040999998,1.16291
41.241665,2000,0,91.24,0.000002697398,0.000002697398,0.000002697398,0.99999994,0,0,0,0,0,0,0,1,0,0,0,false,false,true,-14.5,-4804.76,17.01,-0.0038437922,0.0028565445,0.80476594,0.5935728,-67.451,274.091,8.321,-0.00010999999,-0.00040999998,1.16421
41.25,2000,0,91.24,0.000002697398,0.000002697398,0.000002697398,0.99999994,0,0,0,0,0,0,0,1,0,0,0,false,false,true,-15.059999,-4802.48,17.01,-0.0038599768,0.0028349652,0.80763614,0.58966154,-68.261,273.661,8.321,0,-0.00040999998,1.16541
41.258335,2000,0,91.24,0.000002697398,0.000002697398,0.000002697398,0.99999994,0,0,0,0,0,0,0,1,0,0,0,false,false,true,-15.63,-4800.1997,17.01,-0.003876161,0.0028133863,0.810489,0.5857341,-69.090996,273.221,8.321,0,-0.00030999997,1.16661
41.266666,2000,0,91.24,0.000002697398,0.000002697398,0.000002697398,0.99999994,0,0,0,0,0,0,0,1,0,0,0,false,false,true,-16.21,-4797.92,17.01,-0.0038923454,0.002791807,0.8133283,0.5817851,-69.931,272.761,8.321,0,-0.00021,1.16781
41.275,2000,0,91.24,0.000002697398,0.000002697398,0.000002697398,0.99999994,0,0,0,0,0,0,0,1,0,0,0,false,false,true,-16.789999,-4795.65,17.01,-0.0039085294,0.0027702278,0.8161501,0.5778199,-70.791,272.281,8.321,0,-0.00010999999,1.16891
41.283333,2000,0,91.24,0.000002697398,0.000002697398,0.000002697398,0.99999994,0,0,0,0,0,0,0,1,0,0,0,false,false,true,-17.38,-4793.38,17.01,-0.003924714,0.0027486486,0.81895435,0.57383853,-71.660995,271.781,8.321,0,-0.00010999999,1.17001
41.291668,2000,0,91.24,0.000002697398,0.000002697398,0.000002697398,0.99999994,0,0,0,0,0,0,0,1,0,0,0,false,false,true,-17.98,-4791.11,17.01,-0.0039408985,0.0027270694,0.82174087,0.569841,-72.541,271.261,8.321,0,0,1.17101
41.3,2000,0,91.24,0.000002697398,0.000002697398,0.000002697398,0.99999994,0,0,0,0,0,0,0,1,0,0,0,false,false,true,-18.58,-4788.85,17.01,-0.003951688,0.0027054902,0.8245098,0.56582725,-73.440994,270.731,8.321,0,0,1.17201
41.308334,2000,0,91.24,0.000002697398,0.000002697398,0.000002697398,0.99999994,0,0,0,0,0,0,0,1,0,0,0,false,false,true,-19.189999,-4786.59,17.01,-0.0039624777,0.002683911,0.82726467,0.5617919,-74.351,270.181,8.321,-0.00010999999,0,1.17301
41.316666,2000,0,91.24,0.000002697398,0.000002697398,0.000002697398,0.99999994,0,0,0,0,0,0,0,1,0,0,0,false,false,true,-19.81,-4784.34,17.01,-0.003973267,0.0026623318,0.8300016,0.5577404,-75.270996,269.611,8.321,-0.00010999999,0,1.17391
41.325,2000,0,91.24,0.000002697398,0.000002697398,0.000002697398,0.99999994,0,0,0,0,0,0,0,1,0,0,0,false,false,true,-20.439999,-4782.09,17.01,-0.0039840564,0.0026407524,0.8327205,0.5536727,-76.201,269.021,8.321,-0.00021,0,1.1748099
41.333332,2000,0,91.24,0.000002697398,0.000002697398,0.000002697398,0.99999994,0,0,0,0,0,0,0,1,0,0,0,false,false,true,-21.08,-4779.85,17.01,-0.0039948463,0.0026245683,0.8354215,0.54958886,-77.141,268.411,8.321,-0.00030999997,0,1.17571
41.341667,2000,0,91.24,0.000002697398,0.000002697398,0.000002697398,0.99999994,0,0,0,0,0,0,0,1,0,0,0,false,false,true,-21.72,-4777.61,17.01,-0.004011031,0.0026083838,0.83810437,0.54548883,-78.090996,267.79102,8.321,-0.00030999997,0,1.17651
41.35,2000,0,91.24,0.000002697398,0.000002697398,0.000002697398,0.99999994,0,0,0,0,0,0,0,1,0,0,0,false,false,true,-22.369999,-4775.38,17.01,-0.0040218206,0.0025921997,0.8407692,0.54137254,-79.041,267.151,8.321,-0.00030999997,0,1.17731
41.358334,2000,0,91.24,0.000002697398,0.000002697398,0.000002697398,0.99999994,0,0,0,0,0,0,0,1,0,0,0,false,false,true,-23.029999,-4773.15,17.01,-0.0040326104,0.0025760154,0.84341574,0.53724015,-80.001,266.491,8.321,-0.00021,0,1.17811
41.366665,2000,0,91.24,0.000002697398,0.000002697398,0.000002697398,0.99999994,0,0,0,0,0,0,0,1,0,0,0,false,false,true,-23.699999,-4770.9297,17.01,-0.0040433994,0.002554436,0.846044,0.5330915,-80.971,265.811,8.321,-0.00021,0,1.17881
41.375,2000,0,91.24,0.000002697398,0.000002697398,0.000002697398,0.99999994,0,0,0,0,0,0,0,1,0,0,0,false,false,true,-24.369999,-4768.71,17.01,-0.0040541897,0.002532857,0.84865063,0.52893215,-81.951,265.111,8.321,-0.00021,0,1.17951
41.383335,2000,0,91.24,0.000002697398,0.000002697398,0.000002697398,0.99999994,0,0,0,0,0,0,0,1,0,0,0,false,false,true,-25.05,-4766.5,17.01,-0.004064979,0.0025112778,0.8512389,0.52475655,-82.931,264.391,8.321,-0.00021,-0.00010999999,1.18011
41.391666,2000,0,91.24,0.000002697398,0.000002697398,0.000002697398,0.99999994,0,0,0,0,0,0,0,1,0,0,0,false,false,true,-25.74,-4764.3,17.01,-0.0040757684,0.0024896984,0.85380876,0.52056473,-83.921,263.661,8.321,-0.00021,-0.00010999999,1.18071
41.4,2000,0,91.24,0.000002697398,0.000002697398,0.000002697398,0.99999994,0,0,0,0,0,0,0,1,0,0,0,false,false,true,-26.439999,-4762.1,17.01,-0.004086558,0.0024681191,0.8563602,0.5163567,-84.910995,262.911,8.321,-0.00030999997,-0.00010999999,1.1813099
41.408333,2000,0,91.24,0.000002697398,0.000002697398,0.000002697398,0.99999994,0,0,0,0,0,0,0,1,0,0,0,false,false,true,-27.15,-4759.9097,17.01,-0.0040973476,0.00244654,0.85889304,0.5121326,-85.910995,262.141,8.321,-0.00030999997,-0.00010999999,1.18181
41.416668,2000,0,91.24,0.000002697398,0.000002697398,0.000002697398,0.99999994,0,0,0,0,0,0,0,1,0,0,0,false,false,true,-27.869999,-4757.7197,17.01,-0.004108137,0.0024249607,0.8614041,0.5078977,-86.910995,261.351,8.321,-0.00030999997,-0.00021,1.18231
41.425,2000,0,91.24,0.000002697398,0.000002697398,0.000002697398,0.99999994,0,0,0,0,0,0,0,1,0,0,0,false,false,true,-28.59,-4755.54,17.01,-0.004118927,0.0024033815,0.8638965,0.5036466,-87.910995,260.54102,8.321,-0.00040999998,-0.00021,1.18281
41.433334,2000,0,91.24,0.000002697398,0.000002697398,0.000002697398,0.99999994,0,0,0,0,0,0,0,1,0,0,0,false,false,true,-29.32,-4753.37,17.01,-0.004129716,0.0023818025,0.86636716,0.49938473,-88.910995,259.721,8.321,-0.00040999998,-0.00021,1.18321
41.441666,2000,0,91.24,0.000002697398,0.000002697398,0.000002697398,0.99999994,0,0,0,0,0,0,0,1,0,0,0,false,false,true,-30.06,-4751.21,17.01,-0.004140506,0.0023602233,0.8688191,0.49510658,-89.921,258.881,8.321,-0.00040999998,-0.00021,1.18361
41.45,2000,0,91.24,0.000002697398,0.000002697398,0.000002697398,0.99999994,0,0,0,0,0,0,0,1,0,0,0,false,false,true,-30.81,-4749.05,17.01,-0.0041512954,0.0023386441,0.8712492,0.49081773,-90.931,258.021,8.321,-0.00051,-0.00021,1.18391
41.458332,2000,0,91.24,0.000002697398,0.000002697398,0.000002697398,0.99999994,0,0,0,0,0,0,0,1,0,0,0,false,false,true,-31.57,-4746.9,17.01,-0.0041620852,0.002317065,0.87366045,0.48651266,-91.940994,257.141,8.321,-0.00051,-0.00021,1.18421
41.466667,2000,0,91.24,0.000002697398,0.000002697398,0.000002697398,0.99999994,0,0,0,0,0,0,0,1,0,0,0,false,false,true,-32.34,-4744.76,17.01,-0.004172874,0.0022954855,0.8760498,0.48219678,-92.951,256.251,8.321,-0.00051,-0.00021,1.18451
41.475,2000,0,91.24,0.000002697398,0.000002697398,0.000002697398,0.99999994,0,0,0,0,0,0,0,1,0,0,0,false,false,true,-33.11,-4742.62,17.01,-0.0041836645,0.0022739065,0.8784204,0.4778648,-93.961,255.341,8.321,-0.00051,-0.00021,1.18471
41.483334,2000,0,91.24,0.000002697398,0.000002697398,0.000002697398,0.99999994,0,0,0,0,0,0,0,1,0,0,0,false,false,true,-33.89,-4740.4897,17.01,-0.0041944534,0.002252327,0.880769,0.47352186,-94.971,254.411,8.321,-0.00051,-0.00021,1.1849099
41.491665,2000,0,91.24,0.000002697398,0.000002697398,0.000002697398,0.99999994,0,0,0,0,0,0,0,1,0,0,0,false,false,true,-34.68,-4738.37,17.01,-0.004205243,0.002230748,0.88309586,0.4691683,-95.980995,253.461,8.321,-0.00061,-0.00030999997,1.18501
41.5,2000,0,91.24,0.000002697398,0.000002697398,0.000002697398,0.99999994,0,0,0,0,0,0,0,1,0,0,0,false,false,true,-35.48,-4736.26,17.01,-0.004216033,0.0022091689,0.8854008,0.46480393,-96.980995,252.501,8.321,-0.00061,-0.00030999997,1.18511
41.508335,2000,0,91.24,0.000002697398,0.000002697398,0.000002697398,0.99999994,0,0,0,0,0,0,0,1,0,0,0,false,false,true,-36.29,-4734.1597,17.01,-0.004226823,0.0021875899,0.88768387,0.46042877,-97.980995,251.521,8.321,-0.00061,-0.00030999997,1.18521
41.516666,2000,0,91.24,0.000002697398,0.000002697398,0.000002697398,0.99999994,0,0,0,0,0,0,0,1,0,0,0,false,false,true,-37.11,-4732.06,17.01,-0.0042376122,0.0021660107,0.88994783,0.45603737,-98.980995,250.521,8.321,-0.00061,-0.00030999997,1.18521
41.525,2000,0,91.24,0.000002697398,0.000002697398,0.000002697398,0.99999994,0,0,0,0,0,0,0,1,0,0,0,false,false,true,-37.93,-4729.9697,17.01,-0.0042484016,0.0021444315,0.8921899,0.45163515,-99.980995,249.511,8.321,-0.00061,-0.00030999997,1.18521
41.533333,2000,0,91.24,0.000002697398,0.000002697398,0.000002697398,0.99999994,0,0,0,0,0,0,0,1,0,0,0,false,false,true,-38.76,-4727.89,17.01,-0.0042591915,0.0021228523,0.89441013,0.4472222,-100.971,248.481,8.321,-0.00061,-0.00030999997,1.18521
41.541668,2000,0,91.24,0.000002697398,0.000002697398,0.000002697398,0.99999994,0,0,0,0,0,0,0,1,0,0,0,false,false,true,-39.6,-4725.82,17.01,-0.004269981,0.002101273,0.8966085,0.44279847,-101.961,247.441,8.321,-0.00061,-0.00030999997,1.18511
41.55,2000,0,91.24,0.000002697398,0.000002697398,0.000002697398,0.99999994,0,0,0,0,0,0,0,1,0,0,0,false,false,true,-40.45,-4723.76,17.01,-0.0042807707,0.0020796938,0.8987849,0.43836394,-102.951,246.381,8.321,-0.00061,-0.00030999997,1.18501
41.558334,2000,0,91.24,0.000002697398,0.000002697398,0.000002697398,0.99999994,0,0,0,0,0,0,0,1,0,0,0,false,false,true,-41.309998,-4721.71,17.01,-0.00429156,0.0020581146,0.9009394,0.43391863,-103.931,245.301,8.321,-0.00061,-0.00030999997,1.18481
41.566666,2000,0,91.24,0.000002697398,0.000002697398,0.000002697398,0.99999994,0,0,0,0,0,0,0,1,0,0,0,false,false,true,-42.18,-4719.67,17.01,-0.0043023503,0.0020365356,0.90306956,0.42946786,-104.910995,244.211,8.321,-0.00061,-0.00030999997,1.18461
41.575,2000,0,91.24,0.000002697398,0.000002697398,0.000002697398,0.99999994,0,0,0,0,0,0,0,1,0,0,0,false,false,true,-43.05,-4717.63,17.01,-0.004313139,0.002014956,0.9051777,0.42500627,-105.881,243.101,8.321,-0.00061,-0.00030999997,1.18441
41.583332,2000,0,91.24,0.000002697398,0.000002697398,0.000002697398,0.99999994,0,0,0,0,0,0,0,1,0,0,0,false,false,true,-43.93,-4715.6,17.01,-0.0043239295,0.0019933772,0.90726423,0.42053407,-106.840996,241.981,8.321,-0.00061,-0.00030999997,1.1841099
41.591667,2000,0,91.24,0.000002697398,0.000002697398,0.000002697398,0.99999994,0,0,0,0,0,0,0,1,0,0,0,false,false,true,-44.82,-4713.58,17.01,-0.0043347185,0.0019717978,0.90932876,0.41605097,-107.800995,240.841,8.321,-0.00061,-0.00030999997,1.18381
41.6,2000,0,91.24,0.000002697398,0.000002697398,0.000002697398,0.99999994,0,0,0,0,0,0,0,1,0,0,0,false,false,true,-45.719997,-4711.57,17.01,-0.0043455083,0.0019502188,0.911369,0.4115625,-108.751,239.691,8.321,-0.00061,-0.00030999997,1.1834099
41.608334,2000,0,91.24,0.000002697398,0.000002697398,0.000002697398,0.99999994,0,0,0,0,0,0,0,1,0,0,0,false,false,true,-46.629997,-4709.57,17.01,-0.0043562977,0.0019286396,0.91338754,0.40706316,-109.690994,238.521,8.321,-0.00061,-0.00030999997,1.18301
41.616665,2000,0,91.24,0.000002697398,0.000002697398,0.000002697398,0.99999994,0,0,0,0,0,0,0,1,0,0,0,false,false,true,-47.539997,-4707.58,17.01,-0.0043670875,0.0019070605,0.9153818,0.4025585,-110.631,237.341,8.321,-0.00061,-0.00030999997,1.18261
41.625,2000,0,91.24,0.000002697398,0.000002697398,0.000002697398,0.99999994,0,0,0,0,0,0,0,1,0,0,0,false,false,true,-48.46,-4705.6,17.01,-0.0043778773,0.0018854814,0.9173543,0.3980431,-111.561,236.151,8.321,-0.00061,-0.00030999997,1.18211
41.633335,2000,0,91.24,0.000002697398,0.000002697398,0.000002697398,0.99999994,0,0,0,0,0,0,0,1,0,0,0,false,false,true,-49.39,-4703.63,17.01,-0.004388667,0.0018639022,0.9193027,0.39352226,-112.480995,234.941,8.321,-0.00061,-0.00030999997,1.18161
41.641666,2000,0,91.24,0.000002697398,0.000002697398,0.000002697398,0.99999994,0,0,0,0,0,0,0,1,0,0,0,false,false,true,-50.329998,-4701.67,17.01,-0.004399456,0.0018423229,0.9212293,0.38899058,-113.391,233.72101,8.321,-0.00061,-0.00021,1.18111
41.65,2000,0,91.24,0.000002697398,0.000002697398,0.000002697398,0.99999994,0,0,0,0,0,0,0,1,0,0,0,false,false,true,-51.27,-4699.7197,17.01,-0.004410246,0.0018207438,0.923132,0.3844535,-114.291,232.491,8.321,-0.00061,-0.00021,1.1805099
41.658333,2000,0,91.24,0.000002697398,0.000002697398,0.000002697398,0.99999994,0,0,0,0,0,0,0,1,0,0,0,false,false,true,-52.219997,-4697.78,17.01,-0.0044210358,0.0017991647,0.9250129,0.3799057,-115.181,231.241,8.321,-0.00061,-0.00021,1.17991
41.666668,2000,0,91.24,0.000002697398,0.000002697398,0.000002697398,0.99999994,0,0,0,0,0,0,0,1,0,0,0,false,false,true,-53.18,-4695.85,17.01,-0.004431824,0.0017775851,0.9268697,0.37535244,-116.071,229.981,8.321,-0.00061,-0.00010999999,1.17921
41.675,2000,0,91.24,0.000002697398,0.000002697398,0.000002697398,0.99999994,0,0,0,0,0,0,0,1,0,0,0,false,false,true,-54.149998,-4693.9297,17.01,-0.0044426145,0.0017560062,0.92870283,0.37079385,-116.951,228.711,8.321,-0.00061,-0.00010999999,1.17851
41.683334,2000,0,91.24,0.000002697398,0.000002697398,0.000002697398,0.99999994,0,0,0,0,0,0,0,1,0,0,0,false,false,true,-55.12,-4692.02,17.01,-0.004453404,0.001734427,0.9305121,0.36622986,-117.821,227.431,8.321,-0.00051,-0.00010999999,1.17781
41.691666,2000,0,91.24,0.000002697398,0.000002697398,0.000002697398,0.99999994,0,0,0,0,0,0,0,1,0,0,0,false,false,true,-56.1,-4690.12,17.01,-0.0044641937,0.0017128477,0.9322976,0.3616604,-118.681,226.131,8.321,-0.00051,0,1.1770099
41.7,2000,0,91.24,0.000002697398,0.000002697398,0.000002697398,0.99999994,0,0,0,0,0,0,0,1,0,0,0,false,false,true,-57.09,-4688.2397,17.01,-0.0044749836,0.0016912688,0.9340594,0.35708562,-119.531,224.821,8.321,-0.00051,0,1.1762099
41.708332,2000,0,91.24,0.000002697398,0.000002697398,0.000002697398,0.99999994,0,0,0,0,0,0,0,1,0,0,0,false,false,true,-58.09,-4686.37,17.01,-0.0044857734,0.0016696895,0.9357975,0.35250545,-120.370995,223.501,8.321,-0.00040999998,0,1.17541
41.716667,2000,0,91.24,0.000002697398,0.000002697398,0.000002697398,0.99999994,0,0,0,0,0,0,0,1,0,0,0,false,false,true,-59.09,-4684.51,17.01,-0.0044965623,0.0016481102,0.937512,0.34791985,-121.190994,222.171,8.321,-0.00040999998,0,1.17451
41.725,2000,0,91.24,0.000002697398,0.000002697398,0.000002697398,0.99999994,0,0,0,0,0,0,0,1,0,0,0,false,false,true,-60.1,-4682.6597,17.01,-0.004507352,0.001626531,0.93920296,0.34332886,-122.001,220.83101,8.321,-0.00040999998,0,1.17361
41.733334,2000,0,91.24,0.000002697398,0.000002697398,0.000002697398,0.99999994,0,0,0,0,0,0,0,1,0,0,0,false,false,true,-61.12,-4680.82,17.01,-0.0045181415,0.0016049518,0.94087046,0.33873242,-122.800995,219.481,8.321,-0.00040999998,0,1.1726099
41.741665,2000,0,91.24,0.000002697398,0.000002697398,0.000002697398,0.99999994,0,0,0,0,0,0,0,1,0,0,0,false,false,true,-62.14,-4678.9897,17.01,-0.0045289313,0.0015833727,0.9425145,0.33413064,-123.590996,218.121,8.321,-0.00030999997,0,1.17161
41.75,2000,0,91.24,0.000002697398,0.000002697398,0.000002697398,0.99999994,0,0,0,0,0,0,0,1,0,0,0,false,false,true,-63.17,-4677.17,17.01,-0.004534326,0.0015617935,0.9441351,0.3295235,-124.370995,216.751,8.321,-0.00030999997,0.00010999999,1.17061
41.758335,2000,0,91.24,0.000002697398,0.000002697398,0.000002697398,0.99999994,0,0,0,0,0,0,0,1,0,0,0,false,false,true,-64.21,-4675.36,17.01,-0.0045397207,0.0015402143,0.9457305,0.32491633,-125.141,215.371,8.321,-0.00030999997,0.00010999999,1.16951
41.766666,2000,0,91.24,0.000002697398,0.000002697398,0.000002697398,0.99999994,0,0,0,0,0,0,0,1,0,0,0,false,false,true,-65.25,-4673.56,17.01,-0.004545116,0.0015186352,0.94730276,0.32030374,-125.891,213.981,8.321,-0.00030999997,0.00010999999,1.16841
41.775,2000,0,91.24,0.000002697398,0.000002697398,0.000002697398,0.99999994,0,0,0,0,0,0,0,1,0,0,0,false,false,true,-66.299995,-4671.78,17.01,-0.0045505106,0.0014970559,0.94885164,0.31568575,-126.631,212.58101,8.321,-0.00030999997,0.00010999999,1.16731
41.783333,2000,0,91.24,0.000002697398,0.000002697398,0.000002697398,0.99999994,0,0,0,0,0,0,0,1,0,0,0,false,false,true,-67.36,-4670.01,17.01,-0.0045559057,0.0014754769,0.9503756,0.31106785,-127.361,211.171,8.321,-0.00030999997,0,1.16611
41.791668,2000,0,91.24,0.000002697398,0.000002697398,0.000002697398,0.99999994,0,0,0,0,0,0,0,1,0,0,0,false,false,true,-68.42,-4668.25,17.01,-0.0045612995,0.0014538975,0.95187634,0.30644444,-128.08101,209.761,8.321,-0.00030999997,0,1.16491
41.8,2000,0,91.24,0.000002697398,0.000002697398,0.000002697398,0.99999994,0,0,0,0,0,0,0,1,0,0,0,false,false,true,-69.49,-4666.5,17.01,-0.0045666946,0.0014323184,0.9533525,0.30182114,-128.781,208.341,8.321,-0.00030999997,0,1.16371
41.808334,2000,0,91.24,0.000002697398,0.000002697398,0.000002697398,0.99999994,0,0,0,0,0,0,0,1,0,0,0,false,false,true,-70.56,-4664.76,17.01,-0.0045720898,0.0014107391,0.9548056,0.2971923,-129.47101,206.911,8.321,-0.00030999997,0,1.16241
41.816666,2000,0,91.24,0.000002697398,0.000002697398,0.000002697398,0.99999994,0,0,0,0,0,0,0,1,0,0,0,false,false,true,-71.64,-4663.04,17.01,-0.0045774844,0.0013891599,0.95623404,0.2925636,-130.151,205.47101,8.321,-0.00030999997,0,1.16111
41.825,2000,0,91.24,0.000002697398,0.000002697398,0.000002697398,0.99999994,0,0,0,0,0,0,0,1,0,0,0,false,false,true,-72.72,-4661.33,17.01,-0.0045828787,0.0013675807,0.9576379,0.2879348,-130.811,204.021,8.321,-0.00030999997,0,1.15981
41.833332,2000,0,91.24,0.000002697398,0.000002697398,0.000002697398,0.99999994,0,0,0,0,0,0,0,1,0,0,0,false,false,true,-73.81,-4659.63,17.01,-0.0045882734,0.0013460015,0.95901746,0.2833061,-131.461,202.571,8.321,-0.00030999997,0,1.15841
41.841667,2000,0,91.24,0.000002697398,0.000002697398,0.000002697398,0.99999994,0,0,0,0,0,0,0,1,0,0,0,false,false,true,-74.909996,-4657.94,17.01,-0.0045936694,0.0013244225,0.9603744,0.278672,-132.101,201.11101,8.321,-0.00030999997,0,1.15701
41.85,2000,0,91.24,0.000002697398,0.000002697398,0.000002697398,0.99999994,0,0,0,0,0,0,0,1,0,0,0,false,false,true,-76.009995,-4656.26,17.01,-0.0045990637,0.0013028432,0.961707,0.27403775,-132.72101,199.651,8.321,-0.00030999997,-0.00010999999,1.15551
41.858334,2000,0,91.24,0.000002697398,0.000002697398,0.000002697398,0.99999994,0,0,0,0,0,0,0,1,0,0,0,false,false,true,-77.119995,-4654.6,17.01,-0.0046044583,0.001281264,0.96301544,0.26940364,-133.33101,198.181,8.321,-0.00030999997,-0.00010999999,1.1540099
41.866665,2000,0,91.24,0.000002697398,0.000002697398,0.000002697398,0.99999994,0,0,0,0,0,0,0,1,0,0,0,false,false,true,-78.229996,-4652.9497,17.01,-0.004609853,0.0012596849,0.9642998,0.2647695,-133.921,196.701,8.321,-0.00030999997,-0.00010999999,1.1525099
41.875,2000,0,91.24,0.000002697398,0.000002697398,0.000002697398,0.99999994,0,0,0,0,0,0,0,1,0,0,0,false,false,true,-79.35,-4651.31,17.01,-0.004615248,0.0012381057,0.96556026,0.26013538,-134.501,195.22101,8.321,-0.00030999997,-0.00021,1.15091
41.883335,2000,0,91.24,0.000002697398,0.000002697398,0.000002697398,0.99999994,0,0,0,0,0,0,0,1,0,0,0,false,false,true,-80.47,-4649.6797,17.01,-0.004620643,0.0012165265,0.9667969,0.25550124,-135.071,193.731,8.321,-0.00030999997,-0.00021,1.14931
41.891666,2000,0,91.24,0.000002697398,0.000002697398,0.000002697398,0.99999994,0,0,0,0,0,0,0,1,0,0,0,false,false,true,-81.6,-4648.07,17.01,-0.0046260376,0.0011949473,0.9680097,0.25086704,-135.621,192.241,8.321,-0.00021,-0.00021,1.14771
41.9,2000,0,91.24,0.000002697398,0.000002697398,0.000002697398,0.99999994,0,0,0,0,0,0,0,1,0,0,0,false,false,true,-82.729996,-4646.4697,17.01,-0.0046314322,0.0011733681,0.9691988,0.24623291,-136.16101,190.741,8.321,-0.00021,-0.00021,1.1461099
41.908333,2000,0,91.24,0.000002697398,0.000002697398,0.000002697398,0.99999994,0,0,0,0,0,0,0,1,0,0,0,false,false,true,-83.86,-4644.88,17.01,-0.004636827,0.001151789,0.9703631,0.24160418,-136.681,189.241,8.321,-0.00021,-0.00021,1.14441
41.916668,2000,0,91.24,0.000002697398,0.000002697398,0.000002697398,0.99999994,0,0,0,0,0,0,0,1,0,0,0,false,false,true,-85,-4643.3,17.01,-0.0046422216,0.0011302097,0.97150373,0.23697542,-137.19101,187.741,8.321,-0.00021,-0.00021,1.14271
41.925,2000,0,91.24,0.000002697398,0.000002697398,0.000002697398,0.99999994,0,0,0,0,0,0,0,1,0,0,0,false,false,true,-86.14,-4641.7397,17.01,-0.004647617,0.0011086307,0.97262126,0.23234673,-137.681,186.231,8.321,-0.00021,-0.00021,1.1410099
41.933334,2000,0,91.24,0.000002697398,0.000002697398,0.000002697398,0.99999994,0,0,0,0,0,0,0,1,0,0,0,false,false,true,-87.29,-4640.19,17.01,-0.0046530114,0.0010870514,0.97371536,0.22771789,-138.16101,184.72101,8.321,-0.00021,-0.00021,1.13921
41.941666,2000,0,91.24,0.000002697398,0.000002697398,0.000002697398,0.99999994,0,0,0,0,0,0,0,1,0,0,0,false,false,true,-88.439995,-4638.65,17.01,-0.004658406,0.0010654721,0.97478503,0.22309455,-138.631,183.211,8.321,-0.00010999999,-0.00021,1.1374099
41.95,2000,0,91.24,0.000002697398,0.000002697398,0.000002697398,0.99999994,0,0,0,0,0,0,0,1,0,0,0,false,false,true,-89.6,-4637.12,17.01,-0.0046638013,0.001043893,0.9758316,0.2184712,-139.08101,181.69101,8.321,-0.00010999999,-0.00021,1.13561
41.958332,2000,0,91.24,0.000002697398,0.000002697398,0.000002697398,0.99999994,0,0,0,0,0,0,0,1,0,0,0,false,false,true,-90.759995,-4635.61,17.01,-0.0046691964,0.001022314,0.9768541,0.21385327,-139.52101,180.171,8.321,-0.00010999999,-0.00021,1.13371
41.966667,2000,0,91.24,0.000002697398,0.000002697398,0.000002697398,0.99999994,0,0,0,0,0,0,0,1,0,0,0,false,false,true,-91.92,-4634.11,17.01,-0.0046745907,0.0010007346,0.9778536,0.20923524,-139.94101,178.651,8.321,-0.00010999999,-0.00021,1.13181
41.975,2000,0,91.24,0.000002697398,0.000002697398,0.000002697398,0.99999994,0,0,0,0,0,0,0,1,0,0,0,false,false,true,-93.09,-4632.62,17.01,-0.004679985,0.0009791553,0.9788291,0.20462266,-140.351,177.131,8.321,-0.00010999999,-0.00021,1.12991
41.983334,2000,0,91.24,0.000002697398,0.000002697398,0.000002697398,0.99999994,0,0,0,0,0,0,0,1,0,0,0,false,false,true,-94.259995,-4631.14,17.01,-0.0046853805,0.0009575763,0.9797821,0.20001012,-140.741,175.601,8.321,-0.00010999999,-0.00021,1.12791
41.991665,2000,0,91.24,0.000002697398,0.000002697398,0.000002697398,0.99999994,0,0,0,0,0,0,0,1,0,0,0,false,false,true,-95.43,-4629.6797,17.01,-0.0046907747,0.000935997,0.9807112,0.19540295,-141.121,174.071,8.321,0,-0.00021,1.12591
42,2000,0,91.24,0.000002697398,0.000002697398,0.000002697398,0.99999994,0,0,0,0,0,0,0,1,0,0,0,false,false,true,-96.61,-4628.23,17.01,-0.00469617,0.00091441796,0.981617,0.1908012,-141.481,172.541,8.321,0,-0.00021,1.12391
42.008335,2000,0,91.24,0.000002697398,0.000002697398,0.000002697398,0.99999994,0,0,0,0,0,0,0,1,0,0,0,false,false,true,-97.79,-4626.79,17.01,-0.004701565,0.0008928388,0.9824993,0.18620478,-141.83101,171.011,8.321,0,-0.00021,1.12191
42.016666,2000,0,91.24,0.000002697398,0.000002697398,0.000002697398,0.99999994,0,0,0,0,0,0,0,1,0,0,0,false,false,true,-98.97,-4625.36,17.01,-0.0047069597,0.0008712596,0.9833592,0.1816084,-142.16101,169.481,8.321,0,-0.00021,1.11981
42.025,2000,0,91.24,0.000002697398,0.000002697398,0.000002697398,0.99999994,0,0,0,0,0,0,0,1,0,0,0,false,false,true,-100.15,-4623.9497,17.01,-0.0047123544,0.0008496804,0.984196,0.17701742,-142.481,167.951,8.321,0,-0.00021,1.11771
42.033333,2000,0,91.24,0.000002697398,0.000002697398,0.000002697398,0.99999994,0,0,0,0,0,0,0,1,0,0,0,false,false,true,-101.34,-4622.55,17.01,-0.004717749,0.0008281012,0.98500973,0.17243184,-142.781,166.421,8.321,0,-0.00021,1.11561
42.041668,2000,0,91.24,0.000002697398,0.000002697398,0.000002697398,0.99999994,0,0,0,0,0,0,0,1,0,0,0,false,false,true,-102.53,-4621.1597,17.01,-0.0047231438,0.00080652203,0.98580056,0.16785166,-143.071,164.891,8.321,0,-0.00021,1.11351
42.05,2000,0,91.24,0.000002697398,0.000002697398,0.000002697398,0.99999994,0,0,0,0,0,0,0,1,0,0,0,false,false,true,-103.72,-4619.79,17.01,-0.004728538,0.00078494276,0.9865685,0.16327678,-143.341,163.36101,8.321,0,-0.00010999999,1.11131
42.058334,2000,0,91.24,0.000002697398,0.000002697398,0.000002697398,0.99999994,0,0,0,0,0,0,0,1,0,0,0,false,false,true,-104.909996,-4618.4297,17.01,-0.004733934,0.0007633637,0.987314,0.15870741,-143.601,161.83101,8.321,0,-0.00010999999,1.10911
42.066666,2000,0,91.24,0.000002697398,0.000002697398,0.000002697398,0.99999994,0,0,0,0,0,0,0,1,0,0,0,false,false,true,-106.11,-4617.08,17.01,-0.0047393288,0.0007417845,0.9880368,0.15414341,-143.851,160.30101,8.321,0,0,1.10691
42.075,2000,0,91.24,0.000002697398,0.000002697398,0.000002697398,0.99999994,0,0,0,0,0,0,0,1,0,0,0,false,false,true,-107.31,-4615.7397,17.01,-0.0047447234,0.0007202053,0.9887372,0.14958481,-144.08101,158.771,8.321,0,0,1.10471
42.083332,2000,0,91.24,0.000002697398,0.000002697398,0.000002697398,0.99999994,0,0,0,0,0,0,0,1,0,0,0,false,false,true,-108.509995,-4614.42,17.01,-0.0047501177,0.0006986261,0.9894153,0.14503159,-144.30101,157.251,8.321,0,0,1.10241
42.091667,2000,0,91.24,0.000002697398,0.000002697398,0.000002697398,0.99999994,0,0,0,0,0,0,0,1,0,0,0,false,false,true,-109.71,-4613.11,17.01,-0.004755513,0.0006770469,0.9900713,0.14048369,-144.501,155.731,8.321,0,0,1.1001099
42.1,2000,0,91.24,0.000002697398,0.000002697398,0.000002697398,0.99999994,0,0,0,0,0,0,0,1,0,0,0,false,false,true,-110.909996,-4611.81,17.01,-0.004760907,0.0006554677,0.99070436,0.13594665,-144.69101,154.211,8.321,0,0,1.09781
42.108334,2000,0,91.24,0.000002697398,0.000002697398,0.000002697398,0.99999994,0,0,0,0,0,0,0,1,0,0,0,false,false,true,-112.119995,-4610.52,17.01,-0.004766302,0.0006338885,0.9913157,0.13141504,-144.86101,152.69101,8.321,0,0,1.09551
42.116665,2000,0,91.24,0.000002697398,0.000002697398,0.000002697398,0.99999994,0,0,0,0,0,0,0,1,0,0,0,false,false,true,-113.329994,-4609.25,17.01,-0.0047716973,0.0006123094,0.9919053,0.12688881,-145.02101,151.171,8.321,0,0,1.09311
42.125,2000,0,91.24,0.000002697398,0.000002697398,0.000002697398,0.99999994,0,0,0,0,0,0,0,1,0,0,0,false,false,true,-114.54,-4607.9897,17.01,-0.004777092,0.00059073017,0.99247307,0.12236797,-145.171,149.66101,8.321,0,0.00010999999,1.09071
42.133335,2000,0,91.24,0.000002697398,0.000002697398,0.000002697398,0.99999994,0,0,0,0,0,0,0,1,0,0,0,false,false,true,-115.75,-4606.7397,17.01,-0.0047770916,0.0005691509,0.9930187,0.11785782,-145.30101,148.151,8.321,0,0.00021,1.08831
42.141666,2000,0,91.24,0.000002697398,0.000002697398,0.000002697398,0.99999994,0,0,0,0,0,0,0,1,0,0,0,false,false,true,-116.96,-4605.51,17.01,-0.0047770925,0.00054757186,0.9935431,0.113353185,-145.421,146.641,8.321,0,0.00021,1.08591
42.15,2000,0,91.24,0.000002697398,0.000002697398,0.000002697398,0.99999994,0,0,0,0,0,0,0,1,0,0,0,false,false,true,-118.17,-4604.29,17.01,-0.004777092,0.0005259926,0.9940455,0.108859316,-145.52101,145.141,8.321,0,0.00021,1.08341
42.158333,2000,0,91.24,0.000002697398,0.000002697398,0.000002697398,0.99999994,0,0,0,0,0,0,0,1,0,0,0,false,false,true,-119.38,-4603.08,17.01,-0.004777092,0.00050441345,0.9945268,0.10437085,-145.61101,143.641,8.321,0,0.00010999999,1.08091
42.166668,2000,0,91.24,0.000002697398,0.000002697398,0.000002697398,0.99999994,0,0,0,0,0,0,0,1,0,0,0,false,false,true,-120.59,-4601.88,17.01,-0.004777092,0.00048283426,0.99498653,0.09989316,-145.69101,142.141,8.321,0,0.00010999999,1.07841
42.175,2000,0,91.24,0.000002697398,0.000002697398,0.000002697398,0.99999994,0,0,0,0,0,0,0,1,0,0,0,false,false,true,-121.799995,-4600.6997,17.01,-0.0047770925,0.0004612551,0.9954254,0.0954208,-145.751,140.651,8.321,0,0,1.07591
42.183334,2000,0,91.24,0.000002697398,0.000002697398,0.000002697398,0.99999994,0,0,0,0,0,0,0,1,0,0,0,false,false,true,-123.009995,-4599.53,17.01,-0.004777092,0.00043967587,0.995843,0.090959296,-145.80101,139.16101,8.321,0,0,1.07341
42.191666,2000,0,91.24,0.000002697398,0.000002697398,0.000002697398,0.99999994,0,0,0,0,0,0,0,1,0,0,0,false,false,true,-124.21999,-4598.37,17.01,-0.004777092,0.0004180967,0.99623996,0.08650319,-145.841,137.681,8.321,0,0,1.07081
42.2,2000,0,91.24,0.000002697398,0.000002697398,0.000002697398,0.99999994,0,0,0,0,0,0,0,1,0,0,0,false,false,true,-125.439995,-4597.2197,17.01,-0.0047770925,0.00039651754,0.996616,0.08205789,-145.86101,136.201,8.321,0,0,1.06821
42.208332,2000,0,91.24,0.000002697398,0.000002697398,0.000002697398,0.99999994,0,0,0,0,0,0,0,1,0,0,0,false,false,true,-126.659996,-4596.08,17.01,-0.004777092,0.00037493833,0.9969712,0.07762336,-145.871,134.731,8.321,0,0,1.0656099
42.216667,2000,0,91.24,0.000002697398,0.000002697398,0.000002697398,0.99999994,0,0,0,0,0,0,0,1,0,0,0,false,false,true,-127.88,-4594.96,17.01,-0.004777092,0.00035335915,0.99730617,0.073194146,-145.871,133.261,8.321,0,0,1.06301
42.225,2000,0,91.24,0.000002697398,0.000002697398,0.000002697398,0.99999994,0,0,0,0,0,0,0,1,0,0,0,false,false,true,-129.09999,-4593.85,17.01,-0.004777092,0.00033177997,0.9976206,0.06877581,-145.851,131.80101,8.321,0,0,1.06041
42.233334,2000,0,91.24,0.000002697398,0.000002697398,0.000002697398,0.99999994,0,0,0,0,0,0,0,1,0,0,0,false,false,true,-130.31999,-4592.75,17.01,-0.004777092,0.00031020076,0.9979147,0.06436826,-145.821,130.341,8.321,0,-0.00010999999,1.0577099
42.241665,2000,0,91.24,0.000002697398,0.000002697398,0.000002697398,0.99999994,0,0,0,0,0,0,0,1,0,0,0,false,false,true,-131.54,-4591.6597,17.01,-0.004777092,0.00028862158,0.99818856,0.059971504,-145.781,128.891,8.321,0,-0.00010999999,1.05501
42.25,2000,0,91.24,0.000002697398,0.000002697398,0.000002697398,0.99999994,0,0,0,0,0,0,0,1,0,0,0,false,false,true,-132.75,-4590.59,17.01,-0.004777092,0.0002670424,0.9984424,0.055585533,-145.731,127.440994,8.321,0,-0.00010999999,1.05231
42.258335,2000,0,91.24,0.000002697398,0.000002697398,0.000002697398,0.99999994,0,0,0,0,0,0,0,1,0,0,0,false,false,true,-133.95999,-4589.53,17.01,-0.004777092,0.00024546322,0.99867666,0.051204875,-145.671,126.001,8.321,0,-0.00021,1.04961
42.266666,2000,0,91.24,0.000002697398,0.000002697398,0.000002697398,0.99999994,0,0,0,0,0,0,0,1,0,0,0,false,false,true,-135.17,-4588.48,17.01,-0.004777092,0.00022388404,0.9988911,0.04683509,-145.591,124.571,8.321,0,-0.00021,1.0469099
42.275,2000,0,91.24,0.000002697398,0.000002697398,0.000002697398,0.99999994,0,0,0,0,0,0,0,1,0,0,0,false,false,true,-136.37999,-4587.44,17.01,-0.004777092,0.00020230486,0.99908596,0.042476095,-145.501,123.141,8.321,0,-0.00021,1.04411
42.283333,2000,0,91.24,0.000002697398,0.000002697398,0.000002697398,0.99999994,0,0,0,0,0,0,0,1,0,0,0,false,false,true,-137.59,-4586.4097,17.01,-0.0047770925,0.00018072568,0.9992614,0.03812789,-145.401,121.72099,8.321,0,-0.00021,1.04131
42.291668,2000,0,91.24,0.000002697398,0.000002697398,0.000002697398,0.99999994,0,0,0,0,0,0,0,1,0,0,0,false,false,true,-138.8,-4585.39,17.01,-0.0047770916,0.00015914647,0.99941736,0.03379047,-145.291,120.300995,8.321,0,-0.00021,1.03851
42.3,2000,0,91.24,0.000002697398,0.000002697398,0.000002697398,0.99999994,0,0,0,0,0,0,0,1,0,0,0,false,false,true,-140.01,-4584.39,17.01,-0.0047770925,0.00013756732,0.9995544,0.029463766,-145.171,118.891,8.321,0,-0.00030999997,1.03571
42.308334,2000,0,91.24,0.000002697398,0.000002697398,0.000002697398,0.99999994,0,0,0,0,0,0,0,1,0,0,0,false,false,true,-141.22,-4583.4,17.01,-0.0047770916,0.00011598811,0.9996722,0.025147924,-145.031,117.491,8.321,0,-0.00030999997,1.03291
42.316666,2000,0,91.24,0.000002697398,0.000002697398,0.000002697398,0.99999994,0,0,0,0,0,0,0,1,0,0,0,false,false,true,-142.43,-4582.42,17.01,-0.004777092,0.00009440893,0.9997713,0.020842878,-144.881,116.101,8.321,0,-0.00030999997,1.03011
42.325,2000,0,91.24,0.000002697398,0.000002697398,0.000002697398,0.99999994,0,0,0,0,0,0,0,1,0,0,0,false,false,true,-143.64,-4581.4497,17.01,-0.0047770925,0.00007282975,0.9998515,0.016554017,-144.72101,114.711,8.321,0,-0.00030999997,1.02721
42.333332,2000,0,91.24,0.000002697398,0.000002697398,0.000002697398,0.99999994,0,0,0,0,0,0,0,1,0,0,0,false,false,true,-144.84999,-4580.4897,17.01,-0.0047770925,0.00005125057,0.9999132,0.0122759435,-144.55101,113.33099,8.321,0,-0.00030999997,1.02431
42.341667,2000,0,91.24,0.000002697398,0.000002697398,0.000002697398,0.99999994,0,0,0,0,0,0,0,1,0,0,0,false,false,true,-146.05,-4579.55,17.01,-0.0047770925,0.00002967138,0.9999565,0.008008575,-144.371,111.961,8.321,0,-0.00030999997,1.02141
42.35,2000,0,91.24,0.000002697398,0.000002697398,0.000002697398,0.99999994,0,0,0,0,0,0,0,1,0,0,0,false,false,true,-147.25,-4578.62,17.01,-0.0047770925,0.000008092195,0.9999815,0.003752081,-144.181,110.590996,8.321,0,-0.00030999997,1.01851
42.358334,2000,0,91.24,0.000002697398,0.000002697398,0.000002697398,0.99999994,0,0,0,0,0,0,0,1,0,0,0,false,false,true,-148.45,-4577.6997,17.01,-0.0047770925,-0.0000134869915,0.99998844,-0.0004936239,-143.981,109.230995,8.321,0,-0.00030999997,1.01561
42.366665,2000,0,91.24,0.000002697398,0.000002697398,0.000002697398,0.99999994,0,0,0,0,0,0,0,1,0,0,0,false,false,true,-149.65,-4576.79,17.01,-0.0047770925,-0.000035066176,0.9999774,-0.004723144,-143.77101,107.881,8.321,0,-0.00030999997,1.01271
42.375,2000,0,91.24,0.000002697398,0.000002697398,0.000002697398,0.99999994,0,0,0,0,0,0,0,1,0,0,0,false,false,true,-150.84999,-4575.89,17.01,-0.004777092,-0.00005664536,0.99994856,-0.008941917,-143.55101,106.541,8.321,0,-0.00030999997,1.00981
42.383335,2000,0,91.24,0.000002697398,0.000002697398,0.000002697398,0.99999994,0,0,0,0,0,0,0,1,0,0,0,false,false,true,-152.05,-4575,17.01,-0.004777092,-0.00007822454,0.99990207,-0.0131498575,-143.321,105.211,8.321,0,-0.00030999997,1.00691
42.391666,2000,0,91.24,0.000002697398,0.000002697398,0.000002697398,0.99999994,0,0,0,0,0,0,0,1,0,0,0,false,false,true,-153.23999,-4574.12,17.01,-0.004777092,-0.00009980373,0.99983805,-0.01734705,-143.08101,103.881,8.321,0,-0.00030999997,1.00391
42.4,2000,0,91.24,0.000002697398,0.000002697398,0.000002697398,0.99999994,0,0,0,0,0,0,0,1,0,0,0,false,false,true,-154.43,-4573.25,17.01,-0.0047770916,-0.0001213829,0.9997567,-0.021528017,-142.83101,102.561,8.321,-0.00010999999,-0.00030999997,1.00091
42.408333,2000,0,91.24,0.000002697398,0.000002697398,0.000002697398,0.99999994,0,0,0,0,0,0,0,1,0,0,0,false,false,true,-155.62,-4572.4,17.01,-0.004777092,-0.00014296209,0.9996583,-0.025698196,-142.571,101.251,8.321,-0.00010999999,-0.00030999997,0.99790996
42.416668,2000,0,91.24,0.000002697398,0.000002697398,0.000002697398,0.99999994,0,0,0,0,0,0,0,1,0,0,0,false,false,true,-156.81,-4571.56,17.01,-0.004777092,-0.00016454128,0.99954283,-0.029852232,-142.30101,99.951,8.321,-0.00010999999,-0.00030999997,0.99491
42.425,2000,0,91.24,0.000002697398,0.000002697398,0.000002697398,0.99999994,0,0,0,0,0,0,0,1,0,0,0,false,false,true,-158,-4570.73,17.01,-0.004777092,-0.00018612047,0.9994105,-0.033995435,-142.02101,98.660995,8.321,-0.00021,-0.00030999997,0.99191
42.433334,2000,0,91.24,0.000002697398,0.000002697398,0.000002697398,0.99999994,0,0,0,0,0,0,0,1,0,0,0,false,false,true,-159.18,-4569.9097,17.01,-0.0047770925,-0.00020230487,0.9992614,-0.03812785,-141.731,97.381,8.321,-0.00021,-0.00030999997,0.98890996
42.441666,2000,0,91.24,0.000002697398,0.000002697398,0.000002697398,0.99999994,0,0,0,0,0,0,0,1,0,0,0,false,false,true,-160.36,-4569.1,17.01,-0.004777092,-0.00021848925,0.9990958,-0.042244118,-141.431,96.101,8.321,-0.00021,-0.00030999997,0.98591
42.45,2000,0,91.24,0.000002697398,0.000002697398,0.000002697398,0.99999994,0,0,0,0,0,0,0,1,0,0,0,false,false,true,-161.54,-4568.3,17.01,-0.004777092,-0.00023467363,0.99891376,-0.04634956,-141.121,94.83099,8.321,-0.00021,-0.00030999997,0.98291
42.458332,2000,0,91.24,0.000002697398,0.000002697398,0.000002697398,0.99999994,0,0,0,0,0,0,0,1,0,0,0,false,false,true,-162.72,-4567.51,17.01,-0.004777092,-0.00025085802,0.99871564,-0.05043886,-140.80101,93.571,8.321,-0.00010999999,-0.00030999997,0.97991
42.466667,2000,0,91.24,0.000002697398,0.000002697398,0.000002697398,0.99999994,0,0,0,0,0,0,0,1,0,0,0,false,false,true,-163.89,-4566.73,17.01,-0.004777092,-0.0002724372,0.9985013,-0.054517325,-140.481,92.321,8.321,-0.00010999999,-0.00030999997,0.97681
42.475,2000,0,91.24,0.000002697398,0.000002697398,0.000002697398,0.99999994,0,0,0,0,0,0,0,1,0,0,0,false,false,true,-165.06,-4565.96,17.01,-0.004777092,-0.00029401638,0.9982712,-0.058579605,-140.151,91.08099,8.321,-0.00010999999,-0.00030999997,0.97371
42.483334,2000,0,91.24,0.000002697398,0.000002697398,0.000002697398,0.99999994,0,0,0,0,0,0,0,1,0,0,0,false,false,true,-166.23,-4565.1997,17.01,-0.0047770925,-0.0003102008,0.99802524,-0.062631145,-139.811,89.851,8.321,-0.00010999999,-0.00021,0.97060996
42.491665,2000,0,91.24,0.000002697398,0.000002697398,0.000002697398,0.99999994,0,0,0,0,0,0,0,1,0,0,0,false,false,true,-167.4,-4564.4497,17.01,-0.004777092,-0.00032638517,0.99776375,-0.06666645,-139.461,88.631,8.321,-0.00010999999,-0.00021,0.96751
42.5,2000,0,91.24,0.000002697398,0.000002697398,0.000002697398,0.99999994,0,0,0,0,0,0,0,1,0,0,0,false,false,true,-168.56,-4563.71,17.01,-0.004777092,-0.00034256955,0.99748707,-0.070685565,-139.101,87.421,8.321,0,-0.00021,0.96441
42.508335,2000,0,91.24,0.000002697398,0.000002697398,0.000002697398,0.99999994,0,0,0,0,0,0,0,1,0,0,0,false,false,true,-169.72,-4562.98,17.01,-0.004777092,-0.00036414873,0.99719495,-0.07469394,-138.741,86.221,8.321,0,-0.00010999999,0.96130997
42.516666,2000,0,91.24,0.000002697398,0.000002697398,0.000002697398,0.99999994,0,0,0,0,0,0,0,1,0,0,0,false,false,true,-170.87999,-4562.26,17.01,-0.0047770925,-0.00038572794,0.9968879,-0.0786861,-138.371,85.020996,8.321,0,-0.00010999999,0.95821
42.525,2000,0,91.24,0.000002697398,0.000002697398,0.000002697398,0.99999994,0,0,0,0,0,0,0,1,0,0,0,false,false,true,-172.03,-4561.55,17.01,-0.004777092,-0.00040730712,0.9965656,-0.082667455,-137.991,83.831,8.321,0,-0.00010999999,0.95511
42.533333,2000,0,91.24,0.000002697398,0.000002697398,0.000002697398,0.99999994,0,0,0,0,0,0,0,1,0,0,0,false,false,true,-173.18,-4560.85,17.01,-0.004777092,-0.0004288863,0.9962287,-0.08663267,-137.601,82.651,8.321,0,-0.00010999999,0.95201
42.541668,2000,0,91.24,0.000002697398,0.000002697398,0.000002697398,0.99999994,0,0,0,0,0,0,0,1,0,0,0,false,false,true,-174.33,-4560.1597,17.01,-0.0047770925,-0.0004504655,0.99587744,-0.09058167,-137.211,81.480995,8.321,0,0,0.94891
42.55,2000,0,91.24,0.000002697398,0.000002697398,0.000002697398,0.99999994,0,0,0,0,0,0,0,1,0,0,0,false,false,true,-175.47,-4559.48,17.01,-0.0047770925,-0.0004666499,0.99551135,-0.09451991,-136.811,80.321,8.321,-0.00010999999,0,0.94580996
42.558334,2000,0,91.24,0.000002697398,0.000002697398,0.000002697398,0.99999994,0,0,0,0,0,0,0,1,0,0,0,false,false,true,-176.61,-4558.81,17.01,-0.004777092,-0.00048283426,0.99513113,-0.09844192,-136.401,79.171,8.321,-0.00010999999,0,0.94271
42.566666,2000,0,91.24,0.000002697398,0.000002697398,0.000002697398,0.99999994,0,0,0,0,0,0,0,1,0,0,0,false,false,true,-177.75,-4558.15,17.01,-0.004777092,-0.00049901864,0.994737,-0.102347754,-135.991,78.031,8.321,-0.00010999999,0,0.93961
42.575,2000,0,91.24,0.000002697398,0.000002697398,0.000002697398,0.99999994,0,0,0,0,0,0,0,1,0,0,0,false,false,true,-178.87999,-4557.5,17.01,-0.004777092,-0.000515203,0.99432856,-0.106242836,-135.571,76.901,8.321,-0.00010999999,0,0.93641
42.583332,2000,0,91.24,0.000002697398,0.000002697398,0.000002697398,0.99999994,0,0,0,0,0,0,0,1,0,0,0,false,false,true,-180.01,-4556.86,17.01,-0.004777092,-0.0005313874,0.99390644,-0.1101217,-135.141,75.781,8.321,0,0,0.93321
42.591667,2000,0,91.24,0.000002697398,0.000002697398,0.000002697398,0.99999994,0,0,0,0,0,0,0,1,0,0,0,false,false,true,-181.14,-4556.23,17.01,-0.004777092,-0.0005475718,0.99347085,-0.11398437,-134.711,74.671,8.321,0,0,0.93000996
42.6,2000,0,91.24,0.000002697398,0.000002697398,0.000002697398,0.99999994,0,0,0,0,0,0,0,1,0,0,0,false,false,true,-182.26,-4555.61,17.01,-0.004777092,-0.00056375616,0.99302197,-0.1178309,-134.27101,73.571,8.321,0,0.00010999999,0.92680997
42.608334,2000,0,91.24,0.000002697398,0.000002697398,0.000002697398,0.99999994,0,0,0,0,0,0,0,1,0,0,0,false,false,true,-183.37999,-4555,17.01,-0.0047770916,-0.0005799405,0.9925592,-0.12166659,-133.83101,72.480995,8.321,0,0.00021,0.92361
42.616665,2000,0,91.24,0.000002697398,0.000002697398,0.000002697398,0.99999994,0,0,0,0,0,0,0,1,0,0,0,false,false,true,-184.5,-4554.4,17.01,-0.004771697,-0.00059612497,0.99208367,-0.1254861,-133.381,71.401,8.321,0,0.00021,0.92041
42.625,2000,0,91.24,0.000002697398,0.000002697398,0.000002697398,0.99999994,0,0,0,0,0,0,0,1,0,0,0,false,false,true,-185.61,-4553.8,17.01,-0.004766302,-0.0006123093,0.9915952,-0.1292895,-132.921,70.331,8.321,0,0.00021,0.91721
42.633335,2000,0,91.24,0.000002697398,0.000002697398,0.000002697398,0.99999994,0,0,0,0,0,0,0,1,0,0,0,false,false,true,-186.72,-4553.21,17.01,-0.0047609075,-0.0006284937,0.99109405,-0.13307664,-132.461,69.270996,8.321,0,0.00021,0.91401
42.641666,2000,0,91.24,0.000002697398,0.000002697398,0.000002697398,0.99999994,0,0,0,0,0,0,0,1,0,0,0,false,false,true,-187.81999,-4552.63,17.01,-0.004755513,-0.00064467813,0.99058044,-0.1368476,-131.991,68.221,8.321,0.00010999999,0.00010999999,0.91081
42.65,2000,0,91.24,0.000002697398,0.000002697398,0.000002697398,0.99999994,0,0,0,0,0,0,0,1,0,0,0,false,false,true,-188.92,-4552.06,17.01,-0.0047501177,-0.00066086254,0.9900537,-0.14060782,-131.52101,67.181,8.321,0.00010999999,0.00010999999,0.90761
42.658333,2000,0,91.24,0.000002697398,0.000002697398,0.000002697398,0.99999994,0,0,0,0,0,0,0,1,0,0,0,false,false,true,-190.01999,-4551.5,17.01,-0.0047447234,-0.00067704695,0.9895148,-0.14435181,-131.041,66.141,8.321,0.00021,0,0.90441
42.666668,2000,0,91.24,0.000002697398,0.000002697398,0.000002697398,0.99999994,0,0,0,0,0,0,0,1,0,0,0,false,false,true,-191.11,-4550.9497,17.01,-0.0047447234,-0.00069323136,0.9889638,-0.14807962,-130.561,65.111,8.321,0.00021,0,0.90121
42.675,2000,0,91.24,0.000002697398,0.000002697398,0.000002697398,0.99999994,0,0,0,0,0,0,0,1,0,0,0,false,false,true,-192.2,-4550.4097,17.01,-0.004744723,-0.0007094157,0.9884009,-0.15179127,-130.071,64.090996,8.321,0.00021,0,0.89801
42.683334,2000,0,91.24,0.000002697398,0.000002697398,0.000002697398,0.99999994,0,0,0,0,0,0,0,1,0,0,0,false,false,true,-193.28,-4549.88,17.01,-0.0047447234,-0.0007256001,0.9878263,-0.15548672,-129.58101,63.080997,8.321,0.00030999997,0,0.89480996
42.691666,2000,0,91.24,0.000002697398,0.000002697398,0.000002697398,0.99999994,0,0,0,0,0,0,0,1,0,0,0,false,false,true,-194.36,-4549.35,17.01,-0.004744723,-0.00074717926,0.9872401,-0.15916595,-129.091,62.080997,8.321,0.00030999997,0,0.89160997
42.7,2000,0,91.24,0.000002697398,0.000002697398,0.000002697398,0.99999994,0,0,0,0,0,0,0,1,0,0,0,false,false,true,-195.44,-4548.83,17.01,-0.004744723,-0.00076336367,0.98664165,-0.16283445,-128.591,61.091,8.321,0.00030999997,0.00010999999,0.88841
42.708332,2000,0,91.24,0.000002697398,0.000002697398,0.000002697398,0.99999994,0,0,0,0,0,0,0,1,0,0,0,false,false,true,-196.51,-4548.32,17.01,-0.0047393283,-0.0007849428,0.98603195,-0.16648674,-128.091,60.110996,8.321,0.00030999997,0.00021,0.88521
42.716667,2000,0,91.24,0.000002697398,0.000002697398,0.000002697398,0.99999994,0,0,0,0,0,0,0,1,0,0,0,false,false,true,-197.58,-4547.82,17.01,-0.0047339336,-0.00080112723,0.9854111,-0.17012283,-127.58099,59.141,8.321,0.00030999997,0.00021,0.88201
42.725,2000,0,91.24,0.000002697398,0.000002697398,0.000002697398,0.99999994,0,0,0,0,0,0,0,1,0,0,0,false,false,true,-198.64,-4547.33,17.01,-0.004728538,-0.0008173115,0.98477924,-0.17374277,-127.071,58.181,8.321,0.00030999997,0.00021,0.87881
42.733334,2000,0,91.24,0.000002697398,0.000002697398,0.000002697398,0.99999994,0,0,0,0,0,0,0,1,0,0,0,false,false,true,-199.7,-4546.85,17.01,-0.0047231433,-0.00083349587,0.98413664,-0.17734648,-126.561,57.231,8.321,0.00030999997,0.00010999999,0.87561
42.741665,2000,0,91.24,0.000002697398,0.000002697398,0.000002697398,0.99999994,0,0,0,0,0,0,0,1,0,0,0,false,false,true,-200.75,-4546.37,17.01,-0.004717749,-0.0008496804,0.9834835,-0.18093404,-126.041,56.290997,8.321,0.00030999997,0.00010999999,0.87241
42.75,2000,0,91.24,0.000002697398,0.000002697398,0.000002697398,0.99999994,0,0,0,0,0,0,0,1,0,0,0,false,false,true,-201.8,-4545.9,17.01,-0.004712355,-0.00086586486,0.9828198,-0.18450545,-125.520996,55.361,8.321,0.00030999997,0,0.86921
42.758335,2000,0,91.24,0.000002697398,0.000002697398,0.000002697398,0.99999994,0,0,0,0,0,0,0,1,0,0,0,false,false,true,-202.84999,-4545.44,17.01,-0.0047069597,-0.00088204915,0.98214465,-0.188066,-125.001,54.440998,8.321,0.00030999997,0,0.86601
42.766666,2000,0,91.24,0.000002697398,0.000002697398,0.000002697398,0.99999994,0,0,0,0,0,0,0,1,0,0,0,false,false,true,-203.89,-4544.9897,17.01,-0.004701565,-0.0008982336,0.9814594,-0.1916104,-124.47099,53.531,8.321,0.00030999997,0,0.86281
42.775,2000,0,91.24,0.000002697398,0.000002697398,0.000002697398,0.99999994,0,0,0,0,0,0,0,1,0,0,0,false,false,true,-204.93,-4544.54,17.01,-0.0046961694,-0.00091441785,0.98076385,-0.19513862,-123.940994,52.630997,8.321,0.00040999998,0,0.85961
42.783333,2000,0,91.24,0.000002697398,0.000002697398,0.000002697398,0.99999994,0,0,0,0,0,0,0,1,0,0,0,false,false,true,-205.95999,-4544.1,17.01,-0.004690775,-0.0009306023,0.9800586,-0.19865064,-123.410995,51.740997,8.321,0.00040999998,0,0.85640997
42.791668,2000,0,91.24,0.000002697398,0.000002697398,0.000002697398,0.99999994,0,0,0,0,0,0,0,1,0,0,0,false,false,true,-206.98999,-4543.67,17.01,-0.0046853805,-0.0009467867,0.9793436,-0.20214647,-122.870995,50.861,8.321,0.00040999998,0,0.85321
42.8,2000,0,91.24,0.000002697398,0.000002697398,0.000002697398,0.99999994,0,0,0,0,0,0,0,1,0,0,0,false,false,true,-208.01,-4543.25,17.01,-0.004679985,-0.000962971,0.9786188,-0.20562615,-122.33099,49.990997,8.321,0.00051,0,0.85001
42.808334,2000,0,91.24,0.000002697398,0.000002697398,0.000002697398,0.99999994,0,0,0,0,0,0,0,1,0,0,0,false,false,true,-209.03,-4542.83,17.01,-0.0046745907,-0.0009791554,0.97788477,-0.2090896,-121.791,49.130997,8.321,0.00051,0,0.84681
42.816666,2000,0,91.24,0.000002697398,0.000002697398,0.000002697398,0.99999994,0,0,0,0,0,0,0,1,0,0,0,false,false,true,-210.04,-4542.42,17.01,-0.0046691964,-0.00099534,0.9771414,-0.2125369,-121.251,48.271,8.321,0.00051,-0.00010999999,0.84361
42.825,2000,0,91.24,0.000002697398,0.000002697398,0.000002697398,0.99999994,0,0,0,0,0,0,0,1,0,0,0,false,false,true,-211.04999,-4542.02,17.01,-0.004669196,-0.0010115242,0.9763887,-0.21596801,-120.701,47.420998,8.321,0.00051,-0.00010999999,0.84041
42.833332,2000,0,91.24,0.000002697398,0.000002697398,0.000002697398,0.99999994,0,0,0,0,0,0,0,1,0,0,0,false,false,true,-212.06,-4541.62,17.01,-0.0046691964,-0.0010277088,0.9756259,-0.21938834,-120.15099,46.580997,8.321,0.00051,-0.00010999999,0.83721
42.841667,2000,0,91.24,0.000002697398,0.000002697398,0.000002697398,0.99999994,0,0,0,0,0,0,0,1,0,0,0,false,false,true,-213.06,-4541.23,17.01,-0.0046638018,-0.0010438932,0.9748542,-0.22279245,-119.601,45.751,8.321,0.00051,-0.00010999999,0.83401
42.85,2000,0,91.24,0.000002697398,0.000002697398,0.000002697398,0.99999994,0,0,0,0,0,0,0,1,0,0,0,false,false,true,-214.06,-4540.85,17.01,-0.004658406,-0.0010600775,0.97407365,-0.22618037,-119.050995,44.931,8.321,0.00051,-0.00010999999,0.83081
42.858334,2000,0,91.24,0.000002697398,0.000002697398,0.000002697398,0.99999994,0,0,0,0,0,0,0,1,0,0,0,false,false,true,-215.04999,-4540.48,17.01,-0.0046530114,-0.0010762617,0.9732846,-0.22955216,-118.491,44.121,8.321,0.00051,-0.00010999999,0.82761
42.866665,2000,0,91.24,0.000002697398,0.000002697398,0.000002697398,0.99999994,0,0,0,0,0,0,0,1,0,0,0,false,false,true,-216.04,-4540.11,17.01,-0.0046476163,-0.001092446,0.972487,-0.2329077,-117.931,43.321,8.321,0.00051,-0.00010999999,0.82441
42.875,2000,0,91.24,0.000002697398,0.000002697398,0.000002697398,0.99999994,0,0,0,0,0,0,0,1,0,0,0,false,false,true,-217.01999,-4539.75,17.01,-0.0046422225,-0.0011086307,0.97168124,-0.23624712,-117.370995,42.531,8.321,0.00051,-0.00010999999,0.82120997
42.883335,2000,0,91.24,0.000002697398,0.000002697398,0.000002697398,0.99999994,0,0,0,0,0,0,0,1,0,0,0,false,false,true,-218,-4539.4,17.01,-0.004636827,-0.001124815,0.9708672,-0.23957033,-116.811,41.751,8.321,0.00051,-0.00010999999,0.81801
42.891666,2000,0,91.24,0.000002697398,0.000002697398,0.000002697398,0.99999994,0,0,0,0,0,0,0,1,0,0,0,false,false,true,-218.97,-4539.05,17.01,-0.0046314322,-0.0011409994,0.9700452,-0.24287735,-116.251,40.981,8.321,0.00051,-0.00010999999,0.81481
42.9,2000,0,91.24,0.000002697398,0.000002697398,0.000002697398,0.99999994,0,0,0,0,0,0,0,1,0,0,0,false,false,true,-219.94,-4538.71,17.01,-0.0046260376,-0.0011571838,0.96921533,-0.24616818,-115.690994,40.211,8.321,0.00061,-0.00021,0.81161
42.908333,2000,0,91.24,0.000002697398,0.000002697398,0.000002697398,0.99999994,0,0,0,0,0,0,0,1,0,0,0,false,false,true,-220.9,-4538.37,17.01,-0.0046260376,-0.0011733681,0.9683777,-0.24944286,-115.131,39.451,8.321,0.00061,-0.00021,0.80841
42.916668,2000,0,91.24,0.000002697398,0.000002697398,0.000002697398,0.99999994,0,0,0,0,0,0,0,1,0,0,0,false,false,true,-221.86,-4538.04,17.01,-0.004626038,-0.0011895526,0.9675325,-0.25270134,-114.561,38.701,8.321,0.00061,-0.00021,0.80521
42.925,2000,0,91.24,0.000002697398,0.000002697398,0.000002697398,0.99999994,0,0,0,0,0,0,0,1,0,0,0,false,false,true,-222.81,-4537.7197,17.01,-0.004626037,-0.0012057368,0.96667975,-0.25594354,-113.991,37.961,8.321,0.00061,-0.00010999999,0.80201
42.933334,2000,0,91.24,0.000002697398,0.000002697398,0.000002697398,0.99999994,0,0,0,0,0,0,0,1,0,0,0,false,false,true,-223.76,-4537.4,17.01,-0.004620643,-0.0012219213,0.96581846,-0.25917506,-113.421,37.231,8.321,0.00061,-0.00010999999,0.79881
42.941666,2000,0,91.24,0.000002697398,0.000002697398,0.000002697398,0.99999994,0,0,0,0,0,0,0,1,0,0,0,false,false,true,-224.70999,-4537.09,17.01,-0.004615248,-0.0012381057,0.9649499,-0.2623904,-112.851,36.510998,8.321,0.00061,-0.00010999999,0.79561
42.95,2000,0,91.24,0.000002697398,0.000002697398,0.000002697398,0.99999994,0,0,0,0,0,0,0,1,0,0,0,false,false,true,-225.65,-4536.79,17.01,-0.004609853,-0.0012542901,0.9640743,-0.2655895,-112.281,35.801,8.321,0.00061,-0.00010999999,0.79241
42.958332,2000,0,91.24,0.000002697398,0.000002697398,0.000002697398,0.99999994,0,0,0,0,0,0,0,1,0,0,0,false,false,true,-226.59,-4536.4897,17.01,-0.0046044583,-0.0012704745,0.9631918,-0.26877245,-111.711,35.091,8.321,0.00051,-0.00010999999,0.78921
42.966667,2000,0,91.24,0.000002697398,0.000002697398,0.000002697398,0.99999994,0,0,0,0,0,0,0,1,0,0,0,false,false,true,-227.51999,-4536.1997,17.01,-0.0045990637,-0.0012866588,0.9623025,-0.27193922,-111.141,34.391,8.321,0.00051,-0.00010999999,0.78600997
42.975,2000,0,91.24,0.000002697398,0.000002697398,0.000002697398,0.99999994,0,0,0,0,0,0,0,1,0,0,0,false,false,true,-228.45,-4535.9097,17.01,-0.0045936685,-0.0013028431,0.9614065,-0.27508977,-110.571,33.701,8.321,0.00051,-0.00010999999,0.78281
42.983334,2000,0,91.24,0.000002697398,0.000002697398,0.000002697398,0.99999994,0,0,0,0,0,0,0,1,0,0,0,false,false,true,-229.37,-4535.63,17.01,-0.004588274,-0.0013190276,0.96050423,-0.27822417,-110.001,33.021,8.321,0.00051,-0.00010999999,0.77971
42.991665,2000,0,91.24,0.000002697398,0.000002697398,0.000002697398,0.99999994,0,0,0,0,0,0,0,1,0,0,0,false,false,true,-230.29,-4535.35,17.01,-0.0045828796,-0.0013352121,0.95959556,-0.2813424,-109.431,32.350998,8.321,0.00051,-0.00010999999,0.77661
