time,ball_loc_x,ball_loc_y,ball_loc_z,ball_rot_x,ball_rot_y,ball_rot_z,ball_rot_w,ball_vel_x,ball_vel_y,ball_vel_z,ball_ang_x,ball_ang_y,ball_ang_z,player0_throttle,player0_steer,player0_pitch,player0_yaw,player0_roll,player0_jump,player0_boost,player0_handbrake,player0_loc_x,player0_loc_y,player0_loc_z,player0_rot_x,player0_rot_y,player0_rot_z,player0_rot_w,player0_vel_x,player0_vel_y,player0_vel_z,player0_ang_x,player0_ang_y,player0_ang_z
236.59166,2000,0,91.24,0.000002697398,0.000002697398,0.000002697398,0.99999994,0,0,0,0,0,0,1,0,0,0,0,false,true,false,0,-3526.25,16.99,-0.0033582605,0.0033798397,0.7069988,0.70719856,0.501,1906.221,8.411,-0.00071,-0.00010999999,0
236.6,2000,0,91.24,0.000002697398,0.000002697398,0.000002697398,0.99999994,0,0,0,0,0,0,0,1,0,0,0,false,false,true,0,-3510.3599,16.99,-0.0033582605,0.0033798397,0.7069988,0.70719856,-10.441,1905.3009,8.471001,-0.00071,0.00271,0.30511
236.60834,2000,0,91.24,0.000002697398,0.000002697398,0.000002697398,0.99999994,0,0,0,0,0,0,0,1,0,0,0,false,false,true,-0.089999996,-3494.48,16.99,-0.0033582605,0.0033852346,0.707899,0.7062975,-19.991,1904.471,8.501,-0.00071,0.00391,0.55341
236.61667,2000,0,91.24,0.000002697398,0.000002697398,0.000002697398,0.99999994,0,0,0,0,0,0,0,1,0,0,0,false,false,true,-0.26,-3478.6099,16.99,-0.0033582605,0.0033906293,0.7095261,0.70466286,-29.571,1903.611,8.521,-0.00061,0.00421,0.77221
236.625,2000,0,91.24,0.000002697398,0.000002697398,0.000002697398,0.99999994,0,0,0,0,0,0,0,1,0,0,0,false,false,true,-0.51,-3462.75,16.99,-0.00335826,0.0033960238,0.7117905,0.7023754,-39.611,1902.6709,8.531,-0.00051,0.00411,0.96711
236.63333,2000,0,91.24,0.000002697398,0.000002697398,0.000002697398,0.99999994,0,0,0,0,0,0,0,1,0,0,0,false,false,true,-0.84,-3446.89,16.99,-0.0033636554,0.0033960242,0.7146165,0.6995,-50.371,1901.611,8.541,-0.00051,0.00371,1.14231
236.64166,2000,0,91.24,0.000002697398,0.000002697398,0.000002697398,0.99999994,0,0,0,0,0,0,0,1,0,0,0,false,false,true,-1.26,-3431.04,16.99,-0.00336905,0.0033906293,0.717938,0.6960905,-61.990997,1900.381,8.551001,-0.00040999998,0.00311,1.3012099
236.65,2000,0,91.24,0.000002697398,0.000002697398,0.000002697398,0.99999994,0,0,0,0,0,0,0,1,0,0,0,false,false,true,-1.78,-3415.2,16.99,-0.0033798397,0.0033852346,0.72169936,0.69219,-74.511,1898.9409,8.561,-0.00040999998,0.00251,1.44661
236.65834,2000,0,91.24,0.000002697398,0.000002697398,0.000002697398,0.99999994,0,0,0,0,0,0,0,1,0,0,0,false,false,true,-2.3999999,-3399.38,16.99,-0.0033960242,0.003374445,0.72586006,0.6878256,-87.910995,1897.251,8.561,-0.00030999997,0.0019099999,1.5806099
236.66667,2000,0,91.24,0.000002697398,0.000002697398,0.000002697398,0.99999994,0,0,0,0,0,0,0,1,0,0,0,false,false,true,-3.1299999,-3383.5698,16.99,-0.003412208,0.00335826,0.7303748,0.6830296,-102.131,1895.2709,8.561,-0.00021,0.0014099999,1.70481
236.675,2000,0,91.24,0.000002697398,0.000002697398,0.000002697398,0.99999994,0,0,0,0,0,0,0,1,0,0,0,false,false,true,-3.98,-3367.78,16.99,-0.0034337877,0.0033366815,0.7352088,0.67782366,-117.071,1892.971,8.561,-0.00021,0.00091,1.82041
236.68333,2000,0,91.24,0.000002697398,0.000002697398,0.000002697398,0.99999994,0,0,0,0,0,0,0,1,0,0,0,false,false,true,-4.96,-3352,16.99,-0.003455367,0.0033151023,0.74032754,0.6722292,-132.61101,1890.3309,8.571,-0.00021,0.00051,1.9283099
236.69167,2000,0,91.24,0.000002697398,0.000002697398,0.000002697398,0.99999994,0,0,0,0,0,0,0,1,0,0,0,false,false,true,-6.0699997,-3336.25,16.99,-0.0034823408,0.0032881282,0.7457066,0.66625714,-148.61101,1887.3309,8.571,-0.00010999999,0.00010999999,2.02931
236.7,2000,0,91.24,0.000002697398,0.000002697398,0.000002697398,0.99999994,0,0,0,0,0,0,0,1,0,0,0,false,false,true,-7.31,-3320.52,16.99,-0.003509315,0.0032611543,0.75131255,0.65992904,-164.91101,1883.971,8.571,-0.00010999999,-0.00010999999,2.12391
236.70833,2000,0,91.24,0.000002697398,0.000002697398,0.000002697398,0.99999994,0,0,0,0,0,0,0,1,0,0,0,false,false,true,-8.679999,-3304.8198,16.99,-0.0035362889,0.0032287855,0.7571221,0.6532557,-181.351,1880.261,8.571,0,-0.00030999997,2.21241
236.71666,2000,0,91.24,0.000002697398,0.000002697398,0.000002697398,0.99999994,0,0,0,0,0,0,0,1,0,0,0,false,false,true,-10.19,-3289.15,16.99,-0.0035686577,0.0031964167,0.76311255,0.64624774,-197.751,1876.221,8.571,0,-0.00051,2.2950099
236.725,2000,0,91.24,0.000002697398,0.000002697398,0.000002697398,0.99999994,0,0,0,0,0,0,0,1,0,0,0,false,false,true,-11.84,-3273.51,16.99,-0.0036010267,0.0031586534,0.76925683,0.6389217,-213.911,1871.881,8.571,0,-0.00071,2.37171
236.73334,2000,0,91.24,0.000002697398,0.000002697398,0.000002697398,0.99999994,0,0,0,0,0,0,0,1,0,0,0,false,false,true,-13.62,-3257.91,16.99,-0.0036333953,0.0031208897,0.7755336,0.631288,-229.641,1867.2909,8.571,0,-0.00081,2.44261
236.74167,2000,0,91.24,0.000002697398,0.000002697398,0.000002697398,0.99999994,0,0,0,0,0,0,0,1,0,0,0,false,false,true,-15.53,-3242.3499,16.99,-0.003665764,0.003083126,0.78191787,0.62336296,-244.72101,1862.5209,8.571,0,-0.00091,2.50751
236.75,2000,0,91.24,0.000002697398,0.000002697398,0.000002697398,0.99999994,0,0,0,0,0,0,0,1,0,0,0,false,false,true,-17.57,-3226.8298,16.99,-0.0036981327,0.0030399675,0.7883896,0.6151575,-258.951,1857.6609,8.571,0,-0.0010099999,2.56631
236.75833,2000,0,91.24,0.000002697398,0.000002697398,0.000002697398,0.99999994,0,0,0,0,0,0,0,1,0,0,0,false,false,true,-19.73,-3211.3499,16.99,-0.0037358964,0.0029968093,0.7949217,0.60669297,-272.101,1852.8309,8.571,0,-0.00111,2.61871
236.76666,2000,0,91.24,0.000002697398,0.000002697398,0.000002697398,0.99999994,0,0,0,0,0,0,0,1,0,0,0,false,false,true,-22,-3195.91,16.99,-0.00377366,0.002953651,0.80149233,0.59798574,-283.941,1848.1509,8.571,0,-0.0012099999,2.6644099
236.775,2000,0,91.24,0.000002697398,0.000002697398,0.000002697398,0.99999994,0,0,0,0,0,0,0,1,0,0,0,false,false,true,-24.369999,-3180.51,16.99,-0.0038114234,0.0029104925,0.80808085,0.58905196,-294.241,1843.7909,8.571,0.00010999999,-0.0012099999,2.7030098
236.78334,2000,0,91.24,0.000002697398,0.000002697398,0.000002697398,0.99999994,0,0,0,0,0,0,0,1,0,0,0,false,false,true,-26.82,-3165.14,16.99,-0.0038491872,0.0028619394,0.8146641,0.5799131,-302.761,1839.9309,8.571,0.00021,-0.00131,2.7341099
236.79167,2000,0,91.24,0.000002697398,0.000002697398,0.000002697398,0.99999994,0,0,0,0,0,0,0,1,0,0,0,false,false,true,-29.34,-3149.8098,16.99,-0.003886951,0.0028133865,0.82121664,0.57059634,-309.271,1836.7809,8.561,0.00030999997,-0.00131,2.75731
236.8,2000,0,91.24,0.000002697398,0.000002697398,0.000002697398,0.99999994,0,0,0,0,0,0,0,1,0,0,0,false,false,true,-31.92,-3134.5,16.99,-0.0039247135,0.0027648327,0.82771844,0.5611229,-316.061,1833.3009,8.561,0.00040999998,-0.00131,2.77981
236.80833,2000,0,91.24,0.000002697398,0.000002697398,0.000002697398,0.99999994,0,0,0,0,0,0,0,1,0,0,0,false,false,true,-34.55,-3119.22,16.99,-0.003962478,0.00271628,0.83416194,0.55149865,-323.111,1829.491,8.561,0.00040999998,-0.0012099999,2.80191
236.81667,2000,0,91.24,0.000002697398,0.000002697398,0.000002697398,0.99999994,0,0,0,0,0,0,0,1,0,0,0,false,false,true,-37.239998,-3103.97,16.99,-0.0039948463,0.0026677267,0.8405431,0.54172325,-330.391,1825.3309,8.561,0.00051,-0.00111,2.82351
236.825,2000,0,91.24,0.000002697398,0.000002697398,0.000002697398,0.99999994,0,0,0,0,0,0,0,1,0,0,0,false,false,true,-39.989998,-3088.76,16.99,-0.0040272153,0.0026137787,0.84685826,0.53179675,-337.881,1820.8209,8.561,0.00051,-0.0010099999,2.84461
236.83333,2000,0,91.24,0.000002697398,0.000002697398,0.000002697398,0.99999994,0,0,0,0,0,0,0,1,0,0,0,false,false,true,-42.809998,-3073.5898,16.99,-0.004059584,0.0025598307,0.85310036,0.52172464,-345.551,1815.9509,8.561,0.00051,-0.00091,2.86531
236.84166,2000,0,91.24,0.000002697398,0.000002697398,0.000002697398,0.99999994,0,0,0,0,0,0,0,1,0,0,0,false,false,true,-45.69,-3058.46,16.99,-0.0040919525,0.0025058826,0.85926896,0.51150143,-353.371,1810.7109,8.561,0.00040999998,-0.00081,2.88551
236.85,2000,0,91.24,0.000002697398,0.000002697398,0.000002697398,0.99999994,0,0,0,0,0,0,0,1,0,0,0,false,false,true,-48.629997,-3043.3699,16.99,-0.004124321,0.0024519346,0.86535704,0.50113255,-361.32098,1805.101,8.561,0.00040999998,-0.00071,2.90521
236.85834,2000,0,91.24,0.000002697398,0.000002697398,0.000002697398,0.99999994,0,0,0,0,0,0,0,1,0,0,0,false,false,true,-51.64,-3028.3298,16.99,-0.00415669,0.0023979868,0.8713584,0.4906235,-369.371,1799.121,8.561,0.00040999998,-0.00061,2.9244099
236.86667,2000,0,91.24,0.000002697398,0.000002697398,0.000002697398,0.99999994,0,0,0,0,0,0,0,1,0,0,0,false,false,true,-54.719997,-3013.3398,16.99,-0.004189059,0.0023440388,0.87727237,0.4799688,-377.501,1792.771,8.561,0.00030999997,-0.00051,2.9430099
236.875,2000,0,91.24,0.000002697398,0.000002697398,0.000002697398,0.99999994,0,0,0,0,0,0,0,1,0,0,0,false,false,true,-57.87,-2998.4,16.99,-0.004216033,0.0022900908,0.8830928,0.4691737,-385.681,1786.0409,8.561,0.00030999997,-0.00040999998,2.96101
236.88333,2000,0,91.24,0.000002697398,0.000002697398,0.000002697398,0.99999994,0,0,0,0,0,0,0,1,0,0,0,false,false,true,-61.079998,-2983.52,16.99,-0.004243007,0.002236143,0.8888135,0.45824385,-393.881,1778.9409,8.561,0.00030999997,-0.00040999998,2.97841
236.89166,2000,0,91.24,0.000002697398,0.000002697398,0.000002697398,0.99999994,0,0,0,0,0,0,0,1,0,0,0,false,false,true,-64.36,-2968.7,16.99,-0.004269981,0.002182195,0.89443153,0.44717905,-402.081,1771.471,8.561,0.00021,-0.00040999998,2.99521
236.9,2000,0,91.24,0.000002697398,0.000002697398,0.000002697398,0.99999994,0,0,0,0,0,0,0,1,0,0,0,false,false,true,-67.71,-2953.94,16.99,-0.004296955,0.002128247,0.89994377,0.43597943,-410.251,1763.641,8.561,0.00021,-0.00040999998,3.0113099
236.90834,2000,0,91.24,0.000002697398,0.000002697398,0.000002697398,0.99999994,0,0,0,0,0,0,0,1,0,0,0,false,false,true,-71.13,-2939.24,16.99,-0.004323929,0.002074299,0.90534216,0.42465568,-418.361,1755.4509,8.561,0.00021,-0.00040999998,3.02671
236.91667,2000,0,91.24,0.000002697398,0.000002697398,0.000002697398,0.99999994,0,0,0,0,0,0,0,1,0,0,0,false,false,true,-74.619995,-2924.6099,16.99,-0.0043509034,0.0020203514,0.9106265,0.41320255,-426.391,1746.9109,8.561,0.00021,-0.00040999998,3.04141
236.925,2000,0,91.24,0.000002697398,0.000002697398,0.000002697398,0.99999994,0,0,0,0,0,0,0,1,0,0,0,false,false,true,-78.17,-2910.05,16.99,-0.0043778773,0.0019610086,0.9157891,0.40163064,-434.32098,1738.0309,8.561,0.00021,-0.00040999998,3.05531
236.93333,2000,0,91.24,0.000002697398,0.000002697398,0.000002697398,0.99999994,0,0,0,0,0,0,0,1,0,0,0,false,false,true,-81.79,-2895.5698,16.99,-0.0044048512,0.0019016658,0.9208277,0.3899401,-442.121,1728.8209,8.561,0.00021,-0.00030999997,3.06841
236.94167,2000,0,91.24,0.000002697398,0.000002697398,0.000002697398,0.99999994,0,0,0,0,0,0,0,1,0,0,0,false,false,true,-85.47,-2881.16,16.99,-0.004431825,0.001842323,0.9257375,0.37813622,-449.771,1719.2909,8.561,0.00021,-0.00021,3.08061
236.95,2000,0,91.24,0.000002697398,0.000002697398,0.000002697398,0.99999994,0,0,0,0,0,0,0,1,0,0,0,false,false,true,-89.22,-2866.8298,16.99,-0.004453404,0.0017829802,0.9305141,0.36622447,-457.251,1709.4509,8.561,0.00021,-0.00021,3.09191
236.95833,2000,0,91.24,0.000002697398,0.000002697398,0.000002697398,0.99999994,0,0,0,0,0,0,0,1,0,0,0,false,false,true,-93.03,-2852.5798,16.99,-0.004474983,0.0017236373,0.9351555,0.35420477,-464.531,1699.3209,8.561,0.00021,-0.00021,3.10231
236.96666,2000,0,91.24,0.000002697398,0.000002697398,0.000002697398,0.99999994,0,0,0,0,0,0,0,1,0,0,0,false,false,true,-96.9,-2838.42,16.99,-0.004496562,0.0016642944,0.93965554,0.34208795,-471.60098,1688.9209,8.561,0.00021,-0.00021,3.1117098
236.975,2000,0,91.24,0.000002697398,0.000002697398,0.000002697398,0.99999994,0,0,0,0,0,0,0,1,0,0,0,false,false,true,-100.829994,-2824.3499,16.99,-0.0045181415,0.0016049518,0.9440127,0.32987416,-478.431,1678.261,8.561,0.00021,-0.00021,3.12001
236.98334,2000,0,91.24,0.000002697398,0.000002697398,0.000002697398,0.99999994,0,0,0,0,0,0,0,1,0,0,0,false,false,true,-104.82,-2810.3599,16.99,-0.0045397207,0.0015456091,0.9482213,0.31757393,-485.011,1667.361,8.561,0.00021,-0.00021,3.12721
236.99167,2000,0,91.24,0.000002697398,0.000002697398,0.000002697398,0.99999994,0,0,0,0,0,0,0,1,0,0,0,false,false,true,-108.86,-2796.46,16.99,-0.0045613,0.0014862664,0.9522784,0.3051929,-491.32098,1656.241,8.561,0.00021,-0.00021,3.1333098
237,2000,0,91.24,0.000002697398,0.000002697398,0.000002697398,0.99999994,0,0,0,0,0,0,0,1,0,0,0,false,false,true,-112.95,-2782.66,16.99,-0.0045828787,0.0014269234,0.95618105,0.29273617,-497.35098,1644.9209,8.561,0.00021,-0.00021,3.1382098
237.00833,2000,0,91.24,0.000002697398,0.000002697398,0.000002697398,0.99999994,0,0,0,0,0,0,0,1,0,0,0,false,false,true,-117.09,-2768.95,16.99,-0.0045990637,0.0013675808,0.95992684,0.28020948,-503.081,1633.4209,8.561,0.00021,-0.00010999999,3.14181
237.01666,2000,0,91.24,0.000002697398,0.000002697398,0.000002697398,0.99999994,0,0,0,0,0,0,0,1,0,0,0,false,false,true,-121.28,-2755.3398,16.99,-0.0046152486,0.0013082381,0.96351314,0.26761797,-508.501,1621.771,8.561,0.00021,-0.00010999999,3.14411
237.025,2000,0,91.24,0.000002697398,0.000002697398,0.000002697398,0.99999994,0,0,0,0,0,0,0,1,0,0,0,false,false,true,-125.52,-2741.8298,16.99,-0.0046314322,0.0012488953,0.96693635,0.25497255,-513.60095,1609.991,8.561,0.00030999997,-0.00010999999,3.14501
237.03334,2000,0,91.24,0.000002697398,0.000002697398,0.000002697398,0.99999994,0,0,0,0,0,0,0,1,0,0,0,false,false,true,-129.8,-2728.41,16.99,-0.0046476168,0.0011841577,0.9701948,0.24227853,-518.36096,1598.101,8.561,0.00030999997,-0.00010999999,3.14451
237.04167,2000,0,91.24,0.000002697398,0.000002697398,0.000002697398,0.99999994,0,0,0,0,0,0,0,1,0,0,0,false,false,true,-134.12,-2715.0898,16.99,-0.0046638018,0.0011194203,0.9732858,0.22954674,-522.79095,1586.131,8.561,0.00030999997,-0.00010999999,3.14251
237.05,2000,0,91.24,0.000002697398,0.000002697398,0.000002697398,0.99999994,0,0,0,0,0,0,0,1,0,0,0,false,false,true,-138.48,-2701.8699,16.99,-0.004679985,0.0010546825,0.976208,0.2167826,-526.871,1574.101,8.561,0.00030999997,-0.00010999999,3.1389098
237.05833,2000,0,91.24,0.000002697398,0.000002697398,0.000002697398,0.99999994,0,0,0,0,0,0,0,1,0,0,0,false,false,true,-142.87,-2688.75,16.99,-0.00469617,0.000989945,0.97895974,0.20399688,-530.60095,1562.0409,8.561,0.00030999997,-0.00010999999,3.13371
237.06667,2000,0,91.24,0.000002697398,0.000002697398,0.000002697398,0.99999994,0,0,0,0,0,0,0,1,0,0,0,false,false,true,-147.29,-2675.73,16.99,-0.0047069592,0.00092520745,0.9815402,0.19119501,-533.98096,1549.981,8.561,0.00030999997,-0.00010999999,3.1268098
237.075,2000,0,91.24,0.000002697398,0.000002697398,0.000002697398,0.99999994,0,0,0,0,0,0,0,1,0,0,0,false,false,true,-151.73999,-2662.81,16.99,-0.004717749,0.00086047,0.9839476,0.1783931,-537.011,1537.9409,8.561,0.00030999997,-0.00010999999,3.1182098
237.08333,2000,0,91.24,0.000002697398,0.000002697398,0.000002697398,0.99999994,0,0,0,0,0,0,0,1,0,0,0,false,false,true,-156.22,-2649.99,16.99,-0.0047285384,0.0007957324,0.98618186,0.16559654,-539.691,1525.9509,8.561,0.00030999997,-0.00010999999,3.10781
237.09166,2000,0,91.24,0.000002697398,0.000002697398,0.000002697398,0.99999994,0,0,0,0,0,0,0,1,0,0,0,false,false,true,-160.72,-2637.27,16.99,-0.0047393283,0.00073099486,0.98824376,0.15281089,-542.03094,1514.0309,8.561,0.00030999997,-0.00010999999,3.09551
237.1,2000,0,91.24,0.000002697398,0.000002697398,0.000002697398,0.99999994,0,0,0,0,0,0,0,1,0,0,0,false,false,true,-165.23999,-2624.65,16.99,-0.0047501177,0.0006662573,0.99013245,0.14005211,-544.03094,1502.2109,8.561,0.00030999997,-0.00010999999,3.08131
237.10834,2000,0,91.24,0.000002697398,0.000002697398,0.000002697398,0.99999994,0,0,0,0,0,0,0,1,0,0,0,false,false,true,-169.76999,-2612.13,16.99,-0.0047609075,0.0006015198,0.9918486,0.12733118,-545.691,1490.521,8.561,0.00021,-0.00010999999,3.06511
237.11667,2000,0,91.24,0.000002697398,0.000002697398,0.000002697398,0.99999994,0,0,0,0,0,0,0,1,0,0,0,false,false,true,-174.31999,-2599.71,16.99,-0.0047663026,0.00054217706,0.99339396,0.114653334,-547.03094,1478.981,8.561,0.00021,0,3.04681
237.125,2000,0,91.24,0.000002697398,0.000002697398,0.000002697398,0.99999994,0,0,0,0,0,0,0,1,0,0,0,false,false,true,-178.87999,-2587.38,16.99,-0.0047716973,0.0004828343,0.9947692,0.102034904,-548.061,1467.611,8.561,0.00021,0,3.0264099
237.13333,2000,0,91.24,0.000002697398,0.000002697398,0.000002697398,0.99999994,0,0,0,0,0,0,0,1,0,0,0,false,false,true,-183.45,-2575.15,16.99,-0.0047770916,0.00042349144,0.9959768,0.089481115,-548.78094,1456.4409,8.561,0.00021,0,3.00381
237.14166,2000,0,91.24,0.000002697398,0.000002697398,0.000002697398,0.99999994,0,0,0,0,0,0,0,1,0,0,0,false,false,true,-188.01999,-2563.01,16.99,-0.004782487,0.00036414876,0.9970189,0.07700828,-549.22095,1445.491,8.561,0.00030999997,0,2.97891
237.15,2000,0,91.24,0.000002697398,0.000002697398,0.000002697398,0.99999994,0,0,0,0,0,0,0,1,0,0,0,false,false,true,-192.59999,-2550.96,16.99,-0.004787882,0.00030480602,0.9978979,0.064627215,-549.391,1434.7809,8.561,0.00040999998,0,2.95171
237.15834,2000,0,91.24,0.000002697398,0.000002697398,0.000002697398,0.99999994,0,0,0,0,0,0,0,1,0,0,0,false,false,true,-197.18,-2539,16.99,-0.004793276,0.00024546322,0.9986173,0.052348573,-549.30096,1424.341,8.561,0.00040999998,0,2.9221098
237.16667,2000,0,91.24,0.000002697398,0.000002697398,0.000002697398,0.99999994,0,0,0,0,0,0,0,1,0,0,0,false,false,true,-201.76,-2527.13,16.99,-0.004793276,0.00018612047,0.99918056,0.0401887,-548.97095,1414.1809,8.561,0.00051,0,2.8900099
237.175,2000,0,91.24,0.000002697398,0.000002697398,0.000002697398,0.99999994,0,0,0,0,0,0,0,1,0,0,0,false,false,true,-206.33,-2515.3398,16.99,-0.0047932756,0.00012677768,0.999592,0.028152823,-548.43097,1404.3209,8.561,0.00051,0,2.8554099
237.18333,2000,0,91.24,0.000002697398,0.000002697398,0.000002697398,0.99999994,0,0,0,0,0,0,0,1,0,0,0,false,false,true,-210.9,-2503.64,16.99,-0.004793276,0.00006743495,0.9998563,0.016257301,-547.691,1394.781,8.561,0.00061,0,2.81811
237.19167,2000,0,91.24,0.000002697398,0.000002697398,0.000002697398,0.99999994,0,0,0,0,0,0,0,1,0,0,0,false,false,true,-215.45999,-2492.02,16.99,-0.0047932765,0.000008092195,0.9999783,0.004518142,-546.78094,1385.5809,8.561,0.00061,0,2.77811
237.2,2000,0,91.24,0.000002697398,0.000002697398,0.000002697398,0.99999994,0,0,0,0,0,0,0,1,0,0,0,false,false,true,-220.01999,-2480.47,16.99,-0.004793276,-0.000051250565,0.9999635,-0.007059133,-545.71094,1376.731,8.561,0.00061,0,2.7353098
237.20833,2000,0,91.24,0.000002697398,0.000002697398,0.000002697398,0.99999994,0,0,0,0,0,0,0,1,0,0,0,false,false,true,-224.56999,-2469,16.99,-0.0047932756,-0.000110593304,0.9998181,-0.018452981,-544.511,1368.241,8.561,0.00061,0,2.6895099
237.21666,2000,0,91.24,0.000002697398,0.000002697398,0.000002697398,0.99999994,0,0,0,0,0,0,0,1,0,0,0,false,false,true,-229.11,-2457.5999,16.99,-0.004793276,-0.00016454128,0.99954855,-0.029658018,-543.17096,1360.031,8.561,0.00061,0,2.64391
237.225,2000,0,91.24,0.000002697398,0.000002697398,0.000002697398,0.99999994,0,0,0,0,0,0,0,1,0,0,0,false,false,true,-233.64,-2446.27,16.99,-0.004793276,-0.00021848925,0.9991611,-0.040668838,-541.67096,1352.0409,8.561,0.00061,0,2.60071
237.23334,2000,0,91.24,0.000002697398,0.000002697398,0.000002697398,0.99999994,0,0,0,0,0,0,0,1,0,0,0,false,false,true,-238.15,-2435,16.99,-0.004793276,-0.0002724372,0.9986619,-0.051490843,-540.03094,1344.281,8.561,0.00051,0,2.55981
237.24167,2000,0,91.24,0.000002697398,0.000002697398,0.000002697398,0.99999994,0,0,0,0,0,0,0,1,0,0,0,false,false,true,-242.65,-2423.8,16.99,-0.004787882,-0.0003263852,0.9980559,-0.062140215,-538.27094,1336.781,8.561,0.00040999998,0,2.52101
237.25,2000,0,91.24,0.000002697398,0.000002697398,0.000002697398,0.99999994,0,0,0,0,0,0,0,1,0,0,0,false,false,true,-247.14,-2412.66,16.99,-0.0047824862,-0.0003803331,0.99734783,-0.07262234,-536.29095,1329.3309,8.561,0.00030999997,0,2.48911
237.25833,2000,0,91.24,0.000002697398,0.000002697398,0.000002697398,0.99999994,0,0,0,0,0,0,0,1,0,0,0,false,false,true,-251.61,-2401.5798,16.99,-0.004777092,-0.0004288863,0.9965409,-0.082964204,-534.09094,1321.9509,8.561,0.00010999999,0,2.46411
237.26666,2000,0,91.24,0.000002697398,0.000002697398,0.000002697398,0.99999994,0,0,0,0,0,0,0,1,0,0,0,false,false,true,-256.06,-2390.56,16.99,-0.0047716973,-0.0004774395,0.9956365,-0.09319275,-531.68097,1314.651,8.561,0,0,2.44591
237.275,2000,0,91.24,0.000002697398,0.000002697398,0.000002697398,0.99999994,0,0,0,0,0,0,0,1,0,0,0,false,false,true,-260.49,-2379.5999,16.99,-0.004766302,-0.0005259926,0.994635,-0.103335,-529.081,1307.4609,8.561,-0.00010999999,0,2.43411
237.28334,2000,0,91.24,0.000002697398,0.000002697398,0.000002697398,0.99999994,0,0,0,0,0,0,0,1,0,0,0,false,false,true,-264.9,-2368.7,16.99,-0.004760908,-0.0005745458,0.99353576,-0.11341792,-526.29095,1300.391,8.561,-0.00021,0,2.4286098
237.29167,2000,0,91.24,0.000002697398,0.000002697398,0.000002697398,0.99999994,0,0,0,0,0,0,0,1,0,0,0,false,false,true,-269.29,-2357.8599,16.99,-0.004755513,-0.0006230989,0.9923375,-0.12346307,-523.331,1293.471,8.561,-0.00030999997,0,2.42921
237.3,2000,0,91.24,0.000002697398,0.000002697398,0.000002697398,0.99999994,0,0,0,0,0,0,0,1,0,0,0,false,false,true,-273.65,-2347.0798,16.99,-0.0047501177,-0.0006716521,0.9910368,-0.13350283,-520.201,1286.7109,8.561,-0.00040999998,-0.00010999999,2.43571
237.30833,2000,0,91.24,0.000002697398,0.000002697398,0.000002697398,0.99999994,0,0,0,0,0,0,0,1,0,0,0,false,false,true,-277.97998,-2336.3599,16.99,-0.004744723,-0.00072020525,0.9896309,-0.14355338,-516.92096,1280.131,8.561,-0.00061,-0.00010999999,2.44801
237.31667,2000,0,91.24,0.000002697398,0.000002697398,0.000002697398,0.99999994,0,0,0,0,0,0,0,1,0,0,0,false,false,true,-282.29,-2325.69,16.99,-0.0047393283,-0.00076336367,0.9881149,-0.15364169,-513.511,1273.751,8.561,-0.00071,-0.00010999999,2.46611
237.325,2000,0,91.24,0.000002697398,0.000002697398,0.000002697398,0.99999994,0,0,0,0,0,0,0,1,0,0,0,false,false,true,-286.57,-2315.0798,16.99,-0.004728539,-0.0008065221,0.98648363,-0.16378935,-509.971,1267.591,8.561,-0.00081,-0.00010999999,2.48981
237.33333,2000,0,91.24,0.000002697398,0.000002697398,0.000002697398,0.99999994,0,0,0,0,0,0,0,1,0,0,0,false,false,true,-290.82,-2304.52,16.99,-0.0047177486,-0.0008496803,0.9847316,-0.1740125,-506.32098,1261.6609,8.561,-0.00091,-0.00021,2.51911
237.34166,2000,0,91.24,0.000002697398,0.000002697398,0.000002697398,0.99999994,0,0,0,0,0,0,0,1,0,0,0,false,false,true,-295.04,-2294.01,16.99,-0.0047069597,-0.00089283875,0.98285115,-0.1843382,-502.501,1255.771,8.561,-0.00091,-0.00030999997,2.54981
237.35,2000,0,91.24,0.000002697398,0.000002697398,0.000002697398,0.99999994,0,0,0,0,0,0,0,1,0,0,0,false,false,true,-299.22998,-2283.55,16.99,-0.0046961703,-0.000941392,0.98083687,-0.1947718,-498.511,1249.9209,8.561,-0.00081,-0.00040999998,2.58181
237.35834,2000,0,91.24,0.000002697398,0.000002697398,0.000002697398,0.99999994,0,0,0,0,0,0,0,1,0,0,0,false,false,true,-303.38,-2273.13,16.99,-0.0046853805,-0.000989945,0.97868454,-0.20531325,-494.38098,1244.131,8.561,-0.00081,-0.00040999998,2.61491
237.36667,2000,0,91.24,0.000002697398,0.000002697398,0.000002697398,0.99999994,0,0,0,0,0,0,0,1,0,0,0,false,false,true,-307.5,-2262.76,16.99,-0.0046745907,-0.0010384982,0.9763898,-0.21596262,-490.13098,1238.4209,8.561,-0.00081,-0.00040999998,2.64881
237.375,2000,0,91.24,0.000002697398,0.000002697398,0.000002697398,0.99999994,0,0,0,0,0,0,0,1,0,0,0,false,false,true,-311.58,-2252.44,16.99,-0.004663801,-0.0010870512,0.9739468,-0.22672525,-485.771,1232.8209,8.561,-0.00071,-0.00051,2.6837099
237.38333,2000,0,91.24,0.000002697398,0.000002697398,0.000002697398,0.99999994,0,0,0,0,0,0,0,1,0,0,0,false,false,true,-315.63,-2242.17,16.99,-0.0046530114,-0.0011356046,0.9713509,-0.23760124,-481.211,1227.141,8.561,-0.00061,-0.00051,2.71561
237.39166,2000,0,91.24,0.000002697398,0.000002697398,0.000002697398,0.99999994,0,0,0,0,0,0,0,1,0,0,0,false,false,true,-319.63998,-2231.94,16.99,-0.004642222,-0.0011841577,0.9686009,-0.24857426,-476.441,1221.391,8.561,-0.00051,-0.00040999998,2.74421
237.4,2000,0,91.24,0.000002697398,0.000002697398,0.000002697398,0.99999994,0,0,0,0,0,0,0,1,0,0,0,false,false,true,-323.61,-2221.76,16.99,-0.0046314322,-0.0012327109,0.96569526,-0.2596336,-471.461,1215.591,8.561,-0.00040999998,-0.00030999997,2.76961
237.40834,2000,0,91.24,0.000002697398,0.000002697398,0.000002697398,0.99999994,0,0,0,0,0,0,0,1,0,0,0,false,false,true,-327.53998,-2211.63,16.99,-0.004615248,-0.0012866588,0.9626355,-0.27075776,-466.271,1209.761,8.561,-0.00030999997,-0.00021,2.79191
237.41667,2000,0,91.24,0.000002697398,0.000002697398,0.000002697398,0.99999994,0,0,0,0,0,0,0,1,0,0,0,false,false,true,-331.43,-2201.55,16.99,-0.0045990637,-0.0013406068,0.9594212,-0.28193584,-460.881,1203.9209,8.561,-0.00021,-0.00021,2.81111
237.425,2000,0,91.24,0.000002697398,0.000002697398,0.000002697398,0.99999994,0,0,0,0,0,0,0,1,0,0,0,false,false,true,-335.27,-2191.52,16.99,-0.0045828796,-0.0013945549,0.9560539,-0.29315168,-455.301,1198.0809,8.561,-0.00010999999,-0.00021,2.8273098
237.43333,2000,0,91.24,0.000002697398,0.000002697398,0.000002697398,0.99999994,0,0,0,0,0,0,0,1,0,0,0,false,false,true,-339.06,-2181.54,16.99,-0.0045666946,-0.0014485028,0.95253396,-0.30439445,-449.531,1192.271,8.561,0,-0.00021,2.84051
237.44167,2000,0,91.24,0.000002697398,0.000002697398,0.000002697398,0.99999994,0,0,0,0,0,0,0,1,0,0,0,false,false,true,-342.81,-2171.5999,16.99,-0.004550511,-0.0015024508,0.9488642,-0.31564808,-443.581,1186.511,8.561,0,-0.00010999999,2.85081
237.45,2000,0,91.24,0.000002697398,0.000002697398,0.000002697398,0.99999994,0,0,0,0,0,0,0,1,0,0,0,false,false,true,-346.50998,-2161.71,16.99,-0.0045343265,-0.0015563988,0.94504803,-0.32689625,-437.461,1180.8109,8.561,0,0,2.85831
237.45833,2000,0,91.24,0.000002697398,0.000002697398,0.000002697398,0.99999994,0,0,0,0,0,0,0,1,0,0,0,false,false,true,-350.16,-2151.8699,16.99,-0.004518141,-0.0016103465,0.94108766,-0.3381282,-431.191,1175.1909,8.561,0,0,2.86301
237.46666,2000,0,91.24,0.000002697398,0.000002697398,0.000002697398,0.99999994,0,0,0,0,0,0,0,1,0,0,0,false,false,true,-353.75,-2142.0798,16.99,-0.004496562,-0.0016642944,0.9369881,-0.34932786,-424.771,1169.661,8.561,0,0,2.86501
237.475,2000,0,91.24,0.000002697398,0.000002697398,0.000002697398,0.99999994,0,0,0,0,0,0,0,1,0,0,0,false,false,true,-357.28998,-2132.3298,16.99,-0.0044749836,-0.0017182427,0.9327508,-0.36048976,-418.211,1164.241,8.561,0,0,2.86441
237.48334,2000,0,91.24,0.000002697398,0.000002697398,0.000002697398,0.99999994,0,0,0,0,0,0,0,1,0,0,0,false,false,true,-360.78,-2122.63,16.99,-0.0044534043,-0.0017721907,0.92838144,-0.3715977,-411.531,1158.9409,8.561,0.00010999999,0,2.8612099
237.49167,2000,0,91.24,0.000002697398,0.000002697398,0.000002697398,0.99999994,0,0,0,0,0,0,0,1,0,0,0,false,false,true,-364.21,-2112.97,16.99,-0.004431825,-0.0018261386,0.9238847,-0.38264087,-404.751,1153.781,8.561,0.00010999999,0,2.8554099
237.5,2000,0,91.24,0.000002697398,0.000002697398,0.000002697398,0.99999994,0,0,0,0,0,0,0,1,0,0,0,false,false,true,-367.58,-2103.3599,16.99,-0.0044102455,-0.0018800865,0.9192679,-0.39360315,-397.881,1148.771,8.561,0.00021,0,2.84711
237.50833,2000,0,91.24,0.000002697398,0.000002697398,0.000002697398,0.99999994,0,0,0,0,0,0,0,1,0,0,0,false,false,true,-370.9,-2093.79,16.99,-0.0043886667,-0.0019340344,0.9145346,-0.40447906,-390.931,1143.911,8.561,0.00021,0.00010999999,2.83641
237.51666,2000,0,91.24,0.000002697398,0.000002697398,0.000002697398,0.99999994,0,0,0,0,0,0,0,1,0,0,0,false,false,true,-374.16,-2084.26,16.99,-0.004367088,-0.0019879825,0.90969104,-0.41525796,-383.921,1139.221,8.561,0.00021,0.00010999999,2.82331
237.525,2000,0,91.24,0.000002697398,0.000002697398,0.000002697398,0.99999994,0,0,0,0,0,0,0,1,0,0,0,false,false,true,-377.36,-2074.77,16.99,-0.0043455083,-0.0020419303,0.90474385,-0.42592886,-376.861,1134.7109,8.561,0.00021,0.00021,2.80791
237.53334,2000,0,91.24,0.000002697398,0.000002697398,0.000002697398,0.99999994,0,0,0,0,0,0,0,1,0,0,0,false,false,true,-380.5,-2065.31,16.99,-0.004318534,-0.0020958781,0.8996979,-0.43648654,-369.781,1130.381,8.561,0.00021,0.00030999997,2.79021
237.54167,2000,0,91.24,0.000002697398,0.000002697398,0.000002697398,0.99999994,0,0,0,0,0,0,0,1,0,0,0,false,false,true,-383.58,-2055.89,16.99,-0.00429156,-0.0021498261,0.8945636,-0.4469147,-362.681,1126.231,8.561,0.00021,0.00030999997,2.77021
237.55,2000,0,91.24,0.000002697398,0.000002697398,0.000002697398,0.99999994,0,0,0,0,0,0,0,1,0,0,0,false,false,true,-386.6,-2046.5,16.99,-0.004264586,-0.0021983793,0.8893468,-0.45720804,-355.591,1122.271,8.561,0.00021,0.00030999997,2.74801
237.55833,2000,0,91.24,0.000002697398,0.000002697398,0.000002697398,0.99999994,0,0,0,0,0,0,0,1,0,0,0,false,false,true,-389.56,-2037.1499,16.99,-0.0042376127,-0.0022469328,0.88405347,-0.4673611,-348.521,1118.511,8.561,0.00021,0.00030999997,2.72371
237.56667,2000,0,91.24,0.000002697398,0.000002697398,0.000002697398,0.99999994,0,0,0,0,0,0,0,1,0,0,0,false,false,true,-392.46,-2027.83,16.99,-0.004210638,-0.0022954855,0.8786929,-0.477363,-341.491,1114.9409,8.561,0.00021,0.00030999997,2.69731
237.575,2000,0,91.24,0.000002697398,0.000002697398,0.000002697398,0.99999994,0,0,0,0,0,0,0,1,0,0,0,false,false,true,-395.31,-2018.5399,16.99,-0.0041836645,-0.0023440388,0.87327236,-0.4872086,-334.511,1111.5709,8.561,0.00021,0.00030999997,2.66891
237.58333,2000,0,91.24,0.000002697398,0.000002697398,0.000002697398,0.99999994,0,0,0,0,0,0,0,1,0,0,0,false,false,true,-398.1,-2009.2799,16.99,-0.00415669,-0.002392592,0.86780196,-0.4968869,-327.601,1108.391,8.561,0.00021,0.00030999997,2.6384099
237.59166,2000,0,91.24,0.000002697398,0.000002697398,0.000002697398,0.99999994,0,0,0,0,0,0,0,1,0,0,0,false,false,true,-400.83,-2000.0399,16.99,-0.004129716,-0.0024411452,0.86228645,-0.50639796,-320.771,1105.411,8.561,0.00021,0.00030999997,2.60601
237.6,2000,0,91.24,0.000002697398,0.000002697398,0.000002697398,0.99999994,0,0,0,0,0,0,0,1,0,0,0,false,false,true,-403.5,-1990.83,16.99,-0.0041027423,-0.0024896984,0.8567371,-0.5157309,-314.041,1102.621,8.561,0.00021,0.00030999997,2.5717099
237.60834,2000,0,91.24,0.000002697398,0.000002697398,0.000002697398,0.99999994,0,0,0,0,0,0,0,1,0,0,0,false,false,true,-406.12,-1981.64,16.99,-0.004075769,-0.002532857,0.85116225,-0.52488065,-307.431,1100.011,8.561,0.00021,0.00030999997,2.53551
237.61667,2000,0,91.24,0.000002697398,0.000002697398,0.000002697398,0.99999994,0,0,0,0,0,0,0,1,0,0,0,false,false,true,-408.68,-1972.47,16.99,-0.004048795,-0.0025760154,0.845571,-0.53384143,-300.941,1097.591,8.561,0.00021,0.00040999998,2.49751
237.625,2000,0,91.24,0.000002697398,0.000002697398,0.000002697398,0.99999994,0,0,0,0,0,0,0,1,0,0,0,false,false,true,-411.19,-1963.32,16.99,-0.00402182,-0.0026191734,0.8399688,-0.5426133,-294.591,1095.341,8.561,0.00021,0.00040999998,2.45771
237.63333,2000,0,91.24,0.000002697398,0.000002697398,0.000002697398,0.99999994,0,0,0,0,0,0,0,1,0,0,0,false,false,true,-413.63998,-1954.19,16.99,-0.0039948463,-0.0026623318,0.83436865,-0.5511857,-288.391,1093.271,8.561,0.00021,0.00040999998,2.41611
237.64166,2000,0,91.24,0.000002697398,0.000002697398,0.000002697398,0.99999994,0,0,0,0,0,0,0,1,0,0,0,false,false,true,-416.03998,-1945.08,16.99,-0.0039678724,-0.0027054902,0.82877684,-0.55955845,-282.351,1091.361,8.561,0.00010999999,0.00040999998,2.37291
237.65,2000,0,91.24,0.000002697398,0.000002697398,0.000002697398,0.99999994,0,0,0,0,0,0,0,1,0,0,0,false,false,true,-418.38998,-1935.99,16.99,-0.0039408985,-0.0027432537,0.8232033,-0.56772625,-276.491,1089.611,8.551001,0.00010999999,0.00040999998,2.3280098
237.65834,2000,0,91.24,0.000002697398,0.000002697398,0.000002697398,0.99999994,0,0,0,0,0,0,0,1,0,0,0,false,false,true,-420.69,-1926.9099,16.99,-0.0039139246,-0.0027810175,0.81765836,-0.5756836,-270.811,1088.011,8.551001,0.00010999999,0.00051,2.2815099
237.66667,2000,0,91.24,0.000002697398,0.000002697398,0.000002697398,0.99999994,0,0,0,0,0,0,0,1,0,0,0,false,false,true,-422.94998,-1917.84,16.99,-0.0038869507,-0.002818781,0.81214875,-0.5834305,-265.321,1086.5509,8.551001,0.00010999999,0.00051,2.23341
237.675,2000,0,91.24,0.000002697398,0.000002697398,0.000002697398,0.99999994,0,0,0,0,0,0,0,1,0,0,0,false,false,true,-425.16,-1908.7899,16.99,-0.0038599768,-0.0028565445,0.8066852,-0.5909617,-260.021,1085.221,8.551001,0.00010999999,0.00061,2.18381
237.68333,2000,0,91.24,0.000002697398,0.000002697398,0.000002697398,0.99999994,0,0,0,0,0,0,0,1,0,0,0,false,false,true,-427.33,-1899.75,16.99,-0.0038330026,-0.0028943082,0.80127484,-0.59827703,-254.931,1084.021,8.551001,0.00010999999,0.00061,2.1328099
237.69167,2000,0,91.24,0.000002697398,0.000002697398,0.000002697398,0.99999994,0,0,0,0,0,0,0,1,0,0,0,false,false,true,-429.44998,-1890.72,16.99,-0.0038060287,-0.0029320717,0.79592866,-0.60537124,-250.051,1082.9309,8.551001,0,0.00061,2.08041
237.7,2000,0,91.24,0.000002697398,0.000002697398,0.000002697398,0.99999994,0,0,0,0,0,0,0,1,0,0,0,false,false,true,-431.53,-1881.7,16.99,-0.0037790549,-0.0029644407,0.79064983,-0.61224973,-245.381,1081.9509,8.551001,0,0.00061,2.02661
237.70833,2000,0,91.24,0.000002697398,0.000002697398,0.000002697398,0.99999994,0,0,0,0,0,0,0,1,0,0,0,false,false,true,-433.56998,-1872.6799,16.99,-0.0037520807,-0.0029968093,0.78545386,-0.61890143,-240.921,1081.0609,8.551001,0,0.00061,1.9715099
237.71666,2000,0,91.24,0.000002697398,0.000002697398,0.000002697398,0.99999994,0,0,0,0,0,0,0,1,0,0,0,false,false,true,-435.58,-1863.6699,16.99,-0.0037251068,-0.003029178,0.78034383,-0.6253321,-236.681,1080.261,8.551001,0,0.00061,1.91511
237.725,2000,0,91.24,0.000002697398,0.000002697398,0.000002697398,0.99999994,0,0,0,0,0,0,0,1,0,0,0,false,false,true,-437.55,-1854.6699,16.99,-0.0036981327,-0.0030615467,0.77532715,-0.6315415,-232.661,1079.5409,8.551001,0,0.00061,1.85761
237.73334,2000,0,91.24,0.000002697398,0.000002697398,0.000002697398,0.99999994,0,0,0,0,0,0,0,1,0,0,0,false,false,true,-439.49,-1845.6699,16.99,-0.0036711588,-0.0030939155,0.7704151,-0.63752437,-228.86101,1078.891,8.541,0,0.00061,1.79891
237.74167,2000,0,91.24,0.000002697398,0.000002697398,0.000002697398,0.99999994,0,0,0,0,0,0,0,1,0,0,0,false,false,true,-441.4,-1836.6799,16.99,-0.003644185,-0.0031208897,0.76561534,-0.6432806,-225.281,1078.3109,8.541,0,0.00051,1.73921
237.75,2000,0,91.24,0.000002697398,0.000002697398,0.000002697398,0.99999994,0,0,0,0,0,0,0,1,0,0,0,false,false,true,-443.28,-1827.69,16.99,-0.0036172108,-0.0031478636,0.76093495,-0.6488103,-221.921,1077.781,8.541,0,0.00051,1.67851
237.75833,2000,0,91.24,0.000002697398,0.000002697398,0.000002697398,0.99999994,0,0,0,0,0,0,0,1,0,0,0,false,false,true,-445.13,-1818.71,16.99,-0.0035956316,-0.0031748374,0.7563765,-0.65411884,-218.771,1077.3009,8.541,0,0.00040999998,1.61691
237.76666,2000,0,91.24,0.000002697398,0.000002697398,0.000002697398,0.99999994,0,0,0,0,0,0,0,1,0,0,0,false,false,true,-446.94998,-1809.73,16.99,-0.0035740524,-0.0032018116,0.75195163,-0.6592007,-215.83101,1076.861,8.541,0,0.00040999998,1.55451
237.775,2000,0,91.24,0.000002697398,0.000002697398,0.000002697398,0.99999994,0,0,0,0,0,0,0,1,0,0,0,false,false,true,-448.75,-1800.76,16.99,-0.0035524736,-0.003223391,0.7476673,-0.6640561,-213.091,1076.4609,8.541,0,0.00040999998,1.49151
237.78334,2000,0,91.24,0.000002697398,0.000002697398,0.000002697398,0.99999994,0,0,0,0,0,0,0,1,0,0,0,false,false,true,-450.53,-1791.7899,16.99,-0.0035308942,-0.0032449698,0.74352556,-0.6686902,-210.541,1076.091,8.541,0,0.00040999998,1.42811
237.79167,2000,0,91.24,0.000002697398,0.000002697398,0.000002697398,0.99999994,0,0,0,0,0,0,0,1,0,0,0,false,false,true,-452.28,-1782.82,16.99,-0.003509315,-0.003266549,0.73953295,-0.67310315,-208.181,1075.741,8.541,0,0.00040999998,1.3644099
237.8,2000,0,91.24,0.000002697398,0.000002697398,0.000002697398,0.99999994,0,0,0,0,0,0,0,1,0,0,0,false,false,true,-454.00998,-1773.86,16.99,-0.0034877358,-0.0032881282,0.7356959,-0.6772949,-205.991,1075.411,8.541,0,0.00040999998,1.30061
237.80833,2000,0,91.24,0.000002697398,0.000002697398,0.000002697398,0.99999994,0,0,0,0,0,0,0,1,0,0,0,false,false,true,-455.72998,-1764.8999,16.99,-0.0034661565,-0.0033097074,0.73201555,-0.68127096,-203.97101,1075.101,8.541,0,0.00030999997,1.23681
237.81667,2000,0,91.24,0.000002697398,0.000002697398,0.000002697398,0.99999994,0,0,0,0,0,0,0,1,0,0,0,false,false,true,-457.43,-1755.94,16.99,-0.0034499725,-0.0033258921,0.72849286,-0.6850366,-202.11101,1074.8009,8.541,0,0.00021,1.17311
237.825,2000,0,91.24,0.000002697398,0.000002697398,0.000002697398,0.99999994,0,0,0,0,0,0,0,1,0,0,0,false,false,true,-459.11,-1746.98,16.99,-0.0034337877,-0.0033420762,0.72513336,-0.68859166,-200.401,1074.511,8.541,0,0.00021,1.10951
237.83333,2000,0,91.24,0.000002697398,0.000002697398,0.000002697398,0.99999994,0,0,0,0,0,0,0,1,0,0,0,false,false,true,-460.78,-1738.0299,16.99,-0.0034176034,-0.0033582605,0.72194237,-0.6919365,-198.83101,1074.231,8.541,0,0.00021,1.0462099
237.84166,2000,0,91.24,0.000002697398,0.000002697398,0.000002697398,0.99999994,0,0,0,0,0,0,0,1,0,0,0,false,false,true,-462.44,-1729.08,16.99,-0.003401419,-0.003374445,0.71891993,-0.6950763,-197.401,1073.9509,8.541,0,0.00021,0.98320997
237.85,2000,0,91.24,0.000002697398,0.000002697398,0.000002697398,0.99999994,0,0,0,0,0,0,0,1,0,0,0,false,false,true,-464.09,-1720.13,16.99,-0.0033852346,-0.0033906293,0.7160656,-0.69801646,-196.091,1073.6709,8.541,0,0.00021,0.92070997
237.85834,2000,0,91.24,0.000002697398,0.000002697398,0.000002697398,0.99999994,0,0,0,0,0,0,0,1,0,0,0,false,false,true,-465.72,-1711.1799,16.99,-0.00336905,-0.0034068138,0.71338385,-0.70075697,-194.901,1073.391,8.541,0,0.00010999999,0.85861
237.86667,2000,0,91.24,0.000002697398,0.000002697398,0.000002697398,0.99999994,0,0,0,0,0,0,0,1,0,0,0,false,false,true,-467.34,-1702.23,16.99,-0.0033582605,-0.0034176034,0.71087354,-0.7033034,-193.821,1073.111,8.541,0,0,0.79701
237.875,2000,0,91.24,0.000002697398,0.000002697398,0.000002697398,0.99999994,0,0,0,0,0,0,0,1,0,0,0,false,false,true,-468.96,-1693.2899,16.99,-0.0033474711,-0.0034283933,0.70853347,-0.70566094,-192.851,1072.8309,8.541,0,0,0.73601
237.88333,2000,0,91.24,0.000002697398,0.000002697398,0.000002697398,0.99999994,0,0,0,0,0,0,0,1,0,0,0,false,false,true,-470.56998,-1684.35,16.99,0.0033366815,0.0034391826,-0.7063676,0.7078288,-191.97101,1072.5509,8.541,0,0,0.67551
237.89166,2000,0,91.24,0.000002697398,0.000002697398,0.000002697398,0.99999994,0,0,0,0,0,0,0,1,0,0,0,false,false,true,-472.16998,-1675.4099,16.99,0.003325892,0.0034499723,-0.7043716,0.70981514,-191.181,1072.271,8.541,0,0,0.61571
237.9,2000,0,91.24,0.000002697398,0.000002697398,0.000002697398,0.99999994,0,0,0,0,0,0,0,1,0,0,0,false,false,true,-473.75998,-1666.47,16.99,0.0033151023,0.0034607616,-0.7025481,0.71162003,-190.47101,1071.991,8.541,0,0,0.55651
237.90834,2000,0,91.24,0.000002697398,0.000002697398,0.000002697398,0.99999994,0,0,0,0,0,0,0,1,0,0,0,false,false,true,-475.34998,-1657.5399,16.99,0.0033097074,0.0034661565,-0.7008973,0.713246,-189.83101,1071.7009,8.541,0,0,0.49791
237.91667,2000,0,91.24,0.000002697398,0.000002697398,0.000002697398,0.99999994,0,0,0,0,0,0,0,1,0,0,0,false,false,true,-476.93,-1648.61,16.99,0.003304313,0.0034715515,-0.6994138,0.7147009,-189.261,1071.411,8.541,0,0,0.44001
237.925,2000,0,91.24,0.000002697398,0.000002697398,0.000002697398,0.99999994,0,0,0,0,0,0,0,1,0,0,0,false,false,true,-478.50998,-1639.6799,16.99,0.003298918,0.0034769464,-0.69810283,0.7159814,-188.741,1071.121,8.541,0,0,0.38281
237.93333,2000,0,91.24,0.000002697398,0.000002697398,0.000002697398,0.99999994,0,0,0,0,0,0,0,1,0,0,0,false,false,true,-480.08,-1630.75,16.99,0.003293523,0.0034823408,-0.6969591,0.7170948,-188.271,1070.8309,8.541,0,0,0.32631
237.94167,2000,0,91.24,0.000002697398,0.000002697398,0.000002697398,0.99999994,0,0,0,0,0,0,0,1,0,0,0,false,false,true,-481.65,-1621.83,16.99,0.0032881282,0.0034877358,-0.6959826,0.71804255,-187.851,1070.5409,8.541,0,0,0.27051002
237.95,2000,0,91.24,0.000002697398,0.000002697398,0.000002697398,0.99999994,0,0,0,0,0,0,0,1,0,0,0,false,false,true,-483.22,-1612.9099,16.99,0.0032827335,0.0034931304,-0.6951734,0.718826,-187.461,1070.251,8.541,0,0,0.21541
237.95833,2000,0,91.24,0.000002697398,0.000002697398,0.000002697398,0.99999994,0,0,0,0,0,0,0,1,0,0,0,false,false,true,-484.78,-1603.99,16.99,0.0032773386,0.0034985254,-0.694526,0.7194515,-187.101,1069.9609,8.541,0,0,0.16091
237.96666,2000,0,91.24,0.000002697398,0.000002697398,0.000002697398,0.99999994,0,0,0,0,0,0,0,1,0,0,0,false,false,true,-486.34,-1595.07,16.99,0.0032773386,0.0034985254,-0.69404584,0.71991473,-186.771,1069.6709,8.541,0,0,0.10710999
237.975,2000,0,91.24,0.000002697398,0.000002697398,0.000002697398,0.99999994,0,0,0,0,0,0,0,1,0,0,0,false,false,true,-487.9,-1586.1599,16.99,0.0032773386,0.0034985254,-0.6937222,0.72022665,-186.451,1069.381,8.541,0,0,0.054009996
237.98334,2000,0,91.24,0.000002697398,0.000002697398,0.000002697398,0.99999994,0,0,0,0,0,0,0,1,0,0,0,false,false,true,-489.44998,-1577.25,16.99,0.0032773386,0.0034985254,-0.69356036,0.72038245,-186.141,1069.091,8.541,0,0,0.0016099999
237.99167,2000,0,91.24,0.000002697398,0.000002697398,0.000002697398,0.99999994,0,0,0,0,0,0,0,1,0,0,0,false,false,true,-491,-1568.34,16.99,0.0032773386,0.0034985254,-0.69355494,0.7203877,-185.841,1068.8109,8.541,0,0,-0.050009996
238,2000,0,91.24,0.000002697398,0.000002697398,0.000002697398,0.99999994,0,0,0,0,0,0,0,1,0,0,0,false,false,true,-492.55,-1559.4299,16.99,0.0032773386,0.0034985254,-0.693706,0.72024226,-185.531,1068.531,8.541,0,0,-0.10090999
238.00833,2000,0,91.24,0.000002697398,0.000002697398,0.000002697398,0.99999994,0,0,0,0,0,0,0,1,0,0,0,false,false,true,-494.09998,-1550.5299,16.99,0.0032773386,0.0034985254,-0.6940081,0.71995115,-185.211,1068.261,8.541,0,0,-0.15121
238.01666,2000,0,91.24,0.000002697398,0.000002697398,0.000002697398,0.99999994,0,0,0,0,0,0,0,1,0,0,0,false,false,true,-495.63998,-1541.63,16.99,0.0032773386,0.0034985254,-0.6944613,0.719514,-184.881,1067.991,8.541,0,0,-0.20081
238.025,2000,0,91.24,0.000002697398,0.000002697398,0.000002697398,0.99999994,0,0,0,0,0,0,0,1,0,0,0,false,false,true,-497.18,-1532.73,16.99,0.0032827337,0.0034931307,-0.69506556,0.71893036,-184.531,1067.731,8.541,0,-0.00010999999,-0.24971
238.03334,2000,0,91.24,0.000002697398,0.000002697398,0.000002697398,0.99999994,0,0,0,0,0,0,0,1,0,0,0,false,false,true,-498.72,-1523.83,16.99,0.0032881282,0.0034877358,-0.6958154,0.71820456,-184.151,1067.481,8.541,0,-0.00010999999,-0.29791
238.04167,2000,0,91.24,0.000002697398,0.000002697398,0.000002697398,0.99999994,0,0,0,0,0,0,0,1,0,0,0,false,false,true,-500.25,-1514.9299,16.99,0.003293523,0.0034823408,-0.6967055,0.7173411,-183.741,1067.241,8.541,0,-0.00010999999,-0.34551
238.05,2000,0,91.24,0.000002697398,0.000002697398,0.000002697398,0.99999994,0,0,0,0,0,0,0,1,0,0,0,false,false,true,-501.78,-1506.0399,16.99,0.0032989178,0.0034769461,-0.6977359,0.71633893,-183.291,1067.001,8.541,0,-0.00010999999,-0.39241
238.05833,2000,0,91.24,0.000002697398,0.000002697398,0.000002697398,0.99999994,0,0,0,0,0,0,0,1,0,0,0,false,false,true,-503.31,-1497.15,16.99,0.0033043127,0.0034715512,-0.6989066,0.7151968,-182.791,1066.771,8.541,0,-0.00010999999,-0.43861002
238.06667,2000,0,91.24,0.000002697398,0.000002697398,0.000002697398,0.99999994,0,0,0,0,0,0,0,1,0,0,0,false,false,true,-504.83,-1488.26,16.99,0.0033097074,0.0034661565,-0.7002121,0.7139186,-182.241,1066.5509,8.541,0,-0.00010999999,-0.48411
238.075,2000,0,91.24,0.000002697398,0.000002697398,0.000002697398,0.99999994,0,0,0,0,0,0,0,1,0,0,0,false,false,true,-506.34998,-1479.37,16.99,0.0033151023,0.0034607616,-0.7016526,0.712503,-181.641,1066.341,8.541,0,-0.00010999999,-0.52891
238.08333,2000,0,91.24,0.000002697398,0.000002697398,0.000002697398,0.99999994,0,0,0,0,0,0,0,1,0,0,0,false,false,true,-507.86,-1470.48,16.99,0.003320497,0.003455367,-0.70322245,0.7109536,-180.981,1066.141,8.541,0,-0.00021,-0.57301
238.09166,2000,0,91.24,0.000002697398,0.000002697398,0.000002697398,0.99999994,0,0,0,0,0,0,0,1,0,0,0,false,false,true,-509.37,-1461.6,16.99,0.0033312866,0.0034445773,-0.7049164,0.7092741,-180.261,1065.9509,8.541,0,-0.00021,-0.61641
238.1,2000,0,91.24,0.000002697398,0.000002697398,0.000002697398,0.99999994,0,0,0,0,0,0,0,1,0,0,0,false,false,true,-510.87,-1452.72,16.99,0.0033420762,0.0034337877,-0.7067345,0.70746255,-179.47101,1065.771,8.541,0,-0.00021,-0.65911
238.10834,2000,0,91.24,0.000002697398,0.000002697398,0.000002697398,0.99999994,0,0,0,0,0,0,0,1,0,0,0,false,false,true,-512.37,-1443.84,16.99,-0.003352866,-0.0034229984,0.70867306,-0.7055207,-178.601,1065.601,8.541,0,-0.00021,-0.70111
238.11667,2000,0,91.24,0.000002697398,0.000002697398,0.000002697398,0.99999994,0,0,0,0,0,0,0,1,0,0,0,false,false,true,-513.86,-1434.96,16.99,-0.0033636554,-0.0034122085,0.7107295,-0.703449,-177.661,1065.4309,8.541,0,-0.00021,-0.74241
238.125,2000,0,91.24,0.000002697398,0.000002697398,0.000002697398,0.99999994,0,0,0,0,0,0,0,1,0,0,0,false,false,true,-515.33997,-1426.08,16.99,-0.003374445,-0.003401419,0.7129013,-0.70124793,-176.631,1065.271,8.541,0,-0.00021,-0.78291
238.13333,2000,0,91.24,0.000002697398,0.000002697398,0.000002697398,0.99999994,0,0,0,0,0,0,0,1,0,0,0,false,false,true,-516.81,-1417.2,16.99,-0.0033852346,-0.0033906293,0.71518624,-0.6989174,-175.521,1065.121,8.541,0,-0.00021,-0.82271
238.14166,2000,0,91.24,0.000002697398,0.000002697398,0.000002697398,0.99999994,0,0,0,0,0,0,0,1,0,0,0,false,false,true,-518.26996,-1408.32,16.99,-0.0033960242,-0.0033798397,0.71757686,-0.69646275,-174.321,1064.971,8.541,0,-0.00021,-0.86171
238.15,2000,0,91.24,0.000002697398,0.000002697398,0.000002697398,0.99999994,0,0,0,0,0,0,0,1,0,0,0,false,false,true,-519.72,-1399.45,16.99,-0.0034068138,-0.00336905,0.7200707,-0.693884,-173.021,1064.8309,8.541,0,-0.00021,-0.89991
238.15834,2000,0,91.24,0.000002697398,0.000002697398,0.000002697398,0.99999994,0,0,0,0,0,0,0,1,0,0,0,false,false,true,-521.16,-1390.58,16.99,-0.0034176034,-0.0033582605,0.7226655,-0.69118124,-171.621,1064.6909,8.541,0,-0.00021,-0.93720996
238.16667,2000,0,91.24,0.000002697398,0.000002697398,0.000002697398,0.99999994,0,0,0,0,0,0,0,1,0,0,0,false,false,true,-522.58997,-1381.71,16.99,-0.0034337877,-0.0033420762,0.7253587,-0.6883543,-170.121,1064.5509,8.541,0,-0.00030999997,-0.97371
238.175,2000,0,91.24,0.000002697398,0.000002697398,0.000002697398,0.99999994,0,0,0,0,0,0,0,1,0,0,0,false,false,true,-524.01,-1372.84,16.99,-0.0034499725,-0.0033258921,0.72814775,-0.6854034,-168.511,1064.411,8.541,0,-0.00030999997,-1.00931
238.18333,2000,0,91.24,0.000002697398,0.000002697398,0.000002697398,0.99999994,0,0,0,0,0,0,0,1,0,0,0,false,false,true,-525.41,-1363.97,16.99,-0.0034661568,-0.0033097076,0.73102504,-0.68233377,-166.80101,1064.271,8.541,0,-0.00030999997,-1.04401
238.19167,2000,0,91.24,0.000002697398,0.000002697398,0.000002697398,0.99999994,0,0,0,0,0,0,0,1,0,0,0,false,false,true,-526.8,-1355.1,16.99,-0.003482341,-0.0032935233,0.73398805,-0.67914546,-164.97101,1064.121,8.541,0,-0.00030999997,-1.07771
238.2,2000,0,91.24,0.000002697398,0.000002697398,0.000002697398,0.99999994,0,0,0,0,0,0,0,1,0,0,0,false,false,true,-528.17,-1346.23,16.99,-0.0034985254,-0.0032773386,0.73702925,-0.6758437,-163.031,1063.9609,8.541,0,-0.00030999997,-1.11051
238.20833,2000,0,91.24,0.000002697398,0.000002697398,0.000002697398,0.99999994,0,0,0,0,0,0,0,1,0,0,0,false,false,true,-529.52997,-1337.36,16.99,-0.0035147092,-0.0032611538,0.7401461,-0.6724288,-160.97101,1063.8009,8.541,0,-0.00030999997,-1.14231
238.21666,2000,0,91.24,0.000002697398,0.000002697398,0.000002697398,0.99999994,0,0,0,0,0,0,0,1,0,0,0,false,false,true,-530.87,-1328.49,16.99,-0.0035308942,-0.0032449698,0.74333626,-0.6689006,-158.80101,1063.621,8.541,0,-0.00030999997,-1.17321
238.225,2000,0,91.24,0.000002697398,0.000002697398,0.000002697398,0.99999994,0,0,0,0,0,0,0,1,0,0,0,false,false,true,-532.19,-1319.63,16.99,-0.0035470787,-0.0032287857,0.74659705,-0.6652592,-156.511,1063.4309,8.541,0,-0.00030999997,-1.20321
238.23334,2000,0,91.24,0.000002697398,0.000002697398,0.000002697398,0.99999994,0,0,0,0,0,0,0,1,0,0,0,false,false,true,-533.49,-1310.77,16.99,-0.0035632623,-0.003212601,0.74992114,-0.66150963,-154.101,1063.221,8.541,0,-0.00030999997,-1.2323099
238.24167,2000,0,91.24,0.000002697398,0.000002697398,0.000002697398,0.99999994,0,0,0,0,0,0,0,1,0,0,0,false,false,true,-534.76996,-1301.9099,16.99,-0.0035794475,-0.0031910222,0.75330615,-0.6576525,-151.58101,1062.991,8.541,0,-0.00030999997,-1.26051
238.25,2000,0,91.24,0.000002697398,0.000002697398,0.000002697398,0.99999994,0,0,0,0,0,0,0,1,0,0,0,false,false,true,-536.02997,-1293.0499,16.99,-0.0035956318,-0.003169443,0.7567496,-0.6536873,-148.94101,1062.731,8.541,0,-0.00030999997,-1.28781
238.25833,2000,0,91.24,0.000002697398,0.000002697398,0.000002697398,0.99999994,0,0,0,0,0,0,0,1,0,0,0,false,false,true,-537.26996,-1284.19,16.99,-0.003611816,-0.0031478636,0.7602443,-0.6496195,-146.181,1062.4509,8.541,0,-0.00030999997,-1.31431
238.26666,2000,0,91.24,0.000002697398,0.000002697398,0.000002697398,0.99999994,0,0,0,0,0,0,0,1,0,0,0,false,false,true,-538.49,-1275.34,16.99,-0.003628,-0.003126284,0.7637925,-0.64544386,-143.311,1062.141,8.541,0,-0.00030999997,-1.3400099
238.275,2000,0,91.24,0.000002697398,0.000002697398,0.000002697398,0.99999994,0,0,0,0,0,0,0,1,0,0,0,false,false,true,-539.68,-1266.49,16.99,-0.003644185,-0.0031047051,0.76738274,-0.6411713,-140.33101,1061.7909,8.541,0,-0.00030999997,-1.36491
238.28334,2000,0,91.24,0.000002697398,0.000002697398,0.000002697398,0.99999994,0,0,0,0,0,0,0,1,0,0,0,false,false,true,-540.85,-1257.64,16.99,-0.0036603694,-0.0030831262,0.7710174,-0.6367961,-137.231,1061.401,8.541,0,-0.00030999997,-1.38901
238.29167,2000,0,91.24,0.000002697398,0.000002697398,0.000002697398,0.99999994,0,0,0,0,0,0,0,1,0,0,0,false,false,true,-541.99,-1248.7899,16.99,-0.0036765535,-0.0030615467,0.7746894,-0.63232374,-134.02101,1060.971,8.541,0,-0.00030999997,-1.41231
238.3,2000,0,91.24,0.000002697398,0.000002697398,0.000002697398,0.99999994,0,0,0,0,0,0,0,1,0,0,0,false,false,true,-543.11,-1239.95,16.99,-0.0036981327,-0.0030399675,0.7783967,-0.62775433,-130.701,1060.501,8.541,0,-0.00030999997,-1.4348099
238.30833,2000,0,91.24,0.000002697398,0.000002697398,0.000002697398,0.99999994,0,0,0,0,0,0,0,1,0,0,0,false,false,true,-544.2,-1231.11,16.99,-0.003719712,-0.0030183885,0.7821371,-0.6230878,-127.270996,1059.981,8.541,0,-0.00030999997,-1.45661
238.31667,2000,0,91.24,0.000002697398,0.000002697398,0.000002697398,0.99999994,0,0,0,0,0,0,0,1,0,0,0,false,false,true,-545.26,-1222.28,16.99,-0.0037412911,-0.0029968093,0.78590417,-0.6183296,-123.741,1059.411,8.541,0,-0.00030999997,-1.47761
238.325,2000,0,91.24,0.000002697398,0.000002697398,0.000002697398,0.99999994,0,0,0,0,0,0,0,1,0,0,0,false,false,true,-546.29,-1213.45,16.99,-0.0037628706,-0.0029752303,0.78969586,-0.61347973,-120.101,1058.7909,8.541,0,-0.00030999997,-1.49791
238.33333,2000,0,91.24,0.000002697398,0.000002697398,0.000002697398,0.99999994,0,0,0,0,0,0,0,1,0,0,0,false,false,true,-547.29,-1204.63,16.99,-0.0037844495,-0.002948256,0.7935101,-0.60853803,-116.361,1058.111,8.541,0,-0.00030999997,-1.5175099
238.34166,2000,0,91.24,0.000002697398,0.000002697398,0.000002697398,0.99999994,0,0,0,0,0,0,0,1,0,0,0,false,false,true,-548.26,-1195.8099,16.99,-0.0038060287,-0.002921282,0.79734087,-0.60351,-112.520996,1057.371,8.541,0,-0.00030999997,-1.53641
238.35,2000,0,91.24,0.000002697398,0.000002697398,0.000002697398,0.99999994,0,0,0,0,0,0,0,1,0,0,0,false,false,true,-549.2,-1187,16.99,-0.003827608,-0.0028943082,0.80119026,-0.59839034,-108.58099,1056.5709,8.541,0,-0.00021,-1.55461
238.35834,2000,0,91.24,0.000002697398,0.000002697398,0.000002697398,0.99999994,0,0,0,0,0,0,0,1,0,0,0,false,false,true,-550.1,-1178.2,16.99,-0.0038491872,-0.002867334,0.8050482,-0.5931898,-104.550995,1055.7109,8.541,0,-0.00010999999,-1.5721099
238.36667,2000,0,91.24,0.000002697398,0.000002697398,0.000002697398,0.99999994,0,0,0,0,0,0,0,1,0,0,0,false,false,true,-550.97,-1169.4,16.99,-0.0038707664,-0.0028403602,0.8089172,-0.58790284,-100.421,1054.781,8.541,0,-0.00010999999,-1.58901
238.375,2000,0,91.24,0.000002697398,0.000002697398,0.000002697398,0.99999994,0,0,0,0,0,0,0,1,0,0,0,false,false,true,-551.81,-1160.61,16.99,-0.0038923456,-0.0028133865,0.81279135,-0.5825351,-96.201,1053.781,8.541,0,0,-1.60521
238.38333,2000,0,91.24,0.000002697398,0.000002697398,0.000002697398,0.99999994,0,0,0,0,0,0,0,1,0,0,0,false,false,true,-552.61,-1151.83,16.99,-0.0039085294,-0.0027864121,0.81666905,-0.5770862,-91.901,1052.7109,8.541,0,0,-1.62081
238.39166,2000,0,91.24,0.000002697398,0.000002697398,0.000002697398,0.99999994,0,0,0,0,0,0,0,1,0,0,0,false,false,true,-553.38,-1143.0599,16.99,-0.0039247144,-0.0027594385,0.8205486,-0.5715566,-87.520996,1051.5609,8.541,0,0,-1.63571
238.4,2000,0,91.24,0.000002697398,0.000002697398,0.000002697398,0.99999994,0,0,0,0,0,0,0,1,0,0,0,false,false,true,-554.11,-1134.2999,16.99,-0.0039408985,-0.002732464,0.8244246,-0.5659513,-83.061,1050.3309,8.541,0,0,-1.65001
238.40834,2000,0,91.24,0.000002697398,0.000002697398,0.000002697398,0.99999994,0,0,0,0,0,0,0,1,0,0,0,false,false,true,-554.8,-1125.5499,16.99,-0.003957083,-0.0027054902,0.82829565,-0.5602706,-78.520996,1049.021,8.541,0,0,-1.66371
238.41667,2000,0,91.24,0.000002697398,0.000002697398,0.000002697398,0.99999994,0,0,0,0,0,0,0,1,0,0,0,false,false,true,-555.45,-1116.8099,16.99,-0.003973267,-0.0026785163,0.8321603,-0.5545143,-73.910995,1047.631,8.541,0,0,-1.67681
238.425,2000,0,91.24,0.000002697398,0.000002697398,0.000002697398,0.99999994,0,0,0,0,0,0,0,1,0,0,0,false,false,true,-556.07,-1108.08,16.99,-0.0039894516,-0.0026515422,0.83601344,-0.54868793,-69.230995,1046.151,8.541,0,-0.00010999999,-1.68931
238.43333,2000,0,91.24,0.000002697398,0.000002697398,0.000002697398,0.99999994,0,0,0,0,0,0,0,1,0,0,0,false,false,true,-556.64996,-1099.36,16.99,-0.0040110312,-0.0026245685,0.8398538,-0.5427914,-64.480995,1044.5809,8.541,0,-0.00021,-1.70121
238.44167,2000,0,91.24,0.000002697398,0.000002697398,0.000002697398,0.99999994,0,0,0,0,0,0,0,1,0,0,0,false,false,true,-557.19,-1090.66,16.99,-0.00403261,-0.0025975944,0.8436801,-0.5368247,-59.670998,1042.9209,8.541,0,-0.00021,-1.71251
238.45,2000,0,91.24,0.000002697398,0.000002697398,0.000002697398,0.99999994,0,0,0,0,0,0,0,1,0,0,0,false,false,true,-557.69,-1081.97,16.99,-0.004054189,-0.0025706203,0.8474876,-0.5307933,-54.801,1041.1709,8.541,0,-0.00021,-1.72331
238.45833,2000,0,91.24,0.000002697398,0.000002697398,0.000002697398,0.99999994,0,0,0,0,0,0,0,1,0,0,0,false,false,true,-558.14996,-1073.2899,16.99,-0.004075769,-0.0025436466,0.85127866,-0.5246918,-49.880997,1039.3309,8.541,0,-0.00021,-1.73351
238.46666,2000,0,91.24,0.000002697398,0.000002697398,0.000002697398,0.99999994,0,0,0,0,0,0,0,1,0,0,0,false,false,true,-558.57,-1064.63,16.99,-0.004097348,-0.0025112778,0.8550453,-0.51853096,-44.911,1037.401,8.541,-0.00010999999,-0.00021,-1.74311
238.475,2000,0,91.24,0.000002697398,0.000002697398,0.000002697398,0.99999994,0,0,0,0,0,0,0,1,0,0,0,false,false,true,-558.94,-1055.98,16.99,-0.0041135317,-0.0024789087,0.8587899,-0.51230526,-39.891,1035.371,8.541,-0.00010999999,-0.00010999999,-1.75221
238.48334,2000,0,91.24,0.000002697398,0.000002697398,0.000002697398,0.99999994,0,0,0,0,0,0,0,1,0,0,0,false,false,true,-559.26996,-1047.35,16.99,-0.004129716,-0.00244654,0.8625081,-0.5060203,-34.830997,1033.251,8.541,-0.00010999999,-0.00010999999,-1.76081
238.49167,2000,0,91.24,0.000002697398,0.000002697398,0.000002697398,0.99999994,0,0,0,0,0,0,0,1,0,0,0,false,false,true,-559.56,-1038.74,16.99,-0.0041459007,-0.0024141711,0.8661959,-0.4996814,-29.730999,1031.031,8.541,-0.00010999999,-0.00010999999,-1.7688099
238.5,2000,0,91.24,0.000002697398,0.000002697398,0.000002697398,0.99999994,0,0,0,0,0,0,0,1,0,0,0,false,false,true,-559.81,-1030.15,16.99,-0.0041620852,-0.0023818025,0.8698555,-0.49328312,-24.601,1028.7109,8.541,-0.00010999999,-0.00010999999,-1.77631
238.50833,2000,0,91.24,0.000002697398,0.000002697398,0.000002697398,0.99999994,0,0,0,0,0,0,0,1,0,0,0,false,false,true,-560.01,-1021.57996,16.99,-0.0041782698,-0.002349434,0.873483,-0.48683098,-19.440998,1026.2909,8.541,0,-0.00010999999,-1.7833099
238.51666,2000,0,91.24,0.000002697398,0.000002697398,0.000002697398,0.99999994,0,0,0,0,0,0,0,1,0,0,0,false,false,true,-560.17,-1013.02997,16.99,-0.004194454,-0.002317065,0.8770775,-0.48032483,-14.261,1023.77094,8.541,0,-0.00010999999,-1.7897099
238.525,2000,0,91.24,0.000002697398,0.000002697398,0.000002697398,0.99999994,0,0,0,0,0,0,0,1,0,0,0,false,false,true,-560.29,-1004.5,16.99,-0.0042106383,-0.002284696,0.88063544,-0.4737701,-9.051001,1021.15094,8.541,0,-0.00010999999,-1.79561
238.53334,2000,0,91.24,0.000002697398,0.000002697398,0.000002697398,0.99999994,0,0,0,0,0,0,0,1,0,0,0,false,false,true,-560.37,-995.99,16.99,-0.004226822,-0.002252327,0.88415605,-0.46716678,-3.8309999,1018.43097,8.541,0,-0.00010999999,-1.80101
238.54167,2000,0,91.24,0.000002697398,0.000002697398,0.000002697398,0.99999994,0,0,0,0,0,0,0,1,0,0,0,false,false,true,-560.39996,-987.5,16.99,-0.004243007,-0.0022199585,0.8876361,-0.46052045,1.401,1015.61096,8.541,0,-0.00010999999,-1.80591
238.55,2000,0,91.24,0.000002697398,0.000002697398,0.000002697398,0.99999994,0,0,0,0,0,0,0,1,0,0,0,false,false,true,-560.39,-979.04,16.99,-0.004259191,-0.0021875894,0.89107484,-0.4538308,6.641,1012.691,8.541,0,-0.00010999999,-1.81031
238.55833,2000,0,91.24,0.000002697398,0.000002697398,0.000002697398,0.99999994,0,0,0,0,0,0,0,1,0,0,0,false,false,true,-560.33,-970.6,16.99,-0.004275376,-0.002155221,0.894472,-0.4470981,11.8810005,1009.67096,8.551001,0,-0.00021,-1.8142099
238.56667,2000,0,91.24,0.000002697398,0.000002697398,0.000002697398,0.99999994,0,0,0,0,0,0,0,1,0,0,0,false,false,true,-560.23,-962.19,16.99,-0.00429156,-0.0021228523,0.89782697,-0.44032225,17.120998,1006.55096,8.551001,0,-0.00021,-1.81761
238.575,2000,0,91.24,0.000002697398,0.000002697398,0.000002697398,0.99999994,0,0,0,0,0,0,0,1,0,0,0,false,false,true,-560.08997,-953.8,16.99,-0.004307744,-0.0020904832,0.9011366,-0.43350852,22.360998,1003.33093,8.551001,0,-0.00021,-1.8206099
238.58333,2000,0,91.24,0.000002697398,0.000002697398,0.000002697398,0.99999994,0,0,0,0,0,0,0,1,0,0,0,false,false,true,-559.89996,-945.44,16.99,-0.004323929,-0.0020581146,0.90439814,-0.42666253,27.591,1000.0109,8.551001,0,-0.00021,-1.82311
238.59166,2000,0,91.24,0.000002697398,0.000002697398,0.000002697398,0.99999994,0,0,0,0,0,0,0,1,0,0,0,false,false,true,-559.67,-937.11,16.99,-0.0043401136,-0.002025746,0.90761375,-0.41977882,32.810997,996.59094,8.551001,0,-0.00021,-1.82511
238.6,2000,0,91.24,0.000002697398,0.000002697398,0.000002697398,0.99999994,0,0,0,0,0,0,0,1,0,0,0,false,false,true,-559.39996,-928.81,16.99,-0.0043562977,-0.001993377,0.9107806,-0.41286266,38.021,993.08093,8.551001,0,-0.00021,-1.82661
238.60834,2000,0,91.24,0.000002697398,0.000002697398,0.000002697398,0.99999994,0,0,0,0,0,0,0,1,0,0,0,false,false,true,-559.08,-920.52997,16.99,-0.004372482,-0.0019610084,0.9138962,-0.40591946,43.211,989.47095,8.551001,0,-0.00021,-1.8277099
238.61667,2000,0,91.24,0.000002697398,0.000002697398,0.000002697398,0.99999994,0,0,0,0,0,0,0,1,0,0,0,false,false,true,-558.72,-912.27997,16.99,-0.0043886662,-0.0019286394,0.91696024,-0.39894935,48.371,985.7609,8.551001,0,-0.00021,-1.82831
238.625,2000,0,91.24,0.000002697398,0.000002697398,0.000002697398,0.99999994,0,0,0,0,0,0,0,1,0,0,0,false,false,true,-558.32,-904.07,16.99,-0.004404851,-0.0018962709,0.91997296,-0.39195234,53.510998,981.96094,8.551001,0,-0.00021,-1.8285099
238.63333,2000,0,91.24,0.000002697398,0.000002697398,0.000002697398,0.99999994,0,0,0,0,0,0,0,1,0,0,0,false,false,true,-557.87,-895.88995,16.99,-0.0044210353,-0.0018639021,0.92293173,-0.38493365,58.621,978.071,8.551001,-0.00010999999,-0.00021,-1.82821
238.64166,2000,0,91.24,0.000002697398,0.000002697398,0.000002697398,0.99999994,0,0,0,0,0,0,0,1,0,0,0,false,false,true,-557.38,-887.74,16.99,-0.0044372194,-0.001831533,0.9258365,-0.3778934,63.700996,974.09094,8.551001,-0.00010999999,-0.00021,-1.82751
238.65,2000,0,91.24,0.000002697398,0.000002697398,0.000002697398,0.99999994,0,0,0,0,0,0,0,1,0,0,0,false,false,true,-556.85,-879.62,16.99,-0.004453404,-0.0017991646,0.92868763,-0.3708316,68.741,970.02094,8.551001,-0.00021,-0.00021,-1.8263099
