time,ball_loc_x,ball_loc_y,ball_loc_z,ball_rot_x,ball_rot_y,ball_rot_z,ball_rot_w,ball_vel_x,ball_vel_y,ball_vel_z,ball_ang_x,ball_ang_y,ball_ang_z,player0_throttle,player0_steer,player0_pitch,player0_yaw,player0_roll,player0_jump,player0_boost,player0_handbrake,player0_loc_x,player0_loc_y,player0_loc_z,player0_rot_x,player0_rot_y,player0_rot_z,player0_rot_w,player0_vel_x,player0_vel_y,player0_vel_z,player0_ang_x,player0_ang_y,player0_ang_z
58.108334,2000,0,91.24,0.000002697398,0.000002697398,0.000002697398,0.99999994,0,0,0,0,0,0,0.4015748,0,0,0,0,false,false,false,0,-4848.34,17.01,-0.0033582605,0.0033528658,0.70708513,0.7071124,0,402.891,8.321,-0.00061,0.00010999999,0
58.116665,2000,0,91.24,0.000002697398,0.000002697398,0.000002697398,0.99999994,0,0,0,0,0,0,1,1,0,0,0,false,false,true,0,-4844.98,17.01,-0.0033582605,0.0033528658,0.70708513,0.7071124,-11.711,408.481,8.351,-0.00030999997,0.00311,0.31731
58.125,2000,0,91.24,0.000002697398,0.000002697398,0.000002697398,0.99999994,0,0,0,0,0,0,1,1,0,0,0,false,false,true,-0.099999994,-4841.58,17.01,-0.0033528658,0.0033582605,0.7080175,0.7061788,-19.921,415.171,8.361,-0.00021,0.00401,0.53881
58.133335,2000,0,91.24,0.000002697398,0.000002697398,0.000002697398,0.99999994,0,0,0,0,0,0,1,1,0,0,0,false,false,true,-0.26999998,-4838.12,17.01,-0.003347471,0.0033636554,0.7096013,0.70458734,-27.310999,421.951,8.361,-0.00010999999,0.00421,0.73221
58.141666,2000,0,91.24,0.000002697398,0.000002697398,0.000002697398,0.99999994,0,0,0,0,0,0,1,1,0,0,0,false,false,true,-0.5,-4834.6,17.01,-0.003347471,0.0033636554,0.7117481,0.7024186,-34.071,428.761,8.361,-0.00010999999,0.00391,0.90051
58.15,2000,0,91.24,0.000002697398,0.000002697398,0.000002697398,0.99999994,0,0,0,0,0,0,1,1,0,0,0,false,false,true,-0.78,-4831.03,17.01,-0.0033474711,0.0033636556,0.714379,0.69974285,-40.361,435.531,8.361,-0.00010999999,0.00341,1.04681
58.158333,2000,0,91.24,0.000002697398,0.000002697398,0.000002697398,0.99999994,0,0,0,0,0,0,1,1,0,0,0,false,false,true,-1.12,-4827.4,17.01,-0.0033528658,0.0033582605,0.7174253,0.6966192,-46.321,442.221,8.351,-0.00010999999,0.00271,1.17401
58.166668,2000,0,91.24,0.000002697398,0.000002697398,0.000002697398,0.99999994,0,0,0,0,0,0,1,1,0,0,0,false,false,true,-1.51,-4823.71,17.01,-0.0033636554,0.003347471,0.72082406,0.6931017,-52.040997,448.791,8.351,-0.00010999999,0.00201,1.28501
58.175,2000,0,91.24,0.000002697398,0.000002697398,0.000002697398,0.99999994,0,0,0,0,0,0,1,1,0,0,0,false,false,true,-1.9399999,-4819.9697,17.01,-0.003374445,0.0033366815,0.7245235,0.68923366,-57.600998,455.211,8.351,-0.00021,0.0014099999,1.38211
58.183334,2000,0,91.24,0.000002697398,0.000002697398,0.000002697398,0.99999994,0,0,0,0,0,0,1,1,0,0,0,false,false,true,-2.4199998,-4816.1797,17.01,-0.0033906293,0.003320497,0.728483,0.6850473,-63.060997,461.451,8.341001,-0.00021,0.00081,1.46751
58.191666,2000,0,91.24,0.000002697398,0.000002697398,0.000002697398,0.99999994,0,0,0,0,0,0,1,1,0,0,0,false,false,true,-2.95,-4812.33,17.01,-0.0034068138,0.0033043127,0.73265785,0.68058044,-68.471,467.491,8.341001,-0.00021,0.00030999997,1.54311
58.2,2000,0,91.24,0.000002697398,0.000002697398,0.000002697398,0.99999994,0,0,0,0,0,0,1,1,0,0,0,false,false,true,-3.52,-4808.4297,17.01,-0.003428393,0.0032827335,0.7370196,0.67585456,-73.851,473.32098,8.341001,-0.00021,0,1.61031
58.208332,2000,0,91.24,0.000002697398,0.000002697398,0.000002697398,0.99999994,0,0,0,0,0,0,1,1,0,0,0,false,false,true,-4.14,-4804.4897,17.01,-0.0034499723,0.0032611543,0.74153554,0.67089665,-79.211,478.921,8.341001,-0.00021,-0.00030999997,1.6705099
58.216667,2000,0,91.24,0.000002697398,0.000002697398,0.000002697398,0.99999994,0,0,0,0,0,0,1,1,0,0,0,false,false,true,-4.7999997,-4800.5,17.01,-0.0034715512,0.003239575,0.7461885,0.66571766,-84.550995,484.291,8.341001,-0.00021,-0.00051,1.72481
58.225,2000,0,91.24,0.000002697398,0.000002697398,0.000002697398,0.99999994,0,0,0,0,0,0,1,1,0,0,0,false,false,true,-5.5,-4796.46,17.01,-0.003498525,0.003212601,0.7509524,0.660339,-89.870995,489.431,8.341001,-0.00021,-0.00071,1.77411
58.233334,2000,0,91.24,0.000002697398,0.000002697398,0.000002697398,0.99999994,0,0,0,0,0,0,1,1,0,0,0,false,false,true,-6.25,-4792.38,17.01,-0.0035254993,0.003185627,0.75581175,0.6547716,-95.151,494.341,8.341001,-0.00021,-0.00081,1.8191099
58.241665,2000,0,91.24,0.000002697398,0.000002697398,0.000002697398,0.99999994,0,0,0,0,0,0,1,1,0,0,0,false,false,true,-7.04,-4788.26,17.01,-0.0035524734,0.0031586532,0.7607512,0.6490261,-100.381,499.021,8.331,-0.00010999999,-0.00091,1.86061
58.25,2000,0,91.24,0.000002697398,0.000002697398,0.000002697398,0.99999994,0,0,0,0,0,0,1,1,0,0,0,false,false,true,-7.8799996,-4784.1,17.01,-0.0035794475,0.0031262846,0.76576066,0.64310807,-105.531,503.481,8.331,-0.00010999999,-0.0010099999,1.89901
58.258335,2000,0,91.24,0.000002697398,0.000002697398,0.000002697398,0.99999994,0,0,0,0,0,0,1,1,0,0,0,false,false,true,-8.76,-4779.9,17.01,-0.0036064212,0.0030939155,0.77082586,0.63702804,-110.571,507.741,8.331,-0.00010999999,-0.0010099999,1.9347099
58.266666,2000,0,91.24,0.000002697398,0.000002697398,0.000002697398,0.99999994,0,0,0,0,0,0,1,1,0,0,0,false,false,true,-9.679999,-4775.67,17.01,-0.0036333953,0.0030615467,0.7759376,0.63079166,-115.461,511.82098,8.331,-0.00010999999,-0.0010099999,1.96801
58.275,2000,0,91.24,0.000002697398,0.000002697398,0.000002697398,0.99999994,0,0,0,0,0,0,1,1,0,0,0,false,false,true,-10.639999,-4771.4,17.01,-0.0036603694,0.0030291781,0.7810826,0.6244096,-120.160995,515.74097,8.331,-0.00010999999,-0.0010099999,1.99921
58.283333,2000,0,91.24,0.000002697398,0.000002697398,0.000002697398,0.99999994,0,0,0,0,0,0,1,1,0,0,0,false,false,true,-11.639999,-4767.1,17.01,-0.003687343,0.0029968093,0.7862565,0.61788183,-124.631,519.53094,8.331,-0.00010999999,-0.0010099999,2.02841
58.291668,2000,0,91.24,0.000002697398,0.000002697398,0.000002697398,0.99999994,0,0,0,0,0,0,1,1,0,0,0,false,false,true,-12.679999,-4762.77,17.01,-0.0037143168,0.0029644403,0.7914511,0.6112138,-128.821,523.22095,8.331,-0.00010999999,-0.0010099999,2.05581
58.3,2000,0,91.24,0.000002697398,0.000002697398,0.000002697398,0.99999994,0,0,0,0,0,0,1,1,0,0,0,false,false,true,-13.75,-4758.4097,17.01,-0.0037412911,0.0029320717,0.79665846,0.60441095,-132.671,526.85095,8.331,-0.00010999999,-0.0010099999,2.08151
58.308334,2000,0,91.24,0.000002697398,0.000002697398,0.000002697398,0.99999994,0,0,0,0,0,0,1,1,0,0,0,false,false,true,-14.86,-4754.02,17.01,-0.0037682652,0.0028997029,0.80187064,0.5974786,-136.131,530.46094,8.321,-0.00010999999,-0.0010099999,2.10571
58.316666,2000,0,91.24,0.000002697398,0.000002697398,0.000002697398,0.99999994,0,0,0,0,0,0,1,1,0,0,0,false,false,true,-15.99,-4749.6,17.01,-0.0037952391,0.0028619394,0.80708045,0.5904222,-139.761,533.98096,8.321,-0.00010999999,-0.0010099999,2.12971
58.325,2000,0,91.24,0.000002697398,0.000002697398,0.000002697398,0.99999994,0,0,0,0,0,0,1,1,0,0,0,false,false,true,-17.15,-4745.15,17.01,-0.003822213,0.0028241756,0.8122886,0.5832363,-143.541,537.40094,8.321,-0.00010999999,-0.0010099999,2.15361
58.333332,2000,0,91.24,0.000002697398,0.000002697398,0.000002697398,0.99999994,0,0,0,0,0,0,1,1,0,0,0,false,false,true,-18.35,-4740.67,17.01,-0.0038491874,0.0027864124,0.8174877,0.57592636,-147.481,540.72095,8.321,-0.00010999999,-0.00091,2.17731
58.341667,2000,0,91.24,0.000002697398,0.000002697398,0.000002697398,0.99999994,0,0,0,0,0,0,1,1,0,0,0,false,false,true,-19.58,-4736.1597,17.01,-0.003876161,0.0027486486,0.82267845,0.5684869,-151.58101,543.93097,8.321,-0.00010999999,-0.00081,2.2009099
58.35,2000,0,91.24,0.000002697398,0.000002697398,0.000002697398,0.99999994,0,0,0,0,0,0,1,1,0,0,0,false,false,true,-20.84,-4731.63,17.01,-0.003903135,0.002710885,0.8278577,0.5609179,-155.83101,547.03094,8.321,-0.00010999999,-0.00081,2.22441
58.358334,2000,0,91.24,0.000002697398,0.000002697398,0.000002697398,0.99999994,0,0,0,0,0,0,1,1,0,0,0,false,false,true,-22.14,-4727.07,17.01,-0.0039301086,0.0026731214,0.8330218,0.55321956,-160.231,550.011,8.321,-0.00010999999,-0.00071,2.24771
58.366665,2000,0,91.24,0.000002697398,0.000002697398,0.000002697398,0.99999994,0,0,0,0,0,0,1,1,0,0,0,false,false,true,-23.48,-4722.4897,17.01,-0.003957083,0.002635358,0.8381677,0.5453917,-164.771,552.86096,8.321,-0.00010999999,-0.00071,2.27091
58.375,2000,0,91.24,0.000002697398,0.000002697398,0.000002697398,0.99999994,0,0,0,0,0,0,1,1,0,0,0,false,false,true,-24.85,-4717.88,17.01,-0.003984057,0.0025975944,0.8432921,0.5374343,-169.451,555.59094,8.321,-0.00010999999,-0.00061,2.29401
58.383335,2000,0,91.24,0.000002697398,0.000002697398,0.000002697398,0.99999994,0,0,0,0,0,0,1,1,0,0,0,false,false,true,-26.26,-4713.25,17.01,-0.004011031,0.0025598307,0.84839165,0.5293475,-174.271,558.18097,8.321,-0.00010999999,-0.00061,2.31691
58.391666,2000,0,91.24,0.000002697398,0.000002697398,0.000002697398,0.99999994,0,0,0,0,0,0,1,1,0,0,0,false,false,true,-27.71,-4708.6,17.01,-0.0040380047,0.0025220672,0.8534632,0.5211312,-179.231,560.641,8.321,-0.00010999999,-0.00051,2.33971
58.4,2000,0,91.24,0.000002697398,0.000002697398,0.000002697398,0.99999994,0,0,0,0,0,0,1,1,0,0,0,false,false,true,-29.199999,-4703.9297,17.01,-0.0040649786,0.0024843037,0.8585035,0.5127854,-184.321,562.96094,8.321,0,-0.00051,2.36241
58.408333,2000,0,91.24,0.000002697398,0.000002697398,0.000002697398,0.99999994,0,0,0,0,0,0,1,1,0,0,0,false,false,true,-30.74,-4699.2397,17.01,-0.0040919525,0.0024411452,0.86350936,0.50431013,-189.541,565.131,8.321,0,-0.00051,2.3849099
58.416668,2000,0,91.24,0.000002697398,0.000002697398,0.000002697398,0.99999994,0,0,0,0,0,0,1,1,0,0,0,false,false,true,-32.32,-4694.53,17.01,-0.004118927,0.0023979868,0.8684776,0.4957054,-194.891,567.15094,8.321,0,-0.00040999998,2.40731
58.425,2000,0,91.24,0.000002697398,0.000002697398,0.000002697398,0.99999994,0,0,0,0,0,0,1,1,0,0,0,false,false,true,-33.94,-4689.8,17.01,-0.0041459007,0.0023548284,0.8734049,0.48697123,-200.36101,569.02094,8.321,0,-0.00030999997,2.42961
58.433334,2000,0,91.24,0.000002697398,0.000002697398,0.000002697398,0.99999994,0,0,0,0,0,0,1,1,0,0,0,false,false,true,-35.61,-4685.06,17.01,-0.0041728746,0.00231167,0.8782912,0.47810218,-205.94101,570.73096,8.321,0,-0.00021,2.45181
58.441666,2000,0,91.24,0.000002697398,0.000002697398,0.000002697398,0.99999994,0,0,0,0,0,0,1,1,0,0,0,false,false,true,-37.329998,-4680.3,17.01,-0.004194454,0.0022685118,0.8831302,0.46910357,-211.641,572.28094,8.321,0,-0.00010999999,2.47381
58.45,2000,0,91.24,0.000002697398,0.000002697398,0.000002697398,0.99999994,0,0,0,0,0,0,1,1,0,0,0,false,false,true,-39.09,-4675.53,17.01,-0.004216033,0.0022253534,0.8879187,0.45997557,-217.44101,573.66095,8.321,0,-0.00010999999,2.49571
58.458332,2000,0,91.24,0.000002697398,0.000002697398,0.000002697398,0.99999994,0,0,0,0,0,0,1,1,0,0,0,false,false,true,-40.899998,-4670.75,17.01,-0.0042376122,0.002182195,0.8926536,0.45071802,-223.351,574.881,8.321,0,-0.00010999999,2.51751
58.466667,2000,0,91.24,0.000002697398,0.000002697398,0.000002697398,0.99999994,0,0,0,0,0,0,1,1,0,0,0,false,false,true,-42.76,-4665.96,17.01,-0.004259191,0.0021390363,0.89733154,0.44133103,-229.36101,575.92096,8.321,0,-0.00010999999,2.5392098
58.475,2000,0,91.24,0.000002697398,0.000002697398,0.000002697398,0.99999994,0,0,0,0,0,0,1,1,0,0,0,false,false,true,-44.67,-4661.1597,17.01,-0.0042807707,0.0020958781,0.9019497,0.43181467,-235.461,576.79095,8.321,0,-0.00010999999,2.56071
58.483334,2000,0,91.24,0.000002697398,0.000002697398,0.000002697398,0.99999994,0,0,0,0,0,0,1,1,0,0,0,false,false,true,-46.629997,-4656.35,17.01,-0.00430235,0.002047325,0.9065047,0.42216867,-241.651,577.48096,8.321,0,-0.00021,2.58211
58.491665,2000,0,91.24,0.000002697398,0.000002697398,0.000002697398,0.99999994,0,0,0,0,0,0,1,1,0,0,0,false,false,true,-48.64,-4651.54,17.01,-0.004323929,0.001998772,0.9109934,0.4123933,-247.931,577.99097,8.321,0,-0.00021,2.60341
58.5,2000,0,91.24,0.000002697398,0.000002697398,0.000002697398,0.99999994,0,0,0,0,0,0,1,1,0,0,0,false,false,true,-50.71,-4646.7197,17.01,-0.0043455088,0.0019502189,0.91541266,0.4024884,-254.291,578.311,8.321,0,-0.00021,2.62461
58.508335,2000,0,91.24,0.000002697398,0.000002697398,0.000002697398,0.99999994,0,0,0,0,0,0,1,1,0,0,0,false,false,true,-52.829998,-4641.9,17.01,-0.0043670875,0.0019016657,0.9197592,0.39245406,-260.721,578.451,8.321,0,-0.00021,2.6456099
58.516666,2000,0,91.24,0.000002697398,0.000002697398,0.000002697398,0.99999994,0,0,0,0,0,0,1,1,0,0,0,false,false,true,-55,-4637.08,17.01,-0.0043886667,0.0018531125,0.92402995,0.38229018,-267.221,578.40094,8.321,0,-0.00021,2.6665099
58.525,2000,0,91.24,0.000002697398,0.000002697398,0.000002697398,0.99999994,0,0,0,0,0,0,1,1,0,0,0,false,false,true,-57.23,-4632.26,17.01,-0.0044102455,0.0018045594,0.9282195,0.3720023,-273.79102,578.15094,8.321,0,-0.00021,2.68731
58.533333,2000,0,91.24,0.000002697398,0.000002697398,0.000002697398,0.99999994,0,0,0,0,0,0,1,1,0,0,0,false,false,true,-59.51,-4627.44,17.01,-0.004431825,0.0017560063,0.932327,0.3615849,-280.411,577.71094,8.321,0,-0.00021,2.70801
58.541668,2000,0,91.24,0.000002697398,0.000002697398,0.000002697398,0.99999994,0,0,0,0,0,0,1,1,0,0,0,false,false,true,-61.85,-4622.63,17.01,-0.004453404,0.0017074529,0.93634695,0.35104343,-287.091,577.071,8.321,0,-0.00021,2.72861
58.55,2000,0,91.24,0.000002697398,0.000002697398,0.000002697398,0.99999994,0,0,0,0,0,0,1,1,0,0,0,false,false,true,-64.24,-4617.82,17.01,-0.004474983,0.0016588998,0.94027656,0.34037784,-293.811,576.24097,8.321,0,-0.00010999999,2.74911
58.558334,2000,0,91.24,0.000002697398,0.000002697398,0.000002697398,0.99999994,0,0,0,0,0,0,1,1,0,0,0,false,false,true,-66.689995,-4613.02,17.01,-0.0044965628,0.0016049519,0.94411457,0.32958287,-300.581,575.21094,8.321,0,-0.00010999999,2.76941
58.566666,2000,0,91.24,0.000002697398,0.000002697398,0.000002697398,0.99999994,0,0,0,0,0,0,1,1,0,0,0,false,false,true,-69.189995,-4608.23,17.01,-0.0045127464,0.0015510038,0.94785386,0.31866905,-307.381,573.98096,8.321,0,0,2.78961
58.575,2000,0,91.24,0.000002697398,0.000002697398,0.000002697398,0.99999994,0,0,0,0,0,0,1,1,0,0,0,false,false,true,-71.75,-4603.4497,17.01,-0.0045289313,0.0014970559,0.9514936,0.30763134,-314.211,572.54095,8.321,0,0,2.80971
58.583332,2000,0,91.24,0.000002697398,0.000002697398,0.000002697398,0.99999994,0,0,0,0,0,0,1,1,0,0,0,false,false,true,-74.369995,-4598.6797,17.01,-0.0045451154,0.001443108,0.9550304,0.29646942,-321.071,570.90094,8.321,0,0,2.82971
58.591667,2000,0,91.24,0.000002697398,0.000002697398,0.000002697398,0.99999994,0,0,0,0,0,0,1,1,0,0,0,false,false,true,-77.049995,-4593.92,17.01,-0.0045613004,0.00138916,0.95845944,0.2851889,-327.951,569.061,8.321,0,0,2.8496099
58.6,2000,0,91.24,0.000002697398,0.000002697398,0.000002697398,0.99999994,0,0,0,0,0,0,1,1,0,0,0,false,false,true,-79.78,-4589.1797,17.01,-0.004577485,0.0013352121,0.96177775,0.27378964,-334.841,567.011,8.321,0,0,2.86941
58.608334,2000,0,91.24,0.000002697398,0.000002697398,0.000002697398,0.99999994,0,0,0,0,0,0,1,1,0,0,0,false,false,true,-82.57,-4584.4497,17.01,-0.004593669,0.001281264,0.9649822,0.2622717,-341.741,564.761,8.321,0,0,2.8891098
58.616665,2000,0,91.24,0.000002697398,0.000002697398,0.000002697398,0.99999994,0,0,0,0,0,0,1,1,0,0,0,false,false,true,-85.42,-4579.7397,17.01,-0.0046098526,0.001227316,0.96806973,0.25063503,-348.641,562.30096,8.321,0,0,2.90871
58.625,2000,0,91.24,0.000002697398,0.000002697398,0.000002697398,0.99999994,0,0,0,0,0,0,1,1,0,0,0,false,false,true,-88.33,-4575.05,17.01,-0.0046260376,0.0011733681,0.971036,0.2388852,-355.541,559.641,8.321,0,0,2.92821
58.633335,2000,0,91.24,0.000002697398,0.000002697398,0.000002697398,0.99999994,0,0,0,0,0,0,1,1,0,0,0,false,false,true,-91.29,-4570.39,17.01,-0.004642222,0.0011194202,0.97387785,0.22702196,-362.431,556.77094,8.321,0,0,2.94761
58.641666,2000,0,91.24,0.000002697398,0.000002697398,0.000002697398,0.99999994,0,0,0,0,0,0,1,1,0,0,0,false,false,true,-94.31,-4565.75,17.01,-0.0046530114,0.0010600775,0.9765923,0.21504551,-369.301,553.701,8.321,0.00010999999,0,2.96691
58.65,2000,0,91.24,0.000002697398,0.000002697398,0.000002697398,0.99999994,0,0,0,0,0,0,1,1,0,0,0,false,false,true,-97.39,-4561.14,17.01,-0.0046638013,0.0010007346,0.9791762,0.2029557,-376.151,550.43097,8.321,0.00010999999,0,2.98611
58.658333,2000,0,91.24,0.000002697398,0.000002697398,0.000002697398,0.99999994,0,0,0,0,0,0,1,1,0,0,0,false,false,true,-100.52,-4556.55,17.01,-0.004674591,0.000941392,0.9816255,0.19075806,-382.981,546.951,8.321,0.00010999999,0,3.00521
58.666668,2000,0,91.24,0.000002697398,0.000002697398,0.000002697398,0.99999994,0,0,0,0,0,0,1,1,0,0,0,false,false,true,-103.71,-4551.9897,17.01,-0.00468538,0.00088204903,0.98393685,0.17845242,-389.771,543.27094,8.321,0.00010999999,0,3.02421
58.675,2000,0,91.24,0.000002697398,0.000002697398,0.000002697398,0.99999994,0,0,0,0,0,0,1,1,0,0,0,false,false,true,-106.96,-4547.46,17.01,-0.0046961694,0.0008227063,0.9861075,0.16603899,-396.531,539.391,8.321,0.00010999999,0,3.04311
58.683334,2000,0,91.24,0.000002697398,0.000002697398,0.000002697398,0.99999994,0,0,0,0,0,0,1,1,0,0,0,false,false,true,-110.259995,-4542.96,17.01,-0.00470696,0.0007633637,0.98813355,0.15352301,-403.241,535.311,8.321,0.00010999999,0,3.06191
58.691666,2000,0,91.24,0.000002697398,0.000002697398,0.000002697398,0.99999994,0,0,0,0,0,0,1,1,0,0,0,false,false,true,-113.619995,-4538.5,17.01,-0.0047177486,0.00070402084,0.9900116,0.14090447,-409.911,531.03094,8.321,0.00010999999,0,3.08061
58.7,2000,0,91.24,0.000002697398,0.000002697398,0.000002697398,0.99999994,0,0,0,0,0,0,1,1,0,0,0,false,false,true,-117.04,-4534.07,17.01,-0.0047285384,0.00064467813,0.9917389,0.12818356,-416.521,526.55096,8.321,0.00010999999,0,3.09921
58.708332,2000,0,91.24,0.000002697398,0.000002697398,0.000002697398,0.99999994,0,0,0,0,0,0,1,1,0,0,0,false,false,true,-120.509995,-4529.6797,17.01,-0.0047339336,0.00058533537,0.9933116,0.11536544,-423.07098,521.881,8.321,0.00010999999,0,3.1177099
58.716667,2000,0,91.24,0.000002697398,0.000002697398,0.000002697398,0.99999994,0,0,0,0,0,0,1,1,0,0,0,false,false,true,-124.04,-4525.33,17.01,-0.0047393288,0.00052599265,0.99472666,0.102450304,-429.561,517.011,8.321,0.00010999999,0,3.13621
58.725,2000,0,91.24,0.000002697398,0.000002697398,0.000002697398,0.99999994,0,0,0,0,0,0,1,1,0,0,0,false,false,true,-127.619995,-4521.02,17.01,-0.0047447234,0.0004612551,0.99598044,0.08944336,-435.981,511.951,8.321,0.00010999999,0,3.15461
58.733334,2000,0,91.24,0.000002697398,0.000002697398,0.000002697398,0.99999994,0,0,0,0,0,0,1,1,0,0,0,false,false,true,-131.25,-4516.75,17.01,-0.004750118,0.00039651754,0.9970701,0.07634471,-442.331,506.701,8.321,0.00010999999,0,3.17291
58.741665,2000,0,91.24,0.000002697398,0.000002697398,0.000002697398,0.99999994,0,0,0,0,0,0,1,1,0,0,0,false,false,true,-134.94,-4512.53,17.01,-0.004755513,0.00033177997,0.99799234,0.06315443,-448.60098,501.261,8.321,0.00010999999,0,3.19111
58.75,2000,0,91.24,0.000002697398,0.000002697398,0.000002697398,0.99999994,0,0,0,0,0,0,1,1,0,0,0,false,false,true,-138.68,-4508.35,17.01,-0.004760908,0.00026704243,0.99874395,0.04987776,-454.791,495.641,8.321,0.00010999999,0,3.2093098
58.758335,2000,0,91.24,0.000002697398,0.000002697398,0.000002697398,0.99999994,0,0,0,0,0,0,1,1,0,0,0,false,false,true,-142.47,-4504.2197,17.01,-0.004766302,0.00020230486,0.99932146,0.03652024,-460.891,489.831,8.321,0,0,3.2274098
58.766666,2000,0,91.24,0.000002697398,0.000002697398,0.000002697398,0.99999994,0,0,0,0,0,0,1,1,0,0,0,false,false,true,-146.31,-4500.14,17.01,-0.004766302,0.0001375673,0.9997223,0.023076324,-466.901,483.841,8.321,0,0,3.24541
58.775,2000,0,91.24,0.000002697398,0.000002697398,0.000002697398,0.99999994,0,0,0,0,0,0,1,1,0,0,0,false,false,true,-150.2,-4496.11,17.01,-0.0047663026,0.00007282975,0.99994296,0.009556882,-472.82098,477.681,8.321,0,0,3.26331
58.783333,2000,0,91.24,0.000002697398,0.000002697398,0.000002697398,0.99999994,0,0,0,0,0,0,1,1,0,0,0,false,false,true,-154.14,-4492.13,17.01,-0.0047663026,0.000008092195,0.99998045,-0.004038005,-478.641,471.341,8.321,0,0,3.28121
58.791668,2000,0,91.24,0.000002697398,0.000002697398,0.000002697398,0.99999994,0,0,0,0,0,0,1,1,0,0,0,false,false,true,-158.12999,-4488.1997,17.01,-0.004766302,-0.00005664536,0.9998318,-0.017708503,-484.35098,464.831,8.321,0,0,3.29901
58.8,2000,0,91.24,0.000002697398,0.000002697398,0.000002697398,0.99999994,0,0,0,0,0,0,1,1,0,0,0,false,false,true,-162.17,-4484.33,17.01,-0.004766302,-0.00012138292,0.99949396,-0.03144909,-489.951,458.151,8.321,0,0,3.31681
58.808334,2000,0,91.24,0.000002697398,0.000002697398,0.000002697398,0.99999994,0,0,0,0,0,0,1,1,0,0,0,false,false,true,-166.25,-4480.51,17.01,-0.0047663026,-0.00018612048,0.99896383,-0.045259815,-495.441,451.301,8.321,0,0,3.3345098
58.816666,2000,0,91.24,0.000002697398,0.000002697398,0.000002697398,0.99999994,0,0,0,0,0,0,1,1,0,0,0,false,false,true,-170.37999,-4476.75,17.01,-0.004760908,-0.00025085805,0.99823856,-0.059135273,-500.82098,444.281,8.321,0,0,3.35211
58.825,2000,0,91.24,0.000002697398,0.000002697398,0.000002697398,0.99999994,0,0,0,0,0,0,1,1,0,0,0,false,false,true,-174.55,-4473.05,17.01,-0.004755513,-0.00031559556,0.99731535,-0.07307011,-506.081,437.10098,8.321,0,0,3.36971
58.833332,2000,0,91.24,0.000002697398,0.000002697398,0.000002697398,0.99999994,0,0,0,0,0,0,1,1,0,0,0,false,false,true,-178.76999,-4469.4097,17.01,-0.0047501177,-0.00038033313,0.99619126,-0.08706425,-511.221,429.761,8.321,0,0,3.38721
58.841667,2000,0,91.24,0.000002697398,0.000002697398,0.000002697398,0.99999994,0,0,0,0,0,0,1,1,0,0,0,false,false,true,-183.03,-4465.83,17.01,-0.0047447225,-0.00044507062,0.99486345,-0.101112336,-516.24097,422.261,8.321,0,0,3.4047098
58.85,2000,0,91.24,0.000002697398,0.000002697398,0.000002697398,0.99999994,0,0,0,0,0,0,1,1,0,0,0,false,false,true,-187.33,-4462.31,17.01,-0.0047393283,-0.0005098082,0.99332917,-0.115214385,-521.131,414.611,8.321,0,0,3.4221098
58.858334,2000,0,91.24,0.000002697398,0.000002697398,0.000002697398,0.99999994,0,0,0,0,0,0,1,1,0,0,0,false,false,true,-191.67,-4458.85,17.01,-0.0047339336,-0.00057994056,0.9915855,-0.12936501,-525.891,406.811,8.321,0,0,3.4395099
58.866665,2000,0,91.24,0.000002697398,0.000002697398,0.000002697398,0.99999994,0,0,0,0,0,0,1,1,0,0,0,false,false,true,-196.05,-4455.46,17.01,-0.004723144,-0.000650073,0.9896295,-0.14356418,-530.511,398.861,8.321,0,0.00010999999,3.45681
58.875,2000,0,91.24,0.000002697398,0.000002697398,0.000002697398,0.99999994,0,0,0,0,0,0,1,1,0,0,0,false,false,true,-200.47,-4452.14,17.01,-0.004712355,-0.0007202053,0.98745936,-0.15780109,-535.001,390.761,8.321,0,0.00010999999,3.47411
58.883335,2000,0,91.24,0.000002697398,0.000002697398,0.000002697398,0.99999994,0,0,0,0,0,0,1,1,0,0,0,false,false,true,-204.93,-4448.88,17.01,-0.0047015646,-0.0007903376,0.98507214,-0.1720758,-539.35095,382.521,8.321,0,0.00010999999,3.49131
58.891666,2000,0,91.24,0.000002697398,0.000002697398,0.000002697398,0.99999994,0,0,0,0,0,0,1,1,0,0,0,false,false,true,-209.42,-4445.69,17.01,-0.0046907747,-0.0008604699,0.98246443,-0.18638821,-543.561,374.141,8.321,0,0.00010999999,3.5085099
58.9,2000,0,91.24,0.000002697398,0.000002697398,0.000002697398,0.99999994,0,0,0,0,0,0,1,1,0,0,0,false,false,true,-213.95,-4442.57,17.01,-0.0046745907,-0.0009306023,0.9796354,-0.20072764,-547.621,365.621,8.321,0,0.00010999999,3.52561
58.908333,2000,0,91.24,0.000002697398,0.000002697398,0.000002697398,0.99999994,0,0,0,0,0,0,1,1,0,0,0,false,false,true,-218.51,-4439.52,17.01,-0.0046584057,-0.0010007345,0.9765816,-0.21509399,-551.54095,356.961,8.321,0,0.00010999999,3.5427098
58.916668,2000,0,91.24,0.000002697398,0.000002697398,0.000002697398,0.99999994,0,0,0,0,0,0,1,1,0,0,0,false,false,true,-223.11,-4436.55,17.01,-0.004642222,-0.001070867,0.9732999,-0.22948742,-555.311,348.171,8.321,0,0.00010999999,3.55971
58.925,2000,0,91.24,0.000002697398,0.000002697398,0.000002697398,0.99999994,0,0,0,0,0,0,1,1,0,0,0,false,false,true,-227.73999,-4433.65,17.01,-0.0046260376,-0.0011409994,0.9697894,-0.24389696,-558.92096,339.241,8.321,-0.00010999999,0.00010999999,3.57671
58.933334,2000,0,91.24,0.000002697398,0.000002697398,0.000002697398,0.99999994,0,0,0,0,0,0,1,1,0,0,0,false,false,true,-232.4,-4430.82,17.01,-0.004609853,-0.0012111317,0.96604687,-0.2583227,-562.381,330.181,8.321,-0.00021,0.00010999999,3.5936098
58.941666,2000,0,91.24,0.000002697398,0.000002697398,0.000002697398,0.99999994,0,0,0,0,0,0,1,1,0,0,0,false,false,true,-237.09,-4428.07,17.01,-0.004588274,-0.001281264,0.96207047,-0.27275923,-565.68097,320.991,8.321,-0.00021,0.00010999999,3.6105099
58.95,2000,0,91.24,0.000002697398,0.000002697398,0.000002697398,0.99999994,0,0,0,0,0,0,1,1,0,0,0,false,false,true,-241.79999,-4425.39,17.01,-0.0045666946,-0.0013513964,0.9578584,-0.28720114,-568.831,311.671,8.321,-0.00021,0,3.62731
58.958332,2000,0,91.24,0.000002697398,0.000002697398,0.000002697398,0.99999994,0,0,0,0,0,0,1,1,0,0,0,false,false,true,-246.54,-4422.79,17.01,-0.0045451154,-0.0014215288,0.95340896,-0.30164307,-571.811,302.231,8.321,-0.00030999997,0,3.64411
58.966667,2000,0,91.24,0.000002697398,0.000002697398,0.000002697398,0.99999994,0,0,0,0,0,0,1,1,0,0,0,false,false,true,-251.31,-4420.27,17.01,-0.004523536,-0.0014916611,0.94871885,-0.316085,-574.631,292.661,8.321,-0.00030999997,0,3.66081
58.975,2000,0,91.24,0.000002697398,0.000002697398,0.000002697398,0.99999994,0,0,0,0,0,0,1,1,0,0,0,false,false,true,-256.1,-4417.83,17.01,-0.0045019574,-0.0015617935,0.94378823,-0.33051613,-577.28094,282.971,8.321,-0.00040999998,0,3.67741
58.983334,2000,0,91.24,0.000002697398,0.000002697398,0.000002697398,0.99999994,0,0,0,0,0,0,1,1,0,0,0,false,false,true,-260.91,-4415.4697,17.01,-0.004474983,-0.001626531,0.9386139,-0.34493646,-579.77094,273.151,8.321,-0.00040999998,0,3.69391
58.991665,2000,0,91.24,0.000002697398,0.000002697398,0.000002697398,0.99999994,0,0,0,0,0,0,1,1,0,0,0,false,false,true,-265.74,-4413.19,17.01,-0.004448009,-0.0016912686,0.9331943,-0.3593406,-582.081,263.211,8.321,-0.00040999998,0,3.71031
59,2000,0,91.24,0.000002697398,0.000002697398,0.000002697398,0.99999994,0,0,0,0,0,0,1,1,0,0,0,false,false,true,-270.59,-4411,17.01,-0.0044210358,-0.0017560063,0.927528,-0.37372327,-584.22095,253.151,8.321,-0.00040999998,0,3.72661
59.008335,2000,0,91.24,0.000002697398,0.000002697398,0.000002697398,0.99999994,0,0,0,0,0,0,1,1,0,0,0,false,false,true,-275.46,-4408.89,17.01,-0.0043940614,-0.0018207437,0.9216138,-0.38807884,-586.121,242.991,8.321,-0.00030999997,0,3.74451
59.016666,2000,0,91.24,0.000002697398,0.000002697398,0.000002697398,0.99999994,0,0,0,0,0,0,1,1,0,0,0,false,false,true,-280.34,-4406.87,17.01,-0.0043670875,-0.0018854813,0.91544825,-0.40240744,-587.77094,232.751,8.321,-0.00030999997,0,3.76401
59.025,2000,0,91.24,0.000002697398,0.000002697398,0.000002697398,0.99999994,0,0,0,0,0,0,1,1,0,0,0,false,false,true,-285.24,-4404.9297,17.01,-0.0043347185,-0.0019502188,0.9090249,-0.41671455,-589.17096,222.431,8.321,-0.00021,0,3.78521
59.033333,2000,0,91.24,0.000002697398,0.000002697398,0.000002697398,0.99999994,0,0,0,0,0,0,1,1,0,0,0,false,false,true,-290.15,-4403.08,17.01,-0.00430235,-0.0020149562,0.90233934,-0.431,-590.321,212.031,8.321,-0.00010999999,0,3.8080099
59.041668,2000,0,91.24,0.000002697398,0.000002697398,0.000002697398,0.99999994,0,0,0,0,0,0,1,1,0,0,0,false,false,true,-295.07,-4401.31,17.01,-0.004269981,-0.0020850885,0.8953867,-0.4452639,-591.21094,201.571,8.321,-0.00010999999,0,3.8324099
59.05,2000,0,91.24,0.000002697398,0.000002697398,0.000002697398,0.99999994,0,0,0,0,0,0,1,1,0,0,0,false,false,true,-300,-4399.63,17.01,-0.004237612,-0.0021552208,0.88816166,-0.45950618,-591.85095,191.041,8.321,-0.00010999999,0,3.85851
59.058334,2000,0,91.24,0.000002697398,0.000002697398,0.000002697398,0.99999994,0,0,0,0,0,0,1,1,0,0,0,false,false,true,-304.93,-4398.04,17.01,-0.0041998485,-0.0022199585,0.88065886,-0.47372696,-592.24097,180.451,8.321,-0.00010999999,0,3.8861098
59.066666,2000,0,91.24,0.000002697398,0.000002697398,0.000002697398,0.99999994,0,0,0,0,0,0,1,1,0,0,0,false,false,true,-309.87,-4396.54,17.01,-0.0041620857,-0.0022846963,0.872872,-0.48792613,-592.371,169.811,8.321,0,0,3.91531
59.075,2000,0,91.24,0.000002697398,0.000002697398,0.000002697398,0.99999994,0,0,0,0,0,0,1,1,0,0,0,false,false,true,-314.81,-4395.12,17.01,-0.0041243215,-0.0023548284,0.8647975,-0.50209826,-592.24097,159.121,8.321,0,0,3.94611
59.083332,2000,0,91.24,0.000002697398,0.000002697398,0.000002697398,0.99999994,0,0,0,0,0,0,1,1,0,0,0,false,false,true,-319.75,-4393.79,17.01,-0.004086558,-0.0024249607,0.85642534,-0.5162488,-591.85095,148.391,8.321,0,-0.00010999999,3.97851
59.091667,2000,0,91.24,0.000002697398,0.000002697398,0.000002697398,0.99999994,0,0,0,0,0,0,1,1,0,0,0,false,false,true,-324.68,-4392.55,17.01,-0.004048795,-0.0024896986,0.8477513,-0.53037256,-591.201,137.621,8.321,0,-0.00010999999,4.01251
59.1,2000,0,91.24,0.000002697398,0.000002697398,0.000002697398,0.99999994,0,0,0,0,0,0,1,1,0,0,0,false,false,true,-329.61,-4391.4,17.01,-0.004005636,-0.002554436,0.83876735,-0.5444691,-590.29095,126.821,8.321,0,-0.00010999999,4.04801
59.108334,2000,0,91.24,0.000002697398,0.000002697398,0.000002697398,0.99999994,0,0,0,0,0,0,1,1,0,0,0,false,false,true,-334.53,-4390.34,17.01,-0.0039624777,-0.0026191734,0.82946473,-0.5585388,-589.121,115.991,8.321,0,-0.00010999999,4.0851097
59.116665,2000,0,91.24,0.000002697398,0.000002697398,0.000002697398,0.99999994,0,0,0,0,0,0,1,1,0,0,0,false,false,true,-339.44,-4389.37,17.01,-0.0039193192,-0.002683911,0.8198376,-0.57257617,-587.67096,105.141,8.321,0,-0.00010999999,4.12361
59.125,2000,0,91.24,0.000002697398,0.000002697398,0.000002697398,0.99999994,0,0,0,0,0,0,1,1,0,0,0,false,false,true,-344.34,-4388.4897,17.01,-0.0038707664,-0.0027486486,0.8098804,-0.5865757,-585.85095,94.281,8.321,0,-0.00010999999,4.1627097
59.133335,2000,0,91.24,0.000002697398,0.000002697398,0.000002697398,0.99999994,0,0,0,0,0,0,1,1,0,0,0,false,false,true,-349.22,-4387.6997,17.01,-0.003822213,-0.0028133863,0.7995865,-0.60053205,-583.66095,83.431,8.321,0,0,4.20231
59.141666,2000,0,91.24,0.000002697398,0.000002697398,0.000002697398,0.99999994,0,0,0,0,0,0,1,1,0,0,0,false,false,true,-354.08,-4387,17.01,-0.00377366,-0.0028781237,0.7889492,-0.61443996,-581.11096,72.590996,8.321,0,0,4.24251
59.15,2000,0,91.24,0.000002697398,0.000002697398,0.000002697398,0.99999994,0,0,0,0,0,0,1,1,0,0,0,false,false,true,-358.91998,-4386.39,17.01,-0.003719712,-0.0029428613,0.7779659,-0.62828845,-578.191,61.781,8.321,0,0,4.28331
59.158333,2000,0,91.24,0.000002697398,0.000002697398,0.000002697398,0.99999994,0,0,0,0,0,0,1,1,0,0,0,false,false,true,-363.74,-4385.87,17.01,-0.003665764,-0.003007599,0.7666294,-0.6420722,-574.891,51.010998,8.321,0.00010999999,0,4.32471
59.166668,2000,0,91.24,0.000002697398,0.000002697398,0.000002697398,0.99999994,0,0,0,0,0,0,1,1,0,0,0,false,false,true,-368.53,-4385.44,17.01,-0.0036118163,-0.0030723365,0.75493675,-0.65578043,-571.22095,40.301,8.321,0.00010999999,0,4.36681
59.175,2000,0,91.24,0.000002697398,0.000002697398,0.000002697398,0.99999994,0,0,0,0,0,0,1,1,0,0,0,false,false,true,-373.28998,-4385.1,17.01,-0.003557868,-0.003137074,0.7428799,-0.6694077,-567.18097,29.651,8.321,0.00010999999,0.00010999999,4.40961
59.183334,2000,0,91.24,0.000002697398,0.000002697398,0.000002697398,0.99999994,0,0,0,0,0,0,1,1,0,0,0,false,false,true,-378.02,-4384.85,17.01,-0.0034985254,-0.0032018116,0.7304559,-0.68294334,-562.761,19.110998,8.321,0.00010999999,0.00021,4.45301
59.191666,2000,0,91.24,0.000002697398,0.000002697398,0.000002697398,0.99999994,0,0,0,0,0,0,1,1,0,0,0,false,false,true,-382.71,-4384.69,17.01,-0.0034391829,-0.0032665492,0.71766096,-0.6963765,-557.941,8.761001,8.321,0.00010999999,0.00021,4.49671
59.2,2000,0,91.24,0.000002697398,0.000002697398,0.000002697398,0.99999994,0,0,0,0,0,0,1,1,0,0,0,false,false,true,-387.36,-4384.62,17.01,0.003374445,0.0033312866,-0.70449024,0.7096977,-552.77094,-1.271,8.321,0.00010999999,0.00030999997,4.5398097
59.208332,2000,0,91.24,0.000002697398,0.000002697398,0.000002697398,0.99999994,0,0,0,0,0,0,1,1,0,0,0,false,false,true,-391.97,-4384.63,17.01,0.0033097074,0.0033960242,-0.6909385,0.7228979,-547.27094,-10.981,8.321,0.00021,0.00030999997,4.58221
59.216667,2000,0,91.24,0.000002697398,0.000002697398,0.000002697398,0.99999994,0,0,0,0,0,0,1,1,0,0,0,false,false,true,-396.53,-4384.7197,17.01,0.0032449698,0.0034607616,-0.677009,0.73595935,-541.46094,-20.360998,8.321,0.00021,0.00030999997,4.62391
59.225,2000,0,91.24,0.000002697398,0.000002697398,0.000002697398,0.99999994,0,0,0,0,0,0,1,1,0,0,0,false,false,true,-401.03998,-4384.89,17.01,0.0031748374,0.0035254993,-0.6627074,0.7488633,-535.36096,-29.401,8.321,0.00021,0.00030999997,4.66491
59.233334,2000,0,91.24,0.000002697398,0.000002697398,0.000002697398,0.99999994,0,0,0,0,0,0,1,1,0,0,0,false,false,true,-405.5,-4385.13,17.01,0.0031047051,0.003590237,-0.6480281,0.76160157,-528.98096,-38.091,8.321,0.00021,0.00030999997,4.70511
59.241665,2000,0,91.24,0.000002697398,0.000002697398,0.000002697398,0.99999994,0,0,0,0,0,0,1,1,0,0,0,false,false,true,-409.91,-4385.4497,17.01,0.0030345726,0.0036495791,-0.63297105,0.77416074,-522.35095,-46.420998,8.321,0.00021,0.00030999997,4.7445097
59.25,2000,0,91.24,0.000002697398,0.000002697398,0.000002697398,0.99999994,0,0,0,0,0,0,1,1,0,0,0,false,false,true,-414.25998,-4385.84,17.01,0.0029590456,0.0037089223,-0.61754197,0.7865235,-515.49097,-54.380997,8.321,0.00021,0.00040999998,4.78301
59.258335,2000,0,91.24,0.000002697398,0.000002697398,0.000002697398,0.99999994,0,0,0,0,0,0,1,1,0,0,0,false,false,true,-418.56,-4386.29,17.01,0.0028835186,0.0037682652,-0.6017459,0.7986734,-508.421,-61.970997,8.321,0.00021,0.00040999998,4.82061
59.266666,2000,0,91.24,0.000002697398,0.000002697398,0.000002697398,0.99999994,0,0,0,0,0,0,1,1,0,0,0,false,false,true,-422.8,-4386.81,17.01,0.0028079913,0.003827608,-0.58558303,0.81059843,-501.171,-69.181,8.321,0.00021,0.00051,4.8572097
59.275,2000,0,91.24,0.000002697398,0.000002697398,0.000002697398,0.99999994,0,0,0,0,0,0,1,1,0,0,0,false,false,true,-426.97998,-4387.39,17.01,0.0027270694,0.0038869507,-0.5690588,0.822283,-493.751,-76.020996,8.321,0.00021,0.00051,4.89281
59.283333,2000,0,91.24,0.000002697398,0.000002697398,0.000002697398,0.99999994,0,0,0,0,0,0,1,1,0,0,0,false,false,true,-431.09,-4388.02,17.01,0.0026461475,0.003946293,-0.5521783,0.8337124,-486.191,-82.480995,8.321,0.00021,0.00051,4.92731
59.291668,2000,0,91.24,0.000002697398,0.000002697398,0.000002697398,0.99999994,0,0,0,0,0,0,1,1,0,0,0,false,false,true,-435.13998,-4388.71,17.01,0.0025652256,0.004000241,-0.5349473,0.844872,-478.511,-88.571,8.321,0.00021,0.00051,4.96071
59.3,2000,0,91.24,0.000002697398,0.000002697398,0.000002697398,0.99999994,0,0,0,0,0,0,1,1,0,0,0,false,false,true,-439.13,-4389.4497,17.01,0.002484304,0.0040541897,-0.51737106,0.85574794,-470.731,-94.291,8.321,0.00021,0.00061,4.99291
59.308334,2000,0,91.24,0.000002697398,0.000002697398,0.000002697398,0.99999994,0,0,0,0,0,0,1,1,0,0,0,false,false,true,-443.05,-4390.2397,17.01,0.0023979868,0.004108137,-0.49946022,0.8663237,-462.881,-99.641,8.321,0.00021,0.00061,5.02381
59.316666,2000,0,91.24,0.000002697398,0.000002697398,0.000002697398,0.99999994,0,0,0,0,0,0,1,1,0,0,0,false,false,true,-446.91,-4391.07,17.01,0.0023116702,0.0041620857,-0.4812204,0.8765867,-454.971,-104.641,8.321,0.00021,0.00061,5.05331
59.325,2000,0,91.24,0.000002697398,0.000002697398,0.000002697398,0.99999994,0,0,0,0,0,0,1,1,0,0,0,false,false,true,-450.69998,-4391.94,17.01,0.0022253534,0.0042106383,-0.4626568,0.8865246,-447.031,-109.291,8.321,0.00010999999,0.00061,5.08131
59.333332,2000,0,91.24,0.000002697398,0.000002697398,0.000002697398,0.99999994,0,0,0,0,0,0,1,1,0,0,0,false,false,true,-454.43,-4392.85,17.01,0.0021336416,0.004259191,-0.44378564,0.89612013,-439.041,-113.531,8.321,0,0.00071,5.1058097
59.341667,2000,0,91.24,0.000002697398,0.000002697398,0.000002697398,0.99999994,0,0,0,0,0,0,1,1,0,0,0,false,false,true,-458.09,-4393.8,17.01,0.00204193,0.004307744,-0.42462325,0.9053574,-431.031,-117.361,8.321,0,0.00081,5.12661
59.35,2000,0,91.24,0.000002697398,0.000002697398,0.000002697398,0.99999994,0,0,0,0,0,0,1,1,0,0,0,false,false,true,-461.68,-4394.78,17.01,0.0019502189,0.0043509034,-0.40519118,0.9142195,-423.031,-120.800995,8.321,0,0.00081,5.14361
59.358334,2000,0,91.24,0.000002697398,0.000002697398,0.000002697398,0.99999994,0,0,0,0,0,0,1,1,0,0,0,false,false,true,-465.21,-4395.79,17.01,0.0018531126,0.004394062,-0.38550553,0.9226932,-415.081,-123.861,8.321,0,0.00091,5.1567097
59.366665,2000,0,91.24,0.000002697398,0.000002697398,0.000002697398,0.99999994,0,0,0,0,0,0,1,1,0,0,0,false,false,true,-468.66998,-4396.82,17.01,0.0017560063,0.0044372203,-0.36559325,0.93076247,-407.111,-126.58099,8.321,0,0.00091,5.16561
59.375,2000,0,91.24,0.000002697398,0.000002697398,0.000002697398,0.99999994,0,0,0,0,0,0,1,1,0,0,0,false,false,true,-472.06,-4397.87,17.01,0.0016588998,0.004474983,-0.34547594,0.9384154,-399.141,-128.981,8.321,0,0.00081,5.17021
59.383335,2000,0,91.24,0.000002697398,0.000002697398,0.000002697398,0.99999994,0,0,0,0,0,0,1,1,0,0,0,false,false,true,-475.38998,-4398.94,17.01,0.0015617935,0.004512747,-0.32518065,0.9456398,-391.191,-131.071,8.321,0,0.00081,5.1704097
59.391666,2000,0,91.24,0.000002697398,0.000002697398,0.000002697398,0.99999994,0,0,0,0,0,0,1,1,0,0,0,false,false,true,-478.65,-4400.03,17.01,0.001464687,0.00455051,-0.3047343,0.95242524,-383.291,-132.851,8.321,-0.00010999999,0.00071,5.16611
59.4,2000,0,91.24,0.000002697398,0.000002697398,0.000002697398,0.99999994,0,0,0,0,0,0,1,1,0,0,0,false,false,true,-481.84,-4401.14,17.01,0.001367581,0.0045828796,-0.28416392,0.9587638,-375.471,-134.341,8.321,-0.00021,0.00061,5.15701
59.408333,2000,0,91.24,0.000002697398,0.000002697398,0.000002697398,0.99999994,0,0,0,0,0,0,1,1,0,0,0,false,false,true,-484.97,-4402.26,17.01,0.0012650797,0.004615248,-0.26349634,0.9646485,-367.761,-135.561,8.311,-0.00021,0.00061,5.1427097
59.416668,2000,0,91.24,0.000002697398,0.000002697398,0.000002697398,0.99999994,0,0,0,0,0,0,1,1,0,0,0,false,false,true,-488.03,-4403.39,17.01,0.0011625786,0.004642222,-0.24276945,0.97007215,-359.941,-136.55101,8.311,-0.00030999997,0.00051,5.1286097
59.425,2000,0,91.24,0.000002697398,0.000002697398,0.000002697398,0.99999994,0,0,0,0,0,0,1,1,0,0,0,false,false,true,-491.03,-4404.53,17.01,0.0010600776,0.0046691964,-0.22198324,0.9750387,-352.041,-137.291,8.311,-0.00030999997,0.00040999998,5.1146097
59.433334,2000,0,91.24,0.000002697398,0.000002697398,0.000002697398,0.99999994,0,0,0,0,0,0,1,1,0,0,0,false,false,true,-493.96,-4405.67,17.01,0.0009575763,0.004690775,-0.20115383,0.9795479,-344.081,-137.781,8.311,-0.00040999998,0.00030999997,5.10071
59.441666,2000,0,91.24,0.000002697398,0.000002697398,0.000002697398,0.99999994,0,0,0,0,0,0,1,1,0,0,0,false,false,true,-496.83,-4406.82,17.01,0.0008550752,0.0047123544,-0.18029206,0.9836014,-336.071,-138.011,8.311,-0.00040999998,0.00021,5.08691
59.45,2000,0,91.24,0.000002697398,0.000002697398,0.000002697398,0.99999994,0,0,0,0,0,0,1,1,0,0,0,false,false,true,-499.62997,-4407.9697,17.01,0.00075257407,0.0047285384,-0.15940332,0.98720187,-328.031,-137.981,8.311,-0.00040999998,0.00010999999,5.07331
59.458332,2000,0,91.24,0.000002697398,0.000002697398,0.000002697398,0.99999994,0,0,0,0,0,0,1,1,0,0,0,false,false,true,-502.36,-4409.12,17.01,0.00065007294,0.004744723,-0.13849844,0.990351,-319.971,-137.69101,8.311,-0.00040999998,0,5.06001
59.466667,2000,0,91.24,0.000002697398,0.000002697398,0.000002697398,0.99999994,0,0,0,0,0,0,1,1,0,0,0,false,false,true,-505.03,-4410.27,17.01,0.0005475718,0.004755513,-0.11758814,0.9930509,-311.901,-137.131,8.311,-0.00040999998,0,5.04711
59.475,2000,0,91.24,0.000002697398,0.000002697398,0.000002697398,0.99999994,0,0,0,0,0,0,1,1,0,0,0,false,false,true,-507.62997,-4411.4097,17.01,0.00044507068,0.004766302,-0.096677825,0.99530417,-303.821,-136.30101,8.311,-0.00040999998,-0.00010999999,5.03471
59.483334,2000,0,91.24,0.000002697398,0.000002697398,0.000002697398,0.99999994,0,0,0,0,0,0,1,1,0,0,0,false,false,true,-510.16,-4412.55,17.01,0.00034256955,0.004771697,-0.0757783,0.99711317,-295.751,-135.201,8.311,-0.00040999998,-0.00010999999,5.02301
59.491665,2000,0,91.24,0.000002697398,0.000002697398,0.000002697398,0.99999994,0,0,0,0,0,0,1,1,0,0,0,false,false,true,-512.62,-4413.6797,17.01,0.00024006843,0.004777092,-0.054894958,0.9984806,-287.691,-133.83101,8.311,-0.00030999997,-0.00021,5.0121098
59.5,2000,0,91.24,0.000002697398,0.000002697398,0.000002697398,0.99999994,0,0,0,0,0,0,1,1,0,0,0,false,false,true,-515.01996,-4414.79,17.01,0.0001375673,0.0047824867,-0.034033198,0.9994092,-279.651,-132.19101,8.311,-0.00021,-0.00021,5.0022097
59.508335,2000,0,91.24,0.000002697398,0.000002697398,0.000002697398,0.99999994,0,0,0,0,0,0,1,1,0,0,0,false,false,true,-517.35,-4415.89,17.01,0.000035066176,0.004782487,-0.013198412,0.9999014,-271.631,-130.27101,8.311,-0.00010999999,-0.00030999997,4.99351
59.516666,2000,0,91.24,0.000002697398,0.000002697398,0.000002697398,0.99999994,0,0,0,0,0,0,1,1,0,0,0,false,false,true,-519.61,-4416.98,17.01,-0.00006743496,0.004782487,0.0076093604,0.9999596,-263.641,-128.071,8.311,0,-0.00030999997,4.9861097
59.525,2000,0,91.24,0.000002697398,0.000002697398,0.000002697398,0.99999994,0,0,0,0,0,0,1,1,0,0,0,false,false,true,-521.81,-4418.05,17.01,-0.00016454128,0.004777092,0.028379409,0.99958575,-255.691,-125.58099,8.311,0,-0.00040999998,4.98021
59.533333,2000,0,91.24,0.000002697398,0.000002697398,0.000002697398,0.99999994,0,0,0,0,0,0,1,1,0,0,0,false,false,true,-523.94,-4419.1,17.01,-0.0002616476,0.004771697,0.049111694,0.9987818,-247.791,-122.800995,8.311,0,-0.00040999998,4.97611
59.541668,2000,0,91.24,0.000002697398,0.000002697398,0.000002697398,0.99999994,0,0,0,0,0,0,1,1,0,0,0,false,false,true,-526,-4420.12,17.01,-0.0003587539,0.004760907,0.06980621,0.997549,-239.941,-119.72099,8.311,0,-0.00040999998,4.97391
59.55,2000,0,91.24,0.000002697398,0.000002697398,0.000002697398,0.99999994,0,0,0,0,0,0,1,1,0,0,0,false,false,true,-528,-4421.12,17.01,-0.00045586022,0.004750117,0.09046297,0.99588823,-232.151,-116.340996,8.311,0,-0.00040999998,4.9738097
59.558334,2000,0,91.24,0.000002697398,0.000002697398,0.000002697398,0.99999994,0,0,0,0,0,0,1,1,0,0,0,false,false,true,-529.93,-4422.09,17.01,-0.0005529666,0.0047393283,0.11108197,0.99379975,-224.431,-112.65099,8.311,0,-0.00040999998,4.97611
59.566666,2000,0,91.24,0.000002697398,0.000002697398,0.000002697398,0.99999994,0,0,0,0,0,0,1,1,0,0,0,false,false,true,-531.8,-4423.03,17.01,-0.00065007294,0.0047231438,0.1316632,0.991283,-216.791,-108.641,8.311,0,-0.00040999998,4.98111
59.575,2000,0,91.24,0.000002697398,0.000002697398,0.000002697398,0.99999994,0,0,0,0,0,0,1,1,0,0,0,false,false,true,-533.61,-4423.9297,17.01,-0.0007471793,0.00470696,0.15220667,0.98833716,-209.241,-104.311,8.311,0,-0.00040999998,4.98901
59.583332,2000,0,91.24,0.000002697398,0.000002697398,0.000002697398,0.99999994,0,0,0,0,0,0,1,1,0,0,0,false,false,true,-535.35,-4424.8,17.01,-0.0008442856,0.004690775,0.17271776,0.9849598,-201.791,-99.641,8.311,0,-0.00040999998,5.0001097
59.591667,2000,0,91.24,0.000002697398,0.000002697398,0.000002697398,0.99999994,0,0,0,0,0,0,1,1,0,0,0,false,false,true,-537.02997,-4425.63,17.01,-0.0009413919,0.004669196,0.1932019,0.9811474,-194.451,-94.620995,8.311,0.00010999999,-0.00040999998,5.01471
59.6,2000,0,91.24,0.000002697398,0.000002697398,0.000002697398,0.99999994,0,0,0,0,0,0,1,1,0,0,0,false,false,true,-538.64996,-4426.42,17.01,-0.0010384982,0.0046476168,0.21365905,0.97689664,-187.231,-89.241,8.311,0.00010999999,-0.00040999998,5.03321
59.608334,2000,0,91.24,0.000002697398,0.000002697398,0.000002697398,0.99999994,0,0,0,0,0,0,1,1,0,0,0,false,false,true,-540.20996,-4427.1597,17.01,-0.0011356046,0.004620643,0.23410001,0.9722008,-180.141,-83.631,8.311,0.00010999999,-0.00030999997,5.05181
59.616665,2000,0,91.24,0.000002697398,0.000002697398,0.000002697398,0.99999994,0,0,0,0,0,0,1,1,0,0,0,false,false,true,-541.70996,-4427.86,17.01,-0.0012327109,0.004593669,0.25450858,0.9670588,-173.181,-77.770996,8.311,0.00010999999,-0.00021,5.0707097
59.625,2000,0,91.24,0.000002697398,0.000002697398,0.000002697398,0.99999994,0,0,0,0,0,0,1,1,0,0,0,false,false,true,-543.14996,-4428.51,17.01,-0.0013298172,0.0045666946,0.27488476,0.96146536,-166.351,-71.660995,8.311,0.00010999999,-0.00010999999,5.09031
59.633335,2000,0,91.24,0.000002697398,0.000002697398,0.000002697398,0.99999994,0,0,0,0,0,0,1,1,0,0,0,false,false,true,-544.54,-4429.11,17.01,-0.0014269236,0.004534326,0.29521242,0.9554198,-159.651,-65.270996,8.311,0.00021,-0.00010999999,5.1111097
59.641666,2000,0,91.24,0.000002697398,0.000002697398,0.000002697398,0.99999994,0,0,0,0,0,0,1,1,0,0,0,false,false,true,-545.87,-4429.65,17.01,-0.0015240298,0.004501957,0.31549153,0.9489163,-153.08101,-58.591,8.311,0.00021,0,5.13371
59.65,2000,0,91.24,0.000002697398,0.000002697398,0.000002697398,0.99999994,0,0,0,0,0,0,1,1,0,0,0,false,false,true,-547.14996,-4430.14,17.01,-0.0016211362,0.0044695884,0.33571672,0.9419509,-146.631,-51.600998,8.311,0.00021,0,5.15831
59.658333,2000,0,91.24,0.000002697398,0.000002697398,0.000002697398,0.99999994,0,0,0,0,0,0,1,1,0,0,0,false,false,true,-548.37,-4430.57,17.01,-0.0017182425,0.0044318247,0.35588256,0.9345185,-140.531,-44.371,8.311,0.00030999997,0,5.18041
59.666668,2000,0,91.24,0.000002697398,0.000002697398,0.000002697398,0.99999994,0,0,0,0,0,0,1,1,0,0,0,false,false,true,-549.54,-4430.94,17.01,-0.0018099541,0.0043940614,0.37596747,0.9266206,-134.781,-36.900997,8.311,0.00040999998,0,5.20041
59.675,2000,0,91.24,0.000002697398,0.000002697398,0.000002697398,0.99999994,0,0,0,0,0,0,1,1,0,0,0,false,false,true,-550.66,-4431.25,17.01,-0.0019016658,0.0043509034,0.3959553,0.9182575,-129.391,-29.200998,8.311,0.00040999998,0,5.21861
59.683334,2000,0,91.24,0.000002697398,0.000002697398,0.000002697398,0.99999994,0,0,0,0,0,0,1,1,0,0,0,false,false,true,-551.74,-4431.4897,17.01,-0.001993377,0.0043077446,0.41582438,0.9094325,-124.361,-21.271,8.311,0.00040999998,0.00010999999,5.2354097
59.691666,2000,0,91.24,0.000002697398,0.000002697398,0.000002697398,0.99999994,0,0,0,0,0,0,1,1,0,0,0,false,false,true,-552.77997,-4431.67,17.01,-0.0020850885,0.004264586,0.43556404,0.9001452,-119.690994,-13.1310005,8.311,0.00040999998,0.00010999999,5.25111
59.7,2000,0,91.24,0.000002697398,0.000002697398,0.000002697398,0.99999994,0,0,0,0,0,0,1,1,0,0,0,false,false,true,-553.77997,-4431.78,17.01,-0.0021768,0.0042160326,0.45515257,0.89040065,-115.391,-4.771,8.311,0.00051,0.00021,5.26601
59.708332,2000,0,91.24,0.000002697398,0.000002697398,0.000002697398,0.99999994,0,0,0,0,0,0,1,1,0,0,0,false,false,true,-554.74,-4431.82,17.01,-0.0022685118,0.00416748,0.4745793,0.8801999,-111.471,3.781,8.311,0.00051,0.00030999997,5.2803097
59.716667,2000,0,91.24,0.000002697398,0.000002697398,0.000002697398,0.99999994,0,0,0,0,0,0,1,1,0,0,0,false,false,true,-555.67,-4431.79,17.01,-0.0023548284,0.004118927,0.493828,0.8695466,-107.940994,12.541,8.311,0.00061,0.00040999998,5.29421
59.725,2000,0,91.24,0.000002697398,0.000002697398,0.000002697398,0.99999994,0,0,0,0,0,0,1,1,0,0,0,false,false,true,-556.57,-4431.6797,17.01,-0.0024411452,0.0040649786,0.5128879,0.8584424,-104.811,21.501,8.311,0.00061,0.00040999998,5.30801
59.733334,2000,0,91.24,0.000002697398,0.000002697398,0.000002697398,0.99999994,0,0,0,0,0,0,1,1,0,0,0,false,false,true,-557.44,-4431.5,17.01,-0.0025274616,0.0040110303,0.5317481,0.8468891,-102.101,30.651,8.311,0.00061,0.00051,5.32181
59.741665,2000,0,91.24,0.000002697398,0.000002697398,0.000002697398,0.99999994,0,0,0,0,0,0,1,1,0,0,0,false,false,true,-558.29,-4431.2397,17.01,-0.0026137787,0.003957083,0.5503927,0.83489233,-99.811,39.990997,8.311,0.00061,0.00051,5.33571
59.75,2000,0,91.24,0.000002697398,0.000002697398,0.000002697398,0.99999994,0,0,0,0,0,0,1,1,0,0,0,false,false,true,-559.12,-4430.9097,17.01,-0.0027000955,0.0038977403,0.568816,0.82245106,-97.961,49.481,8.311,0.00061,0.00051,5.34941
59.758335,2000,0,91.24,0.000002697398,0.000002697398,0.000002697398,0.99999994,0,0,0,0,0,0,1,1,0,0,0,false,false,true,-559.94,-4430.5,17.01,-0.0027810175,0.0038383976,0.58700734,0.80956763,-96.480995,58.891,8.311,0.00061,0.00061,5.36011
59.766666,2000,0,91.24,0.000002697398,0.000002697398,0.000002697398,0.99999994,0,0,0,0,0,0,1,1,0,0,0,false,false,true,-560.74,-4430.01,17.01,-0.0028619391,0.0037736595,0.6049396,0.79625714,-95.381,68.221,8.311,0.00051,0.00061,5.36801
59.775,2000,0,91.24,0.000002697398,0.000002697398,0.000002697398,0.99999994,0,0,0,0,0,0,1,1,0,0,0,false,false,true,-561.52997,-4429.44,17.01,-0.0029428613,0.0037089223,0.62259686,0.78252834,-94.660995,77.480995,8.311,0.00040999998,0.00061,5.37331
59.783333,2000,0,91.24,0.000002697398,0.000002697398,0.000002697398,0.99999994,0,0,0,0,0,0,1,1,0,0,0,false,false,true,-562.32,-4428.79,17.01,-0.0030237832,0.003644185,0.6399574,0.76839566,-94.311,86.660995,8.311,0.00021,0.00061,5.37611
59.791668,2000,0,91.24,0.000002697398,0.000002697398,0.000002697398,0.99999994,0,0,0,0,0,0,1,1,0,0,0,false,false,true,-563.11,-4428.07,17.01,-0.0031047054,0.0035794475,0.6570105,0.7538665,-94.33099,95.770996,8.311,0.00010999999,0.00051,5.37641
59.8,2000,0,91.24,0.000002697398,0.000002697398,0.000002697398,0.99999994,0,0,0,0,0,0,1,1,0,0,0,false,false,true,-563.89996,-4427.27,17.01,-0.0031802326,0.0035093152,0.67373437,0.73895836,-94.721,104.800995,8.311,0,0.00040999998,5.37421
59.808334,2000,0,91.24,0.000002697398,0.000002697398,0.000002697398,0.99999994,0,0,0,0,0,0,1,1,0,0,0,false,false,true,-564.69,-4426.4,17.01,-0.0032557594,0.0034391826,0.690113,0.72368604,-95.471,113.760994,8.311,0,0.00040999998,5.36961
59.816666,2000,0,91.24,0.000002697398,0.000002697398,0.000002697398,0.99999994,0,0,0,0,0,0,1,1,0,0,0,false,false,true,-565.49,-4425.4497,17.01,-0.0033312866,0.00336905,0.70613027,0.708066,-96.58099,122.65099,8.311,-0.00010999999,0.00030999997,5.36261
59.825,2000,0,91.24,0.000002697398,0.000002697398,0.000002697398,0.99999994,0,0,0,0,0,0,1,1,0,0,0,false,false,true,-566.29,-4424.4297,17.01,-0.003406814,0.0032935233,0.7217721,0.69211453,-98.050995,131.47101,8.311,-0.00010999999,0.00030999997,5.35321
59.833332,2000,0,91.24,0.000002697398,0.000002697398,0.000002697398,0.99999994,0,0,0,0,0,0,1,1,0,0,0,false,false,true,-567.11,-4423.33,17.01,-0.0034769461,0.0032179959,0.73702955,0.6758438,-99.881,140.22101,8.311,-0.00021,0.00030999997,5.3414097
59.841667,2000,0,91.24,0.000002697398,0.000002697398,0.000002697398,0.99999994,0,0,0,0,0,0,1,1,0,0,0,false,false,true,-567.94,-4422.1597,17.01,-0.0035470785,0.0031424686,0.7518858,0.65927625,-102.061,148.91101,8.311,-0.00030999997,0.00030999997,5.32721
59.85,2000,0,91.24,0.000002697398,0.000002697398,0.000002697398,0.99999994,0,0,0,0,0,0,1,1,0,0,0,false,false,true,-568.79,-4420.92,17.01,-0.003617211,0.0030669419,0.7663311,0.6424283,-104.631,157.271,8.311,-0.00040999998,0.00021,5.3133097
59.858334,2000,0,91.24,0.000002697398,0.000002697398,0.000002697398,0.99999994,0,0,0,0,0,0,1,1,0,0,0,false,false,true,-569.66,-4419.61,17.01,-0.0036819484,0.0029860197,0.7803659,0.62530506,-107.58099,165.291,8.311,-0.00040999998,0.00010999999,5.29951
59.866665,2000,0,91.24,0.000002697398,0.000002697398,0.000002697398,0.99999994,0,0,0,0,0,0,1,1,0,0,0,false,false,true,-570.56,-4418.23,17.01,-0.0037466863,0.002905098,0.79398173,0.6079231,-110.891,172.991,8.311,-0.00040999998,0,5.2856097
59.875,2000,0,91.24,0.000002697398,0.000002697398,0.000002697398,0.99999994,0,0,0,0,0,0,1,1,0,0,0,false,false,true,-571.48,-4416.79,17.01,-0.0038114237,0.0028241759,0.8071752,0.5902928,-114.541,180.371,8.311,-0.00030999997,-0.00010999999,5.2715096
59.883335,2000,0,91.24,0.000002697398,0.000002697398,0.000002697398,0.99999994,0,0,0,0,0,0,1,1,0,0,0,false,false,true,-572.43,-4415.29,17.01,-0.003876161,0.0027432537,0.81994694,0.5724197,-118.520996,187.431,8.311,-0.00030999997,-0.00010999999,5.25711
59.891666,2000,0,91.24,0.000002697398,0.000002697398,0.000002697398,0.99999994,0,0,0,0,0,0,1,1,0,0,0,false,false,true,-573.42,-4413.73,17.01,-0.003935504,0.002656937,0.83228636,0.55432546,-122.821,194.171,8.311,-0.00021,-0.00021,5.2424097
59.9,2000,0,91.24,0.000002697398,0.000002697398,0.000002697398,0.99999994,0,0,0,0,0,0,1,1,0,0,0,false,false,true,-574.44,-4412.11,17.01,-0.0039948463,0.0025706203,0.8441947,0.53601545,-127.421,200.58101,8.311,-0.00010999999,-0.00021,5.22741
59.908333,2000,0,91.24,0.000002697398,0.000002697398,0.000002697398,0.99999994,0,0,0,0,0,0,1,1,0,0,0,false,false,true,-575.5,-4410.44,17.01,-0.0040487945,0.0024843037,0.8556696,0.51750046,-132.311,206.661,8.311,-0.00010999999,-0.00030999997,5.21211
59.916668,2000,0,91.24,0.000002697398,0.000002697398,0.000002697398,0.99999994,0,0,0,0,0,0,1,1,0,0,0,false,false,true,-576.6,-4408.7197,17.01,-0.004102742,0.0023979866,0.86670583,0.49879664,-137.47101,212.391,8.311,-0.00010999999,-0.00030999997,5.19661
59.925,2000,0,91.24,0.000002697398,0.000002697398,0.000002697398,0.99999994,0,0,0,0,0,0,1,1,0,0,0,false,false,true,-577.75,-4406.9497,17.01,-0.00415669,0.0023062753,0.8773021,0.47991484,-142.891,217.771,8.311,0,-0.00040999998,5.18091
59.933334,2000,0,91.24,0.000002697398,0.000002697398,0.000002697398,0.99999994,0,0,0,0,0,0,1,1,0,0,0,false,false,true,-578.94,-4405.13,17.01,-0.0042052437,0.002214564,0.88745713,0.46086574,-148.55101,222.781,8.311,0,-0.00040999998,5.16501
59.941666,2000,0,91.24,0.000002697398,0.000002697398,0.000002697398,0.99999994,0,0,0,0,0,0,1,1,0,0,0,false,false,true,-580.18,-4403.27,17.01,-0.0042537972,0.0021228525,0.89716977,0.4416602,-154.431,227.421,8.311,0,-0.00040999998,5.1490097
59.95,2000,0,91.24,0.000002697398,0.000002697398,0.000002697398,0.99999994,0,0,0,0,0,0,1,1,0,0,0,false,false,true,-581.47,-4401.37,17.01,-0.00430235,0.0020311407,0.90643686,0.42231435,-160.511,231.69101,8.311,0,-0.00040999998,5.13291
59.958332,2000,0,91.24,0.000002697398,0.000002697398,0.000002697398,0.99999994,0,0,0,0,0,0,1,1,0,0,0,false,false,true,-582.81,-4399.44,17.01,-0.004345508,0.001939429,0.9152607,0.4028336,-166.781,235.571,8.311,0,-0.00040999998,5.11681
59.966667,2000,0,91.24,0.000002697398,0.000002697398,0.000002697398,0.99999994,0,0,0,0,0,0,1,1,0,0,0,false,false,true,-584.2,-4397.48,17.01,-0.0043886667,0.0018477177,0.9236411,0.38322887,-173.211,239.061,8.311,0,-0.00040999998,5.10081
59.975,2000,0,91.24,0.000002697398,0.000002697398,0.000002697398,0.99999994,0,0,0,0,0,0,1,1,0,0,0,false,false,true,-585.64,-4395.4897,17.01,-0.0044264304,0.0017560063,0.9315778,0.36351082,-179.791,242.151,8.311,0,-0.00040999998,5.08491
59.983334,2000,0,91.24,0.000002697398,0.000002697398,0.000002697398,0.99999994,0,0,0,0,0,0,1,1,0,0,0,false,false,true,-587.14,-4393.4697,17.01,-0.0044641932,0.0016588996,0.93906885,0.34369567,-186.491,244.841,8.311,0,-0.00040999998,5.06921
59.991665,2000,0,91.24,0.000002697398,0.000002697398,0.000002697398,0.99999994,0,0,0,0,0,0,1,1,0,0,0,false,false,true,-588.69,-4391.4297,17.01,-0.0045019574,0.0015617935,0.9461191,0.32378343,-193.30101,247.121,8.311,0,-0.00040999998,5.05381
60,2000,0,91.24,0.000002697398,0.000002697398,0.000002697398,0.99999994,0,0,0,0,0,0,1,1,0,0,0,false,false,true,-590.3,-4389.37,17.01,-0.004534326,0.0014646872,0.95272696,0.30379024,-200.19101,249.001,8.311,0,-0.00040999998,5.03871
60.008335,2000,0,91.24,0.000002697398,0.000002697398,0.000002697398,0.99999994,0,0,0,0,0,0,1,1,0,0,0,false,false,true,-591.97,-4387.29,17.01,-0.004566695,0.001367581,0.95889485,0.28372154,-207.141,250.47101,8.311,0,-0.00040999998,5.0240097
60.016666,2000,0,91.24,0.000002697398,0.000002697398,0.000002697398,0.99999994,0,0,0,0,0,0,1,1,0,0,0,false,false,true,-593.7,-4385.1997,17.01,-0.004593669,0.0012704745,0.9646235,0.26358804,-214.131,251.521,8.311,0,-0.00040999998,5.00951
60.025,2000,0,91.24,0.000002697398,0.000002697398,0.000002697398,0.99999994,0,0,0,0,0,0,1,1,0,0,0,false,false,true,-595.48,-4383.1,17.01,-0.0046206424,0.001173368,0.96991533,0.24339522,-221.171,252.171,8.311,0,-0.00040999998,4.9963098
60.033333,2000,0,91.24,0.000002697398,0.000002697398,0.000002697398,0.99999994,0,0,0,0,0,0,1,1,0,0,0,false,false,true,-597.32,-4381,17.01,-0.0046476168,0.0010762617,0.9747715,0.22315389,-228.261,252.431,8.311,0,-0.00040999998,4.9847097
60.041668,2000,0,91.24,0.000002697398,0.000002697398,0.000002697398,0.99999994,0,0,0,0,0,0,1,1,0,0,0,false,false,true,-599.22,-4378.9,17.01,-0.004669196,0.0009791554,0.97919524,0.20286398,-235.371,252.291,8.311,0,-0.00040999998,4.97461
60.05,2000,0,91.24,0.000002697398,0.000002697398,0.000002697398,0.99999994,0,0,0,0,0,0,1,1,0,0,0,false,false,true,-601.18,-4376.8,17.01,-0.0046907756,0.0008820492,0.9831895,0.18252552,-242.491,251.761,8.311,0,-0.00040999998,4.96591
60.058334,2000,0,91.24,0.000002697398,0.000002697398,0.000002697398,0.99999994,0,0,0,0,0,0,1,1,0,0,0,false,false,true,-603.2,-4374.6997,17.01,-0.0047123544,0.0007849428,0.9867555,0.16214389,-249.591,250.841,8.311,0,-0.00030999997,4.9587097
60.066666,2000,0,91.24,0.000002697398,0.000002697398,0.000002697398,0.99999994,0,0,0,0,0,0,1,1,0,0,0,false,false,true,-605.27997,-4372.61,17.01,-0.0047285384,0.0006878365,0.98989457,0.1417245,-256.651,249.541,8.311,0,-0.00030999997,4.95301
60.075,2000,0,91.24,0.000002697398,0.000002697398,0.000002697398,0.99999994,0,0,0,0,0,0,1,1,0,0,0,false,false,true,-607.42,-4370.53,17.01,-0.004744723,0.00059073017,0.9926083,0.12126735,-263.651,247.86101,8.311,0,-0.00030999997,4.94871
60.083332,2000,0,91.24,0.000002697398,0.000002697398,0.000002697398,0.99999994,0,0,0,0,0,0,1,1,0,0,0,false,false,true,-609.62,-4368.46,17.01,-0.0047555123,0.0004936238,0.9948973,0.1007779,-270.561,245.811,8.311,0,-0.00021,4.94591
60.091667,2000,0,91.24,0.000002697398,0.000002697398,0.000002697398,0.99999994,0,0,0,0,0,0,1,1,0,0,0,false,false,true,-611.87,-4366.4097,17.01,-0.004766302,0.0003965175,0.99676275,0.08025602,-277.391,243.401,8.311,0,-0.00021,4.94451
60.1,2000,0,91.24,0.000002697398,0.000002697398,0.000002697398,0.99999994,0,0,0,0,0,0,1,1,0,0,0,false,false,true,-614.18,-4364.38,17.01,-0.004771697,0.0002994112,0.9982044,0.05970716,-284.211,240.621,8.311,0,-0.00021,4.94401
60.108334,2000,0,91.24,0.000002697398,0.000002697398,0.000002697398,0.99999994,0,0,0,0,0,0,1,1,0,0,0,false,false,true,-616.55,-4362.37,17.01,-0.004777092,0.00020230486,0.9992226,0.03913132,-290.981,237.47101,8.311,0,-0.00021,4.94451
60.116665,2000,0,91.24,0.000002697398,0.000002697398,0.000002697398,0.99999994,0,0,0,0,0,0,1,1,0,0,0,false,false,true,-618.97,-4360.39,17.01,-0.0047824862,0.00010519851,0.99981654,0.018539298,-297.691,233.961,8.311,0,-0.00010999999,4.94581
60.125,2000,0,91.24,0.000002697398,0.000002697398,0.000002697398,0.99999994,0,0,0,0,0,0,1,1,0,0,0,false,false,true,-621.45,-4358.44,17.01,-0.0047824867,0.000008092194,0.99998635,-0.0020689042,-304.311,230.101,8.311,0,0,4.94801
60.133335,2000,0,91.24,0.000002697398,0.000002697398,0.000002697398,0.99999994,0,0,0,0,0,0,1,1,0,0,0,false,false,true,-623.99,-4356.52,17.01,-0.004782487,-0.000089014145,0.99973124,-0.022682507,-310.831,225.891,8.311,0,0,4.95091
60.141666,2000,0,91.24,0.000002697398,0.000002697398,0.000002697398,0.99999994,0,0,0,0,0,0,1,1,0,0,0,false,false,true,-626.57996,-4354.64,17.01,-0.0047770925,-0.00018612048,0.99905056,-0.043301504,-317.241,221.341,8.311,0,0,4.9545097
60.15,2000,0,91.24,0.000002697398,0.000002697398,0.000002697398,0.99999994,0,0,0,0,0,0,1,1,0,0,0,false,false,true,-629.22,-4352.8,17.01,-0.0047716964,-0.00028322675,0.99794376,-0.06391509,-323.521,216.461,8.311,0,0,4.95881
60.158333,2000,0,91.24,0.000002697398,0.000002697398,0.000002697398,0.99999994,0,0,0,0,0,0,1,1,0,0,0,false,false,true,-631.92,-4351,17.01,-0.004766302,-0.00038033313,0.9964104,-0.08451791,-329.651,211.251,8.311,0,0,4.96371
60.166668,2000,0,91.24,0.000002697398,0.000002697398,0.000002697398,0.99999994,0,0,0,0,0,0,1,1,0,0,0,false,false,true,-634.67,-4349.2397,17.01,-0.0047555123,-0.0004774394,0.99444956,-0.10510452,-335.621,205.731,8.311,0,0,4.9692097
60.175,2000,0,91.24,0.000002697398,0.000002697398,0.000002697398,0.99999994,0,0,0,0,0,0,1,1,0,0,0,false,false,true,-637.47,-4347.53,17.01,-0.0047447234,-0.0005745458,0.9920606,-0.12566955,-341.421,199.901,8.311,0,0,4.9752097
60.183334,2000,0,91.24,0.000002697398,0.000002697398,0.000002697398,0.99999994,0,0,0,0,0,0,1,1,0,0,0,false,false,true,-640.32,-4345.86,17.01,-0.004733933,-0.00067165203,0.9892422,-0.1462076,-347.041,193.771,8.311,0,0,4.98171
