time,ball_loc_x,ball_loc_y,ball_loc_z,ball_rot_x,ball_rot_y,ball_rot_z,ball_rot_w,ball_vel_x,ball_vel_y,ball_vel_z,ball_ang_x,ball_ang_y,ball_ang_z,player0_throttle,player0_steer,player0_pitch,player0_yaw,player0_roll,player0_jump,player0_boost,player0_handbrake,player0_loc_x,player0_loc_y,player0_loc_z,player0_rot_x,player0_rot_y,player0_rot_z,player0_rot_w,player0_vel_x,player0_vel_y,player0_vel_z,player0_ang_x,player0_ang_y,player0_ang_z
23.841667,2000,0,73,0.000002697398,0.000002697398,0.000002697398,0.99999994,0,0,0,0,0,0,0,0,0,0,0,false,false,false,0,-5000,-0.06,-0.000002697398,-0.00035335915,0.7071121,0.7071013,-0.011,0,134.261,0.07841,-0.025009999,0.00030999997
23.85,2000,0,87.6,0.000002697398,0.000002697398,0.000002697398,0.99999994,0,0,0,0,0,0,1,1,0,0,0,false,false,true,0,-5000,0.98999995,0.00015375168,-0.00065546774,0.70711184,0.7071013,-3.3209999,12.151,176.461,-0.047509998,-0.00291,0.09201
23.858334,2000,0,90.52,0.000002697398,0.000002697398,0.000002697398,0.99999994,0,0,0,0,0,0,1,1,0,0,0,false,false,true,-0.03,-4999.9,2.3899999,0.000008092194,-0.0005259926,0.70738155,0.7068316,-6.4009995,24.020998,181.851,-0.09520999,0.00341,0.17761
23.866667,2000,0,91.1,0.000002697398,0.000002697398,0.000002697398,0.99999994,0,0,0,0,0,0,1,1,0,0,0,false,false,true,-0.08,-4999.6997,3.84,-0.0002616476,-0.00023467363,0.70790416,0.7063083,-9.281,35.600998,178.901,-0.104609996,0.00511,0.25751
23.875,2000,0,91.22,0.000002697398,0.000002697398,0.000002697398,0.99999994,0,0,0,0,0,0,1,1,0,0,0,false,false,true,-0.16,-4999.4,5.2599998,-0.0005529666,0.00008901414,0.70866215,0.70554763,-11.991,46.891,170.991,-0.10521,0.00601,0.33211002
23.883333,2000,0,91.24,0.000002697398,0.000002697398,0.000002697398,0.99999994,0,0,0,0,0,0,1,1,0,0,0,false,false,true,-0.26,-4999.01,6.62,-0.0008442856,0.0004180967,0.70963794,0.70456576,-14.591,57.891,162.86101,-0.105009995,0.00611,0.40231
23.891666,2000,0,91.24,0.000002697398,0.000002697398,0.000002697398,0.99999994,0,0,0,0,0,0,1,1,0,0,0,false,false,true,-0.38,-4998.53,7.91,-0.0011356046,0.00074717926,0.71081907,0.7033735,-17.071,68.601,154.731,-0.10481,0.00621,0.46801
23.9,2000,0,91.24,0.000002697398,0.000002697398,0.000002697398,0.99999994,0,0,0,0,0,0,1,1,0,0,0,false,false,true,-0.52,-4997.96,9.13,-0.0014269236,0.0010762617,0.7121874,0.701987,-19.460999,79.010994,146.601,-0.104609996,0.00641,0.52951
23.908333,2000,0,91.24,0.000002697398,0.000002697398,0.000002697398,0.99999994,0,0,0,0,0,0,1,1,0,0,0,false,false,true,-0.68,-4997.3,10.28,-0.0017182427,0.0013999497,0.7137354,0.70041186,-21.780998,89.111,138.47101,-0.10431,0.00661,0.58711
23.916666,2000,0,91.24,0.000002697398,0.000002697398,0.000002697398,0.99999994,0,0,0,0,0,0,1,1,0,0,0,false,false,true,-0.85999995,-4996.56,11.37,-0.0020041666,0.0017236373,0.7154451,0.69866383,-24.050999,98.910995,130.341,-0.10400999,0.00691,0.64121
23.925,2000,0,91.24,0.000002697398,0.000002697398,0.000002697398,0.99999994,0,0,0,0,0,0,1,1,0,0,0,false,false,true,-1.06,-4995.7397,12.389999,-0.0022900908,0.002047325,0.71730864,0.6967487,-26.280998,108.410995,122.211,-0.103709996,0.00721,0.69190997
23.933332,2000,0,91.24,0.000002697398,0.000002697398,0.000002697398,0.99999994,0,0,0,0,0,0,1,1,0,0,0,false,false,true,-1.28,-4994.84,13.34,-0.002576015,0.0023710127,0.71931314,0.69467694,-28.480999,117.601,114.08099,-0.10331,0.00751,0.73961
23.941668,2000,0,91.24,0.000002697398,0.000002697398,0.000002697398,0.99999994,0,0,0,0,0,0,1,1,0,0,0,false,false,true,-1.52,-4993.86,14.219999,-0.0028619394,0.0026947006,0.7214509,0.69245434,-30.661,126.491,105.951,-0.10291,0.00781,0.78451
23.95,2000,0,91.24,0.000002697398,0.000002697398,0.000002697398,0.99999994,0,0,0,0,0,0,1,1,0,0,0,false,false,true,-1.78,-4992.81,15.04,-0.0031424686,0.0030183885,0.7237089,0.69009143,-32.830997,135.08101,97.821,-0.10251,0.00821,0.82681
23.958334,2000,0,91.24,0.000002697398,0.000002697398,0.000002697398,0.99999994,0,0,0,0,0,0,1,1,0,0,0,false,false,true,-2.05,-4991.6797,15.79,-0.0034229981,0.0033420762,0.7260798,0.68759364,-34.990997,143.36101,89.690994,-0.10211,0.008609999,0.86680996
23.966667,2000,0,91.24,0.000002697398,0.000002697398,0.000002697398,0.99999994,0,0,0,0,0,0,1,1,0,0,0,false,false,true,-2.34,-4990.48,16.47,-0.0037035276,0.003665764,0.7285559,0.6849664,-37.141,151.341,81.561,-0.10161,0.009009999,0.90461
23.975,2000,0,91.24,0.000002697398,0.000002697398,0.000002697398,0.99999994,0,0,0,0,0,0,1,1,0,0,0,false,false,true,-2.6499999,-4989.2197,17.08,-0.003978662,0.003984057,0.73112977,0.68221503,-39.291,159.031,73.431,-0.10111,0.0094099995,0.94051
23.983334,2000,0,91.24,0.000002697398,0.000002697398,0.000002697398,0.99999994,0,0,0,0,0,0,1,1,0,0,0,false,false,true,-2.98,-4987.8896,17.619999,-0.0042537972,0.0043023503,0.733794,0.6793451,-41.440998,166.421,65.300995,-0.100609995,0.00981,0.97461
23.991667,2000,0,91.24,0.000002697398,0.000002697398,0.000002697398,0.99999994,0,0,0,0,0,0,1,1,0,0,0,false,false,true,-3.33,-4986.5,18.1,-0.0045235357,0.0046206424,0.73654616,0.6763562,-43.580997,173.521,57.170998,-0.100109994,0.01031,1.00711
24,2000,0,91.24,0.000002697398,0.000002697398,0.000002697398,0.99999994,0,0,0,0,0,0,1,1,0,0,0,false,false,true,-3.6899998,-4985.05,18.51,-0.004793276,0.004938936,0.73937404,0.6732596,-45.711,180.381,49.040997,-0.09960999,0.010809999,1.03801
24.008333,2000,0,91.24,0.000002697398,0.000002697398,0.000002697398,0.99999994,0,0,0,0,0,0,1,1,0,0,0,false,false,true,-4.0699997,-4983.55,18.85,-0.005063016,0.005257229,0.74227536,0.6700551,-47.821,186.97101,40.911,-0.09911,0.011309999,1.06761
24.016666,2000,0,91.24,0.000002697398,0.000002697398,0.000002697398,0.99999994,0,0,0,0,0,0,1,1,0,0,0,false,false,true,-4.47,-4981.9897,19.119999,-0.0053273616,0.0055701276,0.745248,0.66674274,-49.920998,193.311,32.781,-0.09861,0.011809999,1.09661
24.025,2000,0,91.24,0.000002697398,0.000002697398,0.000002697398,0.99999994,0,0,0,0,0,0,1,1,0,0,0,false,false,true,-4.89,-4980.38,19.33,-0.0055917483,0.005883025,0.7482849,0.66332775,-51.990997,199.381,24.651,-0.09811,0.012309999,1.12461
24.033333,2000,0,91.24,0.000002697398,0.000002697398,0.000002697398,0.99999994,0,0,0,0,0,0,1,1,0,0,0,false,false,true,-5.3199997,-4978.7197,19.47,-0.0058506983,0.0061959233,0.7513837,0.65981036,-54.031,205.201,16.521,-0.09761,0.012809999,1.1518099
24.041666,2000,0,91.24,0.000002697398,0.000002697398,0.000002697398,0.99999994,0,0,0,0,0,0,1,1,0,0,0,false,false,true,-5.77,-4977.01,19.539999,-0.006109649,0.0065088216,0.7545377,0.6561958,-56.010998,210.771,8.391,-0.097109996,0.013309999,1.17831
24.05,2000,0,91.24,0.000002697398,0.000002697398,0.000002697398,0.99999994,0,0,0,0,0,0,1,1,0,0,0,false,false,true,-6.24,-4975.25,19.539999,-0.006363204,0.00682172,0.75774944,0.6524788,-58.071,216.301,0.471,-0.08801,0.010109999,1.20471
24.058332,2000,0,91.24,0.000002697398,0.000002697398,0.000002697398,0.99999994,0,0,0,0,0,0,1,1,0,0,0,false,false,true,-6.72,-4973.4497,19.48,-0.00660597,0.0070968545,0.7610125,0.64866465,-60.200996,221.781,-6.6509995,-0.049209997,0.011809999,1.23111
24.066668,2000,0,91.24,0.000002697398,0.000002697398,0.000002697398,0.99999994,0,0,0,0,0,0,1,1,0,0,0,false,false,true,-7.22,-4971.6,19.359999,-0.006735445,0.0072533037,0.764331,0.64474803,-62.411,227.22101,-13.081,0.013409999,0.01651,1.25751
24.075,2000,0,91.24,0.000002697398,0.000002697398,0.000002697398,0.99999994,0,0,0,0,0,0,1,1,0,0,0,false,false,true,-7.74,-4969.71,19.18,-0.006686892,0.0072209346,0.76769954,0.64073426,-64.711,232.61101,-17.651,0.06471,0.012209999,1.2840099
24.083334,2000,0,91.24,0.000002697398,0.000002697398,0.000002697398,0.99999994,0,0,0,0,0,0,1,1,0,0,0,false,false,true,-8.28,-4967.77,18.97,-0.0065142587,0.0070105377,0.7711198,0.636618,-67.090996,237.951,-20.360998,0.09891,0.008409999,1.31041
24.091667,2000,0,91.24,0.000002697398,0.000002697398,0.000002697398,0.99999994,0,0,0,0,0,0,1,1,0,0,0,false,false,true,-8.84,-4965.79,18.73,-0.0062607033,0.0066814553,0.77458835,0.6323994,-69.550995,243.231,-21.530998,0.11921,0.00521,1.33671
24.1,2000,0,91.24,0.000002697398,0.000002697398,0.000002697398,0.99999994,0,0,0,0,0,0,1,1,0,0,0,false,false,true,-9.42,-4963.76,18.48,-0.005969384,0.0062768455,0.7781021,0.628078,-72.101,248.461,-21.411,0.12861,0.00241,1.36291
24.108334,2000,0,91.24,0.000002697398,0.000002697398,0.000002697398,0.99999994,0,0,0,0,0,0,1,1,0,0,0,false,false,true,-10.0199995,-4961.69,18.23,-0.0056618806,0.005834472,0.78165793,0.62365425,-74.721,253.621,-20.280998,0.12970999,0.00010999999,1.38911
24.116667,2000,0,91.24,0.000002697398,0.000002697398,0.000002697398,0.99999994,0,0,0,0,0,0,1,1,0,0,0,false,false,true,-10.639999,-4959.58,17.99,-0.0053597298,0.005381309,0.78525746,0.6191226,-77.431,258.731,-18.380999,0.124809995,-0.0016099999,1.41521
24.125,2000,0,91.24,0.000002697398,0.000002697398,0.000002697398,0.99999994,0,0,0,0,0,0,1,1,0,0,0,false,false,true,-11.29,-4957.42,17.77,-0.005073806,0.004938936,0.7888981,0.6144831,-80.230995,263.781,-15.941,0.11581,-0.00281,1.44121
24.133333,2000,0,91.24,0.000002697398,0.000002697398,0.000002697398,0.99999994,0,0,0,0,0,0,1,1,0,0,0,false,false,true,-11.96,-4955.2197,17.57,-0.0048148553,0.0045181415,0.79257727,0.60973567,-83.120995,268.781,-13.181,0.10421,-0.00371,1.4671099
24.141666,2000,0,91.24,0.000002697398,0.000002697398,0.000002697398,0.99999994,0,0,0,0,0,0,1,1,0,0,0,false,false,true,-12.65,-4952.98,17.39,-0.004588274,0.004135111,0.79629236,0.6048803,-86.101,273.721,-10.251,0.09120999,-0.00421,1.49291
24.15,2000,0,91.24,0.000002697398,0.000002697398,0.000002697398,0.99999994,0,0,0,0,0,0,1,1,0,0,0,false,false,true,-13.37,-4950.6997,17.24,-0.0043994565,0.0037952394,0.800041,0.5999171,-89.190994,278.621,-7.291,0.07781,-0.00441,1.51861
24.158333,2000,0,91.24,0.000002697398,0.000002697398,0.000002697398,0.99999994,0,0,0,0,0,0,1,1,0,0,0,false,false,true,-14.11,-4948.38,17.109999,-0.0042430074,0.0034985256,0.80382085,0.594846,-92.381,283.461,-4.421,0.06471,-0.00441,1.54411
24.166666,2000,0,91.24,0.000002697398,0.000002697398,0.000002697398,0.99999994,0,0,0,0,0,0,1,1,0,0,0,false,false,true,-14.88,-4946.02,17.01,-0.0041189273,0.00324497,0.80763334,0.5896616,-95.671,288.241,-1.711,0.052309997,-0.00421,1.56951
24.175,2000,0,91.24,0.000002697398,0.000002697398,0.000002697398,0.99999994,0,0,0,0,0,0,1,1,0,0,0,false,false,true,-15.679999,-4943.62,16.93,-0.0040272153,0.003029178,0.8114722,0.5843692,-99.061,292.961,0.751,0.041009996,-0.00381,1.59481
24.183332,2000,0,91.24,0.000002697398,0.000002697398,0.000002697398,0.99999994,0,0,0,0,0,0,1,1,0,0,0,false,false,true,-16.51,-4941.1797,16.869999,-0.003962478,0.0028565447,0.81533873,0.57896364,-102.550995,297.621,2.951,0.03101,-0.00331,1.62001
24.191668,2000,0,91.24,0.000002697398,0.000002697398,0.000002697398,0.99999994,0,0,0,0,0,0,1,1,0,0,0,false,false,true,-17.359999,-4938.6997,16.83,-0.0039193192,0.0027162798,0.81923026,0.5734447,-106.141,302.211,4.8609996,0.02241,-0.00271,1.64511
24.2,2000,0,91.24,0.000002697398,0.000002697398,0.000002697398,0.99999994,0,0,0,0,0,0,1,1,0,0,0,false,false,true,-18.24,-4936.1797,16.8,-0.0038923454,0.0026083838,0.82314074,0.5678179,-109.83099,306.731,6.4709997,0.015209999,-0.00211,1.67011
24.208334,2000,0,91.24,0.000002697398,0.000002697398,0.000002697398,0.99999994,0,0,0,0,0,0,1,1,0,0,0,false,false,true,-19.16,-4933.62,16.789999,-0.003881556,0.0025220674,0.8270713,0.5620779,-113.620995,311.171,7.8209996,0.00931,-0.00151,1.69501
24.216667,2000,0,91.24,0.000002697398,0.000002697398,0.000002697398,0.99999994,0,0,0,0,0,0,1,1,0,0,0,false,false,true,-20.109999,-4931.03,16.789999,-0.003881556,0.0024573298,0.83101934,0.5562245,-117.520996,315.531,8.871,0.00421,-0.00081,1.71991
24.225,2000,0,91.24,0.000002697398,0.000002697398,0.000002697398,0.99999994,0,0,0,0,0,0,1,1,0,0,0,false,false,true,-21.09,-4928.4,16.8,-0.0038923454,0.0024141711,0.83498573,0.55025244,-121.520996,319.811,9.581,0,-0.00021,1.74471
24.233334,2000,0,91.24,0.000002697398,0.000002697398,0.000002697398,0.99999994,0,0,0,0,0,0,1,1,0,0,0,false,false,true,-22.1,-4925.73,16.81,-0.00390853,0.0023871975,0.8389643,0.54416716,-125.620995,324.001,9.991,-0.00241,0.00010999999,1.76941
24.241667,2000,0,91.24,0.000002697398,0.000002697398,0.000002697398,0.99999994,0,0,0,0,0,0,1,1,0,0,0,false,false,true,-23.15,-4923.03,16.83,-0.0039301086,0.002365618,0.84295243,0.5379684,-129.821,328.111,10.211,-0.00371,0.00040999998,1.7940099
24.25,2000,0,91.24,0.000002697398,0.000002697398,0.000002697398,0.99999994,0,0,0,0,0,0,1,1,0,0,0,false,false,true,-24.23,-4920.3,16.85,-0.0039570834,0.002349434,0.8469509,0.53165114,-134.121,332.121,10.261001,-0.0043099998,0.00061,1.8185099
24.258333,2000,0,91.24,0.000002697398,0.000002697398,0.000002697398,0.99999994,0,0,0,0,0,0,1,1,0,0,0,false,false,true,-25.35,-4917.53,16.869999,-0.003984057,0.0023386441,0.8509536,0.52522045,-138.52101,336.041,10.211,-0.00451,0.00071,1.8429099
24.266666,2000,0,91.24,0.000002697398,0.000002697398,0.000002697398,0.99999994,0,0,0,0,0,0,1,1,0,0,0,false,false,true,-26.5,-4914.73,16.89,-0.004011031,0.0023278545,0.85496116,0.5186711,-143.02101,339.861,10.091001,-0.00441,0.00081,1.8672099
24.275,2000,0,91.24,0.000002697398,0.000002697398,0.000002697398,0.99999994,0,0,0,0,0,0,1,1,0,0,0,false,false,true,-27.689999,-4911.9,16.91,-0.004038005,0.0023116702,0.85897094,0.5120032,-147.621,343.571,9.941,-0.00411,0.00081,1.89141
24.283333,2000,0,91.24,0.000002697398,0.000002697398,0.000002697398,0.99999994,0,0,0,0,0,0,1,1,0,0,0,false,false,true,-28.92,-4909.04,16.93,-0.004059584,0.0022954857,0.86297995,0.5052165,-152.321,347.181,9.761001,-0.00381,0.00081,1.9155099
24.291666,2000,0,91.24,0.000002697398,0.000002697398,0.000002697398,0.99999994,0,0,0,0,0,0,1,1,0,0,0,false,false,true,-30.189999,-4906.15,16.94,-0.0040811626,0.0022793012,0.8669855,0.4983111,-157.121,350.681,9.561,-0.00351,0.00071,1.93961
24.3,2000,0,91.24,0.000002697398,0.000002697398,0.000002697398,0.99999994,0,0,0,0,0,0,1,1,0,0,0,false,false,true,-31.5,-4903.23,16.949999,-0.0041027428,0.002263117,0.8709851,0.49128708,-162.021,354.061,9.391,-0.00321,0.00061,1.9636099
24.308332,2000,0,91.24,0.000002697398,0.000002697398,0.000002697398,0.99999994,0,0,0,0,0,0,1,1,0,0,0,false,false,true,-32.85,-4900.28,16.96,-0.004124321,0.0022415374,0.8749754,0.4841443,-167.011,357.331,9.241,-0.00281,0.00051,1.98751
24.316668,2000,0,91.24,0.000002697398,0.000002697398,0.000002697398,0.99999994,0,0,0,0,0,0,1,1,0,0,0,false,false,true,-34.239998,-4897.3,16.97,-0.004145901,0.0022199587,0.8789542,0.476883,-172.101,360.481,9.111,-0.00251,0.00040999998,2.0113099
24.325,2000,0,91.24,0.000002697398,0.000002697398,0.000002697398,0.99999994,0,0,0,0,0,0,1,1,0,0,0,false,false,true,-35.67,-4894.3,16.98,-0.00416748,0.0021929846,0.88291836,0.46950278,-177.281,363.501,8.981,-0.00221,0.00030999997,2.0350099
24.333334,2000,0,91.24,0.000002697398,0.000002697398,0.000002697398,0.99999994,0,0,0,0,0,0,1,1,0,0,0,false,false,true,-37.149998,-4891.27,16.99,-0.0041890587,0.0021660104,0.88686794,0.46199858,-182.55101,366.401,8.861,-0.00201,0.00021,2.05861
24.341667,2000,0,91.24,0.000002697398,0.000002697398,0.000002697398,0.99999994,0,0,0,0,0,0,1,1,0,0,0,false,false,true,-38.67,-4888.2197,17,-0.004210639,0.0021390368,0.89079756,0.4543758,-187.911,369.171,8.741,-0.0018099999,0.00010999999,2.08211
24.35,2000,0,91.24,0.000002697398,0.000002697398,0.000002697398,0.99999994,0,0,0,0,0,0,1,1,0,0,0,false,false,true,-40.239998,-4885.1396,17.01,-0.004232218,0.0021120629,0.8947068,0.4466288,-193.36101,371.801,8.6310005,-0.0016099999,0,2.10551
24.358334,2000,0,91.24,0.000002697398,0.000002697398,0.000002697398,0.99999994,0,0,0,0,0,0,1,1,0,0,0,false,false,true,-41.85,-4882.04,17.01,-0.004253797,0.0020796938,0.8985902,0.43876314,-198.901,374.291,8.511001,-0.00131,0,2.12881
24.366667,2000,0,91.24,0.000002697398,0.000002697398,0.000002697398,0.99999994,0,0,0,0,0,0,1,1,0,0,0,false,false,true,-43.51,-4878.92,17.01,-0.0042753755,0.0020473248,0.9024475,0.43077332,-204.521,376.641,8.441,-0.00111,0,2.15201
24.375,2000,0,91.24,0.000002697398,0.000002697398,0.000002697398,0.99999994,0,0,0,0,0,0,1,1,0,0,0,false,false,true,-45.21,-4875.78,17.01,-0.004296955,0.0020149562,0.9062735,0.422665,-210.22101,378.851,8.391,-0.00091,0,2.1751099
24.383333,2000,0,91.24,0.000002697398,0.000002697398,0.000002697398,0.99999994,0,0,0,0,0,0,1,1,0,0,0,false,false,true,-46.96,-4872.62,17.01,-0.0043185344,0.001977193,0.9100676,0.41443256,-216.001,380.911,8.361,-0.00081,0,2.1981099
24.391666,2000,0,91.24,0.000002697398,0.000002697398,0.000002697398,0.99999994,0,0,0,0,0,0,1,1,0,0,0,false,false,true,-48.76,-4869.4497,17.01,-0.0043401127,0.001939429,0.91382444,0.4060813,-221.86101,382.82098,8.341001,-0.00071,0,2.22101
24.4,2000,0,91.24,0.000002697398,0.000002697398,0.000002697398,0.99999994,0,0,0,0,0,0,1,1,0,0,0,false,false,true,-50.61,-4866.26,17.01,-0.0043616924,0.0019016657,0.9175438,0.39760607,-227.791,384.581,8.331,-0.00061,0,2.24381
24.408333,2000,0,91.24,0.000002697398,0.000002697398,0.000002697398,0.99999994,0,0,0,0,0,0,1,1,0,0,0,false,false,true,-52.51,-4863.06,17.01,-0.0043778773,0.0018639022,0.9212203,0.3890122,-233.801,386.181,8.331,-0.00051,0,2.26651
24.416666,2000,0,91.24,0.000002697398,0.000002697398,0.000002697398,0.99999994,0,0,0,0,0,0,1,1,0,0,0,false,false,true,-54.46,-4859.84,17.01,-0.004394062,0.0018261386,0.9248533,0.3802941,-239.871,387.621,8.331,-0.00040999998,0,2.2892098
24.425,2000,0,91.24,0.000002697398,0.000002697398,0.000002697398,0.99999994,0,0,0,0,0,0,1,1,0,0,0,false,false,true,-56.46,-4856.61,17.01,-0.0044102455,0.001788375,0.9284377,0.37145743,-246.011,388.901,8.331,-0.00030999997,0,2.31181
24.433332,2000,0,91.24,0.000002697398,0.000002697398,0.000002697398,0.99999994,0,0,0,0,0,0,1,1,0,0,0,false,false,true,-58.51,-4853.37,17.01,-0.00442643,0.0017452165,0.93197286,0.36249658,-252.211,390.011,8.331,-0.00030999997,0,2.33431
24.441668,2000,0,91.24,0.000002697398,0.000002697398,0.000002697398,0.99999994,0,0,0,0,0,0,1,1,0,0,0,false,false,true,-60.609997,-4850.12,17.01,-0.0044426145,0.0017020581,0.93545365,0.35341713,-258.471,390.951,8.331,-0.00030999997,0,2.35671
24.45,2000,0,91.24,0.000002697398,0.000002697398,0.000002697398,0.99999994,0,0,0,0,0,0,1,1,0,0,0,false,false,true,-62.76,-4846.86,17.01,-0.004458799,0.0016588998,0.93887925,0.3442136,-264.781,391.721,8.331,-0.00030999997,0,2.37901
24.458334,2000,0,91.24,0.000002697398,0.000002697398,0.000002697398,0.99999994,0,0,0,0,0,0,1,1,0,0,0,false,false,true,-64.97,-4843.6,17.01,-0.0044749836,0.0016157415,0.9422447,0.33489135,-271.151,392.32098,8.331,-0.00030999997,0,2.40121
24.466667,2000,0,91.24,0.000002697398,0.000002697398,0.000002697398,0.99999994,0,0,0,0,0,0,1,1,0,0,0,false,false,true,-67.229996,-4840.33,17.01,-0.004491167,0.001572583,0.94554883,0.325445,-277.561,392.741,8.331,-0.00021,0,2.42331
24.475,2000,0,91.24,0.000002697398,0.000002697398,0.000002697398,0.99999994,0,0,0,0,0,0,1,1,0,0,0,false,false,true,-69.54,-4837.06,17.01,-0.004507352,0.0015294247,0.94878715,0.31587997,-284.021,392.981,8.331,-0.00021,0,2.4453099
24.483334,2000,0,91.24,0.000002697398,0.000002697398,0.000002697398,0.99999994,0,0,0,0,0,0,1,1,0,0,0,false,false,true,-71.909996,-4833.78,17.01,-0.004523536,0.0014862664,0.95195645,0.3061963,-290.521,393.041,8.331,-0.00021,0,2.46721
24.491667,2000,0,91.24,0.000002697398,0.000002697398,0.000002697398,0.99999994,0,0,0,0,0,0,1,1,0,0,0,false,false,true,-74.33,-4830.5,17.01,-0.0045397207,0.001443108,0.95505387,0.29639387,-297.051,392.911,8.331,-0.00010999999,0,2.4890099
24.5,2000,0,91.24,0.000002697398,0.000002697398,0.000002697398,0.99999994,0,0,0,0,0,0,1,1,0,0,0,false,false,true,-76.81,-4827.23,17.01,-0.0045559057,0.0013945549,0.9580765,0.2864729,-303.611,392.601,8.331,0,0,2.51071
24.508333,2000,0,91.24,0.000002697398,0.000002697398,0.000002697398,0.99999994,0,0,0,0,0,0,1,1,0,0,0,false,false,true,-79.34,-4823.96,17.01,-0.00457209,0.0013460018,0.9610213,0.27643317,-310.201,392.101,8.331,0,0,2.53231
24.516666,2000,0,91.24,0.000002697398,0.000002697398,0.000002697398,0.99999994,0,0,0,0,0,0,1,1,0,0,0,false,false,true,-81.92,-4820.69,17.01,-0.004588274,0.0012974484,0.9638839,0.26628006,-316.811,391.411,8.331,0,0,2.55381
24.525,2000,0,91.24,0.000002697398,0.000002697398,0.000002697398,0.99999994,0,0,0,0,0,0,1,1,0,0,0,false,false,true,-84.56,-4817.4297,17.01,-0.0046044583,0.0012488953,0.9666627,0.25600836,-323.441,390.531,8.331,0,0,2.5752099
24.533333,2000,0,91.24,0.000002697398,0.000002697398,0.000002697398,0.99999994,0,0,0,0,0,0,1,1,0,0,0,false,false,true,-87.259995,-4814.1797,17.01,-0.004615248,0.0012003421,0.96935356,0.2456233,-330.081,389.461,8.331,0,0,2.5966098
24.541666,2000,0,91.24,0.000002697398,0.000002697398,0.000002697398,0.99999994,0,0,0,0,0,0,1,1,0,0,0,false,false,true,-90.009995,-4810.9297,17.01,-0.0046260376,0.001151789,0.9719547,0.23511963,-336.731,388.191,8.331,0,0,2.61791
24.55,2000,0,91.24,0.000002697398,0.000002697398,0.000002697398,0.99999994,0,0,0,0,0,0,1,1,0,0,0,false,false,true,-92.82,-4807.69,17.01,-0.004636827,0.0011032358,0.9744618,0.2245026,-343.381,386.731,8.331,0,0,2.6391098
24.558332,2000,0,91.24,0.000002697398,0.000002697398,0.000002697398,0.99999994,0,0,0,0,0,0,1,1,0,0,0,false,false,true,-95.68,-4804.4697,17.01,-0.004647617,0.0010546828,0.97687185,0.21377236,-350.031,385.07098,8.331,0,0,2.66021
24.566668,2000,0,91.24,0.000002697398,0.000002697398,0.000002697398,0.99999994,0,0,0,0,0,0,1,1,0,0,0,false,false,true,-98.6,-4801.26,17.01,-0.004658406,0.0010007346,0.97918075,0.2029341,-356.671,383.221,8.331,0,0,2.68121
24.575,2000,0,91.24,0.000002697398,0.000002697398,0.000002697398,0.99999994,0,0,0,0,0,0,1,1,0,0,0,false,false,true,-101.57,-4798.07,17.01,-0.004669196,0.0009467867,0.98138666,0.19198267,-363.301,381.171,8.331,0,0,2.70211
24.583334,2000,0,91.24,0.000002697398,0.000002697398,0.000002697398,0.99999994,0,0,0,0,0,0,1,1,0,0,0,false,false,true,-104.6,-4794.89,17.01,-0.004679985,0.00089283864,0.9834855,0.18092324,-369.911,378.921,8.331,0,0,2.72291
24.591667,2000,0,91.24,0.000002697398,0.000002697398,0.000002697398,0.99999994,0,0,0,0,0,0,1,1,0,0,0,false,false,true,-107.68,-4791.73,17.01,-0.004690775,0.0008388908,0.9854745,0.16975603,-376.501,376.471,8.331,0,0,2.74361
24.6,2000,0,91.24,0.000002697398,0.000002697398,0.000002697398,0.99999994,0,0,0,0,0,0,1,1,0,0,0,false,false,true,-110.82,-4788.59,17.01,-0.0047015646,0.0007849428,0.9873505,0.15848081,-383.061,373.82098,8.331,0,0,2.76431
24.608334,2000,0,91.24,0.000002697398,0.000002697398,0.000002697398,0.99999994,0,0,0,0,0,0,1,1,0,0,0,false,false,true,-114.009995,-4785.4697,17.01,-0.0047123544,0.00073099486,0.9891104,0.1470978,-389.591,370.971,8.331,0,0,2.78491
24.616667,2000,0,91.24,0.000002697398,0.000002697398,0.000002697398,0.99999994,0,0,0,0,0,0,1,1,0,0,0,false,false,true,-117.259995,-4782.38,17.01,-0.004723144,0.00067704695,0.9907505,0.1356122,-396.081,367.921,8.331,0,0,2.80541
24.625,2000,0,91.24,0.000002697398,0.000002697398,0.000002697398,0.99999994,0,0,0,0,0,0,1,1,0,0,0,false,false,true,-120.56,-4779.31,17.01,-0.0047285384,0.0006230989,0.99226767,0.124024175,-402.531,364.671,8.331,0,0,2.82581
24.633333,2000,0,91.24,0.000002697398,0.000002697398,0.000002697398,0.99999994,0,0,0,0,0,0,1,1,0,0,0,false,false,true,-123.909996,-4776.27,17.01,-0.0047339336,0.00056915096,0.9936591,0.112333566,-408.931,361.231,8.331,0,0,2.8461099
24.641666,2000,0,91.24,0.000002697398,0.000002697398,0.000002697398,0.99999994,0,0,0,0,0,0,1,1,0,0,0,false,false,true,-127.32,-4773.26,17.01,-0.0047393283,0.000515203,0.9949215,0.10054054,-415.281,357.591,8.331,0,0,2.86631
24.65,2000,0,91.24,0.000002697398,0.000002697398,0.000002697398,0.99999994,0,0,0,0,0,0,1,1,0,0,0,false,false,true,-130.78,-4770.28,17.01,-0.0047447234,0.0004612551,0.9960514,0.08865033,-421.57098,353.751,8.331,0,0,2.88651
24.658333,2000,0,91.24,0.000002697398,0.000002697398,0.000002697398,0.99999994,0,0,0,0,0,0,1,1,0,0,0,false,false,true,-134.29,-4767.33,17.01,-0.004750118,0.00040191234,0.99704564,0.07666301,-427.791,349.711,8.331,0,0,2.90661
24.666666,2000,0,91.24,0.000002697398,0.000002697398,0.000002697398,0.99999994,0,0,0,0,0,0,1,1,0,0,0,false,false,true,-137.84999,-4764.42,17.01,-0.004755513,0.00034256955,0.99790084,0.064584054,-433.941,345.481,8.331,0,0,2.92661
24.675,2000,0,91.24,0.000002697398,0.000002697398,0.000002697398,0.99999994,0,0,0,0,0,0,1,1,0,0,0,false,false,true,-141.47,-4761.54,17.01,-0.0047609075,0.00028322678,0.998614,0.05241331,-440.021,341.061,8.331,0,0,2.9465098
24.683332,2000,0,91.24,0.000002697398,0.000002697398,0.000002697398,0.99999994,0,0,0,0,0,0,1,1,0,0,0,false,false,true,-145.14,-4758.6997,17.01,-0.004766302,0.00022388404,0.99918216,0.040150937,-446.021,336.441,8.331,0,0,2.96641
24.691668,2000,0,91.24,0.000002697398,0.000002697398,0.000002697398,0.99999994,0,0,0,0,0,0,1,1,0,0,0,false,false,true,-148.86,-4755.9,17.01,-0.0047663017,0.00016454127,0.9996021,0.027796768,-451.931,331.631,8.331,0,0,2.9862099
24.7,2000,0,91.24,0.000002697398,0.000002697398,0.000002697398,0.99999994,0,0,0,0,0,0,1,1,0,0,0,false,false,true,-152.62999,-4753.14,17.01,-0.0047663026,0.00010519853,0.9998707,0.015356373,-457.751,326.631,8.331,0,0,3.00591
24.708334,2000,0,91.24,0.000002697398,0.000002697398,0.000002697398,0.99999994,0,0,0,0,0,0,1,1,0,0,0,false,false,true,-156.44,-4750.42,17.01,-0.004766302,0.000045855766,0.99998456,0.0028349652,-463.471,321.451,8.331,0,0,3.02561
24.716667,2000,0,91.24,0.000002697398,0.000002697398,0.000002697398,0.99999994,0,0,0,0,0,0,1,1,0,0,0,false,false,true,-160.3,-4747.7397,17.01,-0.0047663026,-0.0000134869915,0.9999409,-0.009772716,-469.091,316.081,8.331,0,0,3.04521
24.725,2000,0,91.24,0.000002697398,0.000002697398,0.000002697398,0.99999994,0,0,0,0,0,0,1,1,0,0,0,false,false,true,-164.20999,-4745.11,17.01,-0.004766302,-0.000072829745,0.9997363,-0.022461317,-474.60098,310.531,8.331,0,0,3.06471
24.733334,2000,0,91.24,0.000002697398,0.000002697398,0.000002697398,0.99999994,0,0,0,0,0,0,1,1,0,0,0,false,false,true,-168.16,-4742.52,17.01,-0.004766302,-0.0001321725,0.99936795,-0.035225447,-480.001,304.801,8.331,0,0,3.08421
24.741667,2000,0,91.24,0.000002697398,0.000002697398,0.000002697398,0.99999994,0,0,0,0,0,0,1,1,0,0,0,false,false,true,-172.16,-4739.98,17.01,-0.004766302,-0.00019151527,0.99883276,-0.048065104,-485.291,298.891,8.331,0,0,3.10361
24.75,2000,0,91.24,0.000002697398,0.000002697398,0.000002697398,0.99999994,0,0,0,0,0,0,1,1,0,0,0,false,false,true,-176.2,-4737.4897,17.01,-0.0047609075,-0.00025085802,0.9981279,-0.060974937,-490.451,292.811,8.331,0,0,3.12291
24.758333,2000,0,91.24,0.000002697398,0.000002697398,0.000002697398,0.99999994,0,0,0,0,0,0,1,1,0,0,0,false,false,true,-180.29,-4735.05,17.01,-0.004755513,-0.00031020076,0.99725014,-0.07395486,-495.491,286.561,8.331,0,0,3.14221
24.766666,2000,0,91.24,0.000002697398,0.000002697398,0.000002697398,0.99999994,0,0,0,0,0,0,1,1,0,0,0,false,false,true,-184.42,-4732.6597,17.01,-0.004750117,-0.0003749383,0.9961963,-0.0870049,-500.401,280.141,8.331,0.00010999999,0,3.1614099
24.775,2000,0,91.24,0.000002697398,0.000002697398,0.000002697398,0.99999994,0,0,0,0,0,0,1,1,0,0,0,false,false,true,-188.59,-4730.32,17.01,-0.004744723,-0.00043967587,0.99496394,-0.1001197,-505.171,273.551,8.331,0.00010999999,0,3.18061
24.783333,2000,0,91.24,0.000002697398,0.000002697398,0.000002697398,0.99999994,0,0,0,0,0,0,1,1,0,0,0,false,false,true,-192.8,-4728.04,17.01,-0.0047393283,-0.00050441345,0.99355006,-0.11329384,-509.801,266.801,8.331,0.00010999999,0,3.19971
24.791666,2000,0,91.24,0.000002697398,0.000002697398,0.000002697398,0.99999994,0,0,0,0,0,0,1,1,0,0,0,false,false,true,-197.05,-4725.82,17.01,-0.004733933,-0.0005691509,0.9919515,-0.1265273,-514.29095,259.891,8.331,0.00010999999,0,3.21871
24.8,2000,0,91.24,0.000002697398,0.000002697398,0.000002697398,0.99999994,0,0,0,0,0,0,1,1,0,0,0,false,false,true,-201.34,-4723.65,17.01,-0.0047285384,-0.0006338885,0.99016535,-0.13982017,-518.631,252.821,8.331,0,0,3.23771
24.808332,2000,0,91.24,0.000002697398,0.000002697398,0.000002697398,0.99999994,0,0,0,0,0,0,1,1,0,0,0,false,false,true,-205.65999,-4721.54,17.01,-0.0047177486,-0.00069862604,0.9881887,-0.15316692,-522.821,245.601,8.331,0,0,3.2567098
24.816668,2000,0,91.24,0.000002697398,0.000002697398,0.000002697398,0.99999994,0,0,0,0,0,0,1,1,0,0,0,false,false,true,-210.01999,-4719.4897,17.01,-0.00470696,-0.0007633637,0.9860194,-0.16656227,-526.85095,238.231,8.331,0,0,3.27561
24.825,2000,0,91.24,0.000002697398,0.000002697398,0.000002697398,0.99999994,0,0,0,0,0,0,1,1,0,0,0,false,false,true,-214.40999,-4717.5,17.01,-0.00469617,-0.0008281012,0.98365384,-0.18000613,-530.72095,230.72101,8.331,0,0,3.29451
24.833334,2000,0,91.24,0.000002697398,0.000002697398,0.000002697398,0.99999994,0,0,0,0,0,0,1,1,0,0,0,false,false,true,-218.83,-4715.58,17.01,-0.0046853805,-0.00089283875,0.98108995,-0.19349322,-534.43097,223.071,8.331,0,0,3.31331
24.841667,2000,0,91.24,0.000002697398,0.000002697398,0.000002697398,0.99999994,0,0,0,0,0,0,1,1,0,0,0,false,false,true,-223.28,-4713.7197,17.01,-0.0046745907,-0.0009575763,0.9783254,-0.207018,-537.97095,215.281,8.331,0,0,3.33211
24.85,2000,0,91.24,0.000002697398,0.000002697398,0.000002697398,0.99999994,0,0,0,0,0,0,1,1,0,0,0,false,false,true,-227.76,-4711.9297,17.01,-0.0046584066,-0.001022314,0.97535706,-0.2205806,-541.34094,207.351,8.331,0,0,3.3508098
24.858334,2000,0,91.24,0.000002697398,0.000002697398,0.000002697398,0.99999994,0,0,0,0,0,0,1,1,0,0,0,false,false,true,-232.26999,-4710.1997,17.01,-0.0046422225,-0.0010870515,0.97218263,-0.23417552,-544.54095,199.291,8.331,0,0,3.36951
24.866667,2000,0,91.24,0.000002697398,0.000002697398,0.000002697398,0.99999994,0,0,0,0,0,0,1,1,0,0,0,false,false,true,-236.81,-4708.54,17.01,-0.0046260376,-0.001151789,0.9687987,-0.2478028,-547.561,191.11101,8.331,0,0,3.3882098
24.875,2000,0,91.24,0.000002697398,0.000002697398,0.000002697398,0.99999994,0,0,0,0,0,0,1,1,0,0,0,false,false,true,-241.37,-4706.9497,17.01,-0.0046098535,-0.0012165266,0.9652033,-0.26145712,-550.40094,182.811,8.331,0,0,3.40681
24.883333,2000,0,91.24,0.000002697398,0.000002697398,0.000002697398,0.99999994,0,0,0,0,0,0,1,1,0,0,0,false,false,true,-245.95999,-4705.4297,17.01,-0.0045936685,-0.0012812639,0.9613942,-0.27513292,-553.05096,174.391,8.331,0,0,3.42541
24.891666,2000,0,91.24,0.000002697398,0.000002697398,0.000002697398,0.99999994,0,0,0,0,0,0,1,1,0,0,0,false,false,true,-250.56999,-4703.98,17.01,-0.0045774844,-0.0013460016,0.95737,-0.28882498,-555.52094,165.86101,8.331,0,0,3.44401
24.9,2000,0,91.24,0.000002697398,0.000002697398,0.000002697398,0.99999994,0,0,0,0,0,0,1,1,0,0,0,false,false,true,-255.2,-4702.6,17.01,-0.004555905,-0.001410739,0.9531268,-0.30253318,-557.80096,157.22101,8.331,0,0,3.4625099
24.908333,2000,0,91.24,0.000002697398,0.000002697398,0.000002697398,0.99999994,0,0,0,0,0,0,1,1,0,0,0,false,false,true,-259.85,-4701.29,17.01,-0.0045343265,-0.0014754769,0.9486631,-0.3162523,-559.881,148.47101,8.331,0,0,3.48101
24.916666,2000,0,91.24,0.000002697398,0.000002697398,0.000002697398,0.99999994,0,0,0,0,0,0,1,1,0,0,0,false,false,true,-264.52,-4700.05,17.01,-0.0045127473,-0.0015402144,0.943977,-0.32997668,-561.77094,139.621,8.331,0,0,3.4995098
24.925,2000,0,91.24,0.000002697398,0.000002697398,0.000002697398,0.99999994,0,0,0,0,0,0,1,1,0,0,0,false,false,true,-269.19998,-4698.89,17.01,-0.004491167,-0.0016049517,0.93906486,-0.34370643,-563.46094,130.671,8.331,0,0,3.51801
24.933332,2000,0,91.24,0.000002697398,0.000002697398,0.000002697398,0.99999994,0,0,0,0,0,0,1,1,0,0,0,false,false,true,-273.9,-4697.8,17.01,-0.0044695884,-0.0016696894,0.9339253,-0.35743627,-564.951,121.631,8.331,0,0,3.5364099
24.941668,2000,0,91.24,0.000002697398,0.000002697398,0.000002697398,0.99999994,0,0,0,0,0,0,1,1,0,0,0,false,false,true,-278.61,-4696.79,17.01,-0.0044426145,-0.001734427,0.9285563,-0.37116072,-566.23096,112.501,8.331,0,0.00010999999,3.5548098
24.95,2000,0,91.24,0.000002697398,0.000002697398,0.000002697398,0.99999994,0,0,0,0,0,0,1,1,0,0,0,false,false,true,-283.33,-4695.85,17.01,-0.004415641,-0.0017991647,0.92295665,-0.38487434,-567.311,103.291,8.331,0,0.00010999999,3.57321
24.958334,2000,0,91.24,0.000002697398,0.000002697398,0.000002697398,0.99999994,0,0,0,0,0,0,1,1,0,0,0,false,false,true,-288.06,-4694.9897,17.01,-0.0043886667,-0.0018639021,0.9171247,-0.39857176,-568.18097,94.001,8.331,0,0.00010999999,3.59161
24.966667,2000,0,91.24,0.000002697398,0.000002697398,0.000002697398,0.99999994,0,0,0,0,0,0,1,1,0,0,0,false,false,true,-292.79,-4694.21,17.01,-0.004361692,-0.0019286394,0.91105676,-0.41225302,-568.84094,84.631,8.331,0,0.00010999999,3.60991
24.975,2000,0,91.24,0.000002697398,0.000002697398,0.000002697398,0.99999994,0,0,0,0,0,0,1,1,0,0,0,false,false,true,-297.53,-4693.5,17.01,-0.0043293233,-0.0019933768,0.9047541,-0.42590722,-569.28094,75.190994,8.331,0,0.00010999999,3.6282098
24.983334,2000,0,91.24,0.000002697398,0.000002697398,0.000002697398,0.99999994,0,0,0,0,0,0,1,1,0,0,0,false,false,true,-302.27,-4692.87,17.01,-0.004296955,-0.0020581146,0.89821297,-0.4395346,-569.511,65.681,8.331,0,0.00010999999,3.64651
24.991667,2000,0,91.24,0.000002697398,0.000002697398,0.000002697398,0.99999994,0,0,0,0,0,0,1,1,0,0,0,false,false,true,-307.02,-4692.32,17.01,-0.0042645866,-0.0021228525,0.8914319,-0.45312956,-569.52094,56.100998,8.331,0,0.00010999999,3.6647098
25,2000,0,91.24,0.000002697398,0.000002697398,0.000002697398,0.99999994,0,0,0,0,0,0,1,1,0,0,0,false,false,true,-311.77,-4691.85,17.01,-0.0042322176,-0.0021875896,0.8844098,-0.4666867,-569.311,46.461,8.331,0,0.00010999999,3.68291
25.008333,2000,0,91.24,0.000002697398,0.000002697398,0.000002697398,0.99999994,0,0,0,0,0,0,1,1,0,0,0,false,false,true,-316.50998,-4691.46,17.01,-0.0041998485,-0.0022523273,0.8771456,-0.48020077,-568.871,36.760998,8.331,0,0.00010999999,3.70111
25.016666,2000,0,91.24,0.000002697398,0.000002697398,0.000002697398,0.99999994,0,0,0,0,0,0,1,1,0,0,0,false,false,true,-321.25,-4691.15,17.01,-0.0041620852,-0.002317065,0.8696353,-0.49367157,-568.21094,27.011,8.331,-0.00010999999,0.00010999999,3.71921
25.025,2000,0,91.24,0.000002697398,0.000002697398,0.000002697398,0.99999994,0,0,0,0,0,0,1,1,0,0,0,false,false,true,-325.99,-4690.92,17.01,-0.0041243215,-0.0023818025,0.8618808,-0.5070885,-567.321,17.210999,8.331,-0.00010999999,0.00010999999,3.73731
25.033333,2000,0,91.24,0.000002697398,0.000002697398,0.000002697398,0.99999994,0,0,0,0,0,0,1,1,0,0,0,false,false,true,-330.72,-4690.78,17.01,-0.004086558,-0.00244654,0.8538812,-0.52044606,-566.201,7.3609996,8.331,-0.00010999999,0.00010999999,3.7553098
25.041666,2000,0,91.24,0.000002697398,0.000002697398,0.000002697398,0.99999994,0,0,0,0,0,0,1,1,0,0,0,false,false,true,-335.44,-4690.7197,17.01,-0.0040487945,-0.0025112776,0.84563243,-0.5337443,-564.85095,-2.521,8.331,-0.00010999999,0,3.77331
25.05,2000,0,91.24,0.000002697398,0.000002697398,0.000002697398,0.99999994,0,0,0,0,0,0,1,1,0,0,0,false,false,true,-340.15,-4690.7397,17.01,-0.004011031,-0.0025760152,0.837137,-0.5469724,-563.261,-12.441,8.331,-0.00021,0,3.79121
25.058332,2000,0,91.24,0.000002697398,0.000002697398,0.000002697398,0.99999994,0,0,0,0,0,0,1,1,0,0,0,false,false,true,-344.84,-4690.84,17.01,-0.0039678724,-0.0026407526,0.8283907,-0.5601303,-561.441,-22.390999,8.331,-0.00030999997,0,3.80901
25.066668,2000,0,91.24,0.000002697398,0.000002697398,0.000002697398,0.99999994,0,0,0,0,0,0,1,1,0,0,0,false,false,true,-349.52,-4691.03,17.01,-0.003924714,-0.0027000955,0.8193964,-0.5732074,-559.381,-32.371,8.331,-0.00030999997,0,3.82671
25.075,2000,0,91.24,0.000002697398,0.000002697398,0.000002697398,0.99999994,0,0,0,0,0,0,1,1,0,0,0,false,false,true,-354.18,-4691.3,17.01,-0.0038815557,-0.0027594382,0.81015366,-0.5861981,-557.04095,-42.330997,8.331,-0.00030999997,0,3.84561
25.083334,2000,0,91.24,0.000002697398,0.000002697398,0.000002697398,0.99999994,0,0,0,0,0,0,1,1,0,0,0,false,false,true,-358.81998,-4691.65,17.01,-0.0038383976,-0.002818781,0.80065817,-0.59910244,-554.42096,-52.260998,8.331,-0.00030999997,0,3.86581
25.091667,2000,0,91.24,0.000002697398,0.000002697398,0.000002697398,0.99999994,0,0,0,0,0,0,1,1,0,0,0,false,false,true,-363.44,-4692.09,17.01,-0.0037898442,-0.0028781237,0.79090476,-0.6119206,-551.52094,-62.141,8.331,-0.00021,0,3.88741
25.1,2000,0,91.24,0.000002697398,0.000002697398,0.000002697398,0.99999994,0,0,0,0,0,0,1,1,0,0,0,false,false,true,-368.03998,-4692.61,17.01,-0.0037412911,-0.0029374664,0.7808884,-0.6246523,-548.34094,-71.971,8.331,-0.00021,0,3.91031
25.108334,2000,0,91.24,0.000002697398,0.000002697398,0.000002697398,0.99999994,0,0,0,0,0,0,1,1,0,0,0,false,false,true,-372.61,-4693.21,17.01,-0.003692738,-0.0029968093,0.7706073,-0.6372924,-544.881,-81.751,8.331,-0.00010999999,0,3.93451
25.116667,2000,0,91.24,0.000002697398,0.000002697398,0.000002697398,0.99999994,0,0,0,0,0,0,1,1,0,0,0,false,false,true,-377.15,-4693.89,17.01,-0.0036441851,-0.0030561523,0.7600554,-0.6498408,-541.15094,-91.461,8.331,-0.00010999999,0,3.9600098
25.125,2000,0,91.24,0.000002697398,0.000002697398,0.000002697398,0.99999994,0,0,0,0,0,0,1,1,0,0,0,false,false,true,-381.66,-4694.65,17.01,-0.0035956318,-0.003115495,0.7492307,-0.662292,-537.141,-101.101,8.331,0,0,3.98681
25.133333,2000,0,91.24,0.000002697398,0.000002697398,0.000002697398,0.99999994,0,0,0,0,0,0,1,1,0,0,0,false,false,true,-386.13998,-4695.4897,17.01,-0.0035416838,-0.0031748374,0.7381259,-0.6746461,-532.86096,-110.660995,8.331,0,0,4.0149097
25.141666,2000,0,91.24,0.000002697398,0.000002697398,0.000002697398,0.99999994,0,0,0,0,0,0,1,1,0,0,0,false,false,true,-390.58,-4696.4097,17.01,-0.0034877358,-0.0032341804,0.72673845,-0.6868977,-528.311,-120.141,8.331,0,0,4.04431
25.15,2000,0,91.24,0.000002697398,0.000002697398,0.000002697398,0.99999994,0,0,0,0,0,0,1,1,0,0,0,false,false,true,-394.97998,-4697.4097,17.01,-0.0034337877,-0.003293523,0.71505994,-0.69904685,-523.49097,-129.531,8.331,0,0,4.0749097
25.158333,2000,0,91.24,0.000002697398,0.000002697398,0.000002697398,0.99999994,0,0,0,0,0,0,1,1,0,0,0,false,false,true,-399.34,-4698.4897,17.01,0.00337984,0.003352866,-0.7030876,0.7110872,-518.40094,-138.821,8.331,0,0,4.10681
25.166666,2000,0,91.24,0.000002697398,0.000002697398,0.000002697398,0.99999994,0,0,0,0,0,0,1,1,0,0,0,false,false,true,-403.66,-4699.65,17.01,0.003320497,0.0034122085,-0.6908198,0.7230112,-513.04095,-148.001,8.331,0,0,4.14001
25.175,2000,0,91.24,0.000002697398,0.000002697398,0.000002697398,0.99999994,0,0,0,0,0,0,1,1,0,0,0,false,false,true,-407.94,-4700.88,17.01,0.0032611538,0.0034715508,-0.67824435,0.73482084,-507.421,-157.071,8.331,0,0,4.17441
25.183332,2000,0,91.24,0.000002697398,0.000002697398,0.000002697398,0.99999994,0,0,0,0,0,0,1,1,0,0,0,false,false,true,-412.16998,-4702.19,17.01,0.0032018116,0.0035254993,-0.6653616,0.7465059,-501.521,-166.011,8.331,0,0,4.20991
25.191668,2000,0,91.24,0.000002697398,0.000002697398,0.000002697398,0.99999994,0,0,0,0,0,0,1,1,0,0,0,false,false,true,-416.34998,-4703.57,17.01,0.003137074,0.0035794473,-0.6521659,0.75806123,-495.291,-174.781,8.331,0,0,4.24581
25.2,2000,0,91.24,0.000002697398,0.000002697398,0.000002697398,0.99999994,0,0,0,0,0,0,1,1,0,0,0,false,false,true,-420.47998,-4705.03,17.01,0.003072336,0.0036333948,-0.63865185,0.76948094,-488.731,-183.36101,8.331,0,0,4.28221
25.208334,2000,0,91.24,0.000002697398,0.000002697398,0.000002697398,0.99999994,0,0,0,0,0,0,1,1,0,0,0,false,false,true,-424.55,-4706.56,17.01,0.003007599,0.003687343,-0.6248195,0.7807546,-481.85098,-191.741,8.331,0,0,4.31901
25.216667,2000,0,91.24,0.000002697398,0.000002697398,0.000002697398,0.99999994,0,0,0,0,0,0,1,1,0,0,0,false,false,true,-428.56998,-4708.1597,17.01,0.0029428613,0.0037412911,-0.61066896,0.7918716,-474.661,-199.911,8.331,0,0,4.35631
25.225,2000,0,91.24,0.000002697398,0.000002697398,0.000002697398,0.99999994,0,0,0,0,0,0,1,1,0,0,0,false,false,true,-432.53,-4709.83,17.01,0.002872729,0.0037952391,-0.5961947,0.8028257,-467.161,-207.86101,8.331,0,0,4.39401
25.233334,2000,0,91.24,0.000002697398,0.000002697398,0.000002697398,0.99999994,0,0,0,0,0,0,1,1,0,0,0,false,false,true,-436.41998,-4711.56,17.01,0.0028025967,0.0038491872,-0.58139664,0.8136062,-459.361,-215.58101,8.331,0,0,4.43221
25.241667,2000,0,91.24,0.000002697398,0.000002697398,0.000002697398,0.99999994,0,0,0,0,0,0,1,1,0,0,0,false,false,true,-440.25,-4713.36,17.01,0.002732464,0.0038977403,-0.566275,0.82420254,-451.261,-223.051,8.331,0,0,4.47091
25.25,2000,0,91.24,0.000002697398,0.000002697398,0.000002697398,0.99999994,0,0,0,0,0,0,1,1,0,0,0,false,false,true,-444.00998,-4715.2197,17.01,0.002656937,0.003946293,-0.5508243,0.8346076,-442.881,-230.261,8.331,0,0,4.51011
25.258333,2000,0,91.24,0.000002697398,0.000002697398,0.000002697398,0.99999994,0,0,0,0,0,0,1,1,0,0,0,false,false,true,-447.69998,-4717.14,17.01,0.0025814099,0.0039948463,-0.5350444,0.8448105,-434.221,-237.201,8.331,0,0,4.54971
25.266666,2000,0,91.24,0.000002697398,0.000002697398,0.000002697398,0.99999994,0,0,0,0,0,0,1,1,0,0,0,false,false,true,-451.31998,-4719.12,17.01,0.0025058826,0.0040433994,-0.5189355,0.8548001,-425.291,-243.86101,8.331,0,0,4.58981
25.275,2000,0,91.24,0.000002697398,0.000002697398,0.000002697398,0.99999994,0,0,0,0,0,0,1,1,0,0,0,false,false,true,-454.86,-4721.15,17.01,0.0024303556,0.0040919525,-0.50249213,0.8645686,-416.10098,-250.231,8.331,0,0.00010999999,4.6304097
25.283333,2000,0,91.24,0.000002697398,0.000002697398,0.000002697398,0.99999994,0,0,0,0,0,0,1,1,0,0,0,false,false,true,-458.33,-4723.23,17.01,0.002349434,0.0041405065,-0.48571965,0.87410164,-406.731,-256.231,8.321,0,0.00010999999,4.6708097
25.291666,2000,0,91.24,0.000002697398,0.000002697398,0.000002697398,0.99999994,0,0,0,0,0,0,1,1,0,0,0,false,false,true,-461.72,-4725.37,17.01,0.002268512,0.004183665,-0.46861807,0.88338804,-397.211,-261.841,8.321,-0.00010999999,0.00010999999,4.71071
25.3,2000,0,91.24,0.000002697398,0.000002697398,0.000002697398,0.99999994,0,0,0,0,0,0,1,1,0,0,0,false,false,true,-465.03,-4727.55,17.01,0.0021875896,0.0042268224,-0.4511874,0.8924165,-387.561,-267.061,8.321,-0.00010999999,0.00021,4.75021
25.308332,2000,0,91.24,0.000002697398,0.000002697398,0.000002697398,0.99999994,0,0,0,0,0,0,1,1,0,0,0,false,false,true,-468.25998,-4729.78,17.01,0.0021012733,0.0042699813,-0.43343848,0.90117055,-377.791,-271.881,8.321,-0.00021,0.00030999997,4.78931
25.316668,2000,0,91.24,0.000002697398,0.000002697398,0.000002697398,0.99999994,0,0,0,0,0,0,1,1,0,0,0,false,false,true,-471.41,-4732.05,17.01,0.0020149562,0.0043131392,-0.41537124,0.9096395,-367.921,-276.311,8.321,-0.00021,0.00030999997,4.82801
25.325,2000,0,91.24,0.000002697398,0.000002697398,0.000002697398,0.99999994,0,0,0,0,0,0,1,1,0,0,0,false,false,true,-474.47998,-4734.35,17.01,0.0019286396,0.0043562977,-0.39699107,0.91781,-357.971,-280.331,8.321,-0.00030999997,0.00030999997,4.86621
25.333334,2000,0,91.24,0.000002697398,0.000002697398,0.000002697398,0.99999994,0,0,0,0,0,0,1,1,0,0,0,false,false,true,-477.46,-4736.69,17.01,0.0018369281,0.0043940614,-0.3783034,0.9256693,-347.981,-283.921,8.321,-0.00030999997,0.00030999997,4.9036098
25.341667,2000,0,91.24,0.000002697398,0.000002697398,0.000002697398,0.99999994,0,0,0,0,0,0,1,1,0,0,0,false,false,true,-480.36,-4739.06,17.01,0.0017452167,0.004431825,-0.35931367,0.93320465,-337.971,-287.071,8.321,-0.00030999997,0.00030999997,4.9401097
25.35,2000,0,91.24,0.000002697398,0.000002697398,0.000002697398,0.99999994,0,0,0,0,0,0,1,1,0,0,0,false,false,true,-483.18,-4741.4497,17.01,0.001653505,0.0044695884,-0.3400326,0.9404015,-327.961,-289.79102,8.321,-0.00030999997,0.00030999997,4.97561
25.358334,2000,0,91.24,0.000002697398,0.000002697398,0.000002697398,0.99999994,0,0,0,0,0,0,1,1,0,0,0,false,false,true,-485.91,-4743.86,17.01,0.0015563987,0.0045019574,-0.3204656,0.9472481,-317.981,-292.091,8.321,-0.00030999997,0.00030999997,5.01011
25.366667,2000,0,91.24,0.000002697398,0.000002697398,0.000002697398,0.99999994,0,0,0,0,0,0,1,1,0,0,0,false,false,true,-488.56,-4746.29,17.01,0.0014592924,0.004534326,-0.30062345,0.95373094,-308.041,-293.981,8.321,-0.00030999997,0.00030999997,5.04351
25.375,2000,0,91.24,0.000002697398,0.000002697398,0.000002697398,0.99999994,0,0,0,0,0,0,1,1,0,0,0,false,false,true,-491.12997,-4748.7397,17.01,0.001362186,0.0045666946,-0.28051695,0.9598372,-298.171,-295.461,8.321,-0.00030999997,0.00040999998,5.07571
25.383333,2000,0,91.24,0.000002697398,0.000002697398,0.000002697398,0.99999994,0,0,0,0,0,0,1,1,0,0,0,false,false,true,-493.61,-4751.1997,17.01,0.0012650797,0.004593669,-0.26015696,0.96555454,-288.381,-296.551,8.321,-0.00030999997,0.00040999998,5.10661
25.391666,2000,0,91.24,0.000002697398,0.000002697398,0.000002697398,0.99999994,0,0,0,0,0,0,1,1,0,0,0,false,false,true,-496.00998,-4753.67,17.01,0.0011679735,0.0046206433,-0.23955417,0.97087127,-278.701,-297.261,8.321,-0.00030999997,0.00040999998,5.13611
25.4,2000,0,91.24,0.000002697398,0.000002697398,0.000002697398,0.99999994,0,0,0,0,0,0,1,1,0,0,0,false,false,true,-498.33,-4756.15,17.01,0.0010654721,0.0046476168,-0.21872476,0.9757749,-269.141,-297.601,8.321,-0.00040999998,0.00040999998,5.1641097
25.408333,2000,0,91.24,0.000002697398,0.000002697398,0.000002697398,0.99999994,0,0,0,0,0,0,1,1,0,0,0,false,false,true,-500.56998,-4758.63,17.01,0.0009629712,0.0046691964,-0.1976796,0.98025507,-259.721,-297.591,8.321,-0.00040999998,0.00040999998,5.19051
25.416666,2000,0,91.24,0.000002697398,0.000002697398,0.000002697398,0.99999994,0,0,0,0,0,0,1,1,0,0,0,false,false,true,-502.72998,-4761.11,17.01,0.00086047,0.004690775,-0.17643479,0.98430073,-250.461,-297.251,8.321,-0.00040999998,0.00051,5.21511
25.425,2000,0,91.24,0.000002697398,0.000002697398,0.000002697398,0.99999994,0,0,0,0,0,0,1,1,0,0,0,false,false,true,-504.81998,-4763.59,17.01,0.0007579689,0.004712355,-0.15500659,0.98790187,-241.33101,-296.591,8.321,-0.00051,0.00051,5.23761
25.433332,2000,0,91.24,0.000002697398,0.000002697398,0.000002697398,0.99999994,0,0,0,0,0,0,1,1,0,0,0,false,false,true,-506.83,-4766.06,17.01,0.00065007294,0.0047285384,-0.13341111,0.99104923,-232.291,-295.621,8.321,-0.00051,0.00051,5.25771
25.441668,2000,0,91.24,0.000002697398,0.000002697398,0.000002697398,0.99999994,0,0,0,0,0,0,1,1,0,0,0,false,false,true,-508.77,-4768.52,17.01,0.000542177,0.004744723,-0.11167,0.9937338,-223.371,-294.341,8.321,-0.00051,0.00040999998,5.27531
25.45,2000,0,91.24,0.000002697398,0.000002697398,0.000002697398,0.99999994,0,0,0,0,0,0,1,1,0,0,0,false,false,true,-510.62997,-4770.9697,17.01,0.0004342811,0.004755513,-0.08979941,0.9959484,-214.591,-292.771,8.321,-0.00051,0.00040999998,5.29021
25.458334,2000,0,91.24,0.000002697398,0.000002697398,0.000002697398,0.99999994,0,0,0,0,0,0,1,1,0,0,0,false,false,true,-512.42,-4773.4097,17.01,0.00032638514,0.0047663017,-0.067826316,0.99768555,-205.981,-290.931,8.321,-0.00040999998,0.00040999998,5.30191
25.466667,2000,0,91.24,0.000002697398,0.000002697398,0.000002697398,0.99999994,0,0,0,0,0,0,1,1,0,0,0,false,false,true,-514.14,-4775.83,17.01,0.00021848925,0.004771697,-0.045772314,0.9989404,-197.58101,-288.831,8.321,-0.00030999997,0.00040999998,5.30971
25.475,2000,0,91.24,0.000002697398,0.000002697398,0.000002697398,0.99999994,0,0,0,0,0,0,1,1,0,0,0,false,false,true,-515.79,-4778.2397,17.01,0.000110593326,0.0047770925,-0.023664359,0.99970853,-189.451,-286.471,8.321,-0.00030999997,0.00040999998,5.31141
25.483334,2000,0,91.24,0.000002697398,0.000002697398,0.000002697398,0.99999994,0,0,0,0,0,0,1,1,0,0,0,false,false,true,-517.37,-4780.63,17.01,0.0000026973983,0.004782487,-0.0015348196,0.99998736,-181.58101,-283.881,8.311,-0.00021,0.00040999998,5.30711
25.491667,2000,0,91.24,0.000002697398,0.000002697398,0.000002697398,0.99999994,0,0,0,0,0,0,1,1,0,0,0,false,false,true,-518.88,-4782.9897,17.01,-0.000105198524,0.0047824867,0.020578533,0.9997767,-173.601,-280.911,8.311,-0.00021,0.00030999997,5.30691
25.5,2000,0,91.24,0.000002697398,0.000002697398,0.000002697398,0.99999994,0,0,0,0,0,0,1,1,0,0,0,false,false,true,-520.33,-4785.33,17.01,-0.00021309446,0.004782487,0.0426811,0.99907726,-165.641,-277.591,8.311,-0.00021,0.00021,5.30831
25.508333,2000,0,91.24,0.000002697398,0.000002697398,0.000002697398,0.99999994,0,0,0,0,0,0,1,1,0,0,0,false,false,true,-521.70996,-4787.64,17.01,-0.0003209904,0.0047770925,0.06476748,0.99788886,-157.741,-273.931,8.311,-0.00021,0,5.31081
25.516666,2000,0,91.24,0.000002697398,0.000002697398,0.000002697398,0.99999994,0,0,0,0,0,0,1,1,0,0,0,false,false,true,-523.01996,-4789.92,17.01,-0.0004288863,0.004766302,0.08683228,0.9962114,-149.921,-269.931,8.311,-0.00021,-0.00010999999,5.31421
25.525,2000,0,91.24,0.000002697398,0.000002697398,0.000002697398,0.99999994,0,0,0,0,0,0,1,1,0,0,0,false,false,true,-524.26996,-4792.17,17.01,-0.0005367822,0.004755513,0.108870104,0.9940444,-142.211,-265.601,8.311,-0.00010999999,-0.00010999999,5.31851
25.533333,2000,0,91.24,0.000002697398,0.000002697398,0.000002697398,0.99999994,0,0,0,0,0,0,1,1,0,0,0,false,false,true,-525.45,-4794.38,17.01,-0.00064467813,0.004744723,0.13087016,0.9913879,-134.631,-260.941,8.311,-0.00010999999,-0.00021,5.32371
25.541666,2000,0,91.24,0.000002697398,0.000002697398,0.000002697398,0.99999994,0,0,0,0,0,0,1,1,0,0,0,false,false,true,-526.57,-4796.55,17.01,-0.0007525741,0.004728539,0.15282708,0.9882413,-127.201,-255.951,8.311,0,-0.00030999997,5.32991
25.55,2000,0,91.24,0.000002697398,0.000002697398,0.000002697398,0.99999994,0,0,0,0,0,0,1,1,0,0,0,false,false,true,-527.63,-4798.6797,17.01,-0.0008550752,0.0047069597,0.17473543,0.98460376,-119.931,-250.641,8.311,0,-0.00030999997,5.33711
25.558332,2000,0,91.24,0.000002697398,0.000002697398,0.000002697398,0.99999994,0,0,0,0,0,0,1,1,0,0,0,false,false,true,-528.63,-4800.77,17.01,-0.0009575763,0.0046853805,0.19658443,0.9804752,-112.840996,-245.021,8.311,0,-0.00030999997,5.3456097
25.566668,2000,0,91.24,0.000002697398,0.000002697398,0.000002697398,0.99999994,0,0,0,0,0,0,1,1,0,0,0,false,false,true,-529.57,-4802.81,17.01,-0.0010600776,0.0046638018,0.21837412,0.9758534,-105.931,-239.08101,8.311,0,-0.00030999997,5.35541
25.575,2000,0,91.24,0.000002697398,0.000002697398,0.000002697398,0.99999994,0,0,0,0,0,0,1,1,0,0,0,false,false,true,-530.45,-4804.8,17.01,-0.0011625787,0.0046368274,0.24009365,0.97073793,-99.230995,-232.83101,8.311,0,-0.00040999998,5.36681
25.583334,2000,0,91.24,0.000002697398,0.000002697398,0.000002697398,0.99999994,0,0,0,0,0,0,1,1,0,0,0,false,false,true,-531.27997,-4806.7397,17.01,-0.0012650797,0.004609853,0.2617376,0.96512717,-92.741,-226.261,8.311,0,-0.00040999998,5.3800097
25.591667,2000,0,91.24,0.000002697398,0.000002697398,0.000002697398,0.99999994,0,0,0,0,0,0,1,1,0,0,0,false,false,true,-532.05,-4808.63,17.01,-0.0013675808,0.0045774844,0.28330612,0.9590176,-86.480995,-219.381,8.311,0,-0.00040999998,5.39531
25.6,2000,0,91.24,0.000002697398,0.000002697398,0.000002697398,0.99999994,0,0,0,0,0,0,1,1,0,0,0,false,false,true,-532.76996,-4810.46,17.01,-0.001470082,0.0045451154,0.30479366,0.95240635,-80.461,-212.19101,8.311,0,-0.00040999998,5.41291
25.608334,2000,0,91.24,0.000002697398,0.000002697398,0.000002697398,0.99999994,0,0,0,0,0,0,1,1,0,0,0,false,false,true,-533.44,-4812.23,17.01,-0.0015725831,0.004507352,0.3261949,0.94529045,-74.701,-204.69101,8.311,0,-0.00040999998,5.43301
25.616667,2000,0,91.24,0.000002697398,0.000002697398,0.000002697398,0.99999994,0,0,0,0,0,0,1,1,0,0,0,false,false,true,-534.06,-4813.94,17.01,-0.0016750843,0.004469589,0.34750986,0.93766415,-69.211,-197.001,8.311,0,-0.00040999998,5.45231
25.625,2000,0,91.24,0.000002697398,0.000002697398,0.000002697398,0.99999994,0,0,0,0,0,0,1,1,0,0,0,false,false,true,-534.64,-4815.58,17.01,-0.0017775855,0.0044264304,0.3687223,0.92952734,-63.990997,-189.11101,8.311,0.00010999999,-0.00040999998,5.47111
25.633333,2000,0,91.24,0.000002697398,0.000002697398,0.000002697398,0.99999994,0,0,0,0,0,0,1,1,0,0,0,false,false,true,-535.17,-4817.1597,17.01,-0.0018800863,0.004383271,0.38981596,0.92088026,-59.040997,-181.021,8.311,0.00010999999,-0.00030999997,5.48981
25.641666,2000,0,91.24,0.000002697398,0.000002697398,0.000002697398,0.99999994,0,0,0,0,0,0,1,1,0,0,0,false,false,true,-535.66,-4818.67,17.01,-0.0019825874,0.004340113,0.41077486,0.91172427,-54.361,-172.731,8.311,0.00010999999,-0.00021,5.50001
25.65,2000,0,91.24,0.000002697398,0.000002697398,0.000002697398,0.99999994,0,0,0,0,0,0,1,1,0,0,0,false,false,true,-536.11,-4820.11,17.01,-0.0020796938,0.00429156,0.4315611,0.902071,-50.031,-164.251,8.311,0.00021,-0.00010999999,5.49991
25.658333,2000,0,91.24,0.000002697398,0.000002697398,0.000002697398,0.99999994,0,0,0,0,0,0,1,1,0,0,0,false,false,true,-536.52997,-4821.48,17.01,-0.0021768003,0.004243007,0.45212066,0.891944,-46.060997,-155.591,8.311,0.00021,0,5.50001
25.666666,2000,0,91.24,0.000002697398,0.000002697398,0.000002697398,0.99999994,0,0,0,0,0,0,1,1,0,0,0,false,false,true,-536.91,-4822.78,17.01,-0.0022739067,0.0041890596,0.47244298,0.8813483,-42.470997,-146.77101,8.311,0.00021,0,5.50001
25.675,2000,0,91.24,0.000002697398,0.000002697398,0.000002697398,0.99999994,0,0,0,0,0,0,1,1,0,0,0,false,false,true,-537.26,-4824,17.01,-0.002371013,0.004135111,0.49251708,0.8702897,-39.260998,-137.791,8.311,0.00021,0,5.49991
25.683332,2000,0,91.24,0.000002697398,0.000002697398,0.000002697398,0.99999994,0,0,0,0,0,0,1,1,0,0,0,false,false,true,-537.58997,-4825.15,17.01,-0.0024627245,0.004081163,0.5123322,0.858774,-36.451,-128.671,8.311,0.00030999997,0,5.50001
25.691668,2000,0,91.24,0.000002697398,0.000002697398,0.000002697398,0.99999994,0,0,0,0,0,0,1,1,0,0,0,false,false,true,-537.89,-4826.2197,17.01,-0.002554436,0.00402182,0.53187764,0.8468077,-34.041,-119.431,8.311,0.00030999997,0,5.50001
25.7,2000,0,91.24,0.000002697398,0.000002697398,0.000002697398,0.99999994,0,0,0,0,0,0,1,1,0,0,0,false,false,true,-538.17,-4827.21,17.01,-0.0026461473,0.003962477,0.5511425,0.8343973,-32.041,-110.08099,8.311,0.00030999997,0,5.50001
25.708334,2000,0,91.24,0.000002697398,0.000002697398,0.000002697398,0.99999994,0,0,0,0,0,0,1,1,0,0,0,false,false,true,-538.44,-4828.13,17.01,-0.0027324639,0.0038977398,0.5701161,0.8215502,-30.460999,-100.631,8.311,0.00030999997,0,5.50001
25.716667,2000,0,91.24,0.000002697398,0.000002697398,0.000002697398,0.99999994,0,0,0,0,0,0,1,1,0,0,0,false,false,true,-538.69,-4828.9697,17.01,-0.002818781,0.0038330026,0.588793,0.8082698,-29.310999,-91.101,8.311,0.00030999997,0.00010999999,5.50001
25.725,2000,0,91.24,0.000002697398,0.000002697398,0.000002697398,0.99999994,0,0,0,0,0,0,1,1,0,0,0,false,false,true,-538.93,-4829.73,17.01,-0.0029050978,0.0037682652,0.6071569,0.79456764,-28.600998,-81.510994,8.311,0.00030999997,0.00021,5.49991
25.733334,2000,0,91.24,0.000002697398,0.000002697398,0.000002697398,0.99999994,0,0,0,0,0,0,1,1,0,0,0,false,false,true,-539.17,-4830.4097,17.01,-0.0029914144,0.0036981327,0.6252026,0.7804479,-28.331,-71.870995,8.311,0.00030999997,0.00021,5.49991
25.741667,2000,0,91.24,0.000002697398,0.000002697398,0.000002697398,0.99999994,0,0,0,0,0,0,1,1,0,0,0,false,false,true,-539.41,-4831.01,17.01,-0.0030723365,0.0036280006,0.6429246,0.7659147,-28.501,-62.200996,8.311,0.00030999997,0.00030999997,5.50001
25.75,2000,0,91.24,0.000002697398,0.000002697398,0.000002697398,0.99999994,0,0,0,0,0,0,1,1,0,0,0,false,false,true,-539.64996,-4831.53,17.01,-0.0031532582,0.003557868,0.6603067,0.7509809,-29.120998,-52.510998,8.311,0.00030999997,0.00040999998,5.50001
25.758333,2000,0,91.24,0.000002697398,0.000002697398,0.000002697398,0.99999994,0,0,0,0,0,0,1,1,0,0,0,false,false,true,-539.89,-4831.9697,17.01,-0.0032341804,0.0034877358,0.67734355,0.7356514,-30.200998,-42.821,8.311,0.00030999997,0.00051,5.50001
25.766666,2000,0,91.24,0.000002697398,0.000002697398,0.000002697398,0.99999994,0,0,0,0,0,0,1,1,0,0,0,false,false,true,-540.14,-4832.33,17.01,-0.0033097074,0.0034122085,0.69402426,0.71993583,-31.741,-33.150997,8.311,0.00030999997,0.00051,5.50001
25.775,2000,0,91.24,0.000002697398,0.000002697398,0.000002697398,0.99999994,0,0,0,0,0,0,1,1,0,0,0,false,false,true,-540.39996,-4832.61,17.01,-0.0033852346,0.0033366815,0.71033967,0.7038429,-33.751,-23.511,8.311,0.00030999997,0.00061,5.50001
25.783333,2000,0,91.24,0.000002697398,0.000002697398,0.000002697398,0.99999994,0,0,0,0,0,0,1,1,0,0,0,false,false,true,-540.68,-4832.81,17.01,-0.0034607616,0.0032611543,0.72627926,0.68738323,-36.231,-13.931,8.311,0.00030999997,0.00061,5.49991
25.791666,2000,0,91.24,0.000002697398,0.000002697398,0.000002697398,0.99999994,0,0,0,0,0,0,1,1,0,0,0,false,false,true,-540.98,-4832.9297,17.01,-0.0035308942,0.0031802324,0.741838,0.6705622,-39.190998,-4.411,8.311,0.00030999997,0.00071,5.50001
25.8,2000,0,91.24,0.000002697398,0.000002697398,0.000002697398,0.99999994,0,0,0,0,0,0,1,1,0,0,0,false,false,true,-541.31,-4832.9697,17.01,-0.0036010265,0.0030993104,0.75701064,0.65338516,-42.630997,5.001,8.311,0.00021,0.00081,5.50001
25.808332,2000,0,91.24,0.000002697398,0.000002697398,0.000002697398,0.99999994,0,0,0,0,0,0,1,1,0,0,0,false,false,true,-541.67,-4832.9297,17.01,-0.003665764,0.0030183885,0.77178293,0.6358682,-46.490997,14.181,8.311,0.00021,0.00081,5.50001
25.816668,2000,0,91.24,0.000002697398,0.000002697398,0.000002697398,0.99999994,0,0,0,0,0,0,1,1,0,0,0,false,false,true,-542.06,-4832.81,17.01,-0.0037305015,0.0029374664,0.7861505,0.6180167,-50.751,23.110998,8.311,0.00010999999,0.00081,5.50001
25.825,2000,0,91.24,0.000002697398,0.000002697398,0.000002697398,0.99999994,0,0,0,0,0,0,1,1,0,0,0,false,false,true,-542.48,-4832.62,17.01,-0.0037952394,0.00285115,0.8001047,0.5998416,-55.330997,31.761,8.311,0,0.00071,5.49991
25.833334,2000,0,91.24,0.000002697398,0.000002697398,0.000002697398,0.99999994,0,0,0,0,0,0,1,1,0,0,0,false,false,true,-542.94,-4832.35,17.01,-0.0038545814,0.0027648327,0.813641,0.58134806,-60.211,40.121,8.311,0,0.00071,5.49991
25.841667,2000,0,91.24,0.000002697398,0.000002697398,0.000002697398,0.99999994,0,0,0,0,0,0,1,1,0,0,0,false,false,true,-543.44,-4832.02,17.01,-0.0039139246,0.0026785163,0.82674783,0.5625526,-65.381,48.181,8.311,0,0.00061,5.49991
25.85,2000,0,91.24,0.000002697398,0.000002697398,0.000002697398,0.99999994,0,0,0,0,0,0,1,1,0,0,0,false,false,true,-543.98,-4831.62,17.01,-0.003973267,0.0025921995,0.83942133,0.54346037,-70.831,55.940998,8.311,-0.00010999999,0.00051,5.49831
25.858334,2000,0,91.24,0.000002697398,0.000002697398,0.000002697398,0.99999994,0,0,0,0,0,0,1,1,0,0,0,false,false,true,-544.57,-4831.15,17.01,-0.00403261,0.002500488,0.8516511,0.52408755,-76.561,63.400997,8.311,-0.00010999999,0.00040999998,5.49481
25.866667,2000,0,91.24,0.000002697398,0.000002697398,0.000002697398,0.99999994,0,0,0,0,0,0,1,1,0,0,0,false,false,true,-545.20996,-4830.62,17.01,-0.004086558,0.0024087764,0.8634244,0.5044558,-82.550995,70.550995,8.311,-0.00010999999,0.00030999997,5.4896097
25.875,2000,0,91.24,0.000002697398,0.000002697398,0.000002697398,0.99999994,0,0,0,0,0,0,1,1,0,0,0,false,false,true,-545.89996,-4830.03,17.01,-0.004140506,0.002317065,0.87473625,0.48457593,-88.800995,77.391,8.311,-0.00021,0.00021,5.48281
25.883333,2000,0,91.24,0.000002697398,0.000002697398,0.000002697398,0.99999994,0,0,0,0,0,0,1,1,0,0,0,false,false,true,-546.64,-4829.38,17.01,-0.004194454,0.0022253534,0.88557637,0.46446943,-95.291,83.910995,8.311,-0.00021,0.00010999999,5.4745097
25.891666,2000,0,91.24,0.000002697398,0.000002697398,0.000002697398,0.99999994,0,0,0,0,0,0,1,1,0,0,0,false,false,true,-547.43,-4828.6797,17.01,-0.004243007,0.002128247,0.8959385,0.44415256,-102.020996,90.111,8.311,-0.00021,0,5.46481
25.9,2000,0,91.24,0.000002697398,0.000002697398,0.000002697398,0.99999994,0,0,0,0,0,0,1,1,0,0,0,false,false,true,-548.27997,-4827.9297,17.01,-0.00429156,0.0020311407,0.90581995,0.42363605,-108.971,95.991,8.311,-0.00030999997,0,5.4538097
25.908333,2000,0,91.24,0.000002697398,0.000002697398,0.000002697398,0.99999994,0,0,0,0,0,0,1,1,0,0,0,false,false,true,-549.19,-4827.13,17.01,-0.0043347185,0.0019340344,0.91521096,0.40294692,-116.141,101.541,8.311,-0.00030999997,0,5.44161
25.916666,2000,0,91.24,0.000002697398,0.000002697398,0.000002697398,0.99999994,0,0,0,0,0,0,1,1,0,0,0,false,false,true,-550.16,-4826.28,17.01,-0.0043778773,0.0018369282,0.9241104,0.382096,-123.501,106.730995,8.311,-0.00040999998,0,5.42841
25.925,2000,0,91.24,0.000002697398,0.000002697398,0.000002697398,0.99999994,0,0,0,0,0,0,1,1,0,0,0,false,false,true,-551.19,-4825.3896,17.01,-0.004421035,0.0017398215,0.9325151,0.3610993,-131.011,111.431,8.311,-0.00040999998,0,5.41501
