time,ball_loc_x,ball_loc_y,ball_loc_z,ball_rot_x,ball_rot_y,ball_rot_z,ball_rot_w,ball_vel_x,ball_vel_y,ball_vel_z,ball_ang_x,ball_ang_y,ball_ang_z,player0_throttle,player0_steer,player0_pitch,player0_yaw,player0_roll,player0_jump,player0_boost,player0_handbrake,player0_loc_x,player0_loc_y,player0_loc_z,player0_rot_x,player0_rot_y,player0_rot_z,player0_rot_w,player0_vel_x,player0_vel_y,player0_vel_z,player0_ang_x,player0_ang_y,player0_ang_z
128.575,2000,0,91.24,0.000002697398,0.000002697398,0.000002697398,0.99999994,0,0,0,0,0,0,1,0,0,0,0,false,false,false,0,-4418.54,17.01,-0.003347471,0.0033366815,0.70708513,0.7071125,0,1001.621,8.321,-0.00081,0,0
128.58333,2000,0,91.24,0.000002697398,0.000002697398,0.000002697398,0.99999994,0,0,0,0,0,0,1,1,0,0,0,false,false,true,0,-4410.19,17.01,-0.003347471,0.0033366815,0.70708513,0.7071125,-13.271,1003.811,8.341001,-0.00091,0.00351,0.36741
128.59166,2000,0,91.24,0.000002697398,0.000002697398,0.000002697398,0.99999994,0,0,0,0,0,0,1,1,0,0,0,false,false,true,-0.11,-4401.82,17.01,-0.003347471,0.0033420762,0.70816827,0.70602775,-23.511,1006.43097,8.351,-0.00091,0.00481,0.64081
128.6,2000,0,91.24,0.000002697398,0.000002697398,0.000002697398,0.99999994,0,0,0,0,0,0,1,1,0,0,0,false,false,true,-0.31,-4393.4297,17.01,-0.003347471,0.003347471,0.71005106,0.70413417,-33.051,1009.061,8.351,-0.00091,0.00511,0.87691
128.60834,2000,0,91.24,0.000002697398,0.000002697398,0.000002697398,0.99999994,0,0,0,0,0,0,1,1,0,0,0,false,false,true,-0.59,-4385.02,17.01,-0.003347471,0.0033528658,0.7126202,0.7015339,-42.271,1011.631,8.351,-0.00091,0.00491,1.08171
128.61667,2000,0,91.24,0.000002697398,0.000002697398,0.000002697398,0.99999994,0,0,0,0,0,0,1,1,0,0,0,false,false,true,-0.94,-4376.59,17.01,-0.0033528658,0.0033528658,0.71577656,0.6983132,-51.411,1014.10095,8.351,-0.00081,0.0043099998,1.26051
128.625,2000,0,91.24,0.000002697398,0.000002697398,0.000002697398,0.99999994,0,0,0,0,0,0,1,1,0,0,0,false,false,true,-1.37,-4368.14,17.01,-0.0033582605,0.0033528658,0.7194362,0.69454217,-60.630997,1016.42096,8.351,-0.00081,0.00361,1.4176099
128.63333,2000,0,91.24,0.000002697398,0.000002697398,0.000002697398,0.99999994,0,0,0,0,0,0,1,1,0,0,0,false,false,true,-1.88,-4359.67,17.01,-0.00336905,0.003347471,0.7235264,0.69028026,-70.020996,1018.55096,8.351,-0.00071,0.00281,1.55661
128.64166,2000,0,91.24,0.000002697398,0.000002697398,0.000002697398,0.99999994,0,0,0,0,0,0,1,1,0,0,0,false,false,true,-2.46,-4351.1797,17.01,-0.0033852346,0.0033366815,0.7279905,0.6855706,-79.631,1020.46094,8.351,-0.00061,0.00201,1.68041
128.65,2000,0,91.24,0.000002697398,0.000002697398,0.000002697398,0.99999994,0,0,0,0,0,0,1,1,0,0,0,false,false,true,-3.12,-4342.6797,17.01,-0.0034068138,0.003320497,0.73277307,0.68045634,-89.480995,1022.131,8.351,-0.00051,0.00131,1.79151
128.65834,2000,0,91.24,0.000002697398,0.000002697398,0.000002697398,0.99999994,0,0,0,0,0,0,1,1,0,0,0,false,false,true,-3.87,-4334.1597,17.01,-0.0034283933,0.003298918,0.73782986,0.6749699,-99.541,1023.54095,8.351,-0.00040999998,0.00071,1.8917099
128.66667,2000,0,91.24,0.000002697398,0.000002697398,0.000002697398,0.99999994,0,0,0,0,0,0,1,1,0,0,0,false,false,true,-4.7,-4325.63,17.01,-0.003455367,0.0032773386,0.74312764,0.6691326,-109.770996,1024.6809,8.351,-0.00040999998,0.00021,1.98271
128.675,2000,0,91.24,0.000002697398,0.000002697398,0.000002697398,0.99999994,0,0,0,0,0,0,1,1,0,0,0,false,false,true,-5.6099997,-4317.09,17.01,-0.0034823404,0.0032503644,0.74862915,0.6629717,-120.120995,1025.5509,8.351,-0.00030999997,-0.00010999999,2.06571
128.68333,2000,0,91.24,0.000002697398,0.000002697398,0.000002697398,0.99999994,0,0,0,0,0,0,1,1,0,0,0,false,false,true,-6.6099997,-4308.54,17.01,-0.003509315,0.0032233908,0.7543079,0.6565034,-130.52101,1026.151,8.351,-0.00021,-0.00040999998,2.14161
128.69167,2000,0,91.24,0.000002697398,0.000002697398,0.000002697398,0.99999994,0,0,0,0,0,0,1,1,0,0,0,false,false,true,-7.7,-4299.9897,17.01,-0.0035416838,0.003191022,0.7601338,0.649749,-140.901,1026.491,8.351,-0.00010999999,-0.00061,2.21121
128.7,2000,0,91.24,0.000002697398,0.000002697398,0.000002697398,0.99999994,0,0,0,0,0,0,1,1,0,0,0,false,false,true,-8.87,-4291.44,17.01,-0.003574052,0.003158653,0.7660866,0.6427195,-151.171,1026.5809,8.351,-0.00010999999,-0.00081,2.27511
128.70833,2000,0,91.24,0.000002697398,0.000002697398,0.000002697398,0.99999994,0,0,0,0,0,0,1,1,0,0,0,false,false,true,-10.13,-4282.88,17.01,-0.0036064212,0.0031208897,0.7721471,0.6354258,-161.241,1026.4609,8.351,0,-0.00091,2.3338099
128.71666,2000,0,91.24,0.000002697398,0.000002697398,0.000002697398,0.99999994,0,0,0,0,0,0,1,1,0,0,0,false,false,true,-11.469999,-4274.33,17.01,-0.00363879,0.003083126,0.77828807,0.62788916,-171.021,1026.161,8.351,0,-0.0010099999,2.38751
128.725,2000,0,91.24,0.000002697398,0.000002697398,0.000002697398,0.99999994,0,0,0,0,0,0,1,1,0,0,0,false,false,true,-12.9,-4265.78,17.01,-0.0036711588,0.0030453624,0.78449607,0.6201153,-180.411,1025.721,8.351,0,-0.00111,2.43661
128.73334,2000,0,91.24,0.000002697398,0.000002697398,0.000002697398,0.99999994,0,0,0,0,0,0,1,1,0,0,0,false,false,true,-14.4,-4257.23,17.01,-0.0037035276,0.003007599,0.7907502,0.6121202,-189.311,1025.2009,8.351,0,-0.0012099999,2.4811099
128.74167,2000,0,91.24,0.000002697398,0.000002697398,0.000002697398,0.99999994,0,0,0,0,0,0,1,1,0,0,0,false,false,true,-15.98,-4248.69,17.01,-0.003735896,0.0029644403,0.7970346,0.60391456,-197.601,1024.6709,8.351,0,-0.0012099999,2.52121
128.75,2000,0,91.24,0.000002697398,0.000002697398,0.000002697398,0.99999994,0,0,0,0,0,0,1,1,0,0,0,false,false,true,-17.63,-4240.15,17.01,-0.0037682652,0.002921282,0.803334,0.5955095,-205.181,1024.2109,8.351,0,-0.00131,2.55691
128.75833,2000,0,91.24,0.000002697398,0.000002697398,0.000002697398,0.99999994,0,0,0,0,0,0,1,1,0,0,0,false,false,true,-19.34,-4231.61,17.01,-0.003806029,0.002878124,0.809634,0.5869157,-211.931,1023.90094,8.341001,0,-0.00131,2.5882099
128.76666,2000,0,91.24,0.000002697398,0.000002697398,0.000002697398,0.99999994,0,0,0,0,0,0,1,1,0,0,0,false,false,true,-21.109999,-4223.08,17.01,-0.0038437922,0.0028349652,0.81591713,0.57814896,-217.741,1023.86096,8.341001,0.00010999999,-0.00131,2.61501
128.775,2000,0,91.24,0.000002697398,0.000002697398,0.000002697398,0.99999994,0,0,0,0,0,0,1,1,0,0,0,false,false,true,-22.92,-4214.55,17.01,-0.0038761613,0.0027918073,0.82216716,0.569226,-222.481,1024.2009,8.331,0.00021,-0.00131,2.63731
128.78334,2000,0,91.24,0.000002697398,0.000002697398,0.000002697398,0.99999994,0,0,0,0,0,0,1,1,0,0,0,false,false,true,-24.769999,-4206.01,17.01,-0.0039085294,0.0027432537,0.8283725,0.56015724,-227.431,1024.361,8.331,0.00021,-0.00131,2.65921
128.79167,2000,0,91.24,0.000002697398,0.000002697398,0.000002697398,0.99999994,0,0,0,0,0,0,1,1,0,0,0,false,false,true,-26.67,-4197.4697,17.01,-0.003940899,0.0026947008,0.83452916,0.550943,-232.58101,1024.341,8.331,0.00021,-0.0012099999,2.68081
128.8,2000,0,91.24,0.000002697398,0.000002697398,0.000002697398,0.99999994,0,0,0,0,0,0,1,1,0,0,0,false,false,true,-28.609999,-4188.9297,17.01,-0.003973267,0.0026461475,0.8406302,0.54158837,-237.921,1024.131,8.331,0.00021,-0.00111,2.70211
128.80833,2000,0,91.24,0.000002697398,0.000002697398,0.000002697398,0.99999994,0,0,0,0,0,0,1,1,0,0,0,false,false,true,-30.59,-4180.4,17.01,-0.0040056366,0.0025975946,0.8466755,0.5320881,-243.441,1023.72095,8.331,0.00021,-0.0010099999,2.72311
128.81667,2000,0,91.24,0.000002697398,0.000002697398,0.000002697398,0.99999994,0,0,0,0,0,0,1,1,0,0,0,false,false,true,-32.62,-4171.87,17.01,-0.0040380047,0.002549041,0.852658,0.5224475,-249.131,1023.11096,8.331,0.00021,-0.00091,2.74381
128.825,2000,0,91.24,0.000002697398,0.000002697398,0.000002697398,0.99999994,0,0,0,0,0,0,1,1,0,0,0,false,false,true,-34.7,-4163.34,17.01,-0.0040703737,0.002500488,0.85857433,0.5126667,-254.981,1022.30096,8.331,0.00021,-0.00081,2.76421
128.83333,2000,0,91.24,0.000002697398,0.000002697398,0.000002697398,0.99999994,0,0,0,0,0,0,1,1,0,0,0,false,false,true,-36.82,-4154.82,17.01,-0.0041027423,0.0024519349,0.86442107,0.5027457,-260.981,1021.28094,8.331,0.00021,-0.00071,2.7843099
128.84166,2000,0,91.24,0.000002697398,0.000002697398,0.000002697398,0.99999994,0,0,0,0,0,0,1,1,0,0,0,false,false,true,-38.989998,-4146.31,17.01,-0.0041351113,0.0024033817,0.8701949,0.49268433,-267.121,1020.05096,8.331,0.00021,-0.00061,2.80411
128.85,2000,0,91.24,0.000002697398,0.000002697398,0.000002697398,0.99999994,0,0,0,0,0,0,1,1,0,0,0,false,false,true,-41.219997,-4137.81,17.01,-0.0041620852,0.0023548284,0.87589234,0.48248276,-273.391,1018.61096,8.331,0.00021,-0.00051,2.82371
128.85834,2000,0,91.24,0.000002697398,0.000002697398,0.000002697398,0.99999994,0,0,0,0,0,0,1,1,0,0,0,false,false,true,-43.5,-4129.32,17.01,-0.0041890587,0.002306275,0.8815071,0.47214618,-279.781,1016.9509,8.331,0.00021,-0.00051,2.84301
128.86667,2000,0,91.24,0.000002697398,0.000002697398,0.000002697398,0.99999994,0,0,0,0,0,0,1,1,0,0,0,false,false,true,-45.829998,-4120.85,17.01,-0.004216033,0.0022523273,0.88703907,0.46166953,-286.281,1015.071,8.331,0.00021,-0.00051,2.86211
128.875,2000,0,91.24,0.000002697398,0.000002697398,0.000002697398,0.99999994,0,0,0,0,0,0,1,1,0,0,0,false,false,true,-48.219997,-4112.39,17.01,-0.0042430074,0.0021983795,0.89248186,0.4510579,-292.881,1012.98096,8.331,0.00021,-0.00051,2.88091
128.88333,2000,0,91.24,0.000002697398,0.000002697398,0.000002697398,0.99999994,0,0,0,0,0,0,1,1,0,0,0,false,false,true,-50.66,-4103.9497,17.01,-0.004269981,0.0021444315,0.89783233,0.44031146,-299.571,1010.67096,8.331,0.00021,-0.00040999998,2.89951
128.89166,2000,0,91.24,0.000002697398,0.000002697398,0.000002697398,0.99999994,0,0,0,0,0,0,1,1,0,0,0,false,false,true,-53.16,-4095.53,17.01,-0.0042969557,0.0020904837,0.90308744,0.4294301,-306.341,1008.1409,8.331,0.00021,-0.00040999998,2.91781
128.9,2000,0,91.24,0.000002697398,0.000002697398,0.000002697398,0.99999994,0,0,0,0,0,0,1,1,0,0,0,false,false,true,-55.71,-4087.13,17.01,-0.0043239295,0.0020365356,0.90824133,0.41841933,-313.181,1005.3909,8.331,0.00021,-0.00030999997,2.93591
128.90834,2000,0,91.24,0.000002697398,0.000002697398,0.000002697398,0.99999994,0,0,0,0,0,0,1,1,0,0,0,false,false,true,-58.32,-4078.75,17.01,-0.004350903,0.0019825874,0.9132912,0.40727895,-320.091,1002.42096,8.331,0.00021,-0.00030999997,2.9537098
128.91667,2000,0,91.24,0.000002697398,0.000002697398,0.000002697398,0.99999994,0,0,0,0,0,0,1,1,0,0,0,false,false,true,-60.989998,-4070.4,17.01,-0.004377877,0.0019286396,0.918234,0.39600924,-327.051,999.23096,8.331,0.00021,-0.00021,2.97131
128.925,2000,0,91.24,0.000002697398,0.000002697398,0.000002697398,0.99999994,0,0,0,0,0,0,1,1,0,0,0,false,false,true,-63.719997,-4062.0698,17.01,-0.004399456,0.0018746917,0.92306674,0.38460994,-334.051,995.821,8.331,0.00021,-0.00010999999,2.98861
128.93333,2000,0,91.24,0.000002697398,0.000002697398,0.000002697398,0.99999994,0,0,0,0,0,0,1,1,0,0,0,false,false,true,-66.5,-4053.77,17.01,-0.0044210353,0.0018207437,0.9277841,0.37308666,-341.091,992.191,8.331,0.00021,-0.00010999999,3.00571
128.94167,2000,0,91.24,0.000002697398,0.000002697398,0.000002697398,0.99999994,0,0,0,0,0,0,1,1,0,0,0,false,false,true,-69.34,-4045.5,17.01,-0.0044426145,0.0017667958,0.93238336,0.3614392,-348.151,988.35095,8.331,0.00021,-0.00010999999,3.02261
128.95,2000,0,91.24,0.000002697398,0.000002697398,0.000002697398,0.99999994,0,0,0,0,0,0,1,1,0,0,0,false,false,true,-72.24,-4037.26,17.01,-0.0044641937,0.0017074529,0.9368615,0.34966776,-355.231,984.30096,8.331,0.00021,-0.00010999999,3.0392098
128.95833,2000,0,91.24,0.000002697398,0.000002697398,0.000002697398,0.99999994,0,0,0,0,0,0,1,1,0,0,0,false,false,true,-75.2,-4029.0598,17.01,-0.004485773,0.0016481102,0.9412138,0.33777753,-362.32098,980.04095,8.331,0.00021,-0.00010999999,3.05561
128.96666,2000,0,91.24,0.000002697398,0.000002697398,0.000002697398,0.99999994,0,0,0,0,0,0,1,1,0,0,0,false,false,true,-78.22,-4020.89,17.01,-0.0045073526,0.0015887676,0.9454374,0.32576874,-369.411,975.571,8.331,0.00021,-0.00010999999,3.07181
128.975,2000,0,91.24,0.000002697398,0.000002697398,0.000002697398,0.99999994,0,0,0,0,0,0,1,1,0,0,0,false,false,true,-81.299995,-4012.76,17.01,-0.004528932,0.0015294248,0.9495295,0.31364116,-376.501,970.90094,8.331,0.00021,-0.00010999999,3.08771
128.98334,2000,0,91.24,0.000002697398,0.000002697398,0.000002697398,0.99999994,0,0,0,0,0,0,1,1,0,0,0,false,false,true,-84.439995,-4004.67,17.01,-0.00455051,0.0014700819,0.95348555,0.3014003,-383.581,966.03094,8.331,0.00021,0,3.10341
128.99167,2000,0,91.24,0.000002697398,0.000002697398,0.000002697398,0.99999994,0,0,0,0,0,0,1,1,0,0,0,false,false,true,-87.64,-3996.6199,17.01,-0.0045666946,0.0014107391,0.95730317,0.28904617,-390.641,960.96094,8.331,0.00021,0,3.1189098
129,2000,0,91.24,0.000002697398,0.000002697398,0.000002697398,0.99999994,0,0,0,0,0,0,1,1,0,0,0,false,false,true,-90.9,-3988.6099,17.01,-0.0045828796,0.0013513966,0.9609778,0.2765842,-397.671,955.691,8.331,0.00021,0,3.1342099
129.00833,2000,0,91.24,0.000002697398,0.000002697398,0.000002697398,0.99999994,0,0,0,0,0,0,1,1,0,0,0,false,false,true,-94.21,-3980.65,17.01,-0.0045990637,0.0012920536,0.96450835,0.26400885,-404.671,950.24097,8.331,0.00021,0,3.14921
129.01666,2000,0,91.24,0.000002697398,0.000002697398,0.000002697398,0.99999994,0,0,0,0,0,0,1,1,0,0,0,false,false,true,-97.579994,-3972.73,17.01,-0.004615248,0.0012327109,0.96788937,0.25133097,-411.631,944.60095,8.331,0.00021,0,3.16401
129.025,2000,0,91.24,0.000002697398,0.000002697398,0.000002697398,0.99999994,0,0,0,0,0,0,1,1,0,0,0,false,false,true,-101.009995,-3964.8599,17.01,-0.0046314322,0.0011733681,0.9711182,0.23855072,-418.551,938.78094,8.331,0.00021,0,3.1786098
129.03334,2000,0,91.24,0.000002697398,0.000002697398,0.000002697398,0.99999994,0,0,0,0,0,0,1,1,0,0,0,false,false,true,-104.5,-3957.0398,17.01,-0.004647617,0.0011086307,0.97419256,0.22566788,-425.421,932.78094,8.331,0.00021,0,3.19291
129.04167,2000,0,91.24,0.000002697398,0.000002697398,0.000002697398,0.99999994,0,0,0,0,0,0,1,1,0,0,0,false,false,true,-108.049995,-3949.27,17.01,-0.0046638013,0.001043893,0.9771084,0.21268798,-432.241,926.61096,8.331,0.00021,0,3.20701
129.05,2000,0,91.24,0.000002697398,0.000002697398,0.000002697398,0.99999994,0,0,0,0,0,0,1,1,0,0,0,false,false,true,-111.649994,-3941.5498,17.01,-0.0046745907,0.0009791554,0.9798635,0.19961092,-439.001,920.28094,8.331,0.00021,0,3.2209098
129.05833,2000,0,91.24,0.000002697398,0.000002697398,0.000002697398,0.99999994,0,0,0,0,0,0,1,1,0,0,0,false,false,true,-115.31,-3933.88,17.01,-0.0046853805,0.00091441796,0.9824543,0.18644214,-445.711,913.78094,8.331,0.00021,0,3.2346098
129.06667,2000,0,91.24,0.000002697398,0.000002697398,0.000002697398,0.99999994,0,0,0,0,0,0,1,1,0,0,0,false,false,true,-119.02,-3926.26,17.01,-0.0046961694,0.0008496803,0.9848772,0.1731871,-452.35098,907.131,8.331,0.00010999999,0,3.2481098
129.075,2000,0,91.24,0.000002697398,0.000002697398,0.000002697398,0.99999994,0,0,0,0,0,0,1,1,0,0,0,false,false,true,-122.79,-3918.7,17.01,-0.0047069597,0.0007849428,0.9871313,0.1598403,-458.931,900.33093,8.331,0.00010999999,0,3.2613099
129.08333,2000,0,91.24,0.000002697398,0.000002697398,0.000002697398,0.99999994,0,0,0,0,0,0,1,1,0,0,0,false,false,true,-126.61,-3911.2,17.01,-0.004717749,0.00072020525,0.98921204,0.14641266,-465.441,893.381,8.331,0.00010999999,0,3.2743099
129.09166,2000,0,91.24,0.000002697398,0.000002697398,0.000002697398,0.99999994,0,0,0,0,0,0,1,1,0,0,0,false,false,true,-130.48999,-3903.75,17.01,-0.0047285384,0.00065546774,0.99111736,0.132904,-471.88098,886.29095,8.331,0.00010999999,0,3.2871099
129.1,2000,0,91.24,0.000002697398,0.000002697398,0.000002697398,0.99999994,0,0,0,0,0,0,1,1,0,0,0,false,false,true,-134.42,-3896.3599,17.01,-0.0047393288,0.0005907302,0.99284434,0.119319834,-478.251,879.061,8.331,0.00010999999,0,3.29971
129.10834,2000,0,91.24,0.000002697398,0.000002697398,0.000002697398,0.99999994,0,0,0,0,0,0,1,1,0,0,0,false,false,true,-138.41,-3889.03,17.01,-0.004744723,0.0005259926,0.9943908,0.1056602,-484.541,871.7009,8.331,0.00010999999,0,3.31211
129.11667,2000,0,91.24,0.000002697398,0.000002697398,0.000002697398,0.99999994,0,0,0,0,0,0,1,1,0,0,0,false,false,true,-142.45,-3881.77,17.01,-0.004750118,0.0004612551,0.9957545,0.09192497,-490.761,864.21094,8.331,0.00010999999,0,3.32421
129.125,2000,0,91.24,0.000002697398,0.000002697398,0.000002697398,0.99999994,0,0,0,0,0,0,1,1,0,0,0,false,false,true,-146.54,-3874.5698,17.01,-0.004755513,0.0003965175,0.9969321,0.078125075,-496.911,856.59094,8.331,0.00010999999,0,3.3361099
129.13333,2000,0,91.24,0.000002697398,0.000002697398,0.000002697398,0.99999994,0,0,0,0,0,0,1,1,0,0,0,false,false,true,-150.68,-3867.43,17.01,-0.0047609075,0.00033177997,0.9979217,0.06426036,-502.981,848.86096,8.331,0.00010999999,0,3.34781
129.14166,2000,0,91.24,0.000002697398,0.000002697398,0.000002697398,0.99999994,0,0,0,0,0,0,1,1,0,0,0,false,false,true,-154.87,-3860.3599,17.01,-0.004766302,0.0002670424,0.9987209,0.050336313,-508.981,841.011,8.331,0.00010999999,0,3.35931
129.15,2000,0,91.24,0.000002697398,0.000002697398,0.000002697398,0.99999994,0,0,0,0,0,0,1,1,0,0,0,false,false,true,-159.11,-3853.3499,17.01,-0.004771697,0.00020230486,0.99932754,0.036353,-514.90094,833.05096,8.331,0.00010999999,0.00010999999,3.37061
129.15834,2000,0,91.24,0.000002697398,0.000002697398,0.000002697398,0.99999994,0,0,0,0,0,0,1,1,0,0,0,false,false,true,-163.4,-3846.41,17.01,-0.004771697,0.0001375673,0.9997395,0.022315659,-520.751,824.98096,8.331,0.00010999999,0.00021,3.38161
129.16667,2000,0,91.24,0.000002697398,0.000002697398,0.000002697398,0.99999994,0,0,0,0,0,0,1,1,0,0,0,false,false,true,-167.73999,-3839.53,17.01,-0.004771697,0.00006743495,0.9999547,0.008229761,-526.53094,816.80096,8.331,0.00010999999,0.00021,3.39241
129.175,2000,0,91.24,0.000002697398,0.000002697398,0.000002697398,0.99999994,0,0,0,0,0,0,1,1,0,0,0,false,false,true,-172.12999,-3832.72,17.01,-0.0047716973,-0.0000026973983,0.99997115,-0.005904647,-532.24097,808.52094,8.331,0.00010999999,0.00021,3.40301
129.18333,2000,0,91.24,0.000002697398,0.000002697398,0.000002697398,0.99999994,0,0,0,0,0,0,1,1,0,0,0,false,false,true,-176.56999,-3825.98,17.01,-0.0047716964,-0.00007282974,0.9997868,-0.020082211,-537.891,800.1409,8.331,0.00010999999,0.00021,3.41341
129.19167,2000,0,91.24,0.000002697398,0.000002697398,0.000002697398,0.99999994,0,0,0,0,0,0,1,1,0,0,0,false,false,true,-181.05,-3819.3098,17.01,-0.0047716973,-0.0001429621,0.99940026,-0.034297545,-543.47095,791.66095,8.331,0,0.00021,3.4235098
129.2,2000,0,91.24,0.000002697398,0.000002697398,0.000002697398,0.99999994,0,0,0,0,0,0,1,1,0,0,0,false,false,true,-185.58,-3812.71,17.01,-0.004766302,-0.00021309445,0.9988093,-0.048550636,-548.99097,783.08093,8.331,0,0.00021,3.43341
129.20833,2000,0,91.24,0.000002697398,0.000002697398,0.000002697398,0.99999994,0,0,0,0,0,0,1,1,0,0,0,false,false,true,-190.15,-3806.18,17.01,-0.0047609075,-0.00028322678,0.9980124,-0.06283614,-554.451,774.41095,8.331,0,0.00021,3.4430099
129.21666,2000,0,91.24,0.000002697398,0.000002697398,0.000002697398,0.99999994,0,0,0,0,0,0,1,1,0,0,0,false,false,true,-194.76999,-3799.73,17.01,-0.004755513,-0.00035335915,0.99700814,-0.07714857,-559.86096,765.6409,8.331,0,0.00021,3.45241
129.225,2000,0,91.24,0.000002697398,0.000002697398,0.000002697398,0.99999994,0,0,0,0,0,0,1,1,0,0,0,false,false,true,-199.44,-3793.3499,17.01,-0.0047501177,-0.0004234915,0.9957952,-0.091482595,-565.21094,756.77094,8.331,0,0.00021,3.46151
129.23334,2000,0,91.24,0.000002697398,0.000002697398,0.000002697398,0.99999994,0,0,0,0,0,0,1,1,0,0,0,false,false,true,-204.15,-3787.0398,17.01,-0.004744723,-0.00049362384,0.9943724,-0.10583284,-570.511,747.811,8.331,0,0.00021,3.4704099
129.24167,2000,0,91.24,0.000002697398,0.000002697398,0.000002697398,0.99999994,0,0,0,0,0,0,1,1,0,0,0,false,false,true,-208.9,-3780.8098,17.01,-0.0047339336,-0.00056375616,0.9927383,-0.12019922,-575.77094,738.751,8.331,-0.00010999999,0.00030999997,3.4790099
129.25,2000,0,91.24,0.000002697398,0.000002697398,0.000002697398,0.99999994,0,0,0,0,0,0,1,1,0,0,0,false,false,true,-213.7,-3774.65,17.01,-0.0047231438,-0.0006338885,0.9908917,-0.13457638,-580.99097,729.59094,8.331,-0.00021,0.00030999997,3.48731
129.25833,2000,0,91.24,0.000002697398,0.000002697398,0.000002697398,0.99999994,0,0,0,0,0,0,1,1,0,0,0,false,false,true,-218.54,-3768.5698,17.01,-0.0047123544,-0.0007040209,0.9888318,-0.14895895,-586.17096,720.33093,8.331,-0.00021,0.00030999997,3.4953098
129.26666,2000,0,91.24,0.000002697398,0.000002697398,0.000002697398,0.99999994,0,0,0,0,0,0,1,1,0,0,0,false,false,true,-223.42,-3762.5698,17.01,-0.0047015646,-0.0007741532,0.986558,-0.16334157,-591.30096,710.96094,8.331,-0.00030999997,0.00030999997,3.50331
129.275,2000,0,91.24,0.000002697398,0.000002697398,0.000002697398,0.99999994,0,0,0,0,0,0,1,1,0,0,0,false,false,true,-228.34999,-3756.65,17.01,-0.004690775,-0.0008442856,0.98406875,-0.17772414,-596.30096,701.451,8.331,-0.00030999997,0.00021,3.5141098
129.28334,2000,0,91.24,0.000002697398,0.000002697398,0.000002697398,0.99999994,0,0,0,0,0,0,1,1,0,0,0,false,false,true,-233.31999,-3750.7998,17.01,-0.004674591,-0.000914418,0.9813614,-0.19211212,-601.16095,691.80096,8.331,-0.00040999998,0.00021,3.5276098
129.29167,2000,0,91.24,0.000002697398,0.000002697398,0.000002697398,0.99999994,0,0,0,0,0,0,1,1,0,0,0,false,false,true,-238.33,-3745.03,17.01,-0.004658406,-0.0009791554,0.9784315,-0.2065163,-605.891,682.02094,8.331,-0.00051,0.00010999999,3.54381
129.3,2000,0,91.24,0.000002697398,0.000002697398,0.000002697398,0.99999994,0,0,0,0,0,0,1,1,0,0,0,false,false,true,-243.37999,-3739.3499,17.01,-0.004642222,-0.001043893,0.9752753,-0.22094202,-610.49097,672.11096,8.331,-0.00051,0,3.56261
129.30833,2000,0,91.24,0.000002697398,0.000002697398,0.000002697398,0.99999994,0,0,0,0,0,0,1,1,0,0,0,false,false,true,-248.47,-3733.75,17.01,-0.0046260376,-0.0011086306,0.9718881,-0.23539473,-614.951,662.071,8.331,-0.00051,0,3.58411
129.31667,2000,0,91.24,0.000002697398,0.000002697398,0.000002697398,0.99999994,0,0,0,0,0,0,1,1,0,0,0,false,false,true,-253.59,-3728.23,17.01,-0.004609853,-0.0011733681,0.9682651,-0.24987984,-619.29095,651.91095,8.331,-0.00051,0,3.6082098
129.325,2000,0,91.24,0.000002697398,0.000002697398,0.000002697398,0.99999994,0,0,0,0,0,0,1,1,0,0,0,false,false,true,-258.75,-3722.7998,17.01,-0.004593669,-0.0012381057,0.9643991,-0.26440805,-623.501,641.621,8.331,-0.00040999998,0,3.63481
129.33333,2000,0,91.24,0.000002697398,0.000002697398,0.000002697398,0.99999994,0,0,0,0,0,0,1,1,0,0,0,false,false,true,-263.94998,-3717.45,17.01,-0.00457209,-0.0013082381,0.9602837,-0.27898487,-627.58093,631.21094,8.331,-0.00030999997,0,3.6640098
129.34166,2000,0,91.24,0.000002697398,0.000002697398,0.000002697398,0.99999994,0,0,0,0,0,0,1,1,0,0,0,false,false,true,-269.18,-3712.19,17.01,-0.0045505106,-0.0013783704,0.95591336,-0.29361022,-631.54095,620.67096,8.331,-0.00030999997,0,3.6958098
129.35,2000,0,91.24,0.000002697398,0.000002697398,0.000002697398,0.99999994,0,0,0,0,0,0,1,1,0,0,0,false,false,true,-274.44,-3707.02,17.01,-0.004528931,-0.0014485026,0.9512788,-0.30829486,-635.36096,610.011,8.331,-0.00030999997,0,3.73031
129.35834,2000,0,91.24,0.000002697398,0.000002697398,0.000002697398,0.99999994,0,0,0,0,0,0,1,1,0,0,0,false,false,true,-279.72998,-3701.94,17.01,-0.004507352,-0.0015186351,0.9463718,-0.3230443,-638.93097,599.21094,8.331,-0.00030999997,0,3.7685099
129.36667,2000,0,91.24,0.000002697398,0.000002697398,0.000002697398,0.99999994,0,0,0,0,0,0,1,1,0,0,0,false,false,true,-285.05,-3696.95,17.01,-0.0044803782,-0.0015887675,0.9411829,-0.3378639,-642.251,588.28094,8.331,-0.00030999997,-0.00010999999,3.81041
129.375,2000,0,91.24,0.000002697398,0.000002697398,0.000002697398,0.99999994,0,0,0,0,0,0,1,1,0,0,0,false,false,true,-290.4,-3692.0498,17.01,-0.004453404,-0.0016588998,0.93570006,-0.35276437,-645.321,577.23096,8.331,-0.00040999998,-0.00021,3.85601
129.38333,2000,0,91.24,0.000002697398,0.000002697398,0.000002697398,0.99999994,0,0,0,0,0,0,1,1,0,0,0,false,false,true,-295.78,-3687.24,17.01,-0.0044264304,-0.0017290323,0.92991203,-0.3677512,-648.11096,566.04095,8.331,-0.00040999998,-0.00030999997,3.90451
129.39166,2000,0,91.24,0.000002697398,0.000002697398,0.000002697398,0.99999994,0,0,0,0,0,0,1,1,0,0,0,false,false,true,-301.18,-3682.52,17.01,-0.004399456,-0.0017991646,0.92380667,-0.38282964,-650.511,554.68097,8.331,-0.00040999998,-0.00040999998,3.95451
129.4,2000,0,91.24,0.000002697398,0.000002697398,0.000002697398,0.99999994,0,0,0,0,0,0,1,1,0,0,0,false,false,true,-306.6,-3677.9,17.01,-0.0043724827,-0.001869297,0.9173731,-0.39799994,-652.52094,543.16095,8.331,-0.00040999998,-0.00040999998,4.00601
129.40834,2000,0,91.24,0.000002697398,0.000002697398,0.000002697398,0.99999994,0,0,0,0,0,0,1,1,0,0,0,false,false,true,-312.03998,-3673.3699,17.01,-0.004340113,-0.0019394292,0.9106022,-0.41325647,-654.131,531.501,8.331,-0.00030999997,-0.00040999998,4.05901
129.41667,2000,0,91.24,0.000002697398,0.000002697398,0.000002697398,0.99999994,0,0,0,0,0,0,1,1,0,0,0,false,false,true,-317.49,-3668.94,17.01,-0.004307745,-0.0020095618,0.90348214,-0.42859936,-655.35095,519.72095,8.331,-0.00021,-0.00040999998,4.11341
129.425,2000,0,91.24,0.000002697398,0.000002697398,0.000002697398,0.99999994,0,0,0,0,0,0,1,1,0,0,0,false,false,true,-322.94998,-3664.6099,17.01,-0.0042753764,-0.002079694,0.89600265,-0.4440231,-656.09094,508.041,8.331,-0.00010999999,-0.00040999998,4.16751
129.43333,2000,0,91.24,0.000002697398,0.000002697398,0.000002697398,0.99999994,0,0,0,0,0,0,1,1,0,0,0,false,false,true,-328.41998,-3660.38,17.01,-0.0042376122,-0.0021498261,0.888159,-0.45951164,-656.36096,496.501,8.331,0,-0.00040999998,4.22091
129.44167,2000,0,91.24,0.000002697398,0.000002697398,0.000002697398,0.99999994,0,0,0,0,0,0,1,1,0,0,0,false,false,true,-333.88998,-3656.24,17.01,-0.004199849,-0.0022253536,0.8799408,-0.4750595,-656.18097,485.13098,8.331,0,-0.00030999997,4.27371
129.45,2000,0,91.24,0.000002697398,0.000002697398,0.000002697398,0.99999994,0,0,0,0,0,0,1,1,0,0,0,false,false,true,-339.36,-3652.2,17.01,-0.0041620852,-0.0023008804,0.87134343,-0.49065048,-655.561,473.951,8.331,0,-0.00030999997,4.32581
129.45833,2000,0,91.24,0.000002697398,0.000002697398,0.000002697398,0.99999994,0,0,0,0,0,0,1,1,0,0,0,false,false,true,-344.82,-3648.25,17.01,-0.0041189273,-0.0023764079,0.8623596,-0.5062739,-654.52094,462.981,8.331,0,-0.00021,4.37721
129.46666,2000,0,91.24,0.000002697398,0.000002697398,0.000002697398,0.99999994,0,0,0,0,0,0,1,1,0,0,0,false,false,true,-350.27,-3644.39,17.01,-0.0040757684,-0.0024519349,0.8529818,-0.52191883,-653.08093,452.241,8.331,0,-0.00021,4.42791
129.475,2000,0,91.24,0.000002697398,0.000002697398,0.000002697398,0.99999994,0,0,0,0,0,0,1,1,0,0,0,false,false,true,-355.71,-3640.6199,17.01,-0.00403261,-0.0025274619,0.84320956,-0.5375638,-651.27094,441.751,8.331,0.00010999999,-0.00021,4.4780097
129.48334,2000,0,91.24,0.000002697398,0.000002697398,0.000002697398,0.99999994,0,0,0,0,0,0,1,1,0,0,0,false,false,true,-361.13998,-3636.94,17.01,-0.0039840564,-0.0026029889,0.83303255,-0.5532033,-649.10095,431.521,8.331,0.00010999999,-0.00010999999,4.52741
129.49167,2000,0,91.24,0.000002697398,0.000002697398,0.000002697398,0.99999994,0,0,0,0,0,0,1,1,0,0,0,false,false,true,-366.55,-3633.3398,17.01,-0.003935504,-0.0026785163,0.82245094,-0.568816,-646.55096,421.561,8.331,0.00021,-0.00010999999,4.57481
129.5,2000,0,91.24,0.000002697398,0.000002697398,0.000002697398,0.99999994,0,0,0,0,0,0,1,1,0,0,0,false,false,true,-371.94,-3629.8298,17.01,-0.0038869502,-0.002754043,0.81145823,-0.58439076,-643.54095,411.891,8.331,0.00021,0,4.61801
129.50833,2000,0,91.24,0.000002697398,0.000002697398,0.000002697398,0.99999994,0,0,0,0,0,0,1,1,0,0,0,false,false,true,-377.3,-3626.4,17.01,-0.0038330026,-0.0028295706,0.8000641,-0.5998955,-640.10095,402.531,8.331,0.00021,0,4.65701
129.51666,2000,0,91.24,0.000002697398,0.000002697398,0.000002697398,0.99999994,0,0,0,0,0,0,1,1,0,0,0,false,false,true,-382.63,-3623.0498,17.01,-0.0037790549,-0.002905098,0.7882719,-0.6153086,-636.27094,393.501,8.331,0.00021,0,4.69181
129.525,2000,0,91.24,0.000002697398,0.000002697398,0.000002697398,0.99999994,0,0,0,0,0,0,1,1,0,0,0,false,false,true,-387.93,-3619.77,17.01,-0.003719712,-0.0029806248,0.7760954,-0.6305974,-632.071,384.82098,8.331,0.00021,0.00010999999,4.7224097
129.53334,2000,0,91.24,0.000002697398,0.000002697398,0.000002697398,0.99999994,0,0,0,0,0,0,1,1,0,0,0,false,false,true,-393.19998,-3616.5598,17.01,-0.0036603692,-0.003056152,0.7635372,-0.64574605,-627.54095,376.491,8.331,0.00021,0.00021,4.7487097
129.54167,2000,0,91.24,0.000002697398,0.000002697398,0.000002697398,0.99999994,0,0,0,0,0,0,1,1,0,0,0,false,false,true,-398.43,-3613.42,17.01,-0.0036010267,-0.0031316795,0.7506106,-0.66072756,-622.71094,368.531,8.331,0.00021,0.00030999997,4.77081
129.55,2000,0,91.24,0.000002697398,0.000002697398,0.000002697398,0.99999994,0,0,0,0,0,0,1,1,0,0,0,false,false,true,-403.62,-3610.3499,17.01,-0.0035362889,-0.0032018116,0.73733103,-0.67551464,-617.621,360.951,8.331,0.00021,0.00030999997,4.78871
129.55833,2000,0,91.24,0.000002697398,0.000002697398,0.000002697398,0.99999994,0,0,0,0,0,0,1,1,0,0,0,false,false,true,-408.77,-3607.3398,17.01,-0.0034715512,-0.003271944,0.72370636,-0.69009143,-612.30096,353.751,8.331,0.00021,0.00040999998,4.80241
129.56667,2000,0,91.24,0.000002697398,0.000002697398,0.000002697398,0.99999994,0,0,0,0,0,0,1,1,0,0,0,false,false,true,-413.87,-3604.39,17.01,-0.0034068138,-0.0033420762,0.70975107,-0.7044363,-606.79095,346.931,8.331,0.00021,0.00051,4.8119097
129.575,2000,0,91.24,0.000002697398,0.000002697398,0.000002697398,0.99999994,0,0,0,0,0,0,1,1,0,0,0,false,false,true,-418.93,-3601.5,17.01,0.0033366815,0.0034122085,-0.69548625,0.71852344,-601.131,340.481,8.331,0.00021,0.00061,4.8172097
129.58333,2000,0,91.24,0.000002697398,0.000002697398,0.000002697398,0.99999994,0,0,0,0,0,0,1,1,0,0,0,false,false,true,-423.94,-3598.66,17.01,0.003266549,0.0034823408,-0.68092567,0.7323369,-595.35095,334.401,8.331,0.00021,0.00071,4.81831
129.59166,2000,0,91.24,0.000002697398,0.000002697398,0.000002697398,0.99999994,0,0,0,0,0,0,1,1,0,0,0,false,false,true,-428.9,-3595.8699,17.01,0.0031964167,0.0035524734,-0.6660845,0.7458609,-589.49097,328.681,8.331,0.00010999999,0.00071,4.8151097
129.6,2000,0,91.24,0.000002697398,0.000002697398,0.000002697398,0.99999994,0,0,0,0,0,0,1,1,0,0,0,false,false,true,-433.81,-3593.13,17.01,0.0031208897,0.0036172108,-0.65098983,0.7590713,-583.581,323.311,8.321,0,0.00071,4.8077097
129.60834,2000,0,91.24,0.000002697398,0.000002697398,0.000002697398,0.99999994,0,0,0,0,0,0,1,1,0,0,0,false,false,true,-438.66998,-3590.44,17.01,0.0030453624,0.0036819484,-0.63565236,0.77196056,-577.66095,318.271,8.321,0,0.00071,4.79601
129.61667,2000,0,91.24,0.000002697398,0.000002697398,0.000002697398,0.99999994,0,0,0,0,0,0,1,1,0,0,0,false,false,true,-443.47998,-3587.79,17.01,0.0029698352,0.003746686,-0.62009907,0.7845088,-571.761,313.551,8.321,0,0.00081,4.7800097
129.625,2000,0,91.24,0.000002697398,0.000002697398,0.000002697398,0.99999994,0,0,0,0,0,0,1,1,0,0,0,false,false,true,-448.24,-3585.18,17.01,0.0028943082,0.0038060287,-0.60435164,0.7967032,-565.90094,309.131,8.321,0,0.00081,4.7596097
129.63333,2000,0,91.24,0.000002697398,0.000002697398,0.000002697398,0.99999994,0,0,0,0,0,0,1,1,0,0,0,false,false,true,-452.96,-3582.5999,17.01,0.002818781,0.0038653715,-0.58843154,0.8085328,-560.11096,304.981,8.321,0,0.00081,4.73481
129.64166,2000,0,91.24,0.000002697398,0.000002697398,0.000002697398,0.99999994,0,0,0,0,0,0,1,1,0,0,0,false,false,true,-457.63,-3580.0598,17.01,0.002737859,0.003924714,-0.57236576,0.8199844,-554.40094,301.061,8.321,0,0.00091,4.70541
129.65,2000,0,91.24,0.000002697398,0.000002697398,0.000002697398,0.99999994,0,0,0,0,0,0,1,1,0,0,0,false,false,true,-462.25,-3577.5498,17.01,0.002656937,0.003978662,-0.5561813,0.8310471,-548.761,297.321,8.321,0,0.00091,4.67161
129.65834,2000,0,91.24,0.000002697398,0.000002697398,0.000002697398,0.99999994,0,0,0,0,0,0,1,1,0,0,0,false,false,true,-466.81998,-3575.0698,17.01,0.0025760154,0.0040326104,-0.5398998,0.84171563,-543.201,293.741,8.321,0,0.00091,4.63341
129.66667,2000,0,91.24,0.000002697398,0.000002697398,0.000002697398,0.99999994,0,0,0,0,0,0,1,1,0,0,0,false,false,true,-471.34998,-3572.6199,17.01,0.0024950933,0.004086558,-0.52354807,0.8519826,-537.72095,290.29102,8.311,-0.00010999999,0.00081,4.59171
129.675,2000,0,91.24,0.000002697398,0.000002697398,0.000002697398,0.99999994,0,0,0,0,0,0,1,1,0,0,0,false,false,true,-475.83,-3570.2,17.01,0.0024141711,0.004135111,-0.5071532,0.8618425,-532.261,286.921,8.311,-0.00021,0.00071,4.54841
129.68333,2000,0,91.24,0.000002697398,0.000002697398,0.000002697398,0.99999994,0,0,0,0,0,0,1,1,0,0,0,false,false,true,-480.27,-3567.8098,17.01,0.0023332494,0.004183665,-0.49073142,0.8712977,-526.821,283.621,8.311,-0.00030999997,0.00061,4.50381
129.69167,2000,0,91.24,0.000002697398,0.000002697398,0.000002697398,0.99999994,0,0,0,0,0,0,1,1,0,0,0,false,false,true,-484.66,-3565.45,17.01,0.0022523273,0.0042268224,-0.4742934,0.88035375,-521.40094,280.401,8.311,-0.00040999998,0.00051,4.45821
129.7,2000,0,91.24,0.000002697398,0.000002697398,0.000002697398,0.99999994,0,0,0,0,0,0,1,1,0,0,0,false,false,true,-489,-3563.1099,17.01,0.0021714054,0.004269981,-0.45786083,0.8890109,-516.001,277.241,8.311,-0.00040999998,0.00051,4.41191
129.70833,2000,0,91.24,0.000002697398,0.000002697398,0.000002697398,0.99999994,0,0,0,0,0,0,1,1,0,0,0,false,false,true,-493.3,-3560.7998,17.01,0.0020904834,0.0043077446,-0.44143897,0.8972784,-510.621,274.151,8.311,-0.00040999998,0.00040999998,4.36511
129.71666,2000,0,91.24,0.000002697398,0.000002697398,0.000002697398,0.99999994,0,0,0,0,0,0,1,1,0,0,0,false,false,true,-497.56,-3558.51,17.01,0.0020095615,0.0043455083,-0.42504948,0.9051574,-505.251,271.121,8.311,-0.00040999998,0.00040999998,4.31811
129.725,2000,0,91.24,0.000002697398,0.000002697398,0.000002697398,0.99999994,0,0,0,0,0,0,1,1,0,0,0,false,false,true,-501.77,-3556.25,17.01,0.0019286396,0.0043832716,-0.4086978,0.91265714,-499.88098,268.151,8.311,-0.00051,0.00030999997,4.2712097
129.73334,2000,0,91.24,0.000002697398,0.000002697398,0.000002697398,0.99999994,0,0,0,0,0,0,1,1,0,0,0,false,false,true,-505.94,-3554.02,17.01,0.0018477177,0.0044156406,-0.39238933,0.9197867,-494.521,265.231,8.311,-0.00051,0.00021,4.22461
129.74167,2000,0,91.24,0.000002697398,0.000002697398,0.000002697398,0.99999994,0,0,0,0,0,0,1,1,0,0,0,false,false,true,-510.06,-3551.8098,17.01,0.0017667958,0.004448009,-0.37614012,0.9265504,-489.151,262.361,8.311,-0.00051,0.00010999999,4.1785097
129.75,2000,0,91.24,0.000002697398,0.000002697398,0.000002697398,0.99999994,0,0,0,0,0,0,1,1,0,0,0,false,false,true,-514.14,-3549.6199,17.01,0.0016858738,0.0044803782,-0.35995024,0.93295914,-483.781,259.531,8.311,-0.00051,0,4.13311
129.75833,2000,0,91.24,0.000002697398,0.000002697398,0.000002697398,0.99999994,0,0,0,0,0,0,1,1,0,0,0,false,false,true,-518.17,-3547.46,17.01,0.0016049519,0.0045073526,-0.34383056,0.9390195,-478.391,256.751,8.301001,-0.00051,0,4.0886097
129.76666,2000,0,91.24,0.000002697398,0.000002697398,0.000002697398,0.99999994,0,0,0,0,0,0,1,1,0,0,0,false,false,true,-522.16,-3545.3198,17.01,0.0015240299,0.004534326,-0.3277864,0.9447397,-472.991,254.011,8.301001,-0.00040999998,0,4.04521
129.775,2000,0,91.24,0.000002697398,0.000002697398,0.000002697398,0.99999994,0,0,0,0,0,0,1,1,0,0,0,false,false,true,-526.1,-3543.2,17.01,0.0014485029,0.0045613004,-0.31181774,0.95012987,-467.561,251.311,8.301001,-0.00030999997,0,4.00311
129.78334,2000,0,91.24,0.000002697398,0.000002697398,0.000002697398,0.99999994,0,0,0,0,0,0,1,1,0,0,0,false,false,true,-530,-3541.1099,17.01,0.0013729756,0.004582879,-0.29592457,0.95519924,-462.111,248.651,8.301001,-0.00030999997,-0.00010999999,3.9625099
129.79167,2000,0,91.24,0.000002697398,0.000002697398,0.000002697398,0.99999994,0,0,0,0,0,0,1,1,0,0,0,false,false,true,-533.85,-3539.04,17.01,0.0012974484,0.0046044583,-0.28011236,0.9599552,-456.621,246.031,8.301001,-0.00030999997,-0.00021,3.9235098
129.8,2000,0,91.24,0.000002697398,0.000002697398,0.000002697398,0.99999994,0,0,0,0,0,0,1,1,0,0,0,false,false,true,-537.66,-3536.99,17.01,0.0012219213,0.0046260376,-0.26438108,0.9644064,-451.091,243.461,8.301001,-0.00030999997,-0.00021,3.8863099
129.80833,2000,0,91.24,0.000002697398,0.000002697398,0.000002697398,0.99999994,0,0,0,0,0,0,1,1,0,0,0,false,false,true,-541.42,-3534.96,17.01,0.0011463942,0.004642222,-0.24873075,0.9685608,-445.521,240.931,8.301001,-0.00030999997,-0.00030999997,3.85111
129.81667,2000,0,91.24,0.000002697398,0.000002697398,0.000002697398,0.99999994,0,0,0,0,0,0,1,1,0,0,0,false,false,true,-545.13,-3532.95,17.01,0.0010708668,0.0046584057,-0.23315585,0.9724275,-439.911,238.451,8.301001,-0.00021,-0.00030999997,3.81791
129.825,2000,0,91.24,0.000002697398,0.000002697398,0.000002697398,0.99999994,0,0,0,0,0,0,1,1,0,0,0,false,false,true,-548.8,-3530.96,17.01,0.00099534,0.004674591,-0.21765661,0.97601366,-434.241,236.021,8.301001,-0.00010999999,-0.00040999998,3.78701
129.83333,2000,0,91.24,0.000002697398,0.000002697398,0.000002697398,0.99999994,0,0,0,0,0,0,1,1,0,0,0,false,false,true,-552.42,-3528.99,17.01,0.00091981277,0.0046853805,-0.20222738,0.9793269,-428.521,233.651,8.301001,0,-0.00051,3.7585099
129.84166,2000,0,91.24,0.000002697398,0.000002697398,0.000002697398,0.99999994,0,0,0,0,0,0,1,1,0,0,0,false,false,true,-555.99,-3527.04,17.01,0.0008442856,0.00469617,-0.18686835,0.9823733,-422.751,231.341,8.301001,0,-0.00051,3.7325099
129.85,2000,0,91.24,0.000002697398,0.000002697398,0.000002697398,0.99999994,0,0,0,0,0,0,1,1,0,0,0,false,false,true,-559.51,-3525.1099,17.01,0.0007741533,0.00470696,-0.17156869,0.9851606,-416.921,229.091,8.301001,0,-0.00051,3.70911
129.85834,2000,0,91.24,0.000002697398,0.000002697398,0.000002697398,0.99999994,0,0,0,0,0,0,1,1,0,0,0,false,false,true,-562.98,-3523.2,17.01,0.0007040209,0.004717749,-0.1563229,0.98769444,-411.031,226.911,8.301001,0,-0.00051,3.68851
129.86667,2000,0,91.24,0.000002697398,0.000002697398,0.000002697398,0.99999994,0,0,0,0,0,0,1,1,0,0,0,false,false,true,-566.41,-3521.3098,17.01,0.0006338886,0.004728539,-0.14112572,0.98998016,-405.081,224.801,8.301001,0,-0.00051,3.6707098
129.875,2000,0,91.24,0.000002697398,0.000002697398,0.000002697398,0.99999994,0,0,0,0,0,0,1,1,0,0,0,false,false,true,-569.79,-3519.44,17.01,0.0005637561,0.004733933,-0.12596624,0.99202293,-399.07098,222.771,8.301001,0,-0.00061,3.65591
129.88333,2000,0,91.24,0.000002697398,0.000002697398,0.000002697398,0.99999994,0,0,0,0,0,0,1,1,0,0,0,false,false,true,-573.12,-3517.5798,17.01,0.00049362384,0.0047393283,-0.1108392,0.99382687,-393.011,220.83101,8.301001,0.00010999999,-0.00061,3.64411
129.89166,2000,0,91.24,0.000002697398,0.000002697398,0.000002697398,0.99999994,0,0,0,0,0,0,1,1,0,0,0,false,false,true,-576.39996,-3515.74,17.01,0.0004234915,0.004744723,-0.095739126,0.995395,-386.82098,218.97101,8.301001,0.00010999999,-0.00061,3.63651
129.9,2000,0,91.24,0.000002697398,0.000002697398,0.000002697398,0.99999994,0,0,0,0,0,0,1,1,0,0,0,false,false,true,-579.62,-3513.92,17.01,0.00035335918,0.004750118,-0.080644414,0.9967315,-380.451,217.211,8.301001,0.00021,-0.00061,3.63231
129.90834,2000,0,91.24,0.000002697398,0.000002697398,0.000002697398,0.99999994,0,0,0,0,0,0,1,1,0,0,0,false,false,true,-582.79,-3512.1099,17.01,0.00028322678,0.0047501177,-0.065549724,0.9978379,-373.891,215.571,8.301001,0.00021,-0.00061,3.63161
129.91667,2000,0,91.24,0.000002697398,0.000002697398,0.000002697398,0.99999994,0,0,0,0,0,0,1,1,0,0,0,false,false,true,-585.91,-3510.3098,17.01,0.00021309446,0.004750118,-0.050444257,0.9987155,-367.151,214.08101,8.301001,0.00030999997,-0.00051,3.63441
129.925,2000,0,91.24,0.000002697398,0.000002697398,0.000002697398,0.99999994,0,0,0,0,0,0,1,1,0,0,0,false,false,true,-588.97,-3508.53,17.01,0.00014296209,0.0047501177,-0.035317156,0.9993648,-360.221,212.761,8.301001,0.00030999997,-0.00040999998,3.6407099
129.93333,2000,0,91.24,0.000002697398,0.000002697398,0.000002697398,0.99999994,0,0,0,0,0,0,1,1,0,0,0,false,false,true,-591.97,-3506.76,17.01,0.00007282975,0.004750118,-0.020152347,0.9997856,-353.111,211.641,8.301001,0.00040999998,-0.00040999998,3.65061
129.94167,2000,0,91.24,0.000002697398,0.000002697398,0.000002697398,0.99999994,0,0,0,0,0,0,1,1,0,0,0,false,false,true,-594.91,-3505,17.01,0.0000026973983,0.004750118,-0.004944331,0.99997646,-345.821,210.741,8.301001,0.00040999998,-0.00030999997,3.66411
129.95,2000,0,91.24,0.000002697398,0.000002697398,0.000002697398,0.99999994,0,0,0,0,0,0,1,1,0,0,0,false,false,true,-597.79,-3503.24,17.01,-0.00006743496,0.004750118,0.010322943,0.9999354,-338.351,210.091,8.301001,0.00040999998,-0.00030999997,3.68131
129.95833,2000,0,91.24,0.000002697398,0.000002697398,0.000002697398,0.99999994,0,0,0,0,0,0,1,1,0,0,0,false,false,true,-600.61,-3501.49,17.01,-0.00013756729,0.0047447225,0.025660431,0.9996593,-330.701,209.72101,8.301001,0.00051,-0.00030999997,3.7023098
129.96666,2000,0,91.24,0.000002697398,0.000002697398,0.000002697398,0.99999994,0,0,0,0,0,0,1,1,0,0,0,false,false,true,-603.37,-3499.74,17.01,-0.00020769966,0.0047393288,0.041078847,0.9991446,-322.881,209.661,8.301001,0.00051,-0.00021,3.72731
129.975,2000,0,91.24,0.000002697398,0.000002697398,0.000002697398,0.99999994,0,0,0,0,0,0,1,1,0,0,0,false,false,true,-606.06,-3497.99,17.01,-0.00027783198,0.004733933,0.05658896,0.99838614,-314.901,209.931,8.301001,0.00051,-0.00021,3.75651
129.98334,2000,0,91.24,0.000002697398,0.000002697398,0.000002697398,0.99999994,0,0,0,0,0,0,1,1,0,0,0,false,false,true,-608.68,-3496.24,17.01,-0.00034796435,0.0047285384,0.0722069,0.99737835,-306.771,210.571,8.301001,0.00051,-0.00021,3.79001
129.99167,2000,0,91.24,0.000002697398,0.000002697398,0.000002697398,0.99999994,0,0,0,0,0,0,1,1,0,0,0,false,false,true,-611.24,-3494.48,17.01,-0.0004180967,0.0047231438,0.087949,0.99611366,-298.501,211.61101,8.301001,0.00051,-0.00021,3.82811
130,2000,0,91.24,0.000002697398,0.000002697398,0.000002697398,0.99999994,0,0,0,0,0,0,1,1,0,0,0,false,false,true,-613.73,-3492.72,17.01,-0.0004936239,0.004712355,0.10382598,0.99458414,-290.101,212.991,8.301001,0.00051,-0.00010999999,3.86831
130.00833,2000,0,91.24,0.000002697398,0.000002697398,0.000002697398,0.99999994,0,0,0,0,0,0,1,1,0,0,0,false,false,true,-616.14996,-3490.94,17.01,-0.000569151,0.004701565,0.119843125,0.9927815,-281.571,214.661,8.301001,0.00051,0,3.90831
130.01666,2000,0,91.24,0.000002697398,0.000002697398,0.000002697398,0.99999994,0,0,0,0,0,0,1,1,0,0,0,false,false,true,-618.5,-3489.15,17.01,-0.00064467813,0.004690775,0.13599522,0.9906981,-272.911,216.661,8.301001,0.00051,0,3.94821
130.025,2000,0,91.24,0.000002697398,0.000002697398,0.000002697398,0.99999994,0,0,0,0,0,0,1,1,0,0,0,false,false,true,-620.76996,-3487.3398,17.01,-0.00072020525,0.0046799853,0.1522714,0.9883273,-264.141,219.021,8.301001,0.00051,0,3.98821
130.03334,2000,0,91.24,0.000002697398,0.000002697398,0.000002697398,0.99999994,0,0,0,0,0,0,1,1,0,0,0,false,false,true,-622.97,-3485.51,17.01,-0.0007957324,0.004669196,0.16867167,0.98566085,-255.261,221.771,8.301001,0.00051,0,4.0286098
130.04167,2000,0,91.24,0.000002697398,0.000002697398,0.000002697398,0.99999994,0,0,0,0,0,0,1,1,0,0,0,false,false,true,-625.1,-3483.66,17.01,-0.0008712596,0.0046530114,0.18519054,0.98269117,-246.271,224.961,8.301001,0.00040999998,0,4.06951
130.05,2000,0,91.24,0.000002697398,0.000002697398,0.000002697398,0.99999994,0,0,0,0,0,0,1,1,0,0,0,false,false,true,-627.14996,-3481.78,17.01,-0.0009467867,0.004636827,0.20182817,0.97940946,-237.191,228.641,8.301001,0.00030999997,0.00010999999,4.11121
130.05833,2000,0,91.24,0.000002697398,0.000002697398,0.000002697398,0.99999994,0,0,0,0,0,0,1,1,0,0,0,false,false,true,-629.13,-3479.8699,17.01,-0.001022314,0.0046206433,0.21857372,0.9758089,-228.011,232.86101,8.301001,0.00021,0.00021,4.15411
130.06667,2000,0,91.24,0.000002697398,0.000002697398,0.000002697398,0.99999994,0,0,0,0,0,0,1,1,0,0,0,false,false,true,-631.02997,-3477.93,17.01,-0.0011032359,0.004604459,0.23543255,0.9718791,-218.94101,237.421,8.301001,0.00021,0.00021,4.19671
130.075,2000,0,91.24,0.000002697398,0.000002697398,0.000002697398,0.99999994,0,0,0,0,0,0,1,1,0,0,0,false,false,true,-632.85,-3475.95,17.01,-0.0011841578,0.0045828796,0.2523884,0.9676144,-209.97101,242.281,8.301001,0.00030999997,0.00021,4.23801
130.08333,2000,0,91.24,0.000002697398,0.000002697398,0.000002697398,0.99999994,0,0,0,0,0,0,1,1,0,0,0,false,false,true,-634.6,-3473.93,17.01,-0.0012650797,0.0045613,0.269436,0.9630066,-201.101,247.391,8.301001,0.00030999997,0.00021,4.27621
130.09166,2000,0,91.24,0.000002697398,0.000002697398,0.000002697398,0.99999994,0,0,0,0,0,0,1,1,0,0,0,false,false,true,-636.27997,-3471.8699,17.01,-0.0013460016,0.0045397207,0.28654838,0.958054,-192.33101,252.781,8.301001,0.00030999997,0.00030999997,4.31141
130.1,2000,0,91.24,0.000002697398,0.000002697398,0.000002697398,0.99999994,0,0,0,0,0,0,1,1,0,0,0,false,false,true,-637.88,-3469.76,17.01,-0.0014269236,0.0045181415,0.3037093,0.9527529,-183.671,258.471,8.301001,0.00030999997,0.00030999997,4.34381
130.10834,2000,0,91.24,0.000002697398,0.000002697398,0.000002697398,0.99999994,0,0,0,0,0,0,1,1,0,0,0,false,false,true,-639.41,-3467.6099,17.01,-0.0015078455,0.0044911676,0.32090262,0.9471003,-175.22101,264.381,8.301001,0.00030999997,0.00030999997,4.37221
130.11667,2000,0,91.24,0.000002697398,0.000002697398,0.000002697398,0.99999994,0,0,0,0,0,0,1,1,0,0,0,false,false,true,-640.87,-3465.41,17.01,-0.0015887674,0.0044641932,0.3381012,0.9410977,-167.071,270.411,8.301001,0.00030999997,0.00030999997,4.39581
130.125,2000,0,91.24,0.000002697398,0.000002697398,0.000002697398,0.99999994,0,0,0,0,0,0,1,1,0,0,0,false,false,true,-642.26,-3463.16,17.01,-0.0016696894,0.00443722,0.35527834,0.9347485,-159.22101,276.581,8.301001,0.00030999997,0.00040999998,4.4148097
130.13333,2000,0,91.24,0.000002697398,0.000002697398,0.000002697398,0.99999994,0,0,0,0,0,0,1,1,0,0,0,false,false,true,-643.58997,-3460.8499,17.01,-0.0017506114,0.004404851,0.3724123,0.9280552,-151.681,282.911,8.301001,0.00021,0.00040999998,4.42911
130.14166,2000,0,91.24,0.000002697398,0.000002697398,0.000002697398,0.99999994,0,0,0,0,0,0,1,1,0,0,0,false,false,true,-644.85,-3458.49,17.01,-0.0018315334,0.0043724827,0.38947615,0.9210243,-144.451,289.411,8.301001,0.00010999999,0.00040999998,4.43851
130.15,2000,0,91.24,0.000002697398,0.000002697398,0.000002697398,0.99999994,0,0,0,0,0,0,1,1,0,0,0,false,false,true,-646.05,-3456.0798,17.01,-0.0019124552,0.004340113,0.40644276,0.91366386,-137.531,296.111,8.301001,0,0.00051,4.44281
130.15834,2000,0,91.24,0.000002697398,0.000002697398,0.000002697398,0.99999994,0,0,0,0,0,0,1,1,0,0,0,false,false,true,-647.2,-3453.6099,17.01,-0.0019933772,0.004307745,0.42328542,0.9059839,-130.931,302.991,8.301001,0,0.00051,4.4422097
130.16667,2000,0,91.24,0.000002697398,0.000002697398,0.000002697398,0.99999994,0,0,0,0,0,0,1,1,0,0,0,false,false,true,-648.29,-3451.0798,17.01,-0.0020742991,0.0042699813,0.4399824,0.8979938,-124.72099,309.771,8.301001,0,0.00051,4.44331
130.175,2000,0,91.24,0.000002697398,0.000002697398,0.000002697398,0.99999994,0,0,0,0,0,0,1,1,0,0,0,false,false,true,-649.32996,-3448.5,17.01,-0.0021498264,0.004232218,0.45653373,0.8896934,-118.90099,316.481,8.301001,0,0.00040999998,4.44551
130.18333,2000,0,91.24,0.000002697398,0.000002697398,0.000002697398,0.99999994,0,0,0,0,0,0,1,1,0,0,0,false,false,true,-650.32,-3445.8599,17.01,-0.0022253536,0.0041944543,0.47293392,0.8810851,-113.461,323.141,8.301001,0,0.00030999997,4.44831
130.19167,2000,0,91.24,0.000002697398,0.000002697398,0.000002697398,0.99999994,0,0,0,0,0,0,1,1,0,0,0,false,false,true,-651.26996,-3443.17,17.01,-0.0023008804,0.0041512954,0.4891831,0.8721681,-108.40099,329.761,8.301001,0,0.00021,4.4513097
130.2,2000,0,91.24,0.000002697398,0.000002697398,0.000002697398,0.99999994,0,0,0,0,0,0,1,1,0,0,0,false,false,true,-652.17,-3440.42,17.01,-0.0023764079,0.0041081375,0.5052759,0.8629448,-103.721,336.341,8.301001,0,0.00010999999,4.45431
130.20833,2000,0,91.24,0.000002697398,0.000002697398,0.000002697398,0.99999994,0,0,0,0,0,0,1,1,0,0,0,false,false,true,-653.02997,-3437.6199,17.01,-0.0024519349,0.0040649786,0.5212014,0.85342044,-99.421,342.891,8.301001,0,0,4.45711
130.21666,2000,0,91.24,0.000002697398,0.000002697398,0.000002697398,0.99999994,0,0,0,0,0,0,1,1,0,0,0,false,false,true,-653.86,-3434.76,17.01,-0.0025274619,0.0040164255,0.5369595,0.84359455,-95.510994,349.401,8.301001,0,0,4.45951
130.225,2000,0,91.24,0.000002697398,0.000002697398,0.000002697398,0.99999994,0,0,0,0,0,0,1,1,0,0,0,false,false,true,-654.66,-3431.8499,17.01,-0.002602989,0.0039678724,0.5525398,0.83347285,-91.991,355.871,8.301001,0,0,4.46141
130.23334,2000,0,91.24,0.000002697398,0.000002697398,0.000002697398,0.99999994,0,0,0,0,0,0,1,1,0,0,0,false,false,true,-655.43,-3428.88,17.01,-0.0026785163,0.0039193192,0.56793666,0.8230585,-88.870995,362.291,8.301001,0,0,4.46271
130.24167,2000,0,91.24,0.000002697398,0.000002697398,0.000002697398,0.99999994,0,0,0,0,0,0,1,1,0,0,0,false,false,true,-656.17,-3425.8599,17.01,-0.0027486486,0.0038707664,0.58314455,0.81235445,-86.151,368.651,8.301001,0,0,4.46331
130.25,2000,0,91.24,0.000002697398,0.000002697398,0.000002697398,0.99999994,0,0,0,0,0,0,1,1,0,0,0,false,false,true,-656.89,-3422.79,17.01,-0.002818781,0.0038168184,0.5981476,0.8013719,-83.840996,374.941,8.301001,0,0,4.46321
130.25833,2000,0,91.24,0.000002697398,0.000002697398,0.000002697398,0.99999994,0,0,0,0,0,0,1,1,0,0,0,false,false,true,-657.58997,-3419.67,17.01,-0.0028889133,0.0037628703,0.6129456,0.79011077,-81.940994,381.151,8.301001,-0.00010999999,-0.00010999999,4.4622097
130.26666,2000,0,91.24,0.000002697398,0.000002697398,0.000002697398,0.99999994,0,0,0,0,0,0,1,1,0,0,0,false,false,true,-658.26996,-3416.49,17.01,-0.0029590456,0.0037089223,0.6275277,0.77857965,-80.461,387.261,8.301001,-0.00010999999,-0.00021,4.46031
130.275,2000,0,91.24,0.000002697398,0.000002697398,0.000002697398,0.99999994,0,0,0,0,0,0,1,1,0,0,0,false,false,true,-658.94,-3413.26,17.01,-0.003029178,0.0036549745,0.64188874,0.766783,-79.410995,393.261,8.301001,-0.00010999999,-0.00021,4.45741
130.28334,2000,0,91.24,0.000002697398,0.000002697398,0.000002697398,0.99999994,0,0,0,0,0,0,1,1,0,0,0,false,false,true,-659.6,-3409.98,17.01,-0.0030993104,0.0035956316,0.65601784,0.75473034,-78.770996,399.171,8.301001,-0.00010999999,-0.00021,4.45251
130.29167,2000,0,91.24,0.000002697398,0.000002697398,0.000002697398,0.99999994,0,0,0,0,0,0,1,1,0,0,0,false,false,true,-660.26,-3406.65,17.01,-0.0031640478,0.0035362889,0.66990405,0.7424324,-78.531,405.081,8.301001,-0.00010999999,-0.00021,4.44601
130.3,2000,0,91.24,0.000002697398,0.000002697398,0.000002697398,0.99999994,0,0,0,0,0,0,1,1,0,0,0,false,false,true,-660.91,-3403.27,17.01,-0.0032287857,0.0034769464,0.6835422,0.72989553,-78.681,410.951,8.301001,-0.00021,-0.00021,4.43821
130.30833,2000,0,91.24,0.000002697398,0.000002697398,0.000002697398,0.99999994,0,0,0,0,0,0,1,1,0,0,0,false,false,true,-661.57,-3399.8499,17.01,-0.0032935226,0.003417603,0.6969213,0.71713173,-79.221,416.761,8.301001,-0.00021,-0.00021,4.42941
130.31667,2000,0,91.24,0.000002697398,0.000002697398,0.000002697398,0.99999994,0,0,0,0,0,0,1,1,0,0,0,false,false,true,-662.23,-3396.38,17.01,-0.0033582605,0.0033582605,0.7100349,0.7041504,-80.151,422.491,8.301001,-0.00021,-0.00030999997,4.41991
130.325,2000,0,91.24,0.000002697398,0.000002697398,0.000002697398,0.99999994,0,0,0,0,0,0,1,1,0,0,0,false,false,true,-662.89996,-3392.8599,17.01,-0.0034229981,0.003293523,0.7228824,0.6909546,-81.461,428.111,8.301001,-0.00021,-0.00030999997,4.40981
130.33333,2000,0,91.24,0.000002697398,0.000002697398,0.000002697398,0.99999994,0,0,0,0,0,0,1,1,0,0,0,false,false,true,-663.57996,-3389.29,17.01,-0.0034823408,0.0032287855,0.73545766,0.67755395,-83.141,433.60098,8.301001,-0.00021,-0.00030999997,4.39931
130.34166,2000,0,91.24,0.000002697398,0.000002697398,0.000002697398,0.99999994,0,0,0,0,0,0,1,1,0,0,0,false,false,true,-664.26996,-3385.68,17.01,-0.0035416838,0.0031640478,0.74775386,0.66395897,-85.181,438.941,8.301001,-0.00030999997,-0.00030999997,4.38861
130.35,2000,0,91.24,0.000002697398,0.000002697398,0.000002697398,0.99999994,0,0,0,0,0,0,1,1,0,0,0,false,false,true,-664.98,-3382.02,17.01,-0.0036010265,0.0030993104,0.7597694,0.65017515,-87.581,444.10098,8.301001,-0.00030999997,-0.00030999997,4.37791
130.35834,2000,0,91.24,0.000002697398,0.000002697398,0.000002697398,0.99999994,0,0,0,0,0,0,1,1,0,0,0,false,false,true,-665.70996,-3378.3198,17.01,-0.0036603692,0.0030345728,0.7715028,0.63620806,-90.321,449.07098,8.301001,-0.00030999997,-0.00030999997,4.36731
130.36667,2000,0,91.24,0.000002697398,0.000002697398,0.000002697398,0.99999994,0,0,0,0,0,0,1,1,0,0,0,false,false,true,-666.45996,-3374.5798,17.01,-0.0037143172,0.0029698352,0.7829528,0.6220628,-93.391,453.82098,8.301001,-0.00030999997,-0.00030999997,4.35701
130.375,2000,0,91.24,0.000002697398,0.000002697398,0.000002697398,0.99999994,0,0,0,0,0,0,1,1,0,0,0,false,false,true,-667.24,-3370.7998,17.01,-0.0037682652,0.0028997029,0.7941179,0.607745,-96.781,458.341,8.301001,-0.00030999997,-0.00030999997,4.34711
130.38333,2000,0,91.24,0.000002697398,0.000002697398,0.000002697398,0.99999994,0,0,0,0,0,0,1,1,0,0,0,false,false,true,-668.05,-3366.98,17.01,-0.003822213,0.0028295706,0.80499685,0.5932599,-100.480995,462.611,8.301001,-0.00040999998,-0.00030999997,4.33781
130.39166,2000,0,91.24,0.000002697398,0.000002697398,0.000002697398,0.99999994,0,0,0,0,0,0,1,1,0,0,0,false,false,true,-668.89,-3363.1199,17.01,-0.003876161,0.0027594382,0.8155883,0.5786129,-104.501,466.661,8.301001,-0.00040999998,-0.00030999997,4.3302097
130.4,2000,0,91.24,0.000002697398,0.000002697398,0.000002697398,0.99999994,0,0,0,0,0,0,1,1,0,0,0,false,false,true,-669.76,-3359.23,17.01,-0.0039247135,0.0026893057,0.82589465,0.56380415,-108.821,470.471,8.301001,-0.00040999998,-0.00030999997,4.3242097
130.40834,2000,0,91.24,0.000002697398,0.000002697398,0.000002697398,0.99999994,0,0,0,0,0,0,1,1,0,0,0,false,false,true,-670.67,-3355.3098,17.01,-0.0039732675,0.0026191736,0.835918,0.54883367,-113.421,474.031,8.301001,-0.00040999998,-0.00030999997,4.31971
130.41667,2000,0,91.24,0.000002697398,0.000002697398,0.000002697398,0.99999994,0,0,0,0,0,0,1,1,0,0,0,false,false,true,-671.62,-3351.3599,17.01,-0.00402182,0.002549041,0.84565973,0.53370106,-118.281,477.32098,8.301001,-0.00040999998,-0.00030999997,4.31681
130.425,2000,0,91.24,0.000002697398,0.000002697398,0.000002697398,0.99999994,0,0,0,0,0,0,1,1,0,0,0,false,false,true,-672.61,-3347.38,17.01,-0.0040703737,0.0024789087,0.8551208,0.51840675,-123.421,480.361,8.301001,-0.00040999998,-0.00030999997,4.31531
130.43333,2000,0,91.24,0.000002697398,0.000002697398,0.000002697398,0.99999994,0,0,0,0,0,0,1,1,0,0,0,false,false,true,-673.64,-3343.38,17.01,-0.004118927,0.0024087764,0.86430186,0.50295067,-128.83101,483.161,8.311,-0.00030999997,-0.00030999997,4.31491
130.44167,2000,0,91.24,0.000002697398,0.000002697398,0.000002697398,0.99999994,0,0,0,0,0,0,1,1,0,0,0,false,false,true,-674.70996,-3339.3499,17.01,-0.0041620852,0.0023332492,0.8732033,0.48733267,-134.501,485.701,8.311,-0.00021,-0.00021,4.31551
130.45,2000,0,91.24,0.000002697398,0.000002697398,0.000002697398,0.99999994,0,0,0,0,0,0,1,1,0,0,0,false,false,true,-675.82996,-3335.2998,17.01,-0.0042052437,0.0022577224,0.88182485,0.47155285,-140.41101,487.981,8.311,-0.00010999999,-0.00021,4.31711
130.45833,2000,0,91.24,0.000002697398,0.000002697398,0.000002697398,0.99999994,0,0,0,0,0,0,1,1,0,0,0,false,false,true,-677,-3331.23,17.01,-0.004248402,0.0021821952,0.89016324,0.45561662,-146.541,489.991,8.311,-0.00010999999,-0.00010999999,4.31951
130.46666,2000,0,91.24,0.000002697398,0.000002697398,0.000002697398,0.99999994,0,0,0,0,0,0,1,1,0,0,0,false,false,true,-678.22,-3327.15,17.01,-0.0042861653,0.0021066677,0.89821815,0.43952382,-152.871,491.721,8.311,-0.00010999999,0,4.32271
130.475,2000,0,91.24,0.000002697398,0.000002697398,0.000002697398,0.99999994,0,0,0,0,0,0,1,1,0,0,0,false,false,true,-679.49,-3323.0498,17.01,-0.004323929,0.0020311407,0.90598875,0.4232746,-159.391,493.171,8.311,-0.00010999999,0,4.32661
130.48334,2000,0,91.24,0.000002697398,0.000002697398,0.000002697398,0.99999994,0,0,0,0,0,0,1,1,0,0,0,false,false,true,-680.82,-3318.94,17.01,-0.0043616924,0.0019556135,0.9134716,0.40687433,-166.08101,494.331,8.311,0,0,4.33121
130.49167,2000,0,91.24,0.000002697398,0.000002697398,0.000002697398,0.99999994,0,0,0,0,0,0,1,1,0,0,0,false,false,true,-682.2,-3314.8198,17.01,-0.004394062,0.0018746918,0.9206655,0.39032313,-172.931,495.191,8.311,0,0,4.33641
130.5,2000,0,91.24,0.000002697398,0.000002697398,0.000002697398,0.99999994,0,0,0,0,0,0,1,1,0,0,0,false,false,true,-683.64,-3310.69,17.01,-0.00442643,0.0017937698,0.927567,0.37362614,-179.921,495.761,8.311,0,0,4.34221
130.50833,2000,0,91.24,0.000002697398,0.000002697398,0.000002697398,0.99999994,0,0,0,0,0,0,1,1,0,0,0,false,false,true,-685.14,-3306.5598,17.01,-0.004458799,0.0017128477,0.93417484,0.35678348,-187.041,496.021,8.311,0,0,4.34861
130.51666,2000,0,91.24,0.000002697398,0.000002697398,0.000002697398,0.99999994,0,0,0,0,0,0,1,1,0,0,0,false,false,true,-686.7,-3302.43,17.01,-0.0044911676,0.0016319258,0.9404853,0.3398006,-194.271,495.981,8.311,0,0,4.3555098
130.525,2000,0,91.24,0.000002697398,0.000002697398,0.000002697398,0.99999994,0,0,0,0,0,0,1,1,0,0,0,false,false,true,-688.32,-3298.2998,17.01,-0.0045181415,0.0015510039,0.94649684,0.3226775,-201.601,495.641,8.311,0,0,4.36281
130.53334,2000,0,91.24,0.000002697398,0.000002697398,0.000002697398,0.99999994,0,0,0,0,0,0,1,1,0,0,0,false,false,true,-690,-3294.17,17.01,-0.0045451154,0.001470082,0.95220584,0.30541947,-209.011,494.991,8.311,0,0,4.3706098
130.54167,2000,0,91.24,0.000002697398,0.000002697398,0.000002697398,0.99999994,0,0,0,0,0,0,1,1,0,0,0,false,false,true,-691.74,-3290.0498,17.01,-0.0045720898,0.0013891599,0.9576088,0.28803194,-216.491,494.031,8.311,0,0,4.37881
130.55,2000,0,91.24,0.000002697398,0.000002697398,0.000002697398,0.99999994,0,0,0,0,0,0,1,1,0,0,0,false,false,true,-693.54,-3285.93,17.01,-0.0045990637,0.001308238,0.9627038,0.27051497,-224.021,492.761,8.311,0,0,4.3874097
130.55833,2000,0,91.24,0.000002697398,0.000002697398,0.000002697398,0.99999994,0,0,0,0,0,0,1,1,0,0,0,false,false,true,-695.41,-3281.8198,17.01,-0.004620643,0.0012219213,0.9674874,0.2528739,-231.601,491.191,8.311,0,0,4.39631
130.56667,2000,0,91.24,0.000002697398,0.000002697398,0.000002697398,0.99999994,0,0,0,0,0,0,1,1,0,0,0,false,false,true,-697.33997,-3277.73,17.01,-0.0046422225,0.0011356047,0.97195727,0.23510885,-239.211,489.311,8.311,0,0,4.40561
130.575,2000,0,91.24,0.000002697398,0.000002697398,0.000002697398,0.99999994,0,0,0,0,0,0,1,1,0,0,0,false,false,true,-699.32996,-3273.65,17.01,-0.0046638013,0.0010492879,0.9761086,0.21723041,-246.841,487.13098,8.311,0,0,4.41521
130.58333,2000,0,91.24,0.000002697398,0.000002697398,0.000002697398,0.99999994,0,0,0,0,0,0,1,1,0,0,0,false,false,true,-701.39,-3269.5898,17.01,-0.0046799853,0.0009629711,0.9799393,0.19923867,-254.47101,484.641,8.311,0,0.00010999999,4.42511
130.59166,2000,0,91.24,0.000002697398,0.000002697398,0.000002697398,0.99999994,0,0,0,0,0,0,1,1,0,0,0,false,false,true,-703.51,-3265.55,17.01,-0.00469617,0.00087665435,0.9834458,0.18113905,-262.101,481.85098,8.311,0,0.00010999999,4.43531
130.6,2000,0,91.24,0.000002697398,0.000002697398,0.000002697398,0.99999994,0,0,0,0,0,0,1,1,0,0,0,false,false,true,-705.69,-3261.53,17.01,-0.004712355,0.0007903377,0.9866249,0.16293693,-269.721,478.761,8.311,0,0.00010999999,4.44581
130.60834,2000,0,91.24,0.000002697398,0.000002697398,0.000002697398,0.99999994,0,0,0,0,0,0,1,1,0,0,0,false,false,true,-707.94,-3257.54,17.01,-0.0047231438,0.0007040209,0.9894739,0.14463237,-277.311,475.38098,8.311,0,0.00010999999,4.4566097
130.61667,2000,0,91.24,0.000002697398,0.000002697398,0.000002697398,0.99999994,0,0,0,0,0,0,1,1,0,0,0,false,false,true,-710.25,-3253.5798,17.01,-0.0047339336,0.0006177041,0.9919887,0.12623604,-284.871,471.711,8.311,0,0.00010999999,4.46761
130.625,2000,0,91.24,0.000002697398,0.000002697398,0.000002697398,0.99999994,0,0,0,0,0,0,1,1,0,0,0,false,false,true,-712.62,-3249.65,17.01,-0.004744723,0.0005313874,0.99416673,0.10774799,-292.381,467.751,8.311,0,0.00010999999,4.47891
