time,ball_loc_x,ball_loc_y,ball_loc_z,ball_rot_x,ball_rot_y,ball_rot_z,ball_rot_w,ball_vel_x,ball_vel_y,ball_vel_z,ball_ang_x,ball_ang_y,ball_ang_z,player0_throttle,player0_steer,player0_pitch,player0_yaw,player0_roll,player0_jump,player0_boost,player0_handbrake,player0_loc_x,player0_loc_y,player0_loc_z,player0_rot_x,player0_rot_y,player0_rot_z,player0_rot_w,player0_vel_x,player0_vel_y,player0_vel_z,player0_ang_x,player0_ang_y,player0_ang_z
147.40834,2000,0,91.24,0.000002697398,0.000002697398,0.000002697398,0.99999994,0,0,0,0,0,0,1,0,0,0,0,false,false,false,0,-3938.7998,17.01,-0.003347471,0.0033528658,0.70708513,0.70711243,0,1201.351,8.321,-0.00081,0,0
147.41667,2000,0,91.24,0.000002697398,0.000002697398,0.000002697398,0.99999994,0,0,0,0,0,0,0,1,0,0,0,false,false,true,0,-3928.7898,17.01,-0.003347471,0.0033528658,0.70708513,0.70711243,0,1204.381,8.321,-0.00081,0,0
147.425,2000,0,91.24,0.000002697398,0.000002697398,0.000002697398,0.99999994,0,0,0,0,0,0,0,1,0,0,0,false,false,true,0,-3918.75,17.01,-0.003347471,0.0033528658,0.70708513,0.70711243,-12.901,1202.351,8.341001,-0.0010099999,0.00331,0.35811
147.43333,2000,0,91.24,0.000002697398,0.000002697398,0.000002697398,0.99999994,0,0,0,0,0,0,0,1,0,0,0,false,false,true,-0.11,-3908.73,17.01,-0.003347471,0.0033582605,0.70814127,0.70605475,-23.110998,1200.7009,8.341001,-0.00111,0.00451,0.62951
147.44167,2000,0,91.24,0.000002697398,0.000002697398,0.000002697398,0.99999994,0,0,0,0,0,0,0,1,0,0,0,false,false,true,-0.29999998,-3898.72,17.01,-0.003347471,0.0033636554,0.7099921,0.70419353,-32.760998,1199.121,8.341001,-0.00111,0.00481,0.86430997
147.45,2000,0,91.24,0.000002697398,0.000002697398,0.000002697398,0.99999994,0,0,0,0,0,0,0,1,0,0,0,false,false,true,-0.57,-3888.73,17.01,-0.003347471,0.00336905,0.71252453,0.701631,-42.220997,1197.5509,8.341001,-0.00111,0.00461,1.06871
147.45833,2000,0,91.24,0.000002697398,0.000002697398,0.000002697398,0.99999994,0,0,0,0,0,0,0,1,0,0,0,false,false,true,-0.91999996,-3878.75,17.01,-0.0033528653,0.0033690496,0.7156396,0.69845337,-51.740997,1195.9509,8.341001,-0.00111,0.00401,1.24771
147.46666,2000,0,91.24,0.000002697398,0.000002697398,0.000002697398,0.99999994,0,0,0,0,0,0,0,1,0,0,0,false,false,true,-1.35,-3868.78,17.01,-0.0033636554,0.00336905,0.719259,0.6947256,-61.461,1194.271,8.341001,-0.0010099999,0.00331,1.40551
147.475,2000,0,91.24,0.000002697398,0.000002697398,0.000002697398,0.99999994,0,0,0,0,0,0,0,1,0,0,0,false,false,true,-1.86,-3858.8298,17.01,-0.003374445,0.0033636554,0.7233152,0.69050145,-71.461,1192.471,8.341001,-0.00091,0.00261,1.54571
147.48334,2000,0,91.24,0.000002697398,0.000002697398,0.000002697398,0.99999994,0,0,0,0,0,0,0,1,0,0,0,false,false,true,-2.46,-3848.89,17.01,-0.0033906293,0.0033528658,0.7277465,0.6858295,-81.760994,1190.531,8.341001,-0.00081,0.0019099999,1.6711099
147.49167,2000,0,91.24,0.000002697398,0.000002697398,0.000002697398,0.99999994,0,0,0,0,0,0,0,1,0,0,0,false,false,true,-3.1399999,-3838.97,17.01,-0.0034122085,0.0033366815,0.7325024,0.6807476,-92.340996,1188.411,8.341001,-0.00071,0.0012099999,1.7839099
147.5,2000,0,91.24,0.000002697398,0.000002697398,0.000002697398,0.99999994,0,0,0,0,0,0,0,1,0,0,0,false,false,true,-3.9099998,-3829.0698,17.01,-0.0034337877,0.0033151023,0.73754346,0.6752827,-103.171,1186.101,8.341001,-0.00061,0.00061,1.8859099
147.50833,2000,0,91.24,0.000002697398,0.000002697398,0.000002697398,0.99999994,0,0,0,0,0,0,0,1,0,0,0,false,false,true,-4.77,-3819.19,17.01,-0.0034607616,0.003293523,0.7428263,0.66946703,-114.190994,1183.591,8.341001,-0.00051,0.00010999999,1.9786099
147.51666,2000,0,91.24,0.000002697398,0.000002697398,0.000002697398,0.99999994,0,0,0,0,0,0,0,1,0,0,0,false,false,true,-5.72,-3809.3298,17.01,-0.003487736,0.0032665492,0.74831843,0.66332245,-125.311,1180.871,8.341001,-0.00040999998,-0.00021,2.06301
147.525,2000,0,91.24,0.000002697398,0.000002697398,0.000002697398,0.99999994,0,0,0,0,0,0,0,1,0,0,0,false,false,true,-6.7599998,-3799.49,17.01,-0.0035201046,0.003239575,0.7539931,0.6568648,-136.461,1177.9409,8.341001,-0.00030999997,-0.00051,2.14011
147.53334,2000,0,91.24,0.000002697398,0.000002697398,0.000002697398,0.99999994,0,0,0,0,0,0,0,1,0,0,0,false,false,true,-7.8999996,-3789.67,17.01,-0.0035524736,0.0032072065,0.7598199,0.6501159,-147.531,1174.8209,8.341001,-0.00021,-0.00071,2.21051
147.54167,2000,0,91.24,0.000002697398,0.000002697398,0.000002697398,0.99999994,0,0,0,0,0,0,0,1,0,0,0,false,false,true,-9.13,-3779.88,17.01,-0.003584842,0.0031748374,0.765774,0.6430918,-158.431,1171.531,8.341001,-0.00010999999,-0.00091,2.27471
147.55,2000,0,91.24,0.000002697398,0.000002697398,0.000002697398,0.99999994,0,0,0,0,0,0,0,1,0,0,0,false,false,true,-10.45,-3770.1199,17.01,-0.0036172108,0.003137074,0.7718361,0.6358034,-169.041,1168.091,8.341001,0,-0.0010099999,2.3331099
147.55833,2000,0,91.24,0.000002697398,0.000002697398,0.000002697398,0.99999994,0,0,0,0,0,0,0,1,0,0,0,false,false,true,-11.86,-3760.39,17.01,-0.0036495791,0.0030993102,0.7779787,0.6282722,-179.251,1164.5509,8.341001,0,-0.00111,2.38591
147.56667,2000,0,91.24,0.000002697398,0.000002697398,0.000002697398,0.99999994,0,0,0,0,0,0,0,1,0,0,0,false,false,true,-13.349999,-3750.68,17.01,-0.003681948,0.0030615465,0.7841845,0.620509,-188.951,1160.9609,8.341001,0,-0.0012099999,2.43341
147.575,2000,0,91.24,0.000002697398,0.000002697398,0.000002697398,0.99999994,0,0,0,0,0,0,0,1,0,0,0,false,false,true,-14.92,-3741,17.01,-0.0037143172,0.0030183885,0.7904368,0.6125248,-198.021,1157.381,8.341001,0,-0.00131,2.47561
147.58333,2000,0,91.24,0.000002697398,0.000002697398,0.000002697398,0.99999994,0,0,0,0,0,0,0,1,0,0,0,false,false,true,-16.57,-3731.3599,17.01,-0.0037520807,0.00297523,0.79671144,0.6043408,-206.33101,1153.881,8.341001,0,-0.00131,2.51251
147.59166,2000,0,91.24,0.000002697398,0.000002697398,0.000002697398,0.99999994,0,0,0,0,0,0,0,1,0,0,0,false,false,true,-18.289999,-3721.74,17.01,-0.0037898442,0.0029320717,0.8029938,0.59596807,-213.761,1150.5509,8.341001,0,-0.00131,2.54411
147.6,2000,0,91.24,0.000002697398,0.000002697398,0.000002697398,0.99999994,0,0,0,0,0,0,0,1,0,0,0,false,false,true,-20.07,-3712.15,17.01,-0.0038276082,0.0028889135,0.809266,0.5874228,-220.181,1147.501,8.341001,0.00010999999,-0.00131,2.57041
147.60834,2000,0,91.24,0.000002697398,0.000002697398,0.000002697398,0.99999994,0,0,0,0,0,0,0,1,0,0,0,false,false,true,-21.9,-3702.5898,17.01,-0.0038599768,0.0028457548,0.8155115,0.5787208,-225.461,1144.841,8.341001,0.00021,-0.00131,2.59131
147.61667,2000,0,91.24,0.000002697398,0.000002697398,0.000002697398,0.99999994,0,0,0,0,0,0,0,1,0,0,0,false,false,true,-23.779999,-3693.0498,17.01,-0.0038923454,0.0028025967,0.82171094,0.5698842,-229.481,1142.6909,8.331,0.00030999997,-0.00131,2.60661
147.625,2000,0,91.24,0.000002697398,0.000002697398,0.000002697398,0.99999994,0,0,0,0,0,0,0,1,0,0,0,false,false,true,-25.689999,-3683.53,17.01,-0.0039247135,0.002754043,0.8278501,0.56092864,-233.651,1140.351,8.331,0.00030999997,-0.00131,2.62131
147.63333,2000,0,91.24,0.000002697398,0.000002697398,0.000002697398,0.99999994,0,0,0,0,0,0,0,1,0,0,0,false,false,true,-27.64,-3674.03,17.01,-0.003957083,0.0027054902,0.83392644,0.55185467,-237.961,1137.8209,8.331,0.00030999997,-0.0012099999,2.63551
147.64166,2000,0,91.24,0.000002697398,0.000002697398,0.000002697398,0.99999994,0,0,0,0,0,0,0,1,0,0,0,false,false,true,-29.619999,-3664.5498,17.01,-0.0039894516,0.002656937,0.83993745,0.5426619,-242.401,1135.0809,8.331,0.00030999997,-0.00111,2.6493099
147.65,2000,0,91.24,0.000002697398,0.000002697398,0.000002697398,0.99999994,0,0,0,0,0,0,0,1,0,0,0,false,false,true,-31.64,-3655.0898,17.01,-0.0040218197,0.0026083835,0.84587723,0.5333558,-246.951,1132.141,8.331,0.00030999997,-0.0010099999,2.66261
147.65834,2000,0,91.24,0.000002697398,0.000002697398,0.000002697398,0.99999994,0,0,0,0,0,0,0,1,0,0,0,false,false,true,-33.7,-3645.66,17.01,-0.004054189,0.0025598307,0.8517437,0.5239365,-251.601,1128.991,8.331,0.00030999997,-0.00091,2.67541
147.66667,2000,0,91.24,0.000002697398,0.000002697398,0.000002697398,0.99999994,0,0,0,0,0,0,0,1,0,0,0,false,false,true,-35.8,-3636.25,17.01,-0.004086558,0.0025112776,0.85753137,0.5144092,-256.341,1125.631,8.331,0.00030999997,-0.00081,2.68781
147.675,2000,0,91.24,0.000002697398,0.000002697398,0.000002697398,0.99999994,0,0,0,0,0,0,0,1,0,0,0,false,false,true,-37.94,-3626.8699,17.01,-0.004118927,0.0024627245,0.86323804,0.5047741,-261.151,1122.0609,8.331,0.00030999997,-0.00071,2.69971
147.68333,2000,0,91.24,0.000002697398,0.000002697398,0.000002697398,0.99999994,0,0,0,0,0,0,0,1,0,0,0,false,false,true,-40.12,-3617.52,17.01,-0.0041459007,0.0024141711,0.868862,0.49503106,-266.021,1118.281,8.331,0.00030999997,-0.00061,2.7111099
147.69167,2000,0,91.24,0.000002697398,0.000002697398,0.000002697398,0.99999994,0,0,0,0,0,0,0,1,0,0,0,false,false,true,-42.34,-3608.2,17.01,-0.0041728746,0.002365618,0.874398,0.48518553,-270.931,1114.281,8.331,0.00030999997,-0.00061,2.72201
147.7,2000,0,91.24,0.000002697398,0.000002697398,0.000002697398,0.99999994,0,0,0,0,0,0,0,1,0,0,0,false,false,true,-44.6,-3598.91,17.01,-0.0041998485,0.002317065,0.87984437,0.47523755,-275.871,1110.0709,8.331,0.00030999997,-0.00061,2.73241
147.70833,2000,0,91.24,0.000002697398,0.000002697398,0.000002697398,0.99999994,0,0,0,0,0,0,0,1,0,0,0,false,false,true,-46.899998,-3589.66,17.01,-0.0042268224,0.0022685118,0.88519657,0.46519235,-280.821,1105.651,8.331,0.00030999997,-0.00051,2.74231
147.71666,2000,0,91.24,0.000002697398,0.000002697398,0.000002697398,0.99999994,0,0,0,0,0,0,0,1,0,0,0,false,false,true,-49.239998,-3580.45,17.01,-0.0042537972,0.0022199587,0.89045286,0.45505017,-285.781,1101.031,8.331,0.00030999997,-0.00051,2.75171
147.725,2000,0,91.24,0.000002697398,0.000002697398,0.000002697398,0.99999994,0,0,0,0,0,0,0,1,0,0,0,false,false,true,-51.62,-3571.27,17.01,-0.00428077,0.0021714051,0.8956116,0.44481066,-290.731,1096.2009,8.331,0.00030999997,-0.00051,2.7606099
147.73334,2000,0,91.24,0.000002697398,0.000002697398,0.000002697398,0.99999994,0,0,0,0,0,0,0,1,0,0,0,false,false,true,-54.039997,-3562.13,17.01,-0.0043077446,0.0021174573,0.9006688,0.43447968,-295.651,1091.1709,8.331,0.00030999997,-0.00040999998,2.76891
147.74167,2000,0,91.24,0.000002697398,0.000002697398,0.000002697398,0.99999994,0,0,0,0,0,0,0,1,0,0,0,false,false,true,-56.5,-3553.04,17.01,-0.0043347185,0.0020635095,0.9056203,0.42406225,-300.531,1085.9409,8.331,0.00030999997,-0.00040999998,2.77671
147.75,2000,0,91.24,0.000002697398,0.000002697398,0.000002697398,0.99999994,0,0,0,0,0,0,0,1,0,0,0,false,false,true,-59,-3543.99,17.01,-0.004361693,0.0020095618,0.9104648,0.4135586,-305.361,1080.521,8.331,0.00030999997,-0.00030999997,2.78391
147.75833,2000,0,91.24,0.000002697398,0.000002697398,0.000002697398,0.99999994,0,0,0,0,0,0,0,1,0,0,0,false,false,true,-61.539997,-3534.99,17.01,-0.004383271,0.0019556133,0.9152011,0.40296847,-310.131,1074.911,8.331,0.00030999997,-0.00021,2.79051
147.76666,2000,0,91.24,0.000002697398,0.000002697398,0.000002697398,0.99999994,0,0,0,0,0,0,0,1,0,0,0,false,false,true,-64.119995,-3526.03,17.01,-0.004404851,0.0019016657,0.91982347,0.392303,-314.831,1069.121,8.331,0.00021,-0.00021,2.79651
147.775,2000,0,91.24,0.000002697398,0.000002697398,0.000002697398,0.99999994,0,0,0,0,0,0,0,1,0,0,0,false,false,true,-66.74,-3517.1199,17.01,-0.0044264295,0.0018477174,0.9243329,0.38155645,-319.451,1063.151,8.331,0.00021,-0.00021,2.80191
147.78334,2000,0,91.24,0.000002697398,0.000002697398,0.000002697398,0.99999994,0,0,0,0,0,0,0,1,0,0,0,false,false,true,-69.4,-3508.26,17.01,-0.004448009,0.0017937698,0.9287243,0.3707399,-323.971,1057.011,8.331,0.00021,-0.00021,2.80671
147.79167,2000,0,91.24,0.000002697398,0.000002697398,0.000002697398,0.99999994,0,0,0,0,0,0,0,1,0,0,0,false,false,true,-72.1,-3499.45,17.01,-0.0044695884,0.0017398217,0.9329966,0.35985312,-328.381,1050.7109,8.331,0.00010999999,-0.00021,2.8108099
147.8,2000,0,91.24,0.000002697398,0.000002697398,0.000002697398,0.99999994,0,0,0,0,0,0,0,1,0,0,0,false,false,true,-74.84,-3490.69,17.01,-0.004491168,0.001685874,0.937147,0.34890172,-332.681,1044.261,8.331,0.00010999999,-0.00010999999,2.8143098
147.80833,2000,0,91.24,0.000002697398,0.000002697398,0.000002697398,0.99999994,0,0,0,0,0,0,0,1,0,0,0,false,false,true,-77.61,-3481.99,17.01,-0.0045127473,0.0016319259,0.941173,0.33789086,-336.851,1037.661,8.331,0.00010999999,-0.00010999999,2.8171098
147.81667,2000,0,91.24,0.000002697398,0.000002697398,0.000002697398,0.99999994,0,0,0,0,0,0,0,1,0,0,0,false,false,true,-80.42,-3473.3398,17.01,-0.004534326,0.0015779779,0.9450741,0.3268207,-340.891,1030.9309,8.331,0.00010999999,-0.00010999999,2.81921
147.825,2000,0,91.24,0.000002697398,0.000002697398,0.000002697398,0.99999994,0,0,0,0,0,0,0,1,0,0,0,false,false,true,-83.259995,-3464.75,17.01,-0.0045505106,0.0015240299,0.948848,0.31569654,-344.791,1024.0709,8.331,0.00010999999,0,2.82071
147.83333,2000,0,91.24,0.000002697398,0.000002697398,0.000002697398,0.99999994,0,0,0,0,0,0,0,1,0,0,0,false,false,true,-86.13,-3456.22,17.01,-0.004566695,0.0014700821,0.9524926,0.30452394,-348.541,1017.09094,8.331,0.00010999999,0,2.82141
147.84166,2000,0,91.24,0.000002697398,0.000002697398,0.000002697398,0.99999994,0,0,0,0,0,0,0,1,0,0,0,false,false,true,-89.03,-3447.74,17.01,-0.004582879,0.001416134,0.9560059,0.29330805,-352.131,1010.0109,8.331,0.00010999999,0,2.82141
147.85,2000,0,91.24,0.000002697398,0.000002697398,0.000002697398,0.99999994,0,0,0,0,0,0,0,1,0,0,0,false,false,true,-91.96,-3439.3198,17.01,-0.004599064,0.0013621862,0.95938796,0.28204915,-355.561,1002.83093,8.331,0.00010999999,0,2.82071
147.85834,2000,0,91.24,0.000002697398,0.000002697398,0.000002697398,0.99999994,0,0,0,0,0,0,0,1,0,0,0,false,false,true,-94.92,-3430.96,17.01,-0.004615248,0.001308238,0.962637,0.27075234,-358.82098,995.571,8.331,0.00010999999,0,2.81921
147.86667,2000,0,91.24,0.000002697398,0.000002697398,0.000002697398,0.99999994,0,0,0,0,0,0,0,1,0,0,0,false,false,true,-97.909996,-3422.66,17.01,-0.0046314327,0.0012542902,0.96575034,0.25942868,-361.911,988.23096,8.331,0.00010999999,0,2.81701
147.875,2000,0,91.24,0.000002697398,0.000002697398,0.000002697398,0.99999994,0,0,0,0,0,0,0,1,0,0,0,false,false,true,-100.93,-3414.42,17.01,-0.0046476168,0.0012003421,0.9687281,0.24807793,-364.82098,980.83093,8.331,0.00010999999,0,2.81401
147.88333,2000,0,91.24,0.000002697398,0.000002697398,0.000002697398,0.99999994,0,0,0,0,0,0,0,1,0,0,0,false,false,true,-103.97,-3406.25,17.01,-0.0046638013,0.0011463942,0.9715708,0.23670031,-367.551,973.381,8.331,0.00010999999,0,2.81021
147.89166,2000,0,91.24,0.000002697398,0.000002697398,0.000002697398,0.99999994,0,0,0,0,0,0,0,1,0,0,0,false,false,true,-107.03,-3398.14,17.01,-0.0046745907,0.0010924462,0.97427607,0.2253064,-370.101,965.8909,8.331,0.00021,0,2.80561
147.9,2000,0,91.24,0.000002697398,0.000002697398,0.000002697398,0.99999994,0,0,0,0,0,0,0,1,0,0,0,false,false,true,-110.11,-3390.0898,17.01,-0.004685381,0.0010384984,0.97684336,0.21390183,-372.461,958.371,8.331,0.00021,0,2.8001099
147.90834,2000,0,91.24,0.000002697398,0.000002697398,0.000002697398,0.99999994,0,0,0,0,0,0,0,1,0,0,0,false,false,true,-113.21,-3382.0999,17.01,-0.0046961703,0.0009845503,0.9792722,0.20249175,-374.641,950.83093,8.331,0.00021,0,2.79381
147.91667,2000,0,91.24,0.000002697398,0.000002697398,0.000002697398,0.99999994,0,0,0,0,0,0,0,1,0,0,0,false,false,true,-116.329994,-3374.18,17.01,-0.0047069597,0.0009306023,0.9815634,0.19107634,-376.631,943.29095,8.331,0.00021,0,2.78661
147.925,2000,0,91.24,0.000002697398,0.000002697398,0.000002697398,0.99999994,0,0,0,0,0,0,0,1,0,0,0,false,false,true,-119.46999,-3366.3198,17.01,-0.0047177486,0.00087665423,0.9837158,0.17966625,-378.431,935.7609,8.331,0.00030999997,0,2.77861
147.93333,2000,0,91.24,0.000002697398,0.000002697398,0.000002697398,0.99999994,0,0,0,0,0,0,0,1,0,0,0,false,false,true,-122.619995,-3358.52,17.01,-0.0047285384,0.00082270644,0.9857297,0.16826706,-380.041,928.251,8.331,0.00030999997,0,2.7697098
147.94167,2000,0,91.24,0.000002697398,0.000002697398,0.000002697398,0.99999994,0,0,0,0,0,0,0,1,0,0,0,false,false,true,-125.79,-3350.78,17.01,-0.0047393283,0.0007687585,0.98760617,0.15687856,-381.471,920.77094,8.331,0.00040999998,0,2.7599099
147.95,2000,0,91.24,0.000002697398,0.000002697398,0.000002697398,0.99999994,0,0,0,0,0,0,0,1,0,0,0,false,false,true,-128.97,-3343.1099,17.01,-0.004750118,0.00071481057,0.98934484,0.14551175,-382.711,913.33093,8.331,0.00040999998,0,2.74911
147.95833,2000,0,91.24,0.000002697398,0.000002697398,0.000002697398,0.99999994,0,0,0,0,0,0,0,1,0,0,0,false,false,true,-132.16,-3335.5,17.01,-0.004755513,0.00066086254,0.9909464,0.13417178,-383.771,905.941,8.331,0.00051,0,2.7374098
147.96666,2000,0,91.24,0.000002697398,0.000002697398,0.000002697398,0.99999994,0,0,0,0,0,0,0,1,0,0,0,false,false,true,-135.36,-3327.95,17.01,-0.0047609075,0.0006069146,0.9924125,0.1228589,-384.651,898.621,8.331,0.00051,0,2.72471
147.975,2000,0,91.24,0.000002697398,0.000002697398,0.000002697398,0.99999994,0,0,0,0,0,0,0,1,0,0,0,false,false,true,-138.56999,-3320.46,17.01,-0.004766302,0.0005529666,0.9937434,0.11158369,-385.361,891.371,8.331,0.00051,0,2.7111099
147.98334,2000,0,91.24,0.000002697398,0.000002697398,0.000002697398,0.99999994,0,0,0,0,0,0,0,1,0,0,0,false,false,true,-141.78,-3313.03,17.01,-0.0047716973,0.0004990187,0.99494046,0.10035173,-385.901,884.21094,8.331,0.00051,0,2.6965098
147.99167,2000,0,91.24,0.000002697398,0.000002697398,0.000002697398,0.99999994,0,0,0,0,0,0,0,1,0,0,0,false,false,true,-145,-3305.66,17.01,-0.0047770916,0.00044507062,0.9960049,0.08916821,-386.281,877.15094,8.331,0.00061,0,2.6809099
148,2000,0,91.24,0.000002697398,0.000002697398,0.000002697398,0.99999994,0,0,0,0,0,0,0,1,0,0,0,false,false,true,-148.22,-3298.3499,17.01,-0.004782487,0.00039112274,0.99693877,0.07803877,-386.501,870.191,8.331,0.00061,0,2.6642098
148.00833,2000,0,91.24,0.000002697398,0.000002697398,0.000002697398,0.99999994,0,0,0,0,0,0,0,1,0,0,0,false,false,true,-151.44,-3291.0999,17.01,-0.0047878814,0.00033717474,0.9977435,0.06696855,-386.57098,863.35095,8.331,0.00061,0,2.64651
148.01666,2000,0,91.24,0.000002697398,0.000002697398,0.000002697398,0.99999994,0,0,0,0,0,0,0,1,0,0,0,false,false,true,-154.66,-3283.91,17.01,-0.0047932756,0.00028322675,0.99842113,0.055963162,-386.501,856.6409,8.331,0.00061,0,2.6277099
148.025,2000,0,91.24,0.000002697398,0.000002697398,0.000002697398,0.99999994,0,0,0,0,0,0,0,1,0,0,0,false,false,true,-157.87999,-3276.77,17.01,-0.004793276,0.00022927884,0.99897414,0.045027833,-386.291,850.061,8.331,0.00061,0,2.60781
148.03334,2000,0,91.24,0.000002697398,0.000002697398,0.000002697398,0.99999994,0,0,0,0,0,0,0,1,0,0,0,false,false,true,-161.09999,-3269.69,17.01,-0.004793276,0.00017533088,0.99940455,0.03416811,-385.951,843.621,8.331,0.00061,0,2.5868099
148.04167,2000,0,91.24,0.000002697398,0.000002697398,0.000002697398,0.99999994,0,0,0,0,0,0,0,1,0,0,0,false,false,true,-164.31999,-3262.66,17.01,-0.0047932756,0.0001213829,0.9997147,0.023394616,-385.491,837.34094,8.331,0.00061,0,2.56471
148.05,2000,0,91.24,0.000002697398,0.000002697398,0.000002697398,0.99999994,0,0,0,0,0,0,0,1,0,0,0,false,false,true,-167.53,-3255.68,17.01,-0.004793276,0.00006743495,0.9999076,0.012712921,-384.921,831.22095,8.331,0.00061,0,2.54141
148.05833,2000,0,91.24,0.000002697398,0.000002697398,0.000002697398,0.99999994,0,0,0,0,0,0,0,1,0,0,0,false,false,true,-170.73999,-3248.75,17.01,-0.0047932765,0.0000134869915,0.99998623,0.0021228525,-384.241,825.261,8.331,0.00061,0,2.5169098
148.06667,2000,0,91.24,0.000002697398,0.000002697398,0.000002697398,0.99999994,0,0,0,0,0,0,0,1,0,0,0,false,false,true,-173.94,-3241.8699,17.01,-0.0047932765,-0.000040460975,0.9999535,-0.008364674,-383.471,819.47095,8.331,0.00061,0,2.49121
148.075,2000,0,91.24,0.000002697398,0.000002697398,0.000002697398,0.99999994,0,0,0,0,0,0,0,1,0,0,0,false,false,true,-177.14,-3235.04,17.01,-0.0047932756,-0.000094408926,0.99981266,-0.018744301,-382.621,813.86096,8.331,0.00061,0,2.46431
148.08333,2000,0,91.24,0.000002697398,0.000002697398,0.000002697398,0.99999994,0,0,0,0,0,0,0,1,0,0,0,false,false,true,-180.33,-3228.26,17.01,-0.004793276,-0.00014835689,0.99956757,-0.029010642,-381.691,808.441,8.331,0.00061,0,2.43611
148.09166,2000,0,91.24,0.000002697398,0.000002697398,0.000002697398,0.99999994,0,0,0,0,0,0,0,1,0,0,0,false,false,true,-183.51,-3221.52,17.01,-0.0047932765,-0.00019691007,0.9992217,-0.039152905,-380.701,803.21094,8.331,0.00051,0,2.4065099
148.1,2000,0,91.24,0.000002697398,0.000002697398,0.000002697398,0.99999994,0,0,0,0,0,0,0,1,0,0,0,false,false,true,-186.68,-3214.8298,17.01,-0.0047932765,-0.00024546325,0.9987788,-0.04917104,-379.631,798.11096,8.331,0.00051,0,2.37761
148.10834,2000,0,91.24,0.000002697398,0.000002697398,0.000002697398,0.99999994,0,0,0,0,0,0,0,1,0,0,0,false,false,true,-189.84,-3208.18,17.01,-0.0047932756,-0.00029401635,0.99824244,-0.05906513,-378.471,793.131,8.331,0.00040999998,0,2.35011
148.11667,2000,0,91.24,0.000002697398,0.000002697398,0.000002697398,0.99999994,0,0,0,0,0,0,0,1,0,0,0,false,false,true,-192.98999,-3201.5698,17.01,-0.004787882,-0.00034256958,0.99761647,-0.06883516,-377.241,788.28094,8.331,0.00040999998,0,2.32391
148.125,2000,0,91.24,0.000002697398,0.000002697398,0.000002697398,0.99999994,0,0,0,0,0,0,0,1,0,0,0,false,false,true,-196.12999,-3195,17.01,-0.004782487,-0.00039112274,0.9969032,-0.07849189,-375.941,783.561,8.331,0.00030999997,0,2.29891
148.13333,2000,0,91.24,0.000002697398,0.000002697398,0.000002697398,0.99999994,0,0,0,0,0,0,0,1,0,0,0,false,false,true,-199.26,-3188.47,17.01,-0.0047770925,-0.0004396759,0.9961058,-0.08803532,-374.581,778.98096,8.331,0.00021,0,2.27511
148.14166,2000,0,91.24,0.000002697398,0.000002697398,0.000002697398,0.99999994,0,0,0,0,0,0,0,1,0,0,0,false,false,true,-202.37999,-3181.98,17.01,-0.0047716973,-0.0004882291,0.99522626,-0.09747626,-373.161,774.54095,8.331,0.00010999999,0,2.25241
148.15,2000,0,91.24,0.000002697398,0.000002697398,0.000002697398,0.99999994,0,0,0,0,0,0,0,1,0,0,0,false,false,true,-205.48999,-3175.53,17.01,-0.0047663026,-0.00053138746,0.99426734,-0.1068147,-371.681,770.22095,8.331,0,0,2.23141
148.15834,2000,0,91.24,0.000002697398,0.000002697398,0.000002697398,0.99999994,0,0,0,0,0,0,0,1,0,0,0,false,false,true,-208.59,-3169.1099,17.01,-0.004760907,-0.0005745457,0.99323094,-0.116056,-370.091,765.951,8.331,0,0,2.21411
148.16667,2000,0,91.24,0.000002697398,0.000002697398,0.000002697398,0.99999994,0,0,0,0,0,0,0,1,0,0,0,false,false,true,-211.67,-3162.73,17.01,-0.004755513,-0.0006177041,0.9921178,-0.12521638,-368.401,761.74097,8.331,0,0,2.20031
148.175,2000,0,91.24,0.000002697398,0.000002697398,0.000002697398,0.99999994,0,0,0,0,0,0,0,1,0,0,0,false,false,true,-214.73999,-3156.38,17.01,-0.004750117,-0.0006608625,0.99092805,-0.13430664,-366.611,757.60095,8.331,0,0,2.18981
148.18333,2000,0,91.24,0.000002697398,0.000002697398,0.000002697398,0.99999994,0,0,0,0,0,0,0,1,0,0,0,false,false,true,-217.79999,-3150.0698,17.01,-0.004744723,-0.0007040209,0.9896614,-0.14334297,-364.731,753.53094,8.331,0,0,2.18261
148.19167,2000,0,91.24,0.000002697398,0.000002697398,0.000002697398,0.99999994,0,0,0,0,0,0,0,1,0,0,0,false,false,true,-220.84,-3143.79,17.01,-0.004739328,-0.0007471792,0.98831695,-0.15233612,-362.771,749.55096,8.331,0,0,2.17871
148.2,2000,0,91.24,0.000002697398,0.000002697398,0.000002697398,0.99999994,0,0,0,0,0,0,0,1,0,0,0,false,false,true,-223.86,-3137.54,17.01,-0.004733934,-0.0007903377,0.98689336,-0.16130236,-360.731,745.66095,8.331,-0.00010999999,0,2.1779099
148.20833,2000,0,91.24,0.000002697398,0.000002697398,0.000002697398,0.99999994,0,0,0,0,0,0,0,1,0,0,0,false,false,true,-226.87,-3131.3298,17.01,-0.0047285384,-0.000833496,0.98538876,-0.17025231,-358.621,741.871,8.331,-0.00021,0,2.1802099
148.21666,2000,0,91.24,0.000002697398,0.000002697398,0.000002697398,0.99999994,0,0,0,0,0,0,0,1,0,0,0,false,false,true,-229.86,-3125.15,17.01,-0.004723144,-0.0008766544,0.9838015,-0.17919694,-356.451,738.191,8.331,-0.00030999997,0,2.18551
148.225,2000,0,91.24,0.000002697398,0.000002697398,0.000002697398,0.99999994,0,0,0,0,0,0,0,1,0,0,0,false,false,true,-232.83,-3119,17.01,-0.0047123544,-0.00091981277,0.9821291,-0.18814693,-354.221,734.631,8.331,-0.00040999998,0,2.19381
148.23334,2000,0,91.24,0.000002697398,0.000002697398,0.000002697398,0.99999994,0,0,0,0,0,0,0,1,0,0,0,false,false,true,-235.78,-3112.88,17.01,-0.004701565,-0.0009629712,0.9803679,-0.19711854,-351.931,731.15094,8.331,-0.00040999998,0,2.20421
148.24167,2000,0,91.24,0.000002697398,0.000002697398,0.000002697398,0.99999994,0,0,0,0,0,0,0,1,0,0,0,false,false,true,-238.70999,-3106.79,17.01,-0.0046907756,-0.0010061295,0.9785167,-0.2061117,-349.541,727.68097,8.331,-0.00040999998,-0.00010999999,2.2153099
148.25,2000,0,91.24,0.000002697398,0.000002697398,0.000002697398,0.99999994,0,0,0,0,0,0,0,1,0,0,0,false,false,true,-241.62,-3100.73,17.01,-0.0046799853,-0.0010492879,0.97657204,-0.21513718,-347.061,724.24097,8.331,-0.00040999998,-0.00010999999,2.22701
148.25833,2000,0,91.24,0.000002697398,0.000002697398,0.000002697398,0.99999994,0,0,0,0,0,0,0,1,0,0,0,false,false,true,-244.51,-3094.69,17.01,-0.004669196,-0.0010924462,0.9745337,-0.22418968,-344.501,720.83093,8.331,-0.00040999998,-0.00021,2.23931
148.26666,2000,0,91.24,0.000002697398,0.000002697398,0.000002697398,0.99999994,0,0,0,0,0,0,0,1,0,0,0,false,false,true,-247.37999,-3088.68,17.01,-0.0046584066,-0.0011356047,0.97239906,-0.23327458,-341.861,717.451,8.331,-0.00040999998,-0.00021,2.25221
148.275,2000,0,91.24,0.000002697398,0.000002697398,0.000002697398,0.99999994,0,0,0,0,0,0,0,1,0,0,0,false,false,true,-250.23,-3082.7,17.01,-0.0046476163,-0.0011787628,0.97016644,-0.24239178,-339.161,714.121,8.331,-0.00040999998,-0.00021,2.2655098
148.28334,2000,0,91.24,0.000002697398,0.000002697398,0.000002697398,0.99999994,0,0,0,0,0,0,0,1,0,0,0,false,false,true,-253.06,-3076.75,17.01,-0.004636827,-0.0012219213,0.9678346,-0.2515414,-336.401,710.85095,8.331,-0.00040999998,-0.00021,2.27931
148.29167,2000,0,91.24,0.000002697398,0.000002697398,0.000002697398,0.99999994,0,0,0,0,0,0,0,1,0,0,0,false,false,true,-255.86,-3070.8298,17.01,-0.004626038,-0.0012650798,0.9654016,-0.26072344,-333.581,707.641,8.331,-0.00040999998,-0.00021,2.2936099
148.3,2000,0,91.24,0.000002697398,0.000002697398,0.000002697398,0.99999994,0,0,0,0,0,0,0,1,0,0,0,false,false,true,-258.63998,-3064.93,17.01,-0.004615248,-0.001308238,0.96286577,-0.26993772,-330.711,704.49097,8.331,-0.00040999998,-0.00021,2.30841
148.30833,2000,0,91.24,0.000002697398,0.000002697398,0.000002697398,0.99999994,0,0,0,0,0,0,0,1,0,0,0,false,false,true,-261.4,-3059.0598,17.01,-0.004604459,-0.0013513966,0.96022546,-0.27918446,-327.741,701.321,8.331,-0.00040999998,-0.00021,2.3217099
148.31667,2000,0,91.24,0.000002697398,0.000002697398,0.000002697398,0.99999994,0,0,0,0,0,0,0,1,0,0,0,false,false,true,-264.13,-3053.22,17.01,-0.004593669,-0.0013945547,0.9574804,-0.28845814,-324.661,698.141,8.331,-0.00040999998,-0.00021,2.33331
148.325,2000,0,91.24,0.000002697398,0.000002697398,0.000002697398,0.99999994,0,0,0,0,0,0,0,1,0,0,0,false,false,true,-266.84,-3047.4,17.01,-0.004582879,-0.0014377132,0.9546307,-0.29775342,-321.481,694.941,8.331,-0.00040999998,-0.00021,2.3433099
148.33333,2000,0,91.24,0.000002697398,0.000002697398,0.000002697398,0.99999994,0,0,0,0,0,0,0,1,0,0,0,false,false,true,-269.52,-3041.6099,17.01,-0.0045666946,-0.0014808716,0.95167816,-0.30705947,-318.201,691.74097,8.331,-0.00040999998,-0.00010999999,2.35161
148.34166,2000,0,91.24,0.000002697398,0.000002697398,0.000002697398,0.99999994,0,0,0,0,0,0,0,1,0,0,0,false,false,true,-272.16998,-3035.8499,17.01,-0.004550511,-0.00152403,0.9486234,-0.31637096,-314.821,688.55096,8.331,-0.00030999997,-0.00010999999,2.35831
148.35,2000,0,91.24,0.000002697398,0.000002697398,0.000002697398,0.99999994,0,0,0,0,0,0,0,1,0,0,0,false,false,true,-274.79,-3030.1099,17.01,-0.0045343265,-0.0015671884,0.9454689,-0.325677,-311.351,685.371,8.331,-0.00021,-0.00010999999,2.36351
148.35834,2000,0,91.24,0.000002697398,0.000002697398,0.000002697398,0.99999994,0,0,0,0,0,0,0,1,0,0,0,false,false,true,-277.38,-3024.4,17.01,-0.0045181415,-0.0016103466,0.94221574,-0.33497223,-307.791,682.22095,8.331,-0.00010999999,-0.00010999999,2.36711
148.36667,2000,0,91.24,0.000002697398,0.000002697398,0.000002697398,0.99999994,0,0,0,0,0,0,0,1,0,0,0,false,false,true,-279.94,-3018.71,17.01,-0.004501958,-0.0016535051,0.93886524,-0.34425136,-304.141,679.10095,8.331,-0.00010999999,-0.00010999999,2.3691099
148.375,2000,0,91.24,0.000002697398,0.000002697398,0.000002697398,0.99999994,0,0,0,0,0,0,0,1,0,0,0,false,false,true,-282.47,-3013.05,17.01,-0.0044857725,-0.0016966632,0.93542075,-0.35350344,-300.421,676.011,8.331,0,0,2.36961
148.38333,2000,0,91.24,0.000002697398,0.000002697398,0.000002697398,0.99999994,0,0,0,0,0,0,0,1,0,0,0,false,false,true,-284.97,-3007.42,17.01,-0.0044695884,-0.0017398217,0.9318845,-0.3627232,-296.621,672.97095,8.331,0,0,2.36861
148.39166,2000,0,91.24,0.000002697398,0.000002697398,0.000002697398,0.99999994,0,0,0,0,0,0,0,1,0,0,0,false,false,true,-287.44,-3001.8098,17.01,-0.004453404,-0.0017829802,0.92826045,-0.37189978,-292.761,669.98096,8.331,0,0,2.3661098
148.4,2000,0,91.24,0.000002697398,0.000002697398,0.000002697398,0.99999994,0,0,0,0,0,0,0,1,0,0,0,false,false,true,-289.88,-2996.23,17.01,-0.00443722,-0.0018261385,0.92454886,-0.38103318,-288.831,667.04095,8.331,0,0,2.36221
148.40834,2000,0,91.24,0.000002697398,0.000002697398,0.000002697398,0.99999994,0,0,0,0,0,0,0,1,0,0,0,false,false,true,-292.29,-2990.67,17.01,-0.0044210358,-0.001869297,0.92075455,-0.39011273,-284.851,664.16095,8.331,0,0,2.3568099
148.41667,2000,0,91.24,0.000002697398,0.000002697398,0.000002697398,0.99999994,0,0,0,0,0,0,0,1,0,0,0,false,false,true,-294.66,-2985.13,17.01,-0.004404851,-0.0019124552,0.9168781,-0.3991382,-280.821,661.35095,8.331,0,0,2.35001
148.425,2000,0,91.24,0.000002697398,0.000002697398,0.000002697398,0.99999994,0,0,0,0,0,0,0,1,0,0,0,false,false,true,-297,-2979.6199,17.01,-0.004383271,-0.0019556133,0.9129249,-0.40809897,-276.751,658.61096,8.331,0,0.00010999999,2.34181
148.43333,2000,0,91.24,0.000002697398,0.000002697398,0.000002697398,0.99999994,0,0,0,0,0,0,0,1,0,0,0,false,false,true,-299.31,-2974.13,17.01,-0.0043616924,-0.001998772,0.9088985,-0.41698968,-272.641,655.941,8.331,0,0.00010999999,2.33231
148.44167,2000,0,91.24,0.000002697398,0.000002697398,0.000002697398,0.99999994,0,0,0,0,0,0,0,1,0,0,0,false,false,true,-301.58,-2968.66,17.01,-0.004340113,-0.0020419303,0.90480226,-0.42580476,-268.511,653.35095,8.331,0,0.00010999999,2.32141
148.45,2000,0,91.24,0.000002697398,0.000002697398,0.000002697398,0.99999994,0,0,0,0,0,0,0,1,0,0,0,false,false,true,-303.82,-2963.22,17.01,-0.0043185335,-0.0020850883,0.9006401,-0.43453896,-264.361,650.84094,8.331,0,0.00010999999,2.30921
148.45833,2000,0,91.24,0.000002697398,0.000002697398,0.000002697398,0.99999994,0,0,0,0,0,0,0,1,0,0,0,false,false,true,-306.02,-2957.8,17.01,-0.0042969557,-0.0021282472,0.89641637,-0.4431869,-260.191,648.42096,8.331,0,0.00010999999,2.29561
148.46666,2000,0,91.24,0.000002697398,0.000002697398,0.000002697398,0.99999994,0,0,0,0,0,0,0,1,0,0,0,false,false,true,-308.19,-2952.4,17.01,-0.004275376,-0.0021714054,0.89213514,-0.45174307,-256.021,646.08093,8.331,0,0.00010999999,2.28071
148.475,2000,0,91.24,0.000002697398,0.000002697398,0.000002697398,0.99999994,0,0,0,0,0,0,0,1,0,0,0,false,false,true,-310.32,-2947.02,17.01,-0.0042537972,-0.002214564,0.8878012,-0.4602022,-251.851,643.83093,8.331,0,0.00010999999,2.26461
148.48334,2000,0,91.24,0.000002697398,0.000002697398,0.000002697398,0.99999994,0,0,0,0,0,0,0,1,0,0,0,false,false,true,-312.41998,-2941.65,17.01,-0.0042322176,-0.0022523273,0.8834193,-0.4685587,-247.681,641.67096,8.331,0,0.00010999999,2.24721
148.49167,2000,0,91.24,0.000002697398,0.000002697398,0.000002697398,0.99999994,0,0,0,0,0,0,0,1,0,0,0,false,false,true,-314.47998,-2936.3,17.01,-0.0042106383,-0.0022900908,0.8789947,-0.4768074,-243.531,639.60095,8.331,0.00010999999,0.00010999999,2.22861
148.5,2000,0,91.24,0.000002697398,0.000002697398,0.000002697398,0.99999994,0,0,0,0,0,0,0,1,0,0,0,false,false,true,-316.50998,-2930.97,17.01,-0.0041890596,-0.0023278547,0.8745297,-0.48494822,-239.401,637.621,8.331,0.00010999999,0.00010999999,2.2088099
148.50833,2000,0,91.24,0.000002697398,0.000002697398,0.000002697398,0.99999994,0,0,0,0,0,0,0,1,0,0,0,false,false,true,-318.5,-2925.66,17.01,-0.00416748,-0.002365618,0.87002987,-0.49297562,-235.301,635.73096,8.331,0.00010999999,0.00010999999,2.18781
148.51666,2000,0,91.24,0.000002697398,0.000002697398,0.000002697398,0.99999994,0,0,0,0,0,0,0,1,0,0,0,false,false,true,-320.46,-2920.3599,17.01,-0.0041459007,-0.0024033815,0.8655008,-0.5008845,-231.231,633.93097,8.331,0.00021,0.00010999999,2.16561
148.525,2000,0,91.24,0.000002697398,0.000002697398,0.000002697398,0.99999994,0,0,0,0,0,0,0,1,0,0,0,false,false,true,-322.38998,-2915.0798,17.01,-0.0041243215,-0.0024411452,0.86094546,-0.50867456,-227.201,632.22095,8.331,0.00021,0.00021,2.14231
148.53334,2000,0,91.24,0.000002697398,0.000002697398,0.000002697398,0.99999994,0,0,0,0,0,0,0,1,0,0,0,false,false,true,-324.28,-2909.8098,17.01,-0.0041027423,-0.0024789087,0.85636985,-0.51634055,-223.22101,630.60095,8.331,0.00021,0.00021,2.11781
148.54167,2000,0,91.24,0.000002697398,0.000002697398,0.000002697398,0.99999994,0,0,0,0,0,0,0,1,0,0,0,false,false,true,-326.13998,-2904.55,17.01,-0.0040811626,-0.002516672,0.8517802,-0.5238771,-219.291,629.071,8.331,0.00021,0.00021,2.09221
148.55,2000,0,91.24,0.000002697398,0.000002697398,0.000002697398,0.99999994,0,0,0,0,0,0,0,1,0,0,0,false,false,true,-327.97,-2899.3098,17.01,-0.004059584,-0.002554436,0.84718,-0.5312842,-215.421,627.621,8.331,0.00021,0.00030999997,2.06551
148.55833,2000,0,91.24,0.000002697398,0.000002697398,0.000002697398,0.99999994,0,0,0,0,0,0,0,1,0,0,0,false,false,true,-329.77,-2894.0798,17.01,-0.0040380047,-0.0025921995,0.84257567,-0.53855646,-211.61101,626.261,8.331,0.00021,0.00030999997,2.0378098
148.56667,2000,0,91.24,0.000002697398,0.000002697398,0.000002697398,0.99999994,0,0,0,0,0,0,0,1,0,0,0,false,false,true,-331.53,-2888.8599,17.01,-0.0040164255,-0.002629963,0.8379743,-0.5456884,-207.871,624.98096,8.331,0.00010999999,0.00030999997,2.00901
148.575,2000,0,91.24,0.000002697398,0.000002697398,0.000002697398,0.99999994,0,0,0,0,0,0,0,1,0,0,0,false,false,true,-333.25998,-2883.65,17.01,-0.003994846,-0.0026623316,0.83337593,-0.5526854,-204.211,623.78094,8.331,0.00010999999,0.00030999997,1.97921
148.58333,2000,0,91.24,0.000002697398,0.000002697398,0.000002697398,0.99999994,0,0,0,0,0,0,0,1,0,0,0,false,false,true,-334.96,-2878.45,17.01,-0.003973267,-0.0026947006,0.82879144,-0.5595369,-200.631,622.65094,8.321,0.00010999999,0.00030999997,1.9484099
148.59166,2000,0,91.24,0.000002697398,0.000002697398,0.000002697398,0.99999994,0,0,0,0,0,0,0,1,0,0,0,false,false,true,-336.63,-2873.26,17.01,-0.003951688,-0.0027270694,0.82422084,-0.566248,-197.131,621.60095,8.321,0.00010999999,0.00040999998,1.91671
148.6,2000,0,91.24,0.000002697398,0.000002697398,0.000002697398,0.99999994,0,0,0,0,0,0,0,1,0,0,0,false,false,true,-338.27,-2868.0798,17.01,-0.003930109,-0.0027594385,0.8196716,-0.5728136,-193.711,620.621,8.321,0.00010999999,0.00040999998,1.88401
148.60834,2000,0,91.24,0.000002697398,0.000002697398,0.000002697398,0.99999994,0,0,0,0,0,0,0,1,0,0,0,false,false,true,-339.88,-2862.91,17.01,-0.0039085294,-0.002791807,0.8151514,-0.5792279,-190.381,619.701,8.321,0.00010999999,0.00040999998,1.85041
148.61667,2000,0,91.24,0.000002697398,0.000002697398,0.000002697398,0.99999994,0,0,0,0,0,0,0,1,0,0,0,false,false,true,-341.47,-2857.75,17.01,-0.0038869507,-0.0028241756,0.8106604,-0.5854967,-187.151,618.85095,8.321,0,0.00040999998,1.81591
148.625,2000,0,91.24,0.000002697398,0.000002697398,0.000002697398,0.99999994,0,0,0,0,0,0,0,1,0,0,0,false,false,true,-343.03,-2852.5898,17.01,-0.0038653717,-0.0028565447,0.8062066,-0.59161454,-184.011,618.061,8.321,0,0.00040999998,1.78061
148.63333,2000,0,91.24,0.000002697398,0.000002697398,0.000002697398,0.99999994,0,0,0,0,0,0,0,1,0,0,0,false,false,true,-344.56,-2847.44,17.01,-0.0038437925,-0.0028835188,0.801794,-0.5975812,-180.97101,617.321,8.321,0,0.00040999998,1.7445099
148.64166,2000,0,91.24,0.000002697398,0.000002697398,0.000002697398,0.99999994,0,0,0,0,0,0,0,1,0,0,0,false,false,true,-346.07,-2842.3,17.01,-0.003822213,-0.0029104925,0.79743063,-0.60339135,-178.031,616.641,8.321,0,0.00040999998,1.70761
148.65,2000,0,91.24,0.000002697398,0.000002697398,0.000002697398,0.99999994,0,0,0,0,0,0,0,1,0,0,0,false,false,true,-347.55,-2837.16,17.01,-0.0038006338,-0.0029374664,0.7931168,-0.6090505,-175.19101,616.011,8.321,0,0.00040999998,1.66991
148.65834,2000,0,91.24,0.000002697398,0.000002697398,0.000002697398,0.99999994,0,0,0,0,0,0,0,1,0,0,0,false,false,true,-349.00998,-2832.03,17.01,-0.0037790546,-0.0029644405,0.78886056,-0.6145533,-172.451,615.42096,8.321,0,0.00051,1.63141
148.66667,2000,0,91.24,0.000002697398,0.000002697398,0.000002697398,0.99999994,0,0,0,0,0,0,0,1,0,0,0,false,false,true,-350.44998,-2826.9,17.01,-0.0037574756,-0.0029914144,0.7846664,-0.6198995,-169.811,614.871,8.321,0,0.00051,1.5922099
148.675,2000,0,91.24,0.000002697398,0.000002697398,0.000002697398,0.99999994,0,0,0,0,0,0,0,1,0,0,0,false,false,true,-351.87,-2821.78,17.01,-0.0037358964,-0.0030183885,0.7805383,-0.62508935,-167.281,614.36096,8.321,0,0.00051,1.55241
148.68333,2000,0,91.24,0.000002697398,0.000002697398,0.000002697398,0.99999994,0,0,0,0,0,0,0,1,0,0,0,false,false,true,-353.25998,-2816.66,17.01,-0.0037143172,-0.0030453624,0.7764807,-0.63012266,-164.851,613.891,8.321,0,0.00051,1.51191
148.69167,2000,0,91.24,0.000002697398,0.000002697398,0.000002697398,0.99999994,0,0,0,0,0,0,0,1,0,0,0,false,false,true,-354.63,-2811.54,17.01,-0.003692738,-0.0030723363,0.77249736,-0.63499963,-162.531,613.451,8.321,0,0.00051,1.4708099
148.7,2000,0,91.24,0.000002697398,0.000002697398,0.000002697398,0.99999994,0,0,0,0,0,0,0,1,0,0,0,false,false,true,-355.97998,-2806.43,17.01,-0.003671159,-0.0030939158,0.7685929,-0.63972014,-160.311,613.04095,8.321,0,0.00040999998,1.42921
148.70833,2000,0,91.24,0.000002697398,0.000002697398,0.000002697398,0.99999994,0,0,0,0,0,0,0,1,0,0,0,false,false,true,-357.31998,-2801.3198,17.01,-0.0036495791,-0.0031154945,0.7647711,-0.644284,-158.19101,612.66095,8.321,0,0.00040999998,1.38711
148.71666,2000,0,91.24,0.000002697398,0.000002697398,0.000002697398,0.99999994,0,0,0,0,0,0,0,1,0,0,0,false,false,true,-358.63998,-2796.21,17.01,-0.0036280004,-0.003137074,0.7610361,-0.64869165,-156.171,612.30096,8.321,0,0.00030999997,1.34461
148.725,2000,0,91.24,0.000002697398,0.000002697398,0.000002697398,0.99999994,0,0,0,0,0,0,0,1,0,0,0,false,false,true,-359.94,-2791.1099,17.01,-0.003611816,-0.0031586532,0.757392,-0.6529427,-154.251,611.96094,8.321,0,0.00030999997,1.30171
148.73334,2000,0,91.24,0.000002697398,0.000002697398,0.000002697398,0.99999994,0,0,0,0,0,0,0,1,0,0,0,false,false,true,-361.22998,-2786.01,17.01,-0.0035956316,-0.0031802324,0.7538379,-0.6570428,-152.421,611.641,8.321,0,0.00030999997,1.25861
148.74167,2000,0,91.24,0.000002697398,0.000002697398,0.000002697398,0.99999994,0,0,0,0,0,0,0,1,0,0,0,false,false,true,-362.5,-2780.91,17.01,-0.0035794475,-0.0032018118,0.7503824,-0.6609865,-150.681,611.33093,8.311,0,0.00030999997,1.21531
148.75,2000,0,91.24,0.000002697398,0.000002697398,0.000002697398,0.99999994,0,0,0,0,0,0,0,1,0,0,0,false,false,true,-363.75998,-2775.8198,17.01,-0.0035632628,-0.0032233908,0.7470246,-0.66477895,-149.031,611.04095,8.311,0,0.00030999997,1.1719099
148.75833,2000,0,91.24,0.000002697398,0.000002697398,0.000002697398,0.99999994,0,0,0,0,0,0,0,1,0,0,0,false,false,true,-365,-2770.73,17.01,-0.0035470785,-0.003239575,0.74376804,-0.66842043,-147.461,610.761,8.311,0,0.00021,1.12841
148.76666,2000,0,91.24,0.000002697398,0.000002697398,0.000002697398,0.99999994,0,0,0,0,0,0,0,1,0,0,0,false,false,true,-366.22998,-2765.64,17.01,-0.0035308942,-0.0032557594,0.74061626,-0.67191094,-145.97101,610.49097,8.311,0,0.00021,1.08491
148.775,2000,0,91.24,0.000002697398,0.000002697398,0.000002697398,0.99999994,0,0,0,0,0,0,0,1,0,0,0,false,false,true,-367.44998,-2760.55,17.01,-0.0035147096,-0.003271944,0.7375729,-0.6752503,-144.561,610.23096,8.311,0,0.00021,1.04141
148.78334,2000,0,91.24,0.000002697398,0.000002697398,0.000002697398,0.99999994,0,0,0,0,0,0,0,1,0,0,0,false,false,true,-368.65,-2755.46,17.01,-0.0034985254,-0.0032881282,0.7346363,-0.678444,-143.231,609.98096,8.311,0,0.00021,0.99801
148.79167,2000,0,91.24,0.000002697398,0.000002697398,0.000002697398,0.99999994,0,0,0,0,0,0,0,1,0,0,0,false,false,true,-369.84,-2750.38,17.01,-0.0034823408,-0.0033043127,0.73180956,-0.68149215,-141.97101,609.74097,8.311,0,0.00010999999,0.95471
148.8,2000,0,91.24,0.000002697398,0.000002697398,0.000002697398,0.99999994,0,0,0,0,0,0,0,1,0,0,0,false,false,true,-371.02,-2745.3,17.01,-0.0034661565,-0.003320497,0.7290909,-0.6843999,-140.781,609.501,8.311,0,0.00010999999,0.91161
148.80833,2000,0,91.24,0.000002697398,0.000002697398,0.000002697398,0.99999994,0,0,0,0,0,0,0,1,0,0,0,false,false,true,-372.19,-2740.22,17.01,-0.003455367,-0.0033312866,0.72648823,-0.68716204,-139.66101,609.27094,8.311,0,0,0.86871
148.81667,2000,0,91.24,0.000002697398,0.000002697398,0.000002697398,0.99999994,0,0,0,0,0,0,0,1,0,0,0,false,false,true,-373.35,-2735.14,17.01,-0.0034445773,-0.0033420762,0.7239941,-0.68978935,-138.601,609.04095,8.311,0,0,0.82611
148.825,2000,0,91.24,0.000002697398,0.000002697398,0.000002697398,0.99999994,0,0,0,0,0,0,0,1,0,0,0,false,false,true,-374.5,-2730.06,17.01,-0.0034337877,-0.0033528658,0.7216164,-0.69227636,-137.601,608.821,8.311,0,0,0.78371
148.83333,2000,0,91.24,0.000002697398,0.000002697398,0.000002697398,0.99999994,0,0,0,0,0,0,0,1,0,0,0,false,false,true,-375.65,-2724.99,17.01,-0.0034229984,-0.0033636556,0.71935254,-0.69462854,-136.66101,608.60095,8.311,0,0,0.74161
148.84166,2000,0,91.24,0.000002697398,0.000002697398,0.000002697398,0.99999994,0,0,0,0,0,0,0,1,0,0,0,false,false,true,-376.78998,-2719.92,17.01,-0.0034122085,-0.003374445,0.7172048,-0.69684577,-135.77101,608.381,8.311,0,0,0.69980997
148.85,2000,0,91.24,0.000002697398,0.000002697398,0.000002697398,0.99999994,0,0,0,0,0,0,0,1,0,0,0,false,false,true,-377.91998,-2714.8499,17.01,-0.003401419,-0.0033852346,0.71517044,-0.69893354,-134.931,608.16095,8.311,0,0,0.65841
148.85834,2000,0,91.24,0.000002697398,0.000002697398,0.000002697398,0.99999994,0,0,0,0,0,0,0,1,0,0,0,false,false,true,-379.03998,-2709.78,17.01,-0.0033906293,-0.0033960242,0.71325135,-0.70089185,-134.141,607.941,8.311,0,0,0.61731
148.86667,2000,0,91.24,0.000002697398,0.000002697398,0.000002697398,0.99999994,0,0,0,0,0,0,0,1,0,0,0,false,false,true,-380.16,-2704.71,17.01,-0.0033798397,-0.0034068138,0.71144414,-0.7027261,-133.401,607.73096,8.311,0,0,0.57661
148.875,2000,0,91.24,0.000002697398,0.000002697398,0.000002697398,0.99999994,0,0,0,0,0,0,0,1,0,0,0,false,false,true,-381.27,-2699.65,17.01,-0.0033690496,-0.003412208,0.70975626,-0.7044308,-132.701,607.52094,8.311,0,0,0.53631
148.88333,2000,0,91.24,0.000002697398,0.000002697398,0.000002697398,0.99999994,0,0,0,0,0,0,0,1,0,0,0,false,false,true,-382.38,-2694.5898,17.01,-0.0033636556,-0.0034176037,0.7081786,-0.706017,-132.041,607.311,8.311,0,0,0.49641
148.89166,2000,0,91.24,0.000002697398,0.000002697398,0.000002697398,0.99999994,0,0,0,0,0,0,0,1,0,0,0,false,false,true,-383.47998,-2689.53,17.01,0.0033582605,0.0034229981,-0.70671827,0.7074787,-131.421,607.10095,8.311,0,0,0.45681
148.9,2000,0,91.24,0.000002697398,0.000002697398,0.000002697398,0.99999994,0,0,0,0,0,0,0,1,0,0,0,false,false,true,-384.58,-2684.47,17.01,0.0033528658,0.003428393,-0.7053696,0.7088234,-130.83101,606.891,8.311,0,0,0.41771
148.90834,2000,0,91.24,0.000002697398,0.000002697398,0.000002697398,0.99999994,0,0,0,0,0,0,0,1,0,0,0,false,false,true,-385.66998,-2679.41,17.01,0.003347471,0.0034337877,-0.70413417,0.71005064,-130.281,606.68097,8.311,0,0,0.37901
148.91667,2000,0,91.24,0.000002697398,0.000002697398,0.000002697398,0.99999994,0,0,0,0,0,0,0,1,0,0,0,false,false,true,-386.75998,-2674.3499,17.01,0.0033420762,0.0034391826,-0.70301205,0.7111617,-129.761,606.47095,8.311,0,0,0.34071
148.925,2000,0,91.24,0.000002697398,0.000002697398,0.000002697398,0.99999994,0,0,0,0,0,0,0,1,0,0,0,false,false,true,-387.84,-2669.3,17.01,0.0033366815,0.0034445773,-0.70200324,0.7121575,-129.261,606.261,8.311,0,0,0.30281
148.93333,2000,0,91.24,0.000002697398,0.000002697398,0.000002697398,0.99999994,0,0,0,0,0,0,0,1,0,0,0,false,false,true,-388.91998,-2664.25,17.01,0.0033312866,0.0034499723,-0.70110226,0.71304446,-128.791,606.05096,8.311,0,0,0.26531002
148.94167,2000,0,91.24,0.000002697398,0.000002697398,0.000002697398,0.99999994,0,0,0,0,0,0,0,1,0,0,0,false,false,true,-389.99,-2659.2,17.01,0.003325892,0.003455367,-0.70031464,0.7138181,-128.341,605.84094,8.311,0,0,0.22830999
148.95,2000,0,91.24,0.000002697398,0.000002697398,0.000002697398,0.99999994,0,0,0,0,0,0,0,1,0,0,0,false,false,true,-391.06,-2654.15,17.01,0.003320497,0.0034607616,-0.69963485,0.71448433,-127.910995,605.631,8.311,0,0,0.19171
148.95833,2000,0,91.24,0.000002697398,0.000002697398,0.000002697398,0.99999994,0,0,0,0,0,0,0,1,0,0,0,false,false,true,-392.13,-2649.0999,17.01,0.0033151023,0.0034607616,-0.699063,0.71504396,-127.491,605.42096,8.311,0,0,0.15551
148.96666,2000,0,91.24,0.000002697398,0.000002697398,0.000002697398,0.99999994,0,0,0,0,0,0,0,1,0,0,0,false,false,true,-393.19,-2644.05,17.01,0.0033151023,0.0034607616,-0.6985991,0.7154972,-127.090996,605.21094,8.311,0,0,0.11980999
148.975,2000,0,91.24,0.000002697398,0.000002697398,0.000002697398,0.99999994,0,0,0,0,0,0,0,1,0,0,0,false,false,true,-394.25,-2639.01,17.01,0.0033151023,0.0034607616,-0.698243,0.71584463,-126.701,605.001,8.311,0,0,0.08451
148.98334,2000,0,91.24,0.000002697398,0.000002697398,0.000002697398,0.99999994,0,0,0,0,0,0,0,1,0,0,0,false,false,true,-395.31,-2633.97,17.01,0.0033151018,0.0034607612,-0.6979894,0.7160919,-126.321,604.80096,8.311,0,0,0.049609996
148.99167,2000,0,91.24,0.000002697398,0.000002697398,0.000002697398,0.99999994,0,0,0,0,0,0,0,1,0,0,0,false,false,true,-396.36,-2628.93,17.01,0.0033151023,0.0034607616,-0.6978438,0.71623385,-125.951,604.60095,8.311,0,0,0.015209999
149,2000,0,91.24,0.000002697398,0.000002697398,0.000002697398,0.99999994,0,0,0,0,0,0,0,1,0,0,0,false,false,true,-397.41,-2623.89,17.01,0.0033151023,0.0034607616,-0.69780064,0.71627593,-125.58099,604.40094,8.311,0,0,-0.01871
149.00833,2000,0,91.24,0.000002697398,0.000002697398,0.000002697398,0.99999994,0,0,0,0,0,0,0,1,0,0,0,false,false,true,-398.46,-2618.8499,17.01,0.0033151025,0.0034607619,-0.69785464,0.71622336,-125.211,604.201,8.311,0,0,-0.052209996
149.01666,2000,0,91.24,0.000002697398,0.000002697398,0.000002697398,0.99999994,0,0,0,0,0,0,0,1,0,0,0,false,false,true,-399.5,-2613.81,17.01,0.0033151023,0.0034607616,-0.69801104,0.71607083,-124.851,604.011,8.311,0,0,-0.08531
149.025,2000,0,91.24,0.000002697398,0.000002697398,0.000002697398,0.99999994,0,0,0,0,0,0,0,1,0,0,0,false,false,true,-400.53998,-2608.78,17.01,0.0033151023,0.0034607616,-0.6982646,0.7158236,-124.480995,603.821,8.311,0,0,-0.11791
149.03334,2000,0,91.24,0.000002697398,0.000002697398,0.000002697398,0.99999994,0,0,0,0,0,0,0,1,0,0,0,false,false,true,-401.58,-2603.75,17.01,0.0033151023,0.0034607616,-0.69861525,0.71548134,-124.111,603.631,8.311,0,0,-0.15010999
149.04167,2000,0,91.24,0.000002697398,0.000002697398,0.000002697398,0.99999994,0,0,0,0,0,0,0,1,0,0,0,false,false,true,-402.61,-2598.72,17.01,0.0033151023,0.0034607616,-0.699063,0.71504396,-123.730995,603.451,8.311,0,0,-0.18191
149.05,2000,0,91.24,0.000002697398,0.000002697398,0.000002697398,0.99999994,0,0,0,0,0,0,0,1,0,0,0,false,false,true,-403.63998,-2593.69,17.01,0.0033151023,0.0034607616,-0.6996025,0.7145161,-123.340996,603.27094,8.311,0,-0.00010999999,-0.21320999
149.05833,2000,0,91.24,0.000002697398,0.000002697398,0.000002697398,0.99999994,0,0,0,0,0,0,0,1,0,0,0,false,false,true,-404.66998,-2588.66,17.01,0.0033204965,0.0034553665,-0.700239,0.7138922,-122.940994,603.09094,8.311,0,-0.00021,-0.24410999
149.06667,2000,0,91.24,0.000002697398,0.000002697398,0.000002697398,0.99999994,0,0,0,0,0,0,0,1,0,0,0,false,false,true,-405.69,-2583.63,17.01,0.003325892,0.0034499723,-0.700962,0.7131824,-122.531,602.92096,8.311,0,-0.00021,-0.27461
149.075,2000,0,91.24,0.000002697398,0.000002697398,0.000002697398,0.99999994,0,0,0,0,0,0,0,1,0,0,0,false,false,true,-406.71,-2578.6099,17.01,0.0033312861,0.0034445769,-0.70177656,0.7123808,-122.111,602.751,8.311,0,-0.00021,-0.30471
149.08333,2000,0,91.24,0.000002697398,0.000002697398,0.000002697398,0.99999994,0,0,0,0,0,0,0,1,0,0,0,false,false,true,-407.72998,-2573.5898,17.01,0.0033366818,0.0034391829,-0.70268303,0.7114869,-121.671,602.59094,8.311,0,-0.00021,-0.33441
149.09166,2000,0,91.24,0.000002697398,0.000002697398,0.000002697398,0.99999994,0,0,0,0,0,0,0,1,0,0,0,false,false,true,-408.74,-2568.5698,17.01,0.0033420762,0.0034337877,-0.7036756,0.7105051,-121.211,602.43097,8.311,0,-0.00021,-0.36361
149.1,2000,0,91.24,0.000002697398,0.000002697398,0.000002697398,0.99999994,0,0,0,0,0,0,0,1,0,0,0,false,false,true,-409.75,-2563.55,17.01,0.003347471,0.003428393,-0.70474917,0.70944023,-120.730995,602.28094,8.311,0,-0.00021,-0.39241
149.10834,2000,0,91.24,0.000002697398,0.000002697398,0.000002697398,0.99999994,0,0,0,0,0,0,0,1,0,0,0,false,false,true,-410.75998,-2558.53,17.01,0.003352866,0.0034229984,-0.70590913,0.70828617,-120.230995,602.131,8.311,0,-0.00021,-0.42081
149.11667,2000,0,91.24,0.000002697398,0.000002697398,0.000002697398,0.99999994,0,0,0,0,0,0,0,1,0,0,0,false,false,true,-411.75998,-2553.51,17.01,-0.0033582605,-0.0034176034,0.70714986,-0.70704734,-119.711,601.99097,8.311,0,-0.00021,-0.44881
149.125,2000,0,91.24,0.000002697398,0.000002697398,0.000002697398,0.99999994,0,0,0,0,0,0,0,1,0,0,0,false,false,true,-412.75998,-2548.49,17.01,-0.0033636554,-0.0034122085,0.70846885,-0.70572567,-119.160995,601.85095,8.311,0,-0.00021,-0.47631
149.13333,2000,0,91.24,0.000002697398,0.000002697398,0.000002697398,0.99999994,0,0,0,0,0,0,0,1,0,0,0,false,false,true,-413.75,-2543.47,17.01,-0.00336905,-0.0034068138,0.70986867,-0.7043176,-118.590996,601.72095,8.311,0,-0.00021,-0.50341
149.14166,2000,0,91.24,0.000002697398,0.000002697398,0.000002697398,0.99999994,0,0,0,0,0,0,0,1,0,0,0,false,false,true,-414.74,-2538.46,17.01,-0.003374445,-0.003401419,0.71134293,-0.70282865,-117.991,601.59094,8.311,0,-0.00021,-0.53011
149.15,2000,0,91.24,0.000002697398,0.000002697398,0.000002697398,0.99999994,0,0,0,0,0,0,0,1,0,0,0,false,false,true,-415.72,-2533.45,17.01,-0.0033852346,-0.0033906293,0.712896,-0.7012533,-117.361,601.46094,8.311,0,-0.00021,-0.55631
149.15834,2000,0,91.24,0.000002697398,0.000002697398,0.000002697398,0.99999994,0,0,0,0,0,0,0,1,0,0,0,false,false,true,-416.69998,-2528.44,17.01,-0.0033960242,-0.0033798397,0.71452135,-0.6995971,-116.701,601.34094,8.311,0,-0.00021,-0.58211
149.16667,2000,0,91.24,0.000002697398,0.000002697398,0.000002697398,0.99999994,0,0,0,0,0,0,0,1,0,0,0,false,false,true,-417.66998,-2523.43,17.01,-0.0034068138,-0.00336905,0.71621805,-0.69786,-116.001,601.22095,8.311,0,-0.00021,-0.60741
149.175,2000,0,91.24,0.000002697398,0.000002697398,0.000002697398,0.99999994,0,0,0,0,0,0,0,1,0,0,0,false,false,true,-418.63998,-2518.42,17.01,-0.0034176034,-0.0033582605,0.71797985,-0.6960473,-115.270996,601.11096,8.311,0,-0.00010999999,-0.63231
149.18333,2000,0,91.24,0.000002697398,0.000002697398,0.000002697398,0.99999994,0,0,0,0,0,0,0,1,0,0,0,false,false,true,-419.59998,-2513.41,17.01,-0.003428393,-0.003347471,0.71981066,-0.6941538,-114.501,601.001,8.311,0,-0.00010999999,-0.65670997
149.19167,2000,0,91.24,0.000002697398,0.000002697398,0.000002697398,0.99999994,0,0,0,0,0,0,0,1,0,0,0,false,false,true,-420.55,-2508.4,17.01,-0.0034391826,-0.0033366815,0.7217096,-0.69217926,-113.701,600.891,8.311,0,0,-0.68071
149.2,2000,0,91.24,0.000002697398,0.000002697398,0.000002697398,0.99999994,0,0,0,0,0,0,0,1,0,0,0,false,false,true,-421.5,-2503.39,17.01,-0.0034499725,-0.0033258921,0.7236702,-0.6901293,-112.861,600.78094,8.311,0,0,-0.70421
149.20833,2000,0,91.24,0.000002697398,0.000002697398,0.000002697398,0.99999994,0,0,0,0,0,0,0,1,0,0,0,false,false,true,-422.44,-2498.38,17.01,-0.0034607616,-0.0033151023,0.72569126,-0.68800366,-111.980995,600.68097,8.311,0,0,-0.72721
149.21666,2000,0,91.24,0.000002697398,0.000002697398,0.000002697398,0.99999994,0,0,0,0,0,0,0,1,0,0,0,false,false,true,-423.37,-2493.3699,17.01,-0.0034715512,-0.0033043127,0.7277717,-0.6858026,-111.061,600.581,8.311,0,0,-0.74981
149.225,2000,0,91.24,0.000002697398,0.000002697398,0.000002697398,0.99999994,0,0,0,0,0,0,0,1,0,0,0,false,false,true,-424.3,-2488.3599,17.01,-0.0034823408,-0.003293523,0.7299104,-0.683526,-110.090996,600.48096,8.311,0,0,-0.77191
149.23334,2000,0,91.24,0.000002697398,0.000002697398,0.000002697398,0.99999994,0,0,0,0,0,0,0,1,0,0,0,false,false,true,-425.22,-2483.3599,17.01,-0.0034931304,-0.0032827335,0.73210585,-0.68117386,-109.08099,600.381,8.311,0,0,-0.79351
149.24167,2000,0,91.24,0.000002697398,0.000002697398,0.000002697398,0.99999994,0,0,0,0,0,0,0,1,0,0,0,false,false,true,-426.13,-2478.3599,17.01,-0.00350392,-0.003271944,0.73435223,-0.6787515,-108.031,600.28094,8.311,0,0,-0.81461
149.25,2000,0,91.24,0.000002697398,0.000002697398,0.000002697398,0.99999994,0,0,0,0,0,0,0,1,0,0,0,false,false,true,-427.03,-2473.3599,17.01,-0.0035147096,-0.0032611543,0.7366531,-0.67625374,-106.931,600.18097,8.311,0,0,-0.83520997
149.25833,2000,0,91.24,0.000002697398,0.000002697398,0.000002697398,0.99999994,0,0,0,0,0,0,0,1,0,0,0,false,false,true,-427.91998,-2468.3599,17.01,-0.0035254993,-0.0032503647,0.7390022,-0.6736858,-105.791,600.081,8.311,0,0,-0.85530996
149.26666,2000,0,91.24,0.000002697398,0.000002697398,0.000002697398,0.99999994,0,0,0,0,0,0,0,1,0,0,0,false,false,true,-428.8,-2463.3599,17.01,-0.0035362889,-0.003239575,0.7413985,-0.67104775,-104.601,599.97095,8.311,0,0,-0.87491
149.275,2000,0,91.24,0.000002697398,0.000002697398,0.000002697398,0.99999994,0,0,0,0,0,0,0,1,0,0,0,false,false,true,-429.66998,-2458.3599,17.01,-0.0035470785,-0.0032287855,0.74384075,-0.66833955,-103.361,599.86096,8.311,0,0,-0.89401
149.28334,2000,0,91.24,0.000002697398,0.000002697398,0.000002697398,0.99999994,0,0,0,0,0,0,0,1,0,0,0,false,false,true,-430.53,-2453.3599,17.01,-0.003557868,-0.0032179959,0.74632293,-0.6655666,-102.071,599.74097,8.311,0,0,-0.91261
149.29167,2000,0,91.24,0.000002697398,0.000002697398,0.000002697398,0.99999994,0,0,0,0,0,0,0,1,0,0,0,false,false,true,-431.38,-2448.3599,17.01,-0.0035686577,-0.0032018116,0.7488487,-0.66272354,-100.741,599.621,8.311,0,-0.00010999999,-0.93081
149.3,2000,0,91.24,0.000002697398,0.000002697398,0.000002697398,0.99999994,0,0,0,0,0,0,0,1,0,0,0,false,false,true,-432.22,-2443.3599,17.01,-0.0035794473,-0.003185627,0.75141203,-0.6598157,-99.361,599.49097,8.311,0,-0.00010999999,-0.94851
149.30833,2000,0,91.24,0.000002697398,0.000002697398,0.000002697398,0.99999994,0,0,0,0,0,0,0,1,0,0,0,false,false,true,-433.05,-2438.3599,17.01,-0.003590237,-0.0031694428,0.7540118,-0.65684325,-97.931,599.36096,8.311,0,-0.00010999999,-0.96571
149.31667,2000,0,91.24,0.000002697398,0.000002697398,0.000002697398,0.99999994,0,0,0,0,0,0,0,1,0,0,0,false,false,true,-433.87,-2433.3699,17.01,-0.0036010267,-0.0031532585,0.75664705,-0.653806,-96.461,599.22095,8.311,0,-0.00010999999,-0.98251
149.325,2000,0,91.24,0.000002697398,0.000002697398,0.000002697398,0.99999994,0,0,0,0,0,0,0,1,0,0,0,false,false,true,-434.66998,-2428.38,17.01,-0.003611816,-0.003137074,0.7593164,-0.6507039,-94.940994,599.071,8.311,0.00010999999,-0.00010999999,-0.99881
149.33333,2000,0,91.24,0.000002697398,0.000002697398,0.000002697398,0.99999994,0,0,0,0,0,0,0,1,0,0,0,false,false,true,-435.46,-2423.39,17.01,-0.0036280004,-0.0031208897,0.76201874,-0.6475372,-93.370995,598.91095,8.311,0.00010999999,-0.00021,-1.01471
149.34166,2000,0,91.24,0.000002697398,0.000002697398,0.000002697398,0.99999994,0,0,0,0,0,0,0,1,0,0,0,false,false,true,-436.24,-2418.4,17.01,-0.003644185,-0.0031047051,0.76474845,-0.644311,-91.760994,598.74097,8.311,0.00010999999,-0.00021,-1.03021
149.35,2000,0,91.24,0.000002697398,0.000002697398,0.000002697398,0.99999994,0,0,0,0,0,0,0,1,0,0,0,false,false,true,-437,-2413.41,17.01,-0.0036603694,-0.003088521,0.767509,-0.64102024,-90.101,598.55096,8.311,0.00010999999,-0.00021,-1.04531
149.35834,2000,0,91.24,0.000002697398,0.000002697398,0.000002697398,0.99999994,0,0,0,0,0,0,0,1,0,0,0,false,false,true,-437.75,-2408.42,17.01,-0.0036765535,-0.0030723363,0.7702946,-0.63767004,-88.401,598.35095,8.311,0.00010999999,-0.00021,-1.0599099
149.36667,2000,0,91.24,0.000002697398,0.000002697398,0.000002697398,0.99999994,0,0,0,0,0,0,0,1,0,0,0,false,false,true,-438.49,-2403.43,17.01,-0.0036927382,-0.0030561523,0.7731045,-0.63426054,-86.651,598.131,8.311,0.00010999999,-0.00010999999,-1.07411
149.375,2000,0,91.24,0.000002697398,0.000002697398,0.000002697398,0.99999994,0,0,0,0,0,0,0,1,0,0,0,false,false,true,-439.21,-2398.45,17.01,-0.0037089225,-0.0030399677,0.7759374,-0.63079166,-84.861,597.90094,8.311,0,-0.00010999999,-1.08801
149.38333,2000,0,91.24,0.000002697398,0.000002697398,0.000002697398,0.99999994,0,0,0,0,0,0,0,1,0,0,0,false,false,true,-439.91998,-2393.47,17.01,-0.0037251068,-0.0030237832,0.778788,-0.6272688,-83.020996,597.65094,8.311,0,-0.00010999999,-1.1015099
149.39166,2000,0,91.24,0.000002697398,0.000002697398,0.000002697398,0.99999994,0,0,0,0,0,0,0,1,0,0,0,false,false,true,-440.61,-2388.49,17.01,-0.0037412911,-0.003007599,0.7816596,-0.6236866,-81.141,597.381,8.311,0,0,-1.11461
149.4,2000,0,91.24,0.000002697398,0.000002697398,0.000002697398,0.99999994,0,0,0,0,0,0,0,1,0,0,0,false,false,true,-441.28998,-2383.51,17.01,-0.0037574756,-0.0029914144,0.78454703,-0.62005055,-79.221,597.10095,8.311,0,0,-1.12731
149.40834,2000,0,91.24,0.000002697398,0.000002697398,0.000002697398,0.99999994,0,0,0,0,0,0,0,1,0,0,0,false,false,true,-441.94998,-2378.53,17.01,-0.0037736602,-0.0029752303,0.78744936,-0.61636055,-77.251,596.80096,8.311,0,0,-1.1396099
149.41667,2000,0,91.24,0.000002697398,0.000002697398,0.000002697398,0.99999994,0,0,0,0,0,0,0,1,0,0,0,false,false,true,-442.59,-2373.56,17.01,-0.0037898445,-0.0029590458,0.7903656,-0.6126166,-75.241,596.48096,8.311,0,0,-1.15161
149.425,2000,0,91.24,0.000002697398,0.000002697398,0.000002697398,0.99999994,0,0,0,0,0,0,0,1,0,0,0,false,false,true,-443.22,-2368.5898,17.01,-0.0038060287,-0.0029428613,0.79329485,-0.60881853,-73.190994,596.131,8.311,-0.00010999999,0,-1.16321
149.43333,2000,0,91.24,0.000002697398,0.000002697398,0.000002697398,0.99999994,0,0,0,0,0,0,0,1,0,0,0,false,false,true,-443.83,-2363.6199,17.01,-0.003822213,-0.0029266768,0.79623616,-0.60496664,-71.101,595.761,8.311,-0.00021,0,-1.17451
149.44167,2000,0,91.24,0.000002697398,0.000002697398,0.000002697398,0.99999994,0,0,0,0,0,0,0,1,0,0,0,false,false,true,-444.41998,-2358.66,17.01,-0.0038383976,-0.0029050978,0.79918873,-0.60106075,-68.971,595.371,8.311,-0.00021,0,-1.18541
149.45,2000,0,91.24,0.000002697398,0.000002697398,0.000002697398,0.99999994,0,0,0,0,0,0,0,1,0,0,0,false,false,true,-444.99,-2353.7,17.01,-0.0038545819,-0.0028835186,0.8021475,-0.5971064,-66.800995,594.951,8.311,-0.00021,0,-1.19601
149.45833,2000,0,91.24,0.000002697398,0.000002697398,0.000002697398,0.99999994,0,0,0,0,0,0,0,1,0,0,0,false,false,true,-445.55,-2348.74,17.01,-0.0038707664,-0.0028619394,0.80511177,-0.59310347,-64.590996,594.511,8.311,-0.00021,0,-1.20621
149.46666,2000,0,91.24,0.000002697398,0.000002697398,0.000002697398,0.99999994,0,0,0,0,0,0,0,1,0,0,0,false,false,true,-446.09,-2343.79,17.01,-0.0038869502,-0.00284036,0.80808073,-0.58905184,-62.350998,594.04095,8.311,-0.00021,0,-1.21611
149.475,2000,0,91.24,0.000002697398,0.000002697398,0.000002697398,0.99999994,0,0,0,0,0,0,0,1,0,0,0,false,false,true,-446.61,-2338.8398,17.01,-0.003903135,-0.002818781,0.81105363,-0.5849519,-60.071,593.54095,8.311,-0.00021,0,-1.22571
149.48334,2000,0,91.24,0.000002697398,0.000002697398,0.000002697398,0.99999994,0,0,0,0,0,0,0,1,0,0,0,false,false,true,-447.11,-2333.89,17.01,-0.0039193192,-0.0027972017,0.81402963,-0.5808032,-57.760998,593.011,8.311,-0.00021,0.00010999999,-1.23501
