time,ball_loc_x,ball_loc_y,ball_loc_z,ball_rot_x,ball_rot_y,ball_rot_z,ball_rot_w,ball_vel_x,ball_vel_y,ball_vel_z,ball_ang_x,ball_ang_y,ball_ang_z,player0_throttle,player0_steer,player0_pitch,player0_yaw,player0_roll,player0_jump,player0_boost,player0_handbrake,player0_loc_x,player0_loc_y,player0_loc_z,player0_rot_x,player0_rot_y,player0_rot_z,player0_rot_w,player0_vel_x,player0_vel_y,player0_vel_z,player0_ang_x,player0_ang_y,player0_ang_z
29.533333,2000,0,91.24,0.000002697398,0.000002697398,0.000002697398,0.99999994,0,0,0,0,0,0,0.19685039,0,0,0,0,false,false,false,0,-4930.53,17.01,-0.00336905,0.0033582605,0.7070905,0.70710695,0,200.871,8.321,-0.00061,0.00010999999,0
29.541666,2000,0,91.24,0.000002697398,0.000002697398,0.000002697398,0.99999994,0,0,0,0,0,0,0,1,0,0,0,false,false,true,0,-4928.86,17.01,-0.00336905,0.0033582605,0.7070905,0.70710695,-6.1309996,197.951,8.341001,-0.00071,0.0016099999,0.16211
29.55,2000,0,91.24,0.000002697398,0.000002697398,0.000002697398,0.99999994,0,0,0,0,0,0,0,1,0,0,0,false,false,true,-0.049999997,-4927.21,17.01,-0.0033690503,0.0033636556,0.70757055,0.70662665,-9.9210005,196.131,8.351,-0.00081,0.00201,0.26341
29.558332,2000,0,91.24,0.000002697398,0.000002697398,0.000002697398,0.99999994,0,0,0,0,0,0,0,1,0,0,0,false,false,true,-0.13,-4925.58,17.01,-0.00336905,0.00336905,0.70834553,0.7058497,-13.211,194.55101,8.351,-0.00081,0.00201,0.35091
29.566668,2000,0,91.24,0.000002697398,0.000002697398,0.000002697398,0.99999994,0,0,0,0,0,0,0,1,0,0,0,false,false,true,-0.24,-4923.96,17.01,-0.00336905,0.003374445,0.70937616,0.7048139,-16.071,193.181,8.351,-0.00071,0.0018099999,0.42611
29.575,2000,0,91.24,0.000002697398,0.000002697398,0.000002697398,0.99999994,0,0,0,0,0,0,0,1,0,0,0,false,false,true,-0.37,-4922.35,17.01,-0.003374445,0.003374445,0.7106281,0.70355153,-18.571,192.001,8.351,-0.00061,0.00151,0.49031
29.583334,2000,0,91.24,0.000002697398,0.000002697398,0.000002697398,0.99999994,0,0,0,0,0,0,0,1,0,0,0,false,false,true,-0.52,-4920.75,17.01,-0.0033798397,0.003374445,0.7120619,0.70210034,-20.771,190.97101,8.341001,-0.00051,0.0012099999,0.54491
29.591667,2000,0,91.24,0.000002697398,0.000002697398,0.000002697398,0.99999994,0,0,0,0,0,0,0,1,0,0,0,false,false,true,-0.69,-4919.1597,17.01,-0.0033852346,0.003374445,0.71365404,0.7004819,-22.710999,190.08101,8.341001,-0.00040999998,0.00091,0.59121
29.6,2000,0,91.24,0.000002697398,0.000002697398,0.000002697398,0.99999994,0,0,0,0,0,0,0,1,0,0,0,false,false,true,-0.88,-4917.58,17.01,-0.0033906295,0.0033690503,0.7153761,0.69872326,-24.431,189.30101,8.341001,-0.00040999998,0.00061,0.63031
29.608334,2000,0,91.24,0.000002697398,0.000002697398,0.000002697398,0.99999994,0,0,0,0,0,0,0,1,0,0,0,false,false,true,-1.0799999,-4916,17.01,-0.0034014191,0.0033636556,0.7172102,0.69684047,-25.970999,188.621,8.331,-0.00040999998,0.00030999997,0.66311
29.616667,2000,0,91.24,0.000002697398,0.000002697398,0.000002697398,0.99999994,0,0,0,0,0,0,0,1,0,0,0,false,false,true,-1.3,-4914.4297,17.01,-0.0034122085,0.0033582605,0.7191338,0.69485503,-27.360998,188.021,8.331,-0.00030999997,0,0.69061
29.625,2000,0,91.24,0.000002697398,0.000002697398,0.000002697398,0.99999994,0,0,0,0,0,0,0,1,0,0,0,false,false,true,-1.53,-4912.86,17.01,-0.0034229981,0.003347471,0.7211297,0.6927834,-28.620998,187.491,8.331,-0.00021,-0.00010999999,0.71361
29.633333,2000,0,91.24,0.000002697398,0.000002697398,0.000002697398,0.99999994,0,0,0,0,0,0,0,1,0,0,0,false,false,true,-1.77,-4911.3,17.01,-0.0034337877,0.0033366815,0.72318625,0.69063634,-29.761,187.021,8.331,-0.00021,-0.00021,0.73271
29.641666,2000,0,91.24,0.000002697398,0.000002697398,0.000002697398,0.99999994,0,0,0,0,0,0,0,1,0,0,0,false,false,true,-2.02,-4909.7397,17.01,-0.0034445773,0.003325892,0.7252921,0.68842447,-30.800999,186.61101,8.331,-0.00021,-0.00030999997,0.74851
29.65,2000,0,91.24,0.000002697398,0.000002697398,0.000002697398,0.99999994,0,0,0,0,0,0,0,1,0,0,0,false,false,true,-2.28,-4908.1797,17.01,-0.0034553665,0.0033151018,0.72743607,0.6861586,-31.751,186.241,8.331,-0.00010999999,-0.00040999998,0.76151
29.658333,2000,0,91.24,0.000002697398,0.000002697398,0.000002697398,0.99999994,0,0,0,0,0,0,0,1,0,0,0,false,false,true,-2.54,-4906.63,17.01,-0.0034661565,0.0033043127,0.7296122,0.68384427,-32.631,185.911,8.321,-0.00010999999,-0.00040999998,0.77211
29.666666,2000,0,91.24,0.000002697398,0.000002697398,0.000002697398,0.99999994,0,0,0,0,0,0,0,1,0,0,0,false,false,true,-2.81,-4905.08,17.01,-0.0034769461,0.003293523,0.7318096,0.68149215,-33.431,185.621,8.321,-0.00010999999,-0.00051,0.78081
29.675,2000,0,91.24,0.000002697398,0.000002697398,0.000002697398,0.99999994,0,0,0,0,0,0,0,1,0,0,0,false,false,true,-3.09,-4903.53,17.01,-0.0034877353,0.003282733,0.734023,0.67910755,-34.161,185.36101,8.321,-0.00010999999,-0.00051,0.78780997
29.683332,2000,0,91.24,0.000002697398,0.000002697398,0.000002697398,0.99999994,0,0,0,0,0,0,0,1,0,0,0,false,false,true,-3.37,-4901.9897,17.01,-0.0034985256,0.0032719441,0.7362467,0.67669624,-34.821,185.121,8.321,-0.00010999999,-0.00061,0.79331
29.691668,2000,0,91.24,0.000002697398,0.000002697398,0.000002697398,0.99999994,0,0,0,0,0,0,0,1,0,0,0,false,false,true,-3.6599998,-4900.4497,17.01,-0.003509315,0.0032611543,0.7384805,0.6742577,-35.411,184.911,8.321,-0.00010999999,-0.00061,0.79761
29.7,2000,0,91.24,0.000002697398,0.000002697398,0.000002697398,0.99999994,0,0,0,0,0,0,0,1,0,0,0,false,false,true,-3.9599998,-4898.9097,17.01,-0.0035201046,0.0032503647,0.7407192,0.6717976,-35.940998,184.731,8.321,0,-0.00071,0.80091
29.708334,2000,0,91.24,0.000002697398,0.000002697398,0.000002697398,0.99999994,0,0,0,0,0,0,0,1,0,0,0,false,false,true,-4.2599998,-4897.37,17.01,-0.0035308937,0.0032341802,0.7429575,0.6693213,-36.400997,184.571,8.321,0,-0.00071,0.80341
29.716667,2000,0,91.24,0.000002697398,0.000002697398,0.000002697398,0.99999994,0,0,0,0,0,0,0,1,0,0,0,false,false,true,-4.56,-4895.83,17.01,-0.0035416838,0.0032179959,0.74519527,0.666829,-36.791,184.44101,8.321,0,-0.00071,0.80521
29.725,2000,0,91.24,0.000002697398,0.000002697398,0.000002697398,0.99999994,0,0,0,0,0,0,0,1,0,0,0,false,false,true,-4.87,-4894.29,17.01,-0.0035524734,0.0032018116,0.7474277,0.66432583,-37.111,184.33101,8.321,0,-0.00071,0.80641
29.733334,2000,0,91.24,0.000002697398,0.000002697398,0.000002697398,0.99999994,0,0,0,0,0,0,0,1,0,0,0,false,false,true,-5.18,-4892.75,17.01,-0.0035632628,0.003185627,0.74965465,0.6618118,-37.350998,184.251,8.321,-0.00010999999,-0.00071,0.80711
29.741667,2000,0,91.24,0.000002697398,0.000002697398,0.000002697398,0.99999994,0,0,0,0,0,0,0,1,0,0,0,false,false,true,-5.49,-4891.21,17.01,-0.0035740524,0.0031694428,0.75187606,0.65928704,-37.600998,184.161,8.321,-0.00021,-0.00071,0.80781
29.75,2000,0,91.24,0.000002697398,0.000002697398,0.000002697398,0.99999994,0,0,0,0,0,0,0,1,0,0,0,false,false,true,-5.7999997,-4889.6797,17.01,-0.003584842,0.0031586532,0.7540918,0.6567515,-37.871,184.061,8.321,-0.00021,-0.00061,0.80851
29.758333,2000,0,91.24,0.000002697398,0.000002697398,0.000002697398,0.99999994,0,0,0,0,0,0,0,1,0,0,0,false,false,true,-6.12,-4888.15,17.01,-0.0035956316,0.0031478636,0.75630194,0.65420514,-38.150997,183.961,8.321,-0.00021,-0.00061,0.80921
29.766666,2000,0,91.24,0.000002697398,0.000002697398,0.000002697398,0.99999994,0,0,0,0,0,0,0,1,0,0,0,false,false,true,-6.44,-4886.62,17.01,-0.0036064212,0.003137074,0.75850177,0.65165335,-38.440998,183.851,8.321,-0.00021,-0.00061,0.80991
29.775,2000,0,91.24,0.000002697398,0.000002697398,0.000002697398,0.99999994,0,0,0,0,0,0,0,1,0,0,0,false,false,true,-6.7599998,-4885.09,17.01,-0.003617211,0.0031262846,0.7606958,0.6490909,-38.751,183.741,8.321,-0.00021,-0.00061,0.81061
29.783333,2000,0,91.24,0.000002697398,0.000002697398,0.000002697398,0.99999994,0,0,0,0,0,0,0,1,0,0,0,false,false,true,-7.08,-4883.56,17.01,-0.0036280004,0.0031154947,0.762884,0.6465175,-39.071,183.621,8.321,-0.00021,-0.00061,0.81131
29.791666,2000,0,91.24,0.000002697398,0.000002697398,0.000002697398,0.99999994,0,0,0,0,0,0,0,1,0,0,0,false,false,true,-7.41,-4882.03,17.01,-0.0036387902,0.0031047054,0.7650665,0.6439335,-39.400997,183.491,8.321,-0.00021,-0.00061,0.81201
29.8,2000,0,91.24,0.000002697398,0.000002697398,0.000002697398,0.99999994,0,0,0,0,0,0,0,1,0,0,0,false,false,true,-7.74,-4880.5,17.01,-0.0036495796,0.0030939155,0.7672431,0.64133847,-39.740997,183.36101,8.321,-0.00021,-0.00061,0.81261
29.808332,2000,0,91.24,0.000002697398,0.000002697398,0.000002697398,0.99999994,0,0,0,0,0,0,0,1,0,0,0,false,false,true,-8.07,-4878.9697,17.01,-0.0036603694,0.0030831262,0.7694092,0.6387383,-40.091,183.22101,8.321,-0.00010999999,-0.00061,0.81321
29.816668,2000,0,91.24,0.000002697398,0.000002697398,0.000002697398,0.99999994,0,0,0,0,0,0,0,1,0,0,0,false,false,true,-8.4,-4877.44,17.01,-0.003671159,0.0030669419,0.7715694,0.6361272,-40.451,183.071,8.321,-0.00010999999,-0.00061,0.81381
29.825,2000,0,91.24,0.000002697398,0.000002697398,0.000002697398,0.99999994,0,0,0,0,0,0,0,1,0,0,0,false,false,true,-8.74,-4875.9097,17.01,-0.0036819484,0.003050757,0.77372354,0.6335052,-40.821,182.921,8.321,-0.00010999999,-0.00061,0.81441
29.833334,2000,0,91.24,0.000002697398,0.000002697398,0.000002697398,0.99999994,0,0,0,0,0,0,0,1,0,0,0,false,false,true,-9.08,-4874.3896,17.01,-0.0036927382,0.003034573,0.7758673,0.63087803,-41.201,182.761,8.321,-0.00010999999,-0.00061,0.81501
29.841667,2000,0,91.24,0.000002697398,0.000002697398,0.000002697398,0.99999994,0,0,0,0,0,0,0,1,0,0,0,false,false,true,-9.42,-4872.87,17.01,-0.0037035279,0.0030183888,0.77800494,0.6282399,-41.591,182.591,8.321,-0.00010999999,-0.00061,0.81561
29.85,2000,0,91.24,0.000002697398,0.000002697398,0.000002697398,0.99999994,0,0,0,0,0,0,0,1,0,0,0,false,false,true,-9.7699995,-4871.35,17.01,-0.0037143172,0.003002204,0.7801365,0.625591,-41.990997,182.421,8.321,-0.00021,-0.00051,0.81621
29.858334,2000,0,91.24,0.000002697398,0.000002697398,0.000002697398,0.99999994,0,0,0,0,0,0,0,1,0,0,0,false,false,true,-10.12,-4869.83,17.01,-0.0037251068,0.0029914144,0.7822575,0.6229368,-42.400997,182.241,8.321,-0.00021,-0.00051,0.81681
29.866667,2000,0,91.24,0.000002697398,0.000002697398,0.000002697398,0.99999994,0,0,0,0,0,0,0,1,0,0,0,false,false,true,-10.469999,-4868.31,17.01,-0.003735896,0.0029806246,0.7843723,0.6202717,-42.821,182.05101,8.321,-0.00021,-0.00051,0.81741
29.875,2000,0,91.24,0.000002697398,0.000002697398,0.000002697398,0.99999994,0,0,0,0,0,0,0,1,0,0,0,false,false,true,-10.83,-4866.79,17.01,-0.0037466863,0.0029698354,0.78648096,0.617596,-43.251,181.86101,8.321,-0.00021,-0.00051,0.81791
29.883333,2000,0,91.24,0.000002697398,0.000002697398,0.000002697398,0.99999994,0,0,0,0,0,0,0,1,0,0,0,false,false,true,-11.19,-4865.27,17.01,-0.0037574756,0.0029590456,0.7885832,0.6149093,-43.690998,181.661,8.321,-0.00021,-0.00051,0.81841
29.891666,2000,0,91.24,0.000002697398,0.000002697398,0.000002697398,0.99999994,0,0,0,0,0,0,0,1,0,0,0,false,false,true,-11.55,-4863.76,17.01,-0.0037682652,0.002948256,0.790675,0.6122173,-44.141,181.451,8.321,-0.00021,-0.00051,0.81891
29.9,2000,0,91.24,0.000002697398,0.000002697398,0.000002697398,0.99999994,0,0,0,0,0,0,0,1,0,0,0,false,false,true,-11.92,-4862.25,17.01,-0.0037790546,0.0029374664,0.7927604,0.6095145,-44.600998,181.231,8.321,-0.00010999999,-0.00051,0.81940997
29.908333,2000,0,91.24,0.000002697398,0.000002697398,0.000002697398,0.99999994,0,0,0,0,0,0,0,1,0,0,0,false,false,true,-12.29,-4860.7397,17.01,-0.0037898442,0.002921282,0.79483527,0.6068062,-45.060997,181.011,8.321,-0.00010999999,-0.00051,0.81991
29.916666,2000,0,91.24,0.000002697398,0.000002697398,0.000002697398,0.99999994,0,0,0,0,0,0,0,1,0,0,0,false,false,true,-12.67,-4859.23,17.01,-0.0038006338,0.0029050978,0.7969037,0.60408723,-45.531,180.781,8.321,-0.00010999999,-0.00051,0.82041
29.925,2000,0,91.24,0.000002697398,0.000002697398,0.000002697398,0.99999994,0,0,0,0,0,0,0,1,0,0,0,false,false,true,-13.049999,-4857.7197,17.01,-0.0038114234,0.0028889133,0.7989657,0.60135746,-46.010998,180.541,8.321,-0.00010999999,-0.00040999998,0.82091
29.933332,2000,0,91.24,0.000002697398,0.000002697398,0.000002697398,0.99999994,0,0,0,0,0,0,0,1,0,0,0,false,false,true,-13.429999,-4856.2197,17.01,-0.003822213,0.002872729,0.80101705,0.5986223,-46.501,180.30101,8.321,-0.00010999999,-0.00040999998,0.82141
29.941668,2000,0,91.24,0.000002697398,0.000002697398,0.000002697398,0.99999994,0,0,0,0,0,0,0,1,0,0,0,false,false,true,-13.82,-4854.7197,17.01,-0.0038330026,0.0028565445,0.80306184,0.5958764,-46.990997,180.05101,8.321,-0.00010999999,-0.00030999997,0.82181
29.95,2000,0,91.24,0.000002697398,0.000002697398,0.000002697398,0.99999994,0,0,0,0,0,0,0,1,0,0,0,false,false,true,-14.21,-4853.2197,17.01,-0.0038437922,0.0028403602,0.8050961,0.59312505,-47.490997,179.791,8.321,-0.00021,-0.00030999997,0.82221
29.958334,2000,0,91.24,0.000002697398,0.000002697398,0.000002697398,0.99999994,0,0,0,0,0,0,0,1,0,0,0,false,false,true,-14.61,-4851.7197,17.01,-0.0038545819,0.0028295706,0.80712366,0.5903629,-47.990997,179.521,8.321,-0.00021,-0.00021,0.82261
29.966667,2000,0,91.24,0.000002697398,0.000002697398,0.000002697398,0.99999994,0,0,0,0,0,0,0,1,0,0,0,false,false,true,-15.009999,-4850.2197,17.01,-0.0038653715,0.002818781,0.8091407,0.58759534,-48.501,179.251,8.321,-0.00021,-0.00021,0.82300997
29.975,2000,0,91.24,0.000002697398,0.000002697398,0.000002697398,0.99999994,0,0,0,0,0,0,0,1,0,0,0,false,false,true,-15.41,-4848.73,17.01,-0.003876161,0.0028079913,0.8111511,0.58481693,-49.021,178.97101,8.321,-0.00021,-0.00021,0.82341
29.983334,2000,0,91.24,0.000002697398,0.000002697398,0.000002697398,0.99999994,0,0,0,0,0,0,0,1,0,0,0,false,false,true,-15.82,-4847.2397,17.01,-0.0038869507,0.0027972017,0.81315464,0.58202785,-49.540997,178.681,8.321,-0.00010999999,-0.00021,0.82381
29.991667,2000,0,91.24,0.000002697398,0.000002697398,0.000002697398,0.99999994,0,0,0,0,0,0,0,1,0,0,0,false,false,true,-16.23,-4845.75,17.01,-0.0038977403,0.0027864121,0.81514764,0.57923335,-50.071,178.381,8.321,-0.00010999999,-0.00021,0.82421
30,2000,0,91.24,0.000002697398,0.000002697398,0.000002697398,0.99999994,0,0,0,0,0,0,0,1,0,0,0,false,false,true,-16.65,-4844.26,17.01,-0.0039085294,0.0027702278,0.8171338,0.57642806,-50.600998,178.08101,8.321,0,-0.00021,0.82461
30.008333,2000,0,91.24,0.000002697398,0.000002697398,0.000002697398,0.99999994,0,0,0,0,0,0,0,1,0,0,0,false,false,true,-17.07,-4842.78,17.01,-0.0039193192,0.0027540433,0.8191093,0.57361734,-51.141,177.771,8.321,0,-0.00021,0.82491
30.016666,2000,0,91.24,0.000002697398,0.000002697398,0.000002697398,0.99999994,0,0,0,0,0,0,0,1,0,0,0,false,false,true,-17.5,-4841.3,17.01,-0.0039301086,0.002737859,0.82107794,0.5707959,-51.681,177.451,8.321,0,-0.00021,0.82521
30.025,2000,0,91.24,0.000002697398,0.000002697398,0.000002697398,0.99999994,0,0,0,0,0,0,0,1,0,0,0,false,false,true,-17.93,-4839.82,17.01,-0.0039408985,0.0027216745,0.8230359,0.567969,-52.231,177.121,8.321,0,-0.00010999999,0.82550997
30.033333,2000,0,91.24,0.000002697398,0.000002697398,0.000002697398,0.99999994,0,0,0,0,0,0,0,1,0,0,0,false,false,true,-18.369999,-4838.34,17.01,-0.003951688,0.0027054902,0.82498324,0.56513673,-52.781,176.791,8.321,0,-0.00010999999,0.82581
30.041666,2000,0,91.24,0.000002697398,0.000002697398,0.000002697398,0.99999994,0,0,0,0,0,0,0,1,0,0,0,false,false,true,-18.81,-4836.87,17.01,-0.0039624777,0.002689306,0.8269237,0.5622936,-53.330997,176.451,8.321,0,0,0.82611
30.05,2000,0,91.24,0.000002697398,0.000002697398,0.000002697398,0.99999994,0,0,0,0,0,0,0,1,0,0,0,false,false,true,-19.25,-4835.4,17.01,-0.003973267,0.0026731214,0.8288534,0.55944514,-53.891,176.101,8.321,-0.00010999999,0,0.82641
30.058332,2000,0,91.24,0.000002697398,0.000002697398,0.000002697398,0.99999994,0,0,0,0,0,0,0,1,0,0,0,false,false,true,-19.699999,-4833.9297,17.01,-0.003984057,0.0026623318,0.83077615,0.5565859,-54.450996,175.751,8.321,-0.00010999999,0,0.82671
30.066668,2000,0,91.24,0.000002697398,0.000002697398,0.000002697398,0.99999994,0,0,0,0,0,0,0,1,0,0,0,false,false,true,-20.15,-4832.46,17.01,-0.0039948463,0.0026515422,0.8326882,0.55372125,-55.010998,175.391,8.321,-0.00010999999,0,0.82691
30.075,2000,0,91.24,0.000002697398,0.000002697398,0.000002697398,0.99999994,0,0,0,0,0,0,0,1,0,0,0,false,false,true,-20.609999,-4831,17.01,-0.004005636,0.0026407526,0.8345896,0.5508512,-55.580997,175.021,8.321,-0.00010999999,0,0.82711
30.083334,2000,0,91.24,0.000002697398,0.000002697398,0.000002697398,0.99999994,0,0,0,0,0,0,0,1,0,0,0,false,false,true,-21.07,-4829.54,17.01,-0.0040164255,0.002629963,0.83648384,0.5479704,-56.150997,174.641,8.321,0,0,0.82730997
30.091667,2000,0,91.24,0.000002697398,0.000002697398,0.000002697398,0.99999994,0,0,0,0,0,0,0,1,0,0,0,false,false,true,-21.539999,-4828.08,17.01,-0.0040272153,0.0026137787,0.83836746,0.5450842,-56.720997,174.261,8.321,0,0,0.82751
30.1,2000,0,91.24,0.000002697398,0.000002697398,0.000002697398,0.99999994,0,0,0,0,0,0,0,1,0,0,0,false,false,true,-22.01,-4826.63,17.01,-0.0040380047,0.0025975944,0.8402404,0.5421926,-57.301,173.871,8.321,0,0,0.82771
30.108334,2000,0,91.24,0.000002697398,0.000002697398,0.000002697398,0.99999994,0,0,0,0,0,0,0,1,0,0,0,false,false,true,-22.49,-4825.1797,17.01,-0.0040487945,0.0025814099,0.8421063,0.5392901,-57.880997,173.47101,8.321,0,0,0.82791
30.116667,2000,0,91.24,0.000002697398,0.000002697398,0.000002697398,0.99999994,0,0,0,0,0,0,0,1,0,0,0,false,false,true,-22.97,-4823.73,17.01,-0.0040595834,0.0025652254,0.8439613,0.53638226,-58.461,173.061,8.321,0,0,0.82811
30.125,2000,0,91.24,0.000002697398,0.000002697398,0.000002697398,0.99999994,0,0,0,0,0,0,0,1,0,0,0,false,false,true,-23.46,-4822.29,17.01,-0.0040703737,0.002549041,0.8458058,0.53346914,-59.040997,172.651,8.321,0,0.00010999999,0.82831
30.133333,2000,0,91.24,0.000002697398,0.000002697398,0.000002697398,0.99999994,0,0,0,0,0,0,0,1,0,0,0,false,false,true,-23.949999,-4820.85,17.01,-0.004081163,0.0025328568,0.84764296,0.5305451,-59.630997,172.231,8.321,0,0.00021,0.82840997
30.141666,2000,0,91.24,0.000002697398,0.000002697398,0.000002697398,0.99999994,0,0,0,0,0,0,0,1,0,0,0,false,false,true,-24.449999,-4819.4097,17.01,-0.004086558,0.0025166722,0.8494695,0.5276158,-60.220997,171.80101,8.321,0,0.00021,0.82851
30.15,2000,0,91.24,0.000002697398,0.000002697398,0.000002697398,0.99999994,0,0,0,0,0,0,0,1,0,0,0,false,false,true,-24.949999,-4817.98,17.01,-0.0040919525,0.002500488,0.85128534,0.524681,-60.810997,171.371,8.321,0,0.00021,0.82861
30.158333,2000,0,91.24,0.000002697398,0.000002697398,0.000002697398,0.99999994,0,0,0,0,0,0,0,1,0,0,0,false,false,true,-25.46,-4816.55,17.01,-0.004097348,0.002484304,0.8530905,0.5217409,-61.400997,170.931,8.321,-0.00010999999,0.00021,0.82871
30.166666,2000,0,91.24,0.000002697398,0.000002697398,0.000002697398,0.99999994,0,0,0,0,0,0,0,1,0,0,0,false,false,true,-25.97,-4815.13,17.01,-0.0041027423,0.002473514,0.8548883,0.51878977,-61.990997,170.481,8.321,-0.00010999999,0.00021,0.82881
30.175,2000,0,91.24,0.000002697398,0.000002697398,0.000002697398,0.99999994,0,0,0,0,0,0,0,1,0,0,0,false,false,true,-26.49,-4813.71,17.01,-0.0041081375,0.0024627247,0.85667545,0.5158335,-62.580997,170.021,8.321,-0.00010999999,0.00010999999,0.82891
30.183332,2000,0,91.24,0.000002697398,0.000002697398,0.000002697398,0.99999994,0,0,0,0,0,0,0,1,0,0,0,false,false,true,-27.01,-4812.29,17.01,-0.004118927,0.00244654,0.85845184,0.5128717,-63.170998,169.561,8.321,-0.00010999999,0,0.82901
30.191668,2000,0,91.24,0.000002697398,0.000002697398,0.000002697398,0.99999994,0,0,0,0,0,0,0,1,0,0,0,false,false,true,-27.539999,-4810.88,17.01,-0.0041297167,0.0024303559,0.8602176,0.5099046,-63.760998,169.091,8.321,-0.00010999999,0,0.82901
30.2,2000,0,91.24,0.000002697398,0.000002697398,0.000002697398,0.99999994,0,0,0,0,0,0,0,1,0,0,0,false,false,true,-28.07,-4809.4697,17.01,-0.004140506,0.0024141711,0.86197263,0.506932,-64.351,168.61101,8.321,-0.00010999999,0,0.82901
30.208334,2000,0,91.24,0.000002697398,0.000002697398,0.000002697398,0.99999994,0,0,0,0,0,0,0,1,0,0,0,false,false,true,-28.609999,-4808.06,17.01,-0.0041512954,0.0023979868,0.8637202,0.5039487,-64.940994,168.131,8.321,-0.00010999999,0.00010999999,0.82901
30.216667,2000,0,91.24,0.000002697398,0.000002697398,0.000002697398,0.99999994,0,0,0,0,0,0,0,1,0,0,0,false,false,true,-29.15,-4806.6597,17.01,-0.00415669,0.0023818025,0.86545706,0.50096,-65.541,167.641,8.321,-0.00010999999,0.00021,0.82901
30.225,2000,0,91.24,0.000002697398,0.000002697398,0.000002697398,0.99999994,0,0,0,0,0,0,0,1,0,0,0,false,false,true,-29.699999,-4805.26,17.01,-0.0041620852,0.002365618,0.8671833,0.4979659,-66.141,167.141,8.321,-0.00021,0.00021,0.82901
30.233334,2000,0,91.24,0.000002697398,0.000002697398,0.000002697398,0.99999994,0,0,0,0,0,0,0,1,0,0,0,false,false,true,-30.25,-4803.87,17.01,-0.00416748,0.0023548284,0.8688989,0.4949663,-66.741,166.641,8.321,-0.00030999997,0.00021,0.82901
30.241667,2000,0,91.24,0.000002697398,0.000002697398,0.000002697398,0.99999994,0,0,0,0,0,0,0,1,0,0,0,false,false,true,-30.81,-4802.48,17.01,-0.004172875,0.002344039,0.8706038,0.49196145,-67.340996,166.131,8.321,-0.00030999997,0.00010999999,0.82901
30.25,2000,0,91.24,0.000002697398,0.000002697398,0.000002697398,0.99999994,0,0,0,0,0,0,0,1,0,0,0,false,false,true,-31.369999,-4801.1,17.01,-0.004183665,0.0023332494,0.872298,0.48895115,-67.931,165.61101,8.321,-0.00030999997,0.00010999999,0.82891
30.258333,2000,0,91.24,0.000002697398,0.000002697398,0.000002697398,0.99999994,0,0,0,0,0,0,0,1,0,0,0,false,false,true,-31.939999,-4799.7197,17.01,-0.004194454,0.0023224596,0.8739815,0.48593542,-68.520996,165.091,8.321,-0.00021,0.00010999999,0.82881
30.266666,2000,0,91.24,0.000002697398,0.000002697398,0.000002697398,0.99999994,0,0,0,0,0,0,0,1,0,0,0,false,false,true,-32.51,-4798.34,17.01,-0.0041998485,0.00231167,0.8756544,0.48291433,-69.111,164.561,8.321,-0.00010999999,0.00010999999,0.82871
30.275,2000,0,91.24,0.000002697398,0.000002697398,0.000002697398,0.99999994,0,0,0,0,0,0,0,1,0,0,0,false,false,true,-33.09,-4796.9697,17.01,-0.004205243,0.0022954857,0.8773167,0.47988784,-69.701,164.021,8.321,-0.00010999999,0,0.82861
30.283333,2000,0,91.24,0.000002697398,0.000002697398,0.000002697398,0.99999994,0,0,0,0,0,0,0,1,0,0,0,false,false,true,-33.67,-4795.6,17.01,-0.004216033,0.0022793014,0.8789683,0.476856,-70.291,163.481,8.321,-0.00010999999,0,0.82851
30.291666,2000,0,91.24,0.000002697398,0.000002697398,0.000002697398,0.99999994,0,0,0,0,0,0,0,1,0,0,0,false,false,true,-34.26,-4794.2397,17.01,-0.004221428,0.002263117,0.8806094,0.47381866,-70.881,162.931,8.321,-0.00010999999,0,0.82840997
30.3,2000,0,91.24,0.000002697398,0.000002697398,0.000002697398,0.99999994,0,0,0,0,0,0,0,1,0,0,0,false,false,true,-34.85,-4792.88,17.01,-0.004226823,0.0022469328,0.88223976,0.470776,-71.471,162.371,8.321,-0.00010999999,0,0.82831
30.308332,2000,0,91.24,0.000002697398,0.000002697398,0.000002697398,0.99999994,0,0,0,0,0,0,0,1,0,0,0,false,false,true,-35.45,-4791.53,17.01,-0.004232218,0.0022307483,0.8838595,0.46772793,-72.061,161.811,8.321,-0.00010999999,0,0.82811
30.316668,2000,0,91.24,0.000002697398,0.000002697398,0.000002697398,0.99999994,0,0,0,0,0,0,0,1,0,0,0,false,false,true,-36.05,-4790.1797,17.01,-0.004237612,0.0022145635,0.88546854,0.46467438,-72.651,161.241,8.321,-0.00021,0,0.82791
30.325,2000,0,91.24,0.000002697398,0.000002697398,0.000002697398,0.99999994,0,0,0,0,0,0,0,1,0,0,0,false,false,true,-36.66,-4788.84,17.01,-0.004243007,0.0021983793,0.88706714,0.4616156,-73.241,160.66101,8.321,-0.00021,0,0.82771
30.333334,2000,0,91.24,0.000002697398,0.000002697398,0.000002697398,0.99999994,0,0,0,0,0,0,0,1,0,0,0,false,false,true,-37.27,-4787.5,17.01,-0.0042484016,0.002182195,0.888655,0.45855135,-73.821,160.08101,8.321,-0.00030999997,0,0.82751
30.341667,2000,0,91.24,0.000002697398,0.000002697398,0.000002697398,0.99999994,0,0,0,0,0,0,0,1,0,0,0,false,false,true,-37.89,-4786.17,17.01,-0.0042537963,0.0021714051,0.8902294,0.45548704,-74.401,159.491,8.321,-0.00040999998,0,0.82730997
30.35,2000,0,91.24,0.000002697398,0.000002697398,0.000002697398,0.99999994,0,0,0,0,0,0,0,1,0,0,0,false,false,true,-38.51,-4784.84,17.01,-0.004264586,0.0021606158,0.89179343,0.45241737,-74.980995,158.901,8.321,-0.00040999998,0,0.82711
30.358334,2000,0,91.24,0.000002697398,0.000002697398,0.000002697398,0.99999994,0,0,0,0,0,0,0,1,0,0,0,false,false,true,-39.129997,-4783.52,17.01,-0.0042753764,0.0021498264,0.8933468,0.44934237,-75.561,158.30101,8.321,-0.00030999997,0,0.82691
30.366667,2000,0,91.24,0.000002697398,0.000002697398,0.000002697398,0.99999994,0,0,0,0,0,0,0,1,0,0,0,false,false,true,-39.76,-4782.1997,17.01,-0.00428077,0.0021336416,0.8948895,0.44626185,-76.141,157.69101,8.321,-0.00021,0,0.82660997
30.375,2000,0,91.24,0.000002697398,0.000002697398,0.000002697398,0.99999994,0,0,0,0,0,0,0,1,0,0,0,false,false,true,-40.39,-4780.89,17.01,-0.0042861653,0.0021174573,0.8964218,0.4431761,-76.711,157.08101,8.321,-0.00021,0,0.82631
30.383333,2000,0,91.24,0.000002697398,0.000002697398,0.000002697398,0.99999994,0,0,0,0,0,0,0,1,0,0,0,false,false,true,-41.03,-4779.58,17.01,-0.00429156,0.002101273,0.8979434,0.44008487,-77.281,156.461,8.321,-0.00021,0,0.82601
30.391666,2000,0,91.24,0.000002697398,0.000002697398,0.000002697398,0.99999994,0,0,0,0,0,0,0,1,0,0,0,false,false,true,-41.67,-4778.28,17.01,-0.004296955,0.0020850885,0.89945185,0.43699366,-77.851,155.841,8.321,-0.00021,-0.00010999999,0.82571
30.4,2000,0,91.24,0.000002697398,0.000002697398,0.000002697398,0.99999994,0,0,0,0,0,0,0,1,0,0,0,false,false,true,-42.32,-4776.98,17.01,-0.0043023503,0.0020689045,0.9009498,0.43389708,-78.421,155.211,8.321,-0.00030999997,-0.00010999999,0.82541
30.408333,2000,0,91.24,0.000002697398,0.000002697398,0.000002697398,0.99999994,0,0,0,0,0,0,0,1,0,0,0,false,false,true,-42.969997,-4775.69,17.01,-0.0043077446,0.00205272,0.90243715,0.43079495,-78.991,154.571,8.321,-0.00030999997,-0.00010999999,0.82511
30.416666,2000,0,91.24,0.000002697398,0.000002697398,0.000002697398,0.99999994,0,0,0,0,0,0,0,1,0,0,0,false,false,true,-43.629997,-4774.4,17.01,-0.0043131392,0.0020365354,0.903914,0.42768756,-79.550995,153.931,8.321,-0.00030999997,-0.00021,0.82480997
30.425,2000,0,91.24,0.000002697398,0.000002697398,0.000002697398,0.99999994,0,0,0,0,0,0,0,1,0,0,0,false,false,true,-44.29,-4773.12,17.01,-0.004323929,0.0020203511,0.9053777,0.42458016,-80.111,153.281,8.321,-0.00040999998,-0.00021,0.82441
30.433332,2000,0,91.24,0.000002697398,0.000002697398,0.000002697398,0.99999994,0,0,0,0,0,0,0,1,0,0,0,false,false,true,-44.96,-4771.84,17.01,-0.0043347185,0.0020041666,0.9068309,0.42146736,-80.671,152.631,8.321,-0.00040999998,-0.00021,0.82401
30.441668,2000,0,91.24,0.000002697398,0.000002697398,0.000002697398,0.99999994,0,0,0,0,0,0,0,1,0,0,0,false,false,true,-45.629997,-4770.57,17.01,-0.0043455083,0.0019879823,0.90827364,0.41834915,-81.221,151.97101,8.321,-0.00040999998,-0.00010999999,0.82361
30.45,2000,0,91.24,0.000002697398,0.000002697398,0.000002697398,0.99999994,0,0,0,0,0,0,0,1,0,0,0,false,false,true,-46.309998,-4769.3,17.01,-0.004350903,0.0019717978,0.90970343,0.41523096,-81.770996,151.311,8.321,-0.00040999998,-0.00010999999,0.82321
30.458334,2000,0,91.24,0.000002697398,0.000002697398,0.000002697398,0.99999994,0,0,0,0,0,0,0,1,0,0,0,false,false,true,-46.989998,-4768.04,17.01,-0.004356297,0.0019556133,0.9111226,0.41210735,-82.321,150.641,8.321,-0.00040999998,-0.00010999999,0.82281
30.466667,2000,0,91.24,0.000002697398,0.000002697398,0.000002697398,0.99999994,0,0,0,0,0,0,0,1,0,0,0,false,false,true,-47.68,-4766.78,17.01,-0.004361693,0.0019394293,0.9125291,0.40898383,-82.861,149.97101,8.321,-0.00040999998,-0.00010999999,0.82241
30.475,2000,0,91.24,0.000002697398,0.000002697398,0.000002697398,0.99999994,0,0,0,0,0,0,0,1,0,0,0,false,false,true,-48.37,-4765.53,17.01,-0.004367088,0.0019232449,0.9139251,0.40585476,-83.401,149.291,8.321,-0.00040999998,-0.00010999999,0.82201
30.483334,2000,0,91.24,0.000002697398,0.000002697398,0.000002697398,0.99999994,0,0,0,0,0,0,0,1,0,0,0,false,false,true,-49.07,-4764.29,17.01,-0.004372482,0.0019070605,0.91531056,0.40272036,-83.940994,148.61101,8.321,-0.00051,-0.00010999999,0.82161
30.491667,2000,0,91.24,0.000002697398,0.000002697398,0.000002697398,0.99999994,0,0,0,0,0,0,0,1,0,0,0,false,false,true,-49.77,-4763.05,17.01,-0.004377877,0.0018962709,0.91668326,0.39958596,-84.471,147.921,8.321,-0.00051,-0.00010999999,0.82111
30.5,2000,0,91.24,0.000002697398,0.000002697398,0.000002697398,0.99999994,0,0,0,0,0,0,0,1,0,0,0,false,false,true,-50.469997,-4761.82,17.01,-0.004383271,0.0018854811,0.9180454,0.39644617,-85.001,147.231,8.321,-0.00051,-0.00010999999,0.82061
30.508333,2000,0,91.24,0.000002697398,0.000002697398,0.000002697398,0.99999994,0,0,0,0,0,0,0,1,0,0,0,false,false,true,-51.18,-4760.59,17.01,-0.004388667,0.0018746918,0.919395,0.39330646,-85.531,146.531,8.321,-0.00051,-0.00010999999,0.82010996
30.516666,2000,0,91.24,0.000002697398,0.000002697398,0.000002697398,0.99999994,0,0,0,0,0,0,0,1,0,0,0,false,false,true,-51.89,-4759.37,17.01,-0.0043940614,0.0018639021,0.9207341,0.39016128,-86.050995,145.83101,8.321,-0.00040999998,-0.00021,0.81961
30.525,2000,0,91.24,0.000002697398,0.000002697398,0.000002697398,0.99999994,0,0,0,0,0,0,0,1,0,0,0,false,false,true,-52.61,-4758.15,17.01,-0.004399456,0.0018477177,0.92206055,0.3870161,-86.571,145.121,8.321,-0.00030999997,-0.00021,0.81911
30.533333,2000,0,91.24,0.000002697398,0.000002697398,0.000002697398,0.99999994,0,0,0,0,0,0,0,1,0,0,0,false,false,true,-53.329998,-4756.94,17.01,-0.0044048512,0.0018315334,0.9233767,0.38386548,-87.081,144.41101,8.321,-0.00030999997,-0.00030999997,0.81861
30.541666,2000,0,91.24,0.000002697398,0.000002697398,0.000002697398,0.99999994,0,0,0,0,0,0,0,1,0,0,0,false,false,true,-54.059998,-4755.7397,17.01,-0.0044102455,0.0018153489,0.9246801,0.3807149,-87.590996,143.69101,8.321,-0.00030999997,-0.00030999997,0.81811
30.55,2000,0,91.24,0.000002697398,0.000002697398,0.000002697398,0.99999994,0,0,0,0,0,0,0,1,0,0,0,false,false,true,-54.789997,-4754.54,17.01,-0.0044156406,0.0017991646,0.92597324,0.37755895,-88.101,142.97101,8.321,-0.00030999997,-0.00030999997,0.81760997
30.558332,2000,0,91.24,0.000002697398,0.000002697398,0.000002697398,0.99999994,0,0,0,0,0,0,0,1,0,0,0,false,false,true,-55.52,-4753.35,17.01,-0.0044210353,0.0017829802,0.9272538,0.37440297,-88.601,142.241,8.321,-0.00030999997,-0.00030999997,0.81701
30.566668,2000,0,91.24,0.000002697398,0.000002697398,0.000002697398,0.99999994,0,0,0,0,0,0,0,1,0,0,0,false,false,true,-56.26,-4752.1597,17.01,-0.00442643,0.0017667958,0.928524,0.37124163,-89.101,141.511,8.321,-0.00030999997,-0.00030999997,0.81641
30.575,2000,0,91.24,0.000002697398,0.000002697398,0.000002697398,0.99999994,0,0,0,0,0,0,0,1,0,0,0,false,false,true,-57,-4750.98,17.01,-0.0044318247,0.0017506114,0.92978173,0.3680803,-89.590996,140.781,8.321,-0.00040999998,-0.00030999997,0.81580997
30.583334,2000,0,91.24,0.000002697398,0.000002697398,0.000002697398,0.99999994,0,0,0,0,0,0,0,1,0,0,0,false,false,true,-57.75,-4749.81,17.01,-0.00443722,0.001734427,0.93102705,0.36491892,-90.08099,140.041,8.321,-0.00040999998,-0.00030999997,0.81521
30.591667,2000,0,91.24,0.000002697398,0.000002697398,0.000002697398,0.99999994,0,0,0,0,0,0,0,1,0,0,0,false,false,true,-58.5,-4748.64,17.01,-0.0044426145,0.0017182425,0.93226206,0.3617521,-90.571,139.30101,8.321,-0.00040999998,-0.00030999997,0.81461
30.6,2000,0,91.24,0.000002697398,0.000002697398,0.000002697398,0.99999994,0,0,0,0,0,0,0,1,0,0,0,false,false,true,-59.25,-4747.48,17.01,-0.0044480097,0.0017020582,0.93348473,0.3585854,-91.050995,138.55101,8.321,-0.00040999998,-0.00040999998,0.81400996
30.608334,2000,0,91.24,0.000002697398,0.000002697398,0.000002697398,0.99999994,0,0,0,0,0,0,0,1,0,0,0,false,false,true,-60.01,-4746.33,17.01,-0.0044534043,0.001685874,0.93469507,0.35541862,-91.531,137.80101,8.321,-0.00040999998,-0.00040999998,0.81341
30.616667,2000,0,91.24,0.000002697398,0.000002697398,0.000002697398,0.99999994,0,0,0,0,0,0,0,1,0,0,0,false,false,true,-60.77,-4745.1797,17.01,-0.004458799,0.0016696894,0.9358951,0.35224646,-92.001,137.041,8.321,-0.00051,-0.00040999998,0.81281
30.625,2000,0,91.24,0.000002697398,0.000002697398,0.000002697398,0.99999994,0,0,0,0,0,0,0,1,0,0,0,false,false,true,-61.539997,-4744.04,17.01,-0.0044641937,0.001653505,0.9370829,0.34907433,-92.471,136.281,8.321,-0.00051,-0.00040999998,0.81211
30.633333,2000,0,91.24,0.000002697398,0.000002697398,0.000002697398,0.99999994,0,0,0,0,0,0,0,1,0,0,0,false,false,true,-62.309998,-4742.9,17.01,-0.0044695884,0.0016373206,0.93825847,0.34590217,-92.931,135.52101,8.321,-0.00051,-0.00040999998,0.81141
30.641666,2000,0,91.24,0.000002697398,0.000002697398,0.000002697398,0.99999994,0,0,0,0,0,0,0,1,0,0,0,false,false,true,-63.079998,-4741.77,17.01,-0.004474983,0.0016211362,0.93942183,0.34273005,-93.391,134.751,8.321,-0.00051,-0.00040999998,0.81071
30.65,2000,0,91.24,0.000002697398,0.000002697398,0.000002697398,0.99999994,0,0,0,0,0,0,0,1,0,0,0,false,false,true,-63.859997,-4740.65,17.01,-0.0044803782,0.0016049518,0.940575,0.33955243,-93.840996,133.981,8.321,-0.00061,-0.00040999998,0.81001
30.658333,2000,0,91.24,0.000002697398,0.000002697398,0.000002697398,0.99999994,0,0,0,0,0,0,0,1,0,0,0,false,false,true,-64.64,-4739.53,17.01,-0.0044857734,0.0015941623,0.9417161,0.3363749,-94.291,133.211,8.321,-0.00061,-0.00040999998,0.80931
30.666666,2000,0,91.24,0.000002697398,0.000002697398,0.000002697398,0.99999994,0,0,0,0,0,0,0,1,0,0,0,false,false,true,-65.43,-4738.42,17.01,-0.0044911676,0.0015833727,0.94284505,0.33319736,-94.730995,132.431,8.321,-0.00061,-0.00040999998,0.80861
30.675,2000,0,91.24,0.000002697398,0.000002697398,0.000002697398,0.99999994,0,0,0,0,0,0,0,1,0,0,0,false,false,true,-66.22,-4737.32,17.01,-0.0044965623,0.0015725831,0.9439619,0.33001983,-95.171,131.651,8.321,-0.00051,-0.00040999998,0.80790997
30.683332,2000,0,91.24,0.000002697398,0.000002697398,0.000002697398,0.99999994,0,0,0,0,0,0,0,1,0,0,0,false,false,true,-67.01,-4736.2197,17.01,-0.0045019574,0.0015563987,0.9450668,0.32684228,-95.601,130.871,8.321,-0.00040999998,-0.00040999998,0.80720997
30.691668,2000,0,91.24,0.000002697398,0.000002697398,0.000002697398,0.99999994,0,0,0,0,0,0,0,1,0,0,0,false,false,true,-67.81,-4735.13,17.01,-0.004507352,0.0015402143,0.9461616,0.32365936,-96.031,130.08101,8.321,-0.00040999998,-0.00040999998,0.80651
30.7,2000,0,91.24,0.000002697398,0.000002697398,0.000002697398,0.99999994,0,0,0,0,0,0,0,1,0,0,0,false,false,true,-68.61,-4734.05,17.01,-0.0045127473,0.00152403,0.94724447,0.32047644,-96.451,129.291,8.321,-0.00040999998,-0.00040999998,0.80571
30.708334,2000,0,91.24,0.000002697398,0.000002697398,0.000002697398,0.99999994,0,0,0,0,0,0,0,1,0,0,0,false,false,true,-69.409996,-4732.9697,17.01,-0.004518141,0.0015078454,0.9483153,0.31729338,-96.870995,128.501,8.321,-0.00040999998,-0.00040999998,0.80491
30.716667,2000,0,91.24,0.000002697398,0.000002697398,0.000002697398,0.99999994,0,0,0,0,0,0,0,1,0,0,0,false,false,true,-70.22,-4731.9,17.01,-0.004523536,0.0014916611,0.94937444,0.3141105,-97.281,127.701,8.321,-0.00040999998,-0.00040999998,0.80411
30.725,2000,0,91.24,0.000002697398,0.000002697398,0.000002697398,0.99999994,0,0,0,0,0,0,0,1,0,0,0,false,false,true,-71.03,-4730.84,17.01,-0.004528931,0.0014754767,0.9504215,0.3109275,-97.690994,126.90099,8.321,-0.00040999998,-0.00040999998,0.80331
30.733334,2000,0,91.24,0.000002697398,0.000002697398,0.000002697398,0.99999994,0,0,0,0,0,0,0,1,0,0,0,false,false,true,-71.84,-4729.78,17.01,-0.0045343265,0.0014592925,0.951457,0.30774465,-98.090996,126.101,8.321,-0.00040999998,-0.00040999998,0.80250996
30.741667,2000,0,91.24,0.000002697398,0.000002697398,0.000002697398,0.99999994,0,0,0,0,0,0,0,1,0,0,0,false,false,true,-72.659996,-4728.73,17.01,-0.0045397207,0.001443108,0.9524806,0.3045617,-98.491,125.300995,8.321,-0.00040999998,-0.00040999998,0.80171
30.75,2000,0,91.24,0.000002697398,0.000002697398,0.000002697398,0.99999994,0,0,0,0,0,0,0,1,0,0,0,false,false,true,-73.479996,-4727.69,17.01,-0.0045451154,0.0014269236,0.9534925,0.30137876,-98.881,124.491,8.321,-0.00040999998,-0.00040999998,0.80091
30.758333,2000,0,91.24,0.000002697398,0.000002697398,0.000002697398,0.99999994,0,0,0,0,0,0,0,1,0,0,0,false,false,true,-74.299995,-4726.65,17.01,-0.00455051,0.001410739,0.9544927,0.29819572,-99.270996,123.681,8.321,-0.00040999998,-0.00040999998,0.80011
30.766666,2000,0,91.24,0.000002697398,0.000002697398,0.000002697398,0.99999994,0,0,0,0,0,0,0,1,0,0,0,false,false,true,-75.13,-4725.62,17.01,-0.0045559052,0.0013945547,0.95548135,0.2950128,-99.651,122.870995,8.321,-0.00040999998,-0.00040999998,0.79930997
30.775,2000,0,91.24,0.000002697398,0.000002697398,0.000002697398,0.99999994,0,0,0,0,0,0,0,1,0,0,0,false,false,true,-75.96,-4724.6,17.01,-0.0045613,0.0013783704,0.9564583,0.29182988,-100.031,122.061,8.321,-0.00040999998,-0.00040999998,0.79851
30.783333,2000,0,91.24,0.000002697398,0.000002697398,0.000002697398,0.99999994,0,0,0,0,0,0,0,1,0,0,0,false,false,true,-76.79,-4723.58,17.01,-0.0045666946,0.001362186,0.9574237,0.28864697,-100.401,121.241,8.321,-0.00040999998,-0.00040999998,0.79761
30.791666,2000,0,91.24,0.000002697398,0.000002697398,0.000002697398,0.99999994,0,0,0,0,0,0,0,1,0,0,0,false,false,true,-77.63,-4722.57,17.01,-0.00457209,0.0013460018,0.95837754,0.28546405,-100.760994,120.421,8.321,-0.00051,-0.00040999998,0.79671
30.8,2000,0,91.24,0.000002697398,0.000002697398,0.000002697398,0.99999994,0,0,0,0,0,0,0,1,0,0,0,false,false,true,-78.47,-4721.57,17.01,-0.004577485,0.0013298173,0.95931983,0.28228113,-101.120995,119.601,8.321,-0.00051,-0.00040999998,0.79581
30.808332,2000,0,91.24,0.000002697398,0.000002697398,0.000002697398,0.99999994,0,0,0,0,0,0,0,1,0,0,0,false,false,true,-79.31,-4720.57,17.01,-0.004582879,0.0013136328,0.9602507,0.27909815,-101.471,118.781,8.321,-0.00051,-0.00040999998,0.79491
30.816668,2000,0,91.24,0.000002697398,0.000002697398,0.000002697398,0.99999994,0,0,0,0,0,0,0,1,0,0,0,false,false,true,-80.159996,-4719.58,17.01,-0.004588274,0.0012974484,0.96117014,0.27591515,-101.821,117.961,8.321,-0.00051,-0.00040999998,0.79401
30.825,2000,0,91.24,0.000002697398,0.000002697398,0.000002697398,0.99999994,0,0,0,0,0,0,0,1,0,0,0,false,false,true,-81.009995,-4718.6,17.01,-0.004593669,0.001281264,0.9620781,0.27273223,-102.160995,117.131,8.321,-0.00051,-0.00030999997,0.79311
30.833334,2000,0,91.24,0.000002697398,0.000002697398,0.000002697398,0.99999994,0,0,0,0,0,0,0,1,0,0,0,false,false,true,-81.86,-4717.62,17.01,-0.0045990637,0.0012704745,0.9629747,0.26954928,-102.501,116.300995,8.321,-0.00051,-0.00030999997,0.79221
30.841667,2000,0,91.24,0.000002697398,0.000002697398,0.000002697398,0.99999994,0,0,0,0,0,0,0,1,0,0,0,false,false,true,-82.71,-4716.65,17.01,-0.004604459,0.001259685,0.96385854,0.2663718,-102.83099,115.471,8.321,-0.00051,-0.00030999997,0.79131
30.85,2000,0,91.24,0.000002697398,0.000002697398,0.000002697398,0.99999994,0,0,0,0,0,0,0,1,0,0,0,false,false,true,-83.57,-4715.69,17.01,-0.004609853,0.0012488953,0.964731,0.26319423,-103.160995,114.641,8.321,-0.00040999998,-0.00030999997,0.79041
30.858334,2000,0,91.24,0.000002697398,0.000002697398,0.000002697398,0.99999994,0,0,0,0,0,0,0,1,0,0,0,false,false,true,-84.43,-4714.73,17.01,-0.004615248,0.0012327109,0.96559227,0.26001668,-103.480995,113.811,8.321,-0.00030999997,-0.00030999997,0.78951
30.866667,2000,0,91.24,0.000002697398,0.000002697398,0.000002697398,0.99999994,0,0,0,0,0,0,0,1,0,0,0,false,false,true,-85.29,-4713.78,17.01,-0.004620643,0.0012165265,0.9664423,0.25683916,-103.800995,112.980995,8.321,-0.00030999997,-0.00030999997,0.78861
30.875,2000,0,91.24,0.000002697398,0.000002697398,0.000002697398,0.99999994,0,0,0,0,0,0,0,1,0,0,0,false,false,true,-86.159996,-4712.84,17.01,-0.004626038,0.0012003422,0.9672812,0.25366157,-104.111,112.141,8.321,-0.00030999997,-0.00021,0.78761
30.883333,2000,0,91.24,0.000002697398,0.000002697398,0.000002697398,0.99999994,0,0,0,0,0,0,0,1,0,0,0,false,false,true,-87.03,-4711.9097,17.01,-0.0046314327,0.0011841578,0.9681089,0.25048402,-104.410995,111.300995,8.321,-0.00030999997,-0.00021,0.78661
30.891666,2000,0,91.24,0.000002697398,0.000002697398,0.000002697398,0.99999994,0,0,0,0,0,0,0,1,0,0,0,false,false,true,-87.9,-4710.98,17.01,-0.004636827,0.0011679734,0.96892405,0.24731188,-104.711,110.461,8.321,-0.00030999997,-0.00021,0.78561
30.9,2000,0,91.24,0.000002697398,0.000002697398,0.000002697398,0.99999994,0,0,0,0,0,0,0,1,0,0,0,false,false,true,-88.77,-4710.06,17.01,-0.0046422225,0.0011517891,0.96972823,0.24413975,-105.001,109.620995,8.321,-0.00030999997,-0.00010999999,0.78461
30.908333,2000,0,91.24,0.000002697398,0.000002697398,0.000002697398,0.99999994,0,0,0,0,0,0,0,1,0,0,0,false,false,true,-89.64,-4709.15,17.01,-0.004647617,0.0011356047,0.97052133,0.2409676,-105.291,108.781,8.321,-0.00030999997,-0.00010999999,0.78361
30.916666,2000,0,91.24,0.000002697398,0.000002697398,0.000002697398,0.99999994,0,0,0,0,0,0,0,1,0,0,0,false,false,true,-90.52,-4708.2397,17.01,-0.0046530114,0.0011194202,0.9713034,0.23779546,-105.571,107.940994,8.321,-0.00030999997,-0.00010999999,0.78261
30.925,2000,0,91.24,0.000002697398,0.000002697398,0.000002697398,0.99999994,0,0,0,0,0,0,0,1,0,0,0,false,false,true,-91.4,-4707.34,17.01,-0.0046584057,0.0011032356,0.97207314,0.23462868,-105.851,107.101,8.321,-0.00030999997,0,0.78161
30.933332,2000,0,91.24,0.000002697398,0.000002697398,0.000002697398,0.99999994,0,0,0,0,0,0,0,1,0,0,0,false,false,true,-92.28,-4706.4497,17.01,-0.0046638018,0.0010870515,0.97283214,0.2314619,-106.120995,106.260994,8.321,-0.00030999997,0,0.78060997
30.941668,2000,0,91.24,0.000002697398,0.000002697398,0.000002697398,0.99999994,0,0,0,0,0,0,0,1,0,0,0,false,false,true,-93.159996,-4705.56,17.01,-0.004669196,0.001070867,0.9735801,0.22829513,-106.381,105.410995,8.321,-0.00030999997,0,0.77961
30.95,2000,0,91.24,0.000002697398,0.000002697398,0.000002697398,0.99999994,0,0,0,0,0,0,0,1,0,0,0,false,false,true,-94.049995,-4704.6797,17.01,-0.004674591,0.0010546828,0.97431606,0.22513379,-106.641,104.561,8.321,-0.00030999997,0,0.77861
30.958334,2000,0,91.24,0.000002697398,0.000002697398,0.000002697398,0.99999994,0,0,0,0,0,0,0,1,0,0,0,false,false,true,-94.939995,-4703.81,17.01,-0.0046799853,0.0010384982,0.9750411,0.22197242,-106.891,103.711,8.321,-0.00030999997,0,0.77761
30.966667,2000,0,91.24,0.000002697398,0.000002697398,0.000002697398,0.99999994,0,0,0,0,0,0,0,1,0,0,0,false,false,true,-95.829994,-4702.9497,17.01,-0.0046853805,0.0010223138,0.9757554,0.21881108,-107.141,102.861,8.321,-0.00030999997,0,0.77651
30.975,2000,0,91.24,0.000002697398,0.000002697398,0.000002697398,0.99999994,0,0,0,0,0,0,0,1,0,0,0,false,false,true,-96.72,-4702.09,17.01,-0.004690775,0.0010061294,0.9764578,0.21565512,-107.381,102.010994,8.321,-0.00030999997,0,0.77541
30.983334,2000,0,91.24,0.000002697398,0.000002697398,0.000002697398,0.99999994,0,0,0,0,0,0,0,1,0,0,0,false,false,true,-97.61,-4701.2397,17.01,-0.00469617,0.000989945,0.9771494,0.21249917,-107.620995,101.160995,8.321,-0.00040999998,0.00010999999,0.77431
30.991667,2000,0,91.24,0.000002697398,0.000002697398,0.000002697398,0.99999994,0,0,0,0,0,0,0,1,0,0,0,false,false,true,-98.509995,-4700.4,17.01,-0.0047015646,0.0009791554,0.9778304,0.20934312,-107.851,100.311,8.321,-0.00040999998,0.00010999999,0.77321
31,2000,0,91.24,0.000002697398,0.000002697398,0.000002697398,0.99999994,0,0,0,0,0,0,0,1,0,0,0,false,false,true,-99.409996,-4699.56,17.01,-0.00470696,0.000968366,0.9784996,0.20619258,-108.071,99.461,8.321,-0.00040999998,0.00021,0.77211
31.008333,2000,0,91.24,0.000002697398,0.000002697398,0.000002697398,0.99999994,0,0,0,0,0,0,0,1,0,0,0,false,false,true,-100.31,-4698.73,17.01,-0.0047069597,0.0009575763,0.97915816,0.203042,-108.291,98.611,8.321,-0.00030999997,0.00021,0.77101
31.016666,2000,0,91.24,0.000002697398,0.000002697398,0.000002697398,0.99999994,0,0,0,0,0,0,0,1,0,0,0,false,false,true,-101.21,-4697.9097,17.01,-0.0047069597,0.0009413919,0.9798051,0.19989684,-108.501,97.760994,8.321,-0.00021,0.00021,0.76991
31.025,2000,0,91.24,0.000002697398,0.000002697398,0.000002697398,0.99999994,0,0,0,0,0,0,0,1,0,0,0,false,false,true,-102.11,-4697.09,17.01,-0.0047069597,0.00092520757,0.9804416,0.19675167,-108.711,96.910995,8.321,-0.00021,0.00010999999,0.76881
31.033333,2000,0,91.24,0.000002697398,0.000002697398,0.000002697398,0.99999994,0,0,0,0,0,0,0,1,0,0,0,false,false,true,-103.02,-4696.28,17.01,-0.0047069597,0.00090902316,0.9810664,0.1936119,-108.910995,96.061,8.321,-0.00021,0.00010999999,0.76771
31.041666,2000,0,91.24,0.000002697398,0.000002697398,0.000002697398,0.99999994,0,0,0,0,0,0,0,1,0,0,0,false,false,true,-103.93,-4695.48,17.01,-0.0047069597,0.00089283875,0.98168087,0.19047213,-109.111,95.211,8.321,-0.00021,0,0.76660997
31.05,2000,0,91.24,0.000002697398,0.000002697398,0.000002697398,0.99999994,0,0,0,0,0,0,0,1,0,0,0,false,false,true,-104.84,-4694.69,17.01,-0.0047123544,0.00087665435,0.98228383,0.18733767,-109.300995,94.361,8.321,-0.00021,0,0.76551
31.058332,2000,0,91.24,0.000002697398,0.000002697398,0.000002697398,0.99999994,0,0,0,0,0,0,0,1,0,0,0,false,false,true,-105.75,-4693.9,17.01,-0.004717749,0.00086047,0.9828764,0.18420328,-109.480995,93.510994,8.321,-0.00030999997,0,0.76441
31.066668,2000,0,91.24,0.000002697398,0.000002697398,0.000002697398,0.99999994,0,0,0,0,0,0,0,1,0,0,0,false,false,true,-106.659996,-4693.12,17.01,-0.004723144,0.00084428565,0.9834577,0.18107432,-109.660995,92.660995,8.321,-0.00030999997,0,0.76331
31.075,2000,0,91.24,0.000002697398,0.000002697398,0.000002697398,0.99999994,0,0,0,0,0,0,0,1,0,0,0,false,false,true,-107.57,-4692.35,17.01,-0.0047285384,0.0008281012,0.9840286,0.17794533,-109.83099,91.811,8.321,-0.00030999997,0,0.76221
31.083334,2000,0,91.24,0.000002697398,0.000002697398,0.000002697398,0.99999994,0,0,0,0,0,0,0,1,0,0,0,false,false,true,-108.49,-4691.58,17.01,-0.0047339336,0.00081191683,0.9845883,0.17482173,-110.001,90.961,8.321,-0.00030999997,0.00010999999,0.76101
31.091667,2000,0,91.24,0.000002697398,0.000002697398,0.000002697398,0.99999994,0,0,0,0,0,0,0,1,0,0,0,false,false,true,-109.409996,-4690.82,17.01,-0.0047339336,0.0007957324,0.9851378,0.17169815,-110.160995,90.111,8.321,-0.00030999997,0.00010999999,0.75981
31.1,2000,0,91.24,0.000002697398,0.000002697398,0.000002697398,0.99999994,0,0,0,0,0,0,0,1,0,0,0,false,false,true,-110.329994,-4690.07,17.01,-0.004733934,0.0007795481,0.9856763,0.16857998,-110.321,89.260994,8.321,-0.00040999998,0.00010999999,0.75861
31.108334,2000,0,91.24,0.000002697398,0.000002697398,0.000002697398,0.99999994,0,0,0,0,0,0,0,1,0,0,0,false,false,true,-111.25,-4689.33,17.01,-0.0047339336,0.0007687585,0.9862045,0.16546167,-110.471,88.410995,8.321,-0.00040999998,0.00010999999,0.75741
31.116667,2000,0,91.24,0.000002697398,0.000002697398,0.000002697398,0.99999994,0,0,0,0,0,0,0,1,0,0,0,false,false,true,-112.17,-4688.59,17.01,-0.0047339336,0.00075796887,0.9867217,0.16234888,-110.620995,87.561,8.321,-0.00040999998,0.00010999999,0.75620997
31.125,2000,0,91.24,0.000002697398,0.000002697398,0.000002697398,0.99999994,0,0,0,0,0,0,0,1,0,0,0,false,false,true,-113.09,-4687.86,17.01,-0.0047339336,0.00074717926,0.987228,0.15924148,-110.760994,86.711,8.321,-0.00040999998,0,0.75501
31.133333,2000,0,91.24,0.000002697398,0.000002697398,0.000002697398,0.99999994,0,0,0,0,0,0,0,1,0,0,0,false,false,true,-114.009995,-4687.14,17.01,-0.0047339336,0.00073638966,0.9877242,0.15613408,-110.891,85.861,8.321,-0.00030999997,0,0.75381
31.141666,2000,0,91.24,0.000002697398,0.000002697398,0.000002697398,0.99999994,0,0,0,0,0,0,0,1,0,0,0,false,false,true,-114.93,-4686.42,17.01,-0.0047339336,0.00072020525,0.98820955,0.15303206,-111.020996,85.010994,8.321,-0.00021,0,0.75260997
31.15,2000,0,91.24,0.000002697398,0.000002697398,0.000002697398,0.99999994,0,0,0,0,0,0,0,1,0,0,0,false,false,true,-115.86,-4685.71,17.01,-0.0047339336,0.0007040209,0.98868495,0.14993006,-111.141,84.160995,8.321,-0.00021,0,0.75141
31.158333,2000,0,91.24,0.000002697398,0.000002697398,0.000002697398,0.99999994,0,0,0,0,0,0,0,1,0,0,0,false,false,true,-116.79,-4685.01,17.01,-0.004733934,0.00068783655,0.98914963,0.14683346,-111.260994,83.321,8.321,-0.00021,0,0.75021
31.166666,2000,0,91.24,0.000002697398,0.000002697398,0.000002697398,0.99999994,0,0,0,0,0,0,0,1,0,0,0,false,false,true,-117.71999,-4684.32,17.01,-0.004733934,0.00067165215,0.9896036,0.14374225,-111.370995,82.480995,8.321,-0.00021,-0.00010999999,0.74900997
31.175,2000,0,91.24,0.000002697398,0.000002697398,0.000002697398,0.99999994,0,0,0,0,0,0,0,1,0,0,0,false,false,true,-118.649994,-4683.63,17.01,-0.004733933,0.0006554677,0.9900476,0.14065091,-111.480995,81.641,8.321,-0.00021,-0.00010999999,0.74781
31.183332,2000,0,91.24,0.000002697398,0.000002697398,0.000002697398,0.99999994,0,0,0,0,0,0,0,1,0,0,0,false,false,true,-119.579994,-4682.9497,17.01,-0.0047339336,0.00063928333,0.99048114,0.1375651,-111.58099,80.800995,8.321,-0.00030999997,-0.00021,0.74661
31.191668,2000,0,91.24,0.000002697398,0.000002697398,0.000002697398,0.99999994,0,0,0,0,0,0,0,1,0,0,0,false,false,true,-120.509995,-4682.28,17.01,-0.0047393288,0.000623099,0.9909041,0.1344847,-111.681,79.961,8.321,-0.00030999997,-0.00021,0.74540997
31.2,2000,0,91.24,0.000002697398,0.000002697398,0.000002697398,0.99999994,0,0,0,0,0,0,0,1,0,0,0,false,false,true,-121.439995,-4681.61,17.01,-0.004744723,0.0006069146,0.9913173,0.13140425,-111.770996,79.120995,8.321,-0.00030999997,-0.00021,0.74421
31.208334,2000,0,91.24,0.000002697398,0.000002697398,0.000002697398,0.99999994,0,0,0,0,0,0,0,1,0,0,0,false,false,true,-122.369995,-4680.9497,17.01,-0.004750118,0.0005907302,0.99172,0.12832923,-111.861,78.281,8.321,-0.00030999997,-0.00021,0.74301
31.216667,2000,0,91.24,0.000002697398,0.000002697398,0.000002697398,0.99999994,0,0,0,0,0,0,0,1,0,0,0,false,false,true,-123.299995,-4680.3,17.01,-0.004755513,0.00057454576,0.9921124,0.12525958,-111.940994,77.440994,8.321,-0.00030999997,-0.00010999999,0.74181
31.225,2000,0,91.24,0.000002697398,0.000002697398,0.000002697398,0.99999994,0,0,0,0,0,0,0,1,0,0,0,false,false,true,-124.229996,-4679.65,17.01,-0.0047555123,0.0005637561,0.99249506,0.122189924,-112.020996,76.601,8.321,-0.00040999998,0,0.74051
31.233334,2000,0,91.24,0.000002697398,0.000002697398,0.000002697398,0.99999994,0,0,0,0,0,0,0,1,0,0,0,false,false,true,-125.159996,-4679.01,17.01,-0.004755513,0.0005529666,0.9928676,0.11912561,-112.090996,75.770996,8.321,-0.00040999998,0,0.73921
31.241667,2000,0,91.24,0.000002697398,0.000002697398,0.000002697398,0.99999994,0,0,0,0,0,0,0,1,0,0,0,false,false,true,-126.09,-4678.38,17.01,-0.0047555123,0.00054217695,0.99322975,0.11606675,-112.15099,74.940994,8.321,-0.00040999998,0,0.73791
31.25,2000,0,91.24,0.000002697398,0.000002697398,0.000002697398,0.99999994,0,0,0,0,0,0,0,1,0,0,0,false,false,true,-127.02,-4677.76,17.01,-0.004755513,0.0005313874,0.9935819,0.11301331,-112.211,74.111,8.321,-0.00030999997,0,0.73661
31.258333,2000,0,91.24,0.000002697398,0.000002697398,0.000002697398,0.99999994,0,0,0,0,0,0,0,1,0,0,0,false,false,true,-127.96,-4677.14,17.01,-0.0047555133,0.00052059785,0.9939239,0.10996526,-112.260994,73.281,8.321,-0.00021,-0.00010999999,0.73531
31.266666,2000,0,91.24,0.000002697398,0.000002697398,0.000002697398,0.99999994,0,0,0,0,0,0,0,1,0,0,0,false,false,true,-128.9,-4676.53,17.01,-0.004755513,0.00050441345,0.9942564,0.10691719,-112.311,72.451,8.321,-0.00010999999,-0.00010999999,0.73401
31.275,2000,0,91.24,0.000002697398,0.000002697398,0.000002697398,0.99999994,0,0,0,0,0,0,0,1,0,0,0,false,false,true,-129.84,-4675.9297,17.01,-0.0047555133,0.0004882291,0.9945789,0.103874534,-112.351,71.620995,8.321,-0.00010999999,-0.00021,0.73271
31.283333,2000,0,91.24,0.000002697398,0.000002697398,0.000002697398,0.99999994,0,0,0,0,0,0,0,1,0,0,0,false,false,true,-130.78,-4675.33,17.01,-0.004755513,0.00047204466,0.9948914,0.10083725,-112.391,70.791,8.321,-0.00010999999,-0.00021,0.73140997
31.291666,2000,0,91.24,0.000002697398,0.000002697398,0.000002697398,0.99999994,0,0,0,0,0,0,0,1,0,0,0,false,false,true,-131.72,-4674.7397,17.01,-0.004755513,0.00045586028,0.9951941,0.09780529,-112.421,69.971,8.321,-0.00010999999,-0.00021,0.73011
31.3,2000,0,91.24,0.000002697398,0.000002697398,0.000002697398,0.99999994,0,0,0,0,0,0,0,1,0,0,0,false,false,true,-132.66,-4674.1597,17.01,-0.0047555123,0.00043967582,0.99548674,0.094778806,-112.451,69.151,8.321,-0.00010999999,-0.00030999997,0.72881
31.308332,2000,0,91.24,0.000002697398,0.000002697398,0.000002697398,0.99999994,0,0,0,0,0,0,0,1,0,0,0,false,false,true,-133.59999,-4673.58,17.01,-0.0047555133,0.00042349152,0.9957699,0.09175774,-112.471,68.331,8.321,-0.00021,-0.00030999997,0.72751
31.316668,2000,0,91.24,0.000002697398,0.000002697398,0.000002697398,0.99999994,0,0,0,0,0,0,0,1,0,0,0,false,false,true,-134.54,-4673.01,17.01,-0.004755513,0.00040730712,0.9960436,0.08873664,-112.491,67.511,8.321,-0.00021,-0.00030999997,0.72621
31.325,2000,0,91.24,0.000002697398,0.000002697398,0.000002697398,0.99999994,0,0,0,0,0,0,0,1,0,0,0,false,false,true,-135.48,-4672.4497,17.01,-0.0047555123,0.00039112268,0.9963076,0.08572094,-112.501,66.690994,8.321,-0.00021,-0.00030999997,0.72491
31.333334,2000,0,91.24,0.000002697398,0.000002697398,0.000002697398,0.99999994,0,0,0,0,0,0,0,1,0,0,0,false,false,true,-136.42,-4671.89,17.01,-0.004755513,0.00037493833,0.9965621,0.08271065,-112.510994,65.870995,8.321,-0.00030999997,-0.00040999998,0.72361
31.341667,2000,0,91.24,0.000002697398,0.000002697398,0.000002697398,0.99999994,0,0,0,0,0,0,0,1,0,0,0,false,false,true,-137.36,-4671.34,17.01,-0.0047609075,0.00036414873,0.9968069,0.07970575,-112.510994,65.061,8.321,-0.00030999997,-0.00040999998,0.72231
31.35,2000,0,91.24,0.000002697398,0.000002697398,0.000002697398,0.99999994,0,0,0,0,0,0,0,1,0,0,0,false,false,true,-138.3,-4670.8,17.01,-0.004766302,0.00035335915,0.99704224,0.076706156,-112.510994,64.251,8.321,-0.00030999997,-0.00040999998,0.72100997
31.358334,2000,0,91.24,0.000002697398,0.000002697398,0.000002697398,0.99999994,0,0,0,0,0,0,0,1,0,0,0,false,false,true,-139.23999,-4670.26,17.01,-0.0047716973,0.00034256958,0.9972681,0.07371206,-112.501,63.440998,8.321,-0.00030999997,-0.00030999997,0.71971
31.366667,2000,0,91.24,0.000002697398,0.000002697398,0.000002697398,0.99999994,0,0,0,0,0,0,0,1,0,0,0,false,false,true,-140.18,-4669.73,17.01,-0.004771697,0.00033177997,0.99748445,0.07072333,-112.491,62.630997,8.321,-0.00021,-0.00021,0.71841
31.375,2000,0,91.24,0.000002697398,0.000002697398,0.000002697398,0.99999994,0,0,0,0,0,0,0,1,0,0,0,false,false,true,-141.12,-4669.21,17.01,-0.0047716973,0.0003209904,0.99769187,0.06773462,-112.480995,61.821,8.321,-0.00010999999,-0.00021,0.71711
31.383333,2000,0,91.24,0.000002697398,0.000002697398,0.000002697398,0.99999994,0,0,0,0,0,0,0,1,0,0,0,false,false,true,-142.06,-4668.69,17.01,-0.0047716964,0.00030480596,0.9978898,0.06475128,-112.461,61.021,8.321,0,-0.00021,0.71581
31.391666,2000,0,91.24,0.000002697398,0.000002697398,0.000002697398,0.99999994,0,0,0,0,0,0,0,1,0,0,0,false,false,true,-143,-4668.1797,17.01,-0.004771697,0.00028862158,0.9980787,0.061773367,-112.440994,60.220997,8.321,0,-0.00021,0.71451
31.4,2000,0,91.24,0.000002697398,0.000002697398,0.000002697398,0.99999994,0,0,0,0,0,0,0,1,0,0,0,false,false,true,-143.94,-4667.6797,17.01,-0.004771697,0.0002724372,0.99825823,0.058800835,-112.410995,59.420998,8.321,0,-0.00021,0.71321
31.408333,2000,0,91.24,0.000002697398,0.000002697398,0.000002697398,0.99999994,0,0,0,0,0,0,0,1,0,0,0,false,false,true,-144.87999,-4667.1797,17.01,-0.0047716973,0.00025625282,0.99842864,0.0558337,-112.381,58.621,8.321,0,-0.00021,0.71191
31.416666,2000,0,91.24,0.000002697398,0.000002697398,0.000002697398,0.99999994,0,0,0,0,0,0,0,1,0,0,0,false,false,true,-145.81999,-4666.69,17.01,-0.004771697,0.00024006843,0.9985898,0.052871868,-112.340996,57.830997,8.321,0,-0.00030999997,0.71061
31.425,2000,0,91.24,0.000002697398,0.000002697398,0.000002697398,0.99999994,0,0,0,0,0,0,0,1,0,0,0,false,false,true,-146.76,-4666.21,17.01,-0.0047716964,0.00022388401,0.99874187,0.049915515,-112.300995,57.040997,8.321,-0.00010999999,-0.00030999997,0.70921
31.433332,2000,0,91.24,0.000002697398,0.000002697398,0.000002697398,0.99999994,0,0,0,0,0,0,0,1,0,0,0,false,false,true,-147.7,-4665.73,17.01,-0.0047716964,0.00020769962,0.998885,0.046964563,-112.251,56.251,8.321,-0.00010999999,-0.00030999997,0.70781
31.441668,2000,0,91.24,0.000002697398,0.000002697398,0.000002697398,0.99999994,0,0,0,0,0,0,0,1,0,0,0,false,false,true,-148.64,-4665.26,17.01,-0.004771697,0.00019151527,0.9990192,0.044019006,-112.201,55.461,8.321,-0.00021,-0.00030999997,0.70641
31.45,2000,0,91.24,0.000002697398,0.000002697398,0.000002697398,0.99999994,0,0,0,0,0,0,0,1,0,0,0,false,false,true,-149.58,-4664.8,17.01,-0.004771697,0.00018072566,0.99914443,0.041078843,-112.141,54.670998,8.321,-0.00021,-0.00030999997,0.70501
31.458334,2000,0,91.24,0.000002697398,0.000002697398,0.000002697398,0.99999994,0,0,0,0,0,0,0,1,0,0,0,false,false,true,-150.51,-4664.34,17.01,-0.0047716973,0.00016993609,0.99926084,0.038144078,-112.08099,53.891,8.321,-0.00021,-0.00030999997,0.70361
31.466667,2000,0,91.24,0.000002697398,0.000002697398,0.000002697398,0.99999994,0,0,0,0,0,0,0,1,0,0,0,false,false,true,-151.44,-4663.89,17.01,-0.004771697,0.00015914648,0.9993683,0.0352147,-112.020996,53.111,8.321,-0.00021,-0.00030999997,0.70221
31.475,2000,0,91.24,0.000002697398,0.000002697398,0.000002697398,0.99999994,0,0,0,0,0,0,0,1,0,0,0,false,false,true,-152.37,-4663.4497,17.01,-0.004771697,0.00014835689,0.9994671,0.032290634,-111.951,52.330997,8.321,-0.00021,-0.00040999998,0.70081
31.483334,2000,0,91.24,0.000002697398,0.000002697398,0.000002697398,0.99999994,0,0,0,0,0,0,0,1,0,0,0,false,false,true,-153.3,-4663.01,17.01,-0.0047716973,0.00013756732,0.99955714,0.029372053,-111.881,51.551,8.321,-0.00010999999,-0.00040999998,0.69941
31.491667,2000,0,91.24,0.000002697398,0.000002697398,0.000002697398,0.99999994,0,0,0,0,0,0,0,1,0,0,0,false,false,true,-154.23,-4662.58,17.01,-0.0047716973,0.00012677771,0.9996385,0.026458863,-111.800995,50.781,8.321,0,-0.00040999998,0.69800997
31.5,2000,0,91.24,0.000002697398,0.000002697398,0.000002697398,0.99999994,0,0,0,0,0,0,0,1,0,0,0,false,false,true,-155.16,-4662.1597,17.01,-0.0047716973,0.000110593326,0.9997112,0.02355107,-111.721,50.010998,8.321,0,-0.00040999998,0.69661
31.508333,2000,0,91.24,0.000002697398,0.000002697398,0.000002697398,0.99999994,0,0,0,0,0,0,0,1,0,0,0,false,false,true,-156.09,-4661.7397,17.01,-0.004771697,0.00009440893,0.99977535,0.020648666,-111.631,49.240997,8.321,0,-0.00040999998,0.69521
31.516666,2000,0,91.24,0.000002697398,0.000002697398,0.000002697398,0.99999994,0,0,0,0,0,0,0,1,0,0,0,false,false,true,-157.01999,-4661.33,17.01,-0.0047716973,0.00007822455,0.999831,0.017751662,-111.541,48.470997,8.321,0,-0.00040999998,0.69381
31.525,2000,0,91.24,0.000002697398,0.000002697398,0.000002697398,0.99999994,0,0,0,0,0,0,0,1,0,0,0,false,false,true,-157.95,-4660.9297,17.01,-0.0047716973,0.00006204016,0.99987817,0.014860052,-111.451,47.711,8.321,0,-0.00040999998,0.69241
31.533333,2000,0,91.24,0.000002697398,0.000002697398,0.000002697398,0.99999994,0,0,0,0,0,0,0,1,0,0,0,false,false,true,-158.87999,-4660.53,17.01,-0.0047716973,0.00004585577,0.9999169,0.0119738355,-111.351,46.951,8.321,0,-0.00040999998,0.69101
31.541666,2000,0,91.24,0.000002697398,0.000002697398,0.000002697398,0.99999994,0,0,0,0,0,0,0,1,0,0,0,false,false,true,-159.81,-4660.14,17.01,-0.0047716973,0.00002967138,0.99994725,0.00909293,-111.251,46.190998,8.321,0,-0.00040999998,0.68961
31.55,2000,0,91.24,0.000002697398,0.000002697398,0.000002697398,0.99999994,0,0,0,0,0,0,0,1,0,0,0,false,false,true,-160.73999,-4659.75,17.01,-0.0047716973,0.0000134869915,0.99996924,0.006217503,-111.141,45.440998,8.321,-0.00010999999,-0.00040999998,0.68821
31.558332,2000,0,91.24,0.000002697398,0.000002697398,0.000002697398,0.99999994,0,0,0,0,0,0,0,1,0,0,0,false,false,true,-161.67,-4659.37,17.01,-0.004771697,0.000002697398,0.99998295,0.003347471,-111.031,44.690998,8.321,-0.00010999999,-0.00040999998,0.68681
31.566668,2000,0,91.24,0.000002697398,0.000002697398,0.000002697398,0.99999994,0,0,0,0,0,0,0,1,0,0,0,false,false,true,-162.59999,-4659,17.01,-0.004771697,-0.000008092194,0.99998844,0.00048822907,-110.921,43.940998,8.321,-0.00010999999,-0.00040999998,0.68541
