time,ball_loc_x,ball_loc_y,ball_loc_z,ball_rot_x,ball_rot_y,ball_rot_z,ball_rot_w,ball_vel_x,ball_vel_y,ball_vel_z,ball_ang_x,ball_ang_y,ball_ang_z,player0_throttle,player0_steer,player0_pitch,player0_yaw,player0_roll,player0_jump,player0_boost,player0_handbrake,player0_loc_x,player0_loc_y,player0_loc_z,player0_rot_x,player0_rot_y,player0_rot_z,player0_rot_w,player0_vel_x,player0_vel_y,player0_vel_z,player0_ang_x,player0_ang_y,player0_ang_z
275.33334,2000,0,91.24,0.000002697398,0.000002697398,0.000002697398,0.99999994,0,0,0,0,0,0,1,0,0,0,0,false,true,false,0,-2908.3599,16.99,-0.00336905,0.003374445,0.70711225,0.70708513,-0.040999997,2203.701,8.411,-0.00061,0,0
275.34167,2000,0,91.24,0.000002697398,0.000002697398,0.000002697398,0.99999994,0,0,0,0,0,0,0,1,0,0,0,false,false,true,0,-2890,16.99,-0.00336905,0.003374445,0.70711225,0.70708513,-10.761001,2202.941,8.461,-0.00061,0.00281,0.29851002
275.35,2000,0,91.24,0.000002697398,0.000002697398,0.000002697398,0.99999994,0,0,0,0,0,0,0,1,0,0,0,false,false,true,-0.089999996,-2871.64,16.99,-0.00336905,0.0033798397,0.7079904,0.7062058,-20.280998,2202.241,8.491,-0.00061,0.00401,0.54301
275.35834,2000,0,91.24,0.000002697398,0.000002697398,0.000002697398,0.99999994,0,0,0,0,0,0,0,1,0,0,0,false,false,true,-0.26,-2853.29,16.99,-0.00336905,0.0033852346,0.709585,0.70460355,-29.980999,2201.501,8.511001,-0.00051,0.0043099998,0.75800997
275.36667,2000,0,91.24,0.000002697398,0.000002697398,0.000002697398,0.99999994,0,0,0,0,0,0,0,1,0,0,0,false,false,true,-0.51,-2834.94,16.99,-0.00336905,0.0033906293,0.7118065,0.70235926,-40.321,2200.681,8.531,-0.00051,0.00421,0.94901
275.375,2000,0,91.24,0.000002697398,0.000002697398,0.000002697398,0.99999994,0,0,0,0,0,0,0,1,0,0,0,false,false,true,-0.84999996,-2816.5999,16.99,-0.0033690503,0.0033906295,0.7145795,0.6995379,-51.580997,2199.731,8.541,-0.00040999998,0.00381,1.12051
275.38333,2000,0,91.24,0.000002697398,0.000002697398,0.000002697398,0.99999994,0,0,0,0,0,0,0,1,0,0,0,false,false,true,-1.28,-2798.27,16.99,-0.003374445,0.0033852346,0.7178386,0.69619304,-63.900997,2198.6008,8.551001,-0.00040999998,0.00321,1.27601
275.39166,2000,0,91.24,0.000002697398,0.000002697398,0.000002697398,0.99999994,0,0,0,0,0,0,0,1,0,0,0,false,false,true,-1.81,-2779.95,16.99,-0.0033852349,0.00337984,0.7215286,0.6923681,-77.321,2197.251,8.551001,-0.00040999998,0.00261,1.41821
275.4,2000,0,91.24,0.000002697398,0.000002697398,0.000002697398,0.99999994,0,0,0,0,0,0,0,1,0,0,0,false,false,true,-2.45,-2761.64,16.99,-0.0033960242,0.00336905,0.72560954,0.68808997,-91.811,2195.6309,8.561,-0.00030999997,0.00201,1.54931
275.40833,2000,0,91.24,0.000002697398,0.000002697398,0.000002697398,0.99999994,0,0,0,0,0,0,0,1,0,0,0,false,false,true,-3.22,-2743.3398,16.99,-0.0034122085,0.0033528658,0.7300367,0.6833911,-107.291,2193.701,8.561,-0.00030999997,0.0014099999,1.67081
275.41666,2000,0,91.24,0.000002697398,0.000002697398,0.000002697398,0.99999994,0,0,0,0,0,0,0,1,0,0,0,false,false,true,-4.11,-2725.06,16.99,-0.0034337877,0.0033366815,0.73477584,0.678293,-123.65099,2191.431,8.561,-0.00030999997,0.00091,1.78411
275.425,2000,0,91.24,0.000002697398,0.000002697398,0.000002697398,0.99999994,0,0,0,0,0,0,0,1,0,0,0,false,false,true,-5.14,-2706.8,16.99,-0.003455367,0.0033151023,0.73979807,0.6728118,-140.741,2188.791,8.561,-0.00021,0.00051,1.89001
275.43332,2000,0,91.24,0.000002697398,0.000002697398,0.000002697398,0.99999994,0,0,0,0,0,0,0,1,0,0,0,false,false,true,-6.31,-2688.56,16.99,-0.0034823408,0.0032881282,0.74507457,0.6669639,-158.401,2185.771,8.571,-0.00010999999,0.00010999999,1.9893099
275.44168,2000,0,91.24,0.000002697398,0.000002697398,0.000002697398,0.99999994,0,0,0,0,0,0,0,1,0,0,0,false,false,true,-7.6299996,-2670.3499,16.99,-0.003509315,0.0032611543,0.7505773,0.66076523,-176.461,2182.3508,8.571,-0.00010999999,-0.00010999999,2.08251
275.45,2000,0,91.24,0.000002697398,0.000002697398,0.000002697398,0.99999994,0,0,0,0,0,0,0,1,0,0,0,false,false,true,-9.099999,-2652.16,16.99,-0.0035362889,0.0032287855,0.7562832,0.6542267,-194.72101,2178.541,8.571,0,-0.00030999997,2.16991
275.45834,2000,0,91.24,0.000002697398,0.000002697398,0.000002697398,0.99999994,0,0,0,0,0,0,0,1,0,0,0,false,false,true,-10.719999,-2634.01,16.99,-0.0035686577,0.0031964167,0.76216537,0.6473645,-212.981,2174.3608,8.571,0,-0.00040999998,2.25171
275.46667,2000,0,91.24,0.000002697398,0.000002697398,0.000002697398,0.99999994,0,0,0,0,0,0,0,1,0,0,0,false,false,true,-12.49,-2615.89,16.99,-0.0036010265,0.0031640478,0.76820654,0.640184,-231.021,2169.8508,8.571,0,-0.00051,2.3280098
275.475,2000,0,91.24,0.000002697398,0.000002697398,0.000002697398,0.99999994,0,0,0,0,0,0,0,1,0,0,0,false,false,true,-14.42,-2597.81,16.99,-0.0036333953,0.0031262843,0.7743809,0.6327014,-248.621,2165.061,8.571,0,-0.00061,2.39871
275.48334,2000,0,91.24,0.000002697398,0.000002697398,0.000002697398,0.99999994,0,0,0,0,0,0,0,1,0,0,0,false,false,true,-16.49,-2579.77,16.99,-0.003665764,0.0030885208,0.780668,0.62492746,-265.54102,2160.061,8.571,0,-0.00071,2.46371
275.49167,2000,0,91.24,0.000002697398,0.000002697398,0.000002697398,0.99999994,0,0,0,0,0,0,0,1,0,0,0,false,false,true,-18.699999,-2561.77,16.99,-0.0036981322,0.0030507569,0.78704375,0.61687833,-281.531,2154.941,8.571,0,-0.00081,2.52281
275.5,2000,0,91.24,0.000002697398,0.000002697398,0.000002697398,0.99999994,0,0,0,0,0,0,0,1,0,0,0,false,false,true,-21.05,-2543.81,16.99,-0.0037305015,0.003007599,0.79348534,0.6085704,-296.341,2149.821,8.571,0.00010999999,-0.00091,2.57571
275.50833,2000,0,91.24,0.000002697398,0.000002697398,0.000002697398,0.99999994,0,0,0,0,0,0,0,1,0,0,0,false,false,true,-23.519999,-2525.89,16.99,-0.0037628703,0.0029644405,0.79997087,0.6000196,-309.711,2144.8508,8.571,0.00010999999,-0.0010099999,2.62211
275.51666,2000,0,91.24,0.000002697398,0.000002697398,0.000002697398,0.99999994,0,0,0,0,0,0,0,1,0,0,0,false,false,true,-26.099998,-2508.02,16.99,-0.0038006338,0.002921282,0.8064797,0.59124225,-321.371,2140.201,8.571,0.00010999999,-0.00111,2.66151
275.525,2000,0,91.24,0.000002697398,0.000002697398,0.000002697398,0.99999994,0,0,0,0,0,0,0,1,0,0,0,false,false,true,-28.779999,-2490.18,16.99,-0.0038383976,0.0028781237,0.8129885,0.58225983,-331.041,2136.071,8.571,0.00021,-0.0012099999,2.69351
275.53333,2000,0,91.24,0.000002697398,0.000002697398,0.000002697398,0.99999994,0,0,0,0,0,0,0,1,0,0,0,false,false,true,-31.539999,-2472.38,16.99,-0.0038761613,0.0028295708,0.8194717,0.5730995,-338.441,2132.691,8.561,0.00030999997,-0.00131,2.71751
275.54166,2000,0,91.24,0.000002697398,0.000002697398,0.000002697398,0.99999994,0,0,0,0,0,0,0,1,0,0,0,false,false,true,-34.36,-2454.6099,16.99,-0.0039139246,0.0027810175,0.82590914,0.56378263,-346.181,2128.941,8.561,0.00040999998,-0.00131,2.74101
275.55,2000,0,91.24,0.000002697398,0.000002697398,0.000002697398,0.99999994,0,0,0,0,0,0,0,1,0,0,0,false,false,true,-37.239998,-2436.8699,16.99,-0.0039462927,0.0027324639,0.8322932,0.5543146,-354.231,2124.811,8.561,0.00040999998,-0.0012099999,2.76421
275.55832,2000,0,91.24,0.000002697398,0.000002697398,0.000002697398,0.99999994,0,0,0,0,0,0,0,1,0,0,0,false,false,true,-40.19,-2419.16,16.99,-0.003978662,0.002683911,0.8386234,0.5446904,-362.57098,2120.291,8.561,0.00040999998,-0.00111,2.7871099
275.56668,2000,0,91.24,0.000002697398,0.000002697398,0.000002697398,0.99999994,0,0,0,0,0,0,0,1,0,0,0,false,false,true,-43.21,-2401.49,16.99,-0.0040110312,0.0026353581,0.8448922,0.534915,-371.171,2115.3708,8.561,0.00040999998,-0.00111,2.80971
275.575,2000,0,91.24,0.000002697398,0.000002697398,0.000002697398,0.99999994,0,0,0,0,0,0,0,1,0,0,0,false,false,true,-46.3,-2383.8599,16.99,-0.0040433994,0.0025868048,0.85109574,0.5249885,-379.991,2110.031,8.561,0.00040999998,-0.0010099999,2.83201
275.58334,2000,0,91.24,0.000002697398,0.000002697398,0.000002697398,0.99999994,0,0,0,0,0,0,0,1,0,0,0,false,false,true,-49.469997,-2366.28,16.99,-0.004075769,0.002532857,0.8572302,0.514911,-389.011,2104.281,8.561,0.00040999998,-0.0010099999,2.8540099
275.59167,2000,0,91.24,0.000002697398,0.000002697398,0.000002697398,0.99999994,0,0,0,0,0,0,0,1,0,0,0,false,false,true,-52.71,-2348.74,16.99,-0.0041081375,0.002478909,0.8632917,0.5046825,-398.201,2098.1008,8.561,0.00040999998,-0.00091,2.8756099
275.6,2000,0,91.24,0.000002697398,0.000002697398,0.000002697398,0.99999994,0,0,0,0,0,0,0,1,0,0,0,false,false,true,-56.03,-2331.26,16.99,-0.0041405065,0.002424961,0.8692765,0.49430278,-407.521,2091.491,8.561,0.00040999998,-0.00081,2.89691
275.60834,2000,0,91.24,0.000002697398,0.000002697398,0.000002697398,0.99999994,0,0,0,0,0,0,0,1,0,0,0,false,false,true,-59.43,-2313.8298,16.99,-0.0041728746,0.002371013,0.8751808,0.4837721,-416.951,2084.451,8.561,0.00040999998,-0.00071,2.91781
275.61667,2000,0,91.24,0.000002697398,0.000002697398,0.000002697398,0.99999994,0,0,0,0,0,0,0,1,0,0,0,false,false,true,-62.899998,-2296.46,16.99,-0.004205243,0.002317065,0.8809979,0.47309572,-426.451,2076.981,8.561,0.00040999998,-0.00061,2.93821
275.625,2000,0,91.24,0.000002697398,0.000002697398,0.000002697398,0.99999994,0,0,0,0,0,0,0,1,0,0,0,false,false,true,-66.45,-2279.15,16.99,-0.004232218,0.002263117,0.88672423,0.4622738,-436.001,2069.0808,8.561,0.00040999998,-0.00051,2.95821
275.63333,2000,0,91.24,0.000002697398,0.000002697398,0.000002697398,0.99999994,0,0,0,0,0,0,0,1,0,0,0,false,false,true,-70.08,-2261.91,16.99,-0.0042591915,0.0022091689,0.89235353,0.45131144,-445.57098,2060.751,8.561,0.00040999998,-0.00040999998,2.9776099
275.64166,2000,0,91.24,0.000002697398,0.000002697398,0.000002697398,0.99999994,0,0,0,0,0,0,0,1,0,0,0,false,false,true,-73.79,-2244.74,16.99,-0.004286166,0.0021552213,0.89788514,0.4402036,-455.121,2051.991,8.561,0.00030999997,-0.00040999998,2.99651
275.65,2000,0,91.24,0.000002697398,0.000002697398,0.000002697398,0.99999994,0,0,0,0,0,0,0,1,0,0,0,false,false,true,-77.58,-2227.64,16.99,-0.0043131392,0.002101273,0.90331036,0.4289607,-464.63098,2042.8109,8.561,0.00030999997,-0.00040999998,3.0148098
275.65833,2000,0,91.24,0.000002697398,0.000002697398,0.000002697398,0.99999994,0,0,0,0,0,0,0,1,0,0,0,false,false,true,-81.45,-2210.6199,16.99,-0.004340113,0.002047325,0.90862846,0.4175777,-474.061,2033.2109,8.561,0.00030999997,-0.00040999998,3.03251
275.66666,2000,0,91.24,0.000002697398,0.000002697398,0.000002697398,0.99999994,0,0,0,0,0,0,0,1,0,0,0,false,false,true,-85.4,-2193.68,16.99,-0.0043670875,0.0019879823,0.9138315,0.40606514,-483.391,2023.2109,8.561,0.00030999997,-0.00040999998,3.04951
275.675,2000,0,91.24,0.000002697398,0.000002697398,0.000002697398,0.99999994,0,0,0,0,0,0,0,1,0,0,0,false,false,true,-89.43,-2176.82,16.99,-0.0043940614,0.0019286396,0.91891634,0.39442316,-492.591,2012.8109,8.561,0.00030999997,-0.00030999997,3.0657098
275.68332,2000,0,91.24,0.000002697398,0.000002697398,0.000002697398,0.99999994,0,0,0,0,0,0,0,1,0,0,0,false,false,true,-93.53,-2160.05,16.99,-0.0044210353,0.0018692969,0.92388016,0.38265163,-501.621,2002.0309,8.561,0.00030999997,-0.00030999997,3.08111
275.69168,2000,0,91.24,0.000002697398,0.000002697398,0.000002697398,0.99999994,0,0,0,0,0,0,0,1,0,0,0,false,false,true,-97.71,-2143.3699,16.99,-0.004448009,0.0018099541,0.92871565,0.37076148,-510.471,1990.881,8.561,0.00030999997,-0.00021,3.09571
275.7,2000,0,91.24,0.000002697398,0.000002697398,0.000002697398,0.99999994,0,0,0,0,0,0,0,1,0,0,0,false,false,true,-101.96,-2126.78,16.99,-0.004469588,0.0017506111,0.9334202,0.35875255,-519.10095,1979.381,8.561,0.00030999997,-0.00010999999,3.10931
275.70834,2000,0,91.24,0.000002697398,0.000002697398,0.000002697398,0.99999994,0,0,0,0,0,0,0,1,0,0,0,false,false,true,-106.29,-2110.29,16.99,-0.0044911676,0.0016912686,0.9379894,0.34663048,-527.501,1967.5409,8.561,0.00030999997,-0.00010999999,3.12201
275.71667,2000,0,91.24,0.000002697398,0.000002697398,0.000002697398,0.99999994,0,0,0,0,0,0,0,1,0,0,0,false,false,true,-110.689995,-2093.89,16.99,-0.0045127473,0.0016319259,0.9424189,0.33440042,-535.631,1955.391,8.561,0.00030999997,-0.00010999999,3.13361
275.725,2000,0,91.24,0.000002697398,0.000002697398,0.000002697398,0.99999994,0,0,0,0,0,0,0,1,0,0,0,false,false,true,-115.149994,-2077.5898,16.99,-0.0045343265,0.0015725832,0.9467044,0.32206792,-543.48096,1942.9409,8.561,0.00030999997,-0.00010999999,3.14411
275.73334,2000,0,91.24,0.000002697398,0.000002697398,0.000002697398,0.99999994,0,0,0,0,0,0,0,1,0,0,0,false,false,true,-119.68,-2061.4,16.99,-0.0045559052,0.0015132403,0.95084226,0.3096382,-551.02094,1930.221,8.561,0.00030999997,-0.00010999999,3.15341
275.74167,2000,0,91.24,0.000002697398,0.000002697398,0.000002697398,0.99999994,0,0,0,0,0,0,0,1,0,0,0,false,false,true,-124.27,-2045.3099,16.99,-0.004577485,0.0014538977,0.95482904,0.29711682,-558.24097,1917.251,8.571,0.00030999997,-0.00010999999,3.1614099
275.75,2000,0,91.24,0.000002697398,0.000002697398,0.000002697398,0.99999994,0,0,0,0,0,0,0,1,0,0,0,false,false,true,-128.92,-2029.33,16.99,-0.0045936685,0.0013945546,0.9586595,0.28451452,-565.11096,1904.0609,8.571,0.00030999997,-0.00010999999,3.16811
275.75833,2000,0,91.24,0.000002697398,0.000002697398,0.000002697398,0.99999994,0,0,0,0,0,0,0,1,0,0,0,false,false,true,-133.62999,-2013.46,16.99,-0.004609853,0.0013298172,0.96233135,0.2718367,-571.621,1890.6709,8.571,0.00030999997,-0.00010999999,3.17331
275.76666,2000,0,91.24,0.000002697398,0.000002697398,0.000002697398,0.99999994,0,0,0,0,0,0,0,1,0,0,0,false,false,true,-138.39,-1997.7,16.99,-0.0046260376,0.0012650797,0.96584153,0.25908878,-577.761,1877.111,8.571,0.00030999997,-0.00010999999,3.1770098
275.775,2000,0,91.24,0.000002697398,0.000002697398,0.000002697398,0.99999994,0,0,0,0,0,0,0,1,0,0,0,false,false,true,-143.2,-1982.0599,16.99,-0.004642222,0.0012003421,0.9691864,0.24628146,-583.511,1863.4109,8.571,0.00030999997,-0.00010999999,3.17911
275.78333,2000,0,91.24,0.000002697398,0.000002697398,0.000002697398,0.99999994,0,0,0,0,0,0,0,1,0,0,0,false,false,true,-148.06,-1966.5299,16.99,-0.004658406,0.0011356046,0.97236407,0.23342027,-588.86096,1849.601,8.571,0.00030999997,-0.00010999999,3.17961
275.79166,2000,0,91.24,0.000002697398,0.000002697398,0.000002697398,0.99999994,0,0,0,0,0,0,0,1,0,0,0,false,false,true,-152.97,-1951.12,16.99,-0.0046745907,0.001070867,0.97537154,0.22051583,-593.811,1835.7109,8.571,0.00030999997,-0.00010999999,3.17831
275.8,2000,0,91.24,0.000002697398,0.000002697398,0.000002697398,0.99999994,0,0,0,0,0,0,0,1,0,0,0,false,false,true,-157.92,-1935.82,16.99,-0.004690775,0.0010061294,0.97820646,0.20757903,-598.34094,1821.771,8.571,0.00030999997,-0.00010999999,3.17521
275.80832,2000,0,91.24,0.000002697398,0.000002697398,0.000002697398,0.99999994,0,0,0,0,0,0,0,1,0,0,0,false,false,true,-162.91,-1920.64,16.99,-0.0047015646,0.0009413919,0.9808668,0.19462073,-602.46094,1807.8109,8.571,0.00030999997,-0.00010999999,3.17011
275.81668,2000,0,91.24,0.000002697398,0.000002697398,0.000002697398,0.99999994,0,0,0,0,0,0,0,1,0,0,0,false,false,true,-167.93,-1905.57,16.99,-0.004712355,0.0008766544,0.98335224,0.18164617,-606.16095,1793.871,8.571,0.00030999997,-0.00010999999,3.16301
275.825,2000,0,91.24,0.000002697398,0.000002697398,0.000002697398,0.99999994,0,0,0,0,0,0,0,1,0,0,0,false,false,true,-172.98,-1890.62,16.99,-0.0047231433,0.0008119168,0.9856605,0.16867165,-609.451,1779.971,8.571,0.00030999997,-0.00010999999,3.15381
275.83334,2000,0,91.24,0.000002697398,0.000002697398,0.000002697398,0.99999994,0,0,0,0,0,0,0,1,0,0,0,false,false,true,-178.06,-1875.7899,16.99,-0.0047339336,0.00074717926,0.9877923,0.1557025,-612.321,1766.1509,8.571,0.00030999997,-0.00010999999,3.14241
275.84167,2000,0,91.24,0.000002697398,0.000002697398,0.000002697398,0.99999994,0,0,0,0,0,0,0,1,0,0,0,false,false,true,-183.15999,-1861.07,16.99,-0.004744723,0.0006824417,0.9897464,0.1427549,-614.79095,1752.4409,8.571,0.00030999997,-0.00010999999,3.12871
275.85,2000,0,91.24,0.000002697398,0.000002697398,0.000002697398,0.99999994,0,0,0,0,0,0,0,1,0,0,0,false,false,true,-188.28,-1846.47,16.99,-0.0047555123,0.00061770406,0.99152327,0.12983975,-616.86096,1738.881,8.571,0.00030999997,-0.00010999999,3.11271
275.85834,2000,0,91.24,0.000002697398,0.000002697398,0.000002697398,0.99999994,0,0,0,0,0,0,0,1,0,0,0,false,false,true,-193.42,-1831.98,16.99,-0.004760908,0.00055296667,0.9931241,0.1169677,-618.54095,1725.491,8.571,0.00030999997,-0.00010999999,3.09421
275.86667,2000,0,91.24,0.000002697398,0.000002697398,0.000002697398,0.99999994,0,0,0,0,0,0,0,1,0,0,0,false,false,true,-198.56999,-1817.6,16.99,-0.0047663026,0.0004882291,0.9945495,0.10415506,-619.84094,1712.3009,8.571,0.00030999997,-0.00010999999,3.07321
275.875,2000,0,91.24,0.000002697398,0.000002697398,0.000002697398,0.99999994,0,0,0,0,0,0,0,1,0,0,0,false,false,true,-203.73999,-1803.33,16.99,-0.0047716964,0.00042349144,0.99580145,0.091412455,-620.78094,1699.351,8.571,0.00030999997,-0.00010999999,3.04951
275.88333,2000,0,91.24,0.000002697398,0.000002697398,0.000002697398,0.99999994,0,0,0,0,0,0,0,1,0,0,0,false,false,true,-208.90999,-1789.1699,16.99,-0.0047770925,0.00036414876,0.9968828,0.07875088,-621.381,1686.6609,8.571,0.00030999997,-0.00010999999,3.02311
275.89166,2000,0,91.24,0.000002697398,0.000002697398,0.000002697398,0.99999994,0,0,0,0,0,0,0,1,0,0,0,false,false,true,-214.09,-1775.11,16.99,-0.0047824867,0.000304806,0.9977957,0.06618631,-621.65094,1674.261,8.571,0.00030999997,-0.00010999999,2.99381
275.9,2000,0,91.24,0.000002697398,0.000002697398,0.000002697398,0.99999994,0,0,0,0,0,0,0,1,0,0,0,false,false,true,-219.26999,-1761.1599,16.99,-0.004787881,0.0002454632,0.99854356,0.05373503,-621.621,1662.1709,8.571,0.00030999997,-0.00010999999,2.9616098
275.90833,2000,0,91.24,0.000002697398,0.000002697398,0.000002697398,0.99999994,0,0,0,0,0,0,0,1,0,0,0,false,false,true,-224.45,-1747.3099,16.99,-0.0047932756,0.00018612045,0.99913067,0.04140792,-621.311,1650.4209,8.571,0.00040999998,-0.00010999999,2.92641
275.91666,2000,0,91.24,0.000002697398,0.000002697398,0.000002697398,0.99999994,0,0,0,0,0,0,0,1,0,0,0,false,false,true,-229.62999,-1733.5599,16.99,-0.004793276,0.0001267777,0.9995614,0.029220998,-620.74097,1639.0309,8.571,0.00051,0,2.88801
275.925,2000,0,91.24,0.000002697398,0.000002697398,0.000002697398,0.99999994,0,0,0,0,0,0,0,1,0,0,0,false,false,true,-234.79999,-1719.8999,16.99,-0.004793276,0.00006743495,0.9998407,0.017190602,-619.941,1628.021,8.571,0.00051,0,2.84631
275.93332,2000,0,91.24,0.000002697398,0.000002697398,0.000002697398,0.99999994,0,0,0,0,0,0,0,1,0,0,0,false,false,true,-239.97,-1706.33,16.99,-0.004793276,0.000008092194,0.99997425,0.005332756,-618.93097,1617.4109,8.571,0.00061,0,2.8013098
275.94168,2000,0,91.24,0.000002697398,0.000002697398,0.000002697398,0.99999994,0,0,0,0,0,0,0,1,0,0,0,false,false,true,-245.12999,-1692.85,16.99,-0.004793276,-0.000051250565,0.99996835,-0.006341625,-617.74097,1607.221,8.571,0.00061,0,2.75281
275.95,2000,0,91.24,0.000002697398,0.000002697398,0.000002697398,0.99999994,0,0,0,0,0,0,0,1,0,0,0,false,false,true,-250.28,-1679.46,16.99,-0.004793276,-0.00011059332,0.9998298,-0.017811002,-616.40094,1597.4609,8.571,0.00061,0,2.70071
275.95834,2000,0,91.24,0.000002697398,0.000002697398,0.000002697398,0.99999994,0,0,0,0,0,0,0,1,0,0,0,false,false,true,-255.42,-1666.1499,16.99,-0.004793276,-0.00016454128,0.99956614,-0.029059196,-614.891,1588.0309,8.571,0.00061,0,2.64871
275.96667,2000,0,91.24,0.000002697398,0.000002697398,0.000002697398,0.99999994,0,0,0,0,0,0,0,1,0,0,0,false,false,true,-260.54,-1652.9199,16.99,-0.004793276,-0.00021848925,0.99918467,-0.0400862,-613.201,1578.861,8.571,0.00061,0,2.5996099
275.975,2000,0,91.24,0.000002697398,0.000002697398,0.000002697398,0.99999994,0,0,0,0,0,0,0,1,0,0,0,false,false,true,-265.65,-1639.76,16.99,-0.004793276,-0.0002724372,0.99869174,-0.050908204,-611.35095,1569.981,8.571,0.00051,0,2.55311
275.98334,2000,0,91.24,0.000002697398,0.000002697398,0.000002697398,0.99999994,0,0,0,0,0,0,0,1,0,0,0,false,false,true,-270.74,-1626.6799,16.99,-0.0047878814,-0.00032638517,0.9980936,-0.0615306,-609.29095,1561.251,8.571,0.00040999998,0,2.51231
275.99167,2000,0,91.24,0.000002697398,0.000002697398,0.000002697398,0.99999994,0,0,0,0,0,0,0,1,0,0,0,false,false,true,-275.82,-1613.6699,16.99,-0.0047824867,-0.00038033313,0.99739486,-0.07197496,-606.96094,1552.5709,8.571,0.00021,0,2.48001
276,2000,0,91.24,0.000002697398,0.000002697398,0.000002697398,0.99999994,0,0,0,0,0,0,0,1,0,0,0,false,false,true,-280.88,-1600.73,16.99,-0.0047770925,-0.00042888633,0.99659777,-0.082279034,-604.381,1543.971,8.571,0,0,2.45591
276.00833,2000,0,91.24,0.000002697398,0.000002697398,0.000002697398,0.99999994,0,0,0,0,0,0,0,1,0,0,0,false,false,true,-285.91998,-1587.86,16.99,-0.0047716964,-0.0004774394,0.9957033,-0.09247523,-601.561,1535.471,8.571,-0.00010999999,0,2.43961
276.01666,2000,0,91.24,0.000002697398,0.000002697398,0.000002697398,0.99999994,0,0,0,0,0,0,0,1,0,0,0,false,false,true,-290.93,-1575.0599,16.99,-0.004766302,-0.0005259926,0.99471205,-0.102590516,-598.511,1527.101,8.571,-0.00021,0,2.43081
276.025,2000,0,91.24,0.000002697398,0.000002697398,0.000002697398,0.99999994,0,0,0,0,0,0,0,1,0,0,0,false,false,true,-295.91998,-1562.33,16.99,-0.004760908,-0.0005745458,0.9936223,-0.11265726,-595.24097,1518.881,8.571,-0.00030999997,0,2.4293098
276.03333,2000,0,91.24,0.000002697398,0.000002697398,0.000002697398,0.99999994,0,0,0,0,0,0,0,1,0,0,0,false,false,true,-300.88,-1549.6699,16.99,-0.0047555133,-0.000623099,0.9924312,-0.12270781,-591.77094,1510.8309,8.571,-0.00051,-0.00010999999,2.43491
276.04166,2000,0,91.24,0.000002697398,0.000002697398,0.000002697398,0.99999994,0,0,0,0,0,0,0,1,0,0,0,false,false,true,-305.81,-1537.08,16.99,-0.004750118,-0.00067165215,0.99113536,-0.13276915,-588.11096,1502.981,8.571,-0.00071,-0.00010999999,2.4474099
276.05,2000,0,91.24,0.000002697398,0.000002697398,0.000002697398,0.99999994,0,0,0,0,0,0,0,1,0,0,0,false,false,true,-310.71,-1524.5499,16.99,-0.0047447234,-0.00071481057,0.98973006,-0.14286825,-584.28094,1495.351,8.571,-0.00081,-0.00021,2.4667099
276.05832,2000,0,91.24,0.000002697398,0.000002697398,0.000002697398,0.99999994,0,0,0,0,0,0,0,1,0,0,0,false,false,true,-315.58,-1512.09,16.99,-0.0047393288,-0.0007579689,0.98820955,-0.15303208,-580.29095,1487.9609,8.571,-0.00091,-0.00021,2.4927099
276.06668,2000,0,91.24,0.000002697398,0.000002697398,0.000002697398,0.99999994,0,0,0,0,0,0,0,1,0,0,0,false,false,true,-320.41998,-1499.69,16.99,-0.0047339336,-0.00080112723,0.9865668,-0.16328762,-576.15094,1480.8309,8.571,-0.0010099999,-0.00021,2.52541
276.075,2000,0,91.24,0.000002697398,0.000002697398,0.000002697398,0.99999994,0,0,0,0,0,0,0,1,0,0,0,false,false,true,-325.22,-1487.35,16.99,-0.0047231438,-0.0008442856,0.9847936,-0.17366186,-571.871,1473.9509,8.571,-0.00111,-0.00021,2.56401
276.08334,2000,0,91.24,0.000002697398,0.000002697398,0.000002697398,0.99999994,0,0,0,0,0,0,0,1,0,0,0,false,false,true,-329.99,-1475.07,16.99,-0.0047123544,-0.00088744395,0.98288244,-0.18417096,-567.381,1467.111,8.571,-0.00111,-0.00030999997,2.6040099
276.09167,2000,0,91.24,0.000002697398,0.000002697398,0.000002697398,0.99999994,0,0,0,0,0,0,0,1,0,0,0,false,false,true,-334.72,-1462.84,16.99,-0.0047015646,-0.0009359971,0.9808261,-0.19482572,-562.71094,1460.3109,8.571,-0.0010099999,-0.00030999997,2.64571
276.1,2000,0,91.24,0.000002697398,0.000002697398,0.000002697398,0.99999994,0,0,0,0,0,0,0,1,0,0,0,false,false,true,-339.41,-1450.6699,16.99,-0.0046907747,-0.0009845501,0.97861874,-0.20562615,-557.90094,1453.611,8.571,-0.00091,-0.00040999998,2.68841
276.10834,2000,0,91.24,0.000002697398,0.000002697398,0.000002697398,0.99999994,0,0,0,0,0,0,0,1,0,0,0,false,false,true,-344.06,-1438.5599,16.99,-0.0046799853,-0.0010331034,0.97625357,-0.21657763,-552.951,1447.021,8.571,-0.00091,-0.00040999998,2.73211
276.11667,2000,0,91.24,0.000002697398,0.000002697398,0.000002697398,0.99999994,0,0,0,0,0,0,0,1,0,0,0,false,false,true,-348.66998,-1426.5,16.99,-0.004669196,-0.0010816565,0.9737254,-0.22767477,-547.78094,1440.361,8.571,-0.00081,-0.00040999998,2.77281
276.125,2000,0,91.24,0.000002697398,0.000002697398,0.000002697398,0.99999994,0,0,0,0,0,0,0,1,0,0,0,false,false,true,-353.22998,-1414.5,16.99,-0.0046584057,-0.0011302097,0.97103053,-0.23890676,-542.36096,1433.601,8.571,-0.00071,-0.00040999998,2.80961
276.13333,2000,0,91.24,0.000002697398,0.000002697398,0.000002697398,0.99999994,0,0,0,0,0,0,0,1,0,0,0,false,false,true,-357.75,-1402.5499,16.99,-0.0046476163,-0.0011787628,0.9681673,-0.25025743,-536.691,1426.771,8.571,-0.00051,-0.00030999997,2.84261
276.14166,2000,0,91.24,0.000002697398,0.000002697398,0.000002697398,0.99999994,0,0,0,0,0,0,0,1,0,0,0,false,false,true,-362.22,-1390.6599,16.99,-0.0046314322,-0.0012327109,0.9651359,-0.26170525,-530.78094,1419.891,8.571,-0.00030999997,-0.00021,2.87181
276.15,2000,0,91.24,0.000002697398,0.000002697398,0.000002697398,0.99999994,0,0,0,0,0,0,0,1,0,0,0,false,false,true,-366.63998,-1378.83,16.99,-0.0046152486,-0.0012866589,0.96193564,-0.273234,-524.621,1412.981,8.571,-0.00021,-0.00021,2.89741
276.15833,2000,0,91.24,0.000002697398,0.000002697398,0.000002697398,0.99999994,0,0,0,0,0,0,0,1,0,0,0,false,false,true,-371.00998,-1367.0599,16.99,-0.0045990637,-0.0013406068,0.9585668,-0.28482744,-518.23096,1406.0709,8.571,-0.00010999999,-0.00010999999,2.91941
276.16666,2000,0,91.24,0.000002697398,0.000002697398,0.000002697398,0.99999994,0,0,0,0,0,0,0,1,0,0,0,false,false,true,-375.33,-1355.34,16.99,-0.004582879,-0.0013945547,0.95503193,-0.29646406,-511.611,1399.1809,8.571,0,-0.00010999999,2.9379098
276.175,2000,0,91.24,0.000002697398,0.000002697398,0.000002697398,0.99999994,0,0,0,0,0,0,0,1,0,0,0,false,false,true,-379.59,-1343.6799,16.99,-0.004566695,-0.0014485029,0.9513312,-0.30813307,-504.771,1392.341,8.571,0.00010999999,0,2.95291
276.18332,2000,0,91.24,0.000002697398,0.000002697398,0.000002697398,0.99999994,0,0,0,0,0,0,0,1,0,0,0,false,false,true,-383.8,-1332.08,16.99,-0.0045505106,-0.0015024507,0.9474686,-0.31981283,-497.721,1385.5609,8.571,0.00021,0,2.9646099
276.19168,2000,0,91.24,0.000002697398,0.000002697398,0.000002697398,0.99999994,0,0,0,0,0,0,0,1,0,0,0,false,false,true,-387.94998,-1320.53,16.99,-0.004534326,-0.0015617935,0.94344556,-0.3314926,-490.481,1378.871,8.571,0.00030999997,0,2.9730098
276.2,2000,0,91.24,0.000002697398,0.000002697398,0.000002697398,0.99999994,0,0,0,0,0,0,0,1,0,0,0,false,false,true,-392.03998,-1309.0399,16.99,-0.004512747,-0.0016211362,0.939266,-0.3431562,-483.051,1372.2909,8.571,0.00030999997,0.00010999999,2.97821
276.20834,2000,0,91.24,0.000002697398,0.000002697398,0.000002697398,0.99999994,0,0,0,0,0,0,0,1,0,0,0,false,false,true,-396.06998,-1297.6,16.99,-0.004491167,-0.0016804788,0.93493456,-0.35478738,-475.461,1365.8309,8.571,0.00030999997,0.00010999999,2.98031
276.21667,2000,0,91.24,0.000002697398,0.000002697398,0.000002697398,0.99999994,0,0,0,0,0,0,0,1,0,0,0,false,false,true,-400.03,-1286.22,16.99,-0.004469588,-0.0017398215,0.9304567,-0.36637005,-467.711,1359.521,8.571,0.00030999997,0.00010999999,2.97941
276.225,2000,0,91.24,0.000002697398,0.000002697398,0.000002697398,0.99999994,0,0,0,0,0,0,0,1,0,0,0,false,false,true,-403.93,-1274.89,16.99,-0.004448009,-0.0017991646,0.9258366,-0.37789342,-459.831,1353.371,8.571,0.00030999997,0.00021,2.97551
276.23334,2000,0,91.24,0.000002697398,0.000002697398,0.000002697398,0.99999994,0,0,0,0,0,0,0,1,0,0,0,false,false,true,-407.75998,-1263.61,16.99,-0.0044264304,-0.0018531126,0.92108107,-0.38934124,-451.831,1347.391,8.571,0.00030999997,0.00021,2.96871
276.24167,2000,0,91.24,0.000002697398,0.000002697398,0.000002697398,0.99999994,0,0,0,0,0,0,0,1,0,0,0,false,false,true,-411.53,-1252.38,16.99,-0.004404851,-0.0019070605,0.91619545,-0.4007027,-443.731,1341.601,8.571,0.00030999997,0.00030999997,2.95911
276.25,2000,0,91.24,0.000002697398,0.000002697398,0.000002697398,0.99999994,0,0,0,0,0,0,0,1,0,0,0,false,false,true,-415.22998,-1241.2,16.99,-0.0043778773,-0.0019610086,0.91118604,-0.41196716,-435.551,1336.011,8.571,0.00030999997,0.00040999998,2.9467099
276.25833,2000,0,91.24,0.000002697398,0.000002697398,0.000002697398,0.99999994,0,0,0,0,0,0,0,1,0,0,0,false,false,true,-418.86,-1230.07,16.99,-0.004350903,-0.0020149562,0.9060592,-0.42312357,-427.311,1330.631,8.571,0.00030999997,0.00040999998,2.93171
276.26666,2000,0,91.24,0.000002697398,0.000002697398,0.000002697398,0.99999994,0,0,0,0,0,0,0,1,0,0,0,false,false,true,-422.41998,-1218.98,16.99,-0.004323929,-0.0020689042,0.9008223,-0.4341614,-419.031,1325.481,8.571,0.00040999998,0.00040999998,2.91401
276.275,2000,0,91.24,0.000002697398,0.000002697398,0.000002697398,0.99999994,0,0,0,0,0,0,0,1,0,0,0,false,false,true,-425.91,-1207.9299,16.99,-0.0042969557,-0.0021228525,0.89548576,-0.4450643,-410.731,1320.5509,8.571,0.00040999998,0.00040999998,2.89381
276.28333,2000,0,91.24,0.000002697398,0.000002697398,0.000002697398,0.99999994,0,0,0,0,0,0,0,1,0,0,0,false,false,true,-429.33,-1196.9299,16.99,-0.004269981,-0.0021768003,0.8900554,-0.45582697,-402.431,1315.861,8.571,0.00040999998,0.00040999998,2.87111
276.29166,2000,0,91.24,0.000002697398,0.000002697398,0.000002697398,0.99999994,0,0,0,0,0,0,0,1,0,0,0,false,false,true,-432.68,-1185.96,16.99,-0.0042430065,-0.0022307478,0.88453764,-0.46644387,-394.151,1311.401,8.571,0.00040999998,0.00040999998,2.8459098
276.3,2000,0,91.24,0.000002697398,0.000002697398,0.000002697398,0.99999994,0,0,0,0,0,0,0,1,0,0,0,false,false,true,-435.96,-1175.03,16.99,-0.004216033,-0.002284696,0.8789449,-0.4768991,-385.911,1307.1809,8.571,0.00040999998,0.00040999998,2.81831
276.30832,2000,0,91.24,0.000002697398,0.000002697398,0.000002697398,0.99999994,0,0,0,0,0,0,0,1,0,0,0,false,false,true,-439.18,-1164.14,16.99,-0.004189059,-0.0023386441,0.8732844,-0.48718703,-377.741,1303.2009,8.571,0.00040999998,0.00051,2.78841
276.31668,2000,0,91.24,0.000002697398,0.000002697398,0.000002697398,0.99999994,0,0,0,0,0,0,0,1,0,0,0,false,false,true,-442.33,-1153.28,16.99,-0.0041620857,-0.0023871975,0.867564,-0.49730232,-369.651,1299.4609,8.571,0.00030999997,0.00051,2.75631
276.325,2000,0,91.24,0.000002697398,0.000002697398,0.000002697398,0.99999994,0,0,0,0,0,0,0,1,0,0,0,false,false,true,-445.41,-1142.45,16.99,-0.004135111,-0.0024357503,0.8617948,-0.50723416,-361.661,1295.9609,8.561,0.00030999997,0.00051,2.72191
276.33334,2000,0,91.24,0.000002697398,0.000002697398,0.000002697398,0.99999994,0,0,0,0,0,0,0,1,0,0,0,false,false,true,-448.41998,-1131.65,16.99,-0.004108137,-0.0024843037,0.8559856,-0.5169772,-353.791,1292.6909,8.561,0.00030999997,0.00061,2.68541
276.34167,2000,0,91.24,0.000002697398,0.000002697398,0.000002697398,0.99999994,0,0,0,0,0,0,0,1,0,0,0,false,false,true,-451.37,-1120.88,16.99,-0.004081163,-0.0025328568,0.85014874,-0.5265206,-346.051,1289.651,8.561,0.00030999997,0.00071,2.64681
276.35,2000,0,91.24,0.000002697398,0.000002697398,0.000002697398,0.99999994,0,0,0,0,0,0,0,1,0,0,0,false,false,true,-454.25,-1110.13,16.99,-0.0040487945,-0.0025814099,0.8442903,-0.5358644,-338.471,1286.841,8.561,0.00021,0.00071,2.6061099
276.35834,2000,0,91.24,0.000002697398,0.000002697398,0.000002697398,0.99999994,0,0,0,0,0,0,0,1,0,0,0,false,false,true,-457.06998,-1099.41,16.99,-0.0040164255,-0.002629963,0.8384236,-0.5449978,-331.061,1284.251,8.561,0.00021,0.00071,2.56341
276.36667,2000,0,91.24,0.000002697398,0.000002697398,0.000002697398,0.99999994,0,0,0,0,0,0,0,1,0,0,0,false,false,true,-459.83,-1088.71,16.99,-0.003984057,-0.0026731214,0.8325554,-0.55392087,-323.831,1281.871,8.561,0.00021,0.00071,2.51881
276.375,2000,0,91.24,0.000002697398,0.000002697398,0.000002697398,0.99999994,0,0,0,0,0,0,0,1,0,0,0,false,false,true,-462.53,-1078.03,16.99,-0.003951688,-0.0027162798,0.8266961,-0.5626281,-316.801,1279.6909,8.561,0.00021,0.00071,2.47231
276.38333,2000,0,91.24,0.000002697398,0.000002697398,0.000002697398,0.99999994,0,0,0,0,0,0,0,1,0,0,0,false,false,true,-465.16998,-1067.37,16.99,-0.0039193192,-0.0027594382,0.8208565,-0.5711142,-309.981,1277.7009,8.561,0.00021,0.00061,2.42391
276.39166,2000,0,91.24,0.000002697398,0.000002697398,0.000002697398,0.99999994,0,0,0,0,0,0,0,1,0,0,0,false,false,true,-467.75,-1056.72,16.99,-0.0038869507,-0.0028025967,0.8150479,-0.5793736,-303.381,1275.891,8.551001,0.00021,0.00061,2.37371
276.4,2000,0,91.24,0.000002697398,0.000002697398,0.000002697398,0.99999994,0,0,0,0,0,0,0,1,0,0,0,false,false,true,-470.28,-1046.09,16.99,-0.0038599768,-0.0028457548,0.8092777,-0.5874065,-297.011,1274.261,8.551001,0.00021,0.00051,2.32181
276.40833,2000,0,91.24,0.000002697398,0.000002697398,0.000002697398,0.99999994,0,0,0,0,0,0,0,1,0,0,0,false,false,true,-472.75998,-1035.47,16.99,-0.0038330026,-0.0028835186,0.8035577,-0.5952074,-290.891,1272.7909,8.551001,0.00021,0.00051,2.26821
276.41666,2000,0,91.24,0.000002697398,0.000002697398,0.000002697398,0.99999994,0,0,0,0,0,0,0,1,0,0,0,false,false,true,-475.18,-1024.86,16.99,-0.0038060287,-0.002921282,0.7978957,-0.6027763,-285.021,1271.471,8.551001,0.00010999999,0.00051,2.21291
276.425,2000,0,91.24,0.000002697398,0.000002697398,0.000002697398,0.99999994,0,0,0,0,0,0,0,1,0,0,0,false,false,true,-477.56,-1014.25995,16.99,-0.0037790546,-0.0029590456,0.7923037,-0.6101079,-279.401,1270.2909,8.551001,0.00010999999,0.00051,2.15611
276.43332,2000,0,91.24,0.000002697398,0.000002697398,0.000002697398,0.99999994,0,0,0,0,0,0,0,1,0,0,0,false,false,true,-479.88998,-1003.67,16.99,-0.0037520807,-0.0029968093,0.7867899,-0.6172021,-274.04102,1269.231,8.551001,0.00010999999,0.00051,2.09781
276.44168,2000,0,91.24,0.000002697398,0.000002697398,0.000002697398,0.99999994,0,0,0,0,0,0,0,1,0,0,0,false,false,true,-482.16998,-993.08997,16.99,-0.0037251068,-0.003029178,0.78136677,-0.6240535,-268.951,1268.2909,8.551001,0,0.00051,2.03801
276.45,2000,0,91.24,0.000002697398,0.000002697398,0.000002697398,0.99999994,0,0,0,0,0,0,0,1,0,0,0,false,false,true,-484.41,-982.51996,16.99,-0.0036981327,-0.0030615467,0.77603817,-0.63066757,-264.121,1267.4609,8.551001,0,0.00051,1.97681
276.45834,2000,0,91.24,0.000002697398,0.000002697398,0.000002697398,0.99999994,0,0,0,0,0,0,0,1,0,0,0,false,false,true,-486.61,-971.95996,16.99,-0.0036711583,-0.0030939153,0.7708166,-0.63703877,-259.561,1266.721,8.551001,0,0.00051,1.91431
276.46667,2000,0,91.24,0.000002697398,0.000002697398,0.000002697398,0.99999994,0,0,0,0,0,0,0,1,0,0,0,false,false,true,-488.77,-961.39996,16.99,-0.0036441851,-0.0031262846,0.76571053,-0.6431674,-255.271,1266.0609,8.541,0,0.00051,1.85051
276.475,2000,0,91.24,0.000002697398,0.000002697398,0.000002697398,0.99999994,0,0,0,0,0,0,0,1,0,0,0,false,false,true,-490.9,-950.85,16.99,-0.003617211,-0.0031532585,0.7607279,-0.64905316,-251.251,1265.481,8.541,0,0.00051,1.78551
276.48334,2000,0,91.24,0.000002697398,0.000002697398,0.000002697398,0.99999994,0,0,0,0,0,0,0,1,0,0,0,false,false,true,-492.99,-940.3,16.99,-0.003590237,-0.0031802324,0.7558769,-0.65469605,-247.491,1264.9609,8.541,0,0.00051,1.71941
276.49167,2000,0,91.24,0.000002697398,0.000002697398,0.000002697398,0.99999994,0,0,0,0,0,0,0,1,0,0,0,false,false,true,-495.05,-929.75995,16.99,-0.0035632628,-0.0032072063,0.75116557,-0.6600963,-243.991,1264.491,8.541,0,0.00051,1.65231
276.5,2000,0,91.24,0.000002697398,0.000002697398,0.000002697398,0.99999994,0,0,0,0,0,0,0,1,0,0,0,false,false,true,-497.08,-919.22,16.99,-0.0035416833,-0.0032341802,0.7466019,-0.66525364,-240.751,1264.0709,8.541,0,0.00040999998,1.5843099
276.50833,2000,0,91.24,0.000002697398,0.000002697398,0.000002697398,0.99999994,0,0,0,0,0,0,0,1,0,0,0,false,false,true,-499.09,-908.69,16.99,-0.0035201046,-0.0032611543,0.74219346,-0.6701684,-237.751,1263.6809,8.541,0,0.00040999998,1.51571
276.51666,2000,0,91.24,0.000002697398,0.000002697398,0.000002697398,0.99999994,0,0,0,0,0,0,0,1,0,0,0,false,false,true,-501.06998,-898.16,16.99,-0.0034985254,-0.0032827335,0.73794806,-0.67484033,-234.981,1263.3309,8.541,0,0.00030999997,1.44661
276.525,2000,0,91.24,0.000002697398,0.000002697398,0.000002697398,0.99999994,0,0,0,0,0,0,0,1,0,0,0,false,false,true,-503.03,-887.63,16.99,-0.0034769461,-0.0033043127,0.7338681,-0.67927486,-232.441,1263.001,8.541,0,0.00030999997,1.37721
276.53333,2000,0,91.24,0.000002697398,0.000002697398,0.000002697398,0.99999994,0,0,0,0,0,0,0,1,0,0,0,false,false,true,-504.97,-877.1,16.99,-0.003455367,-0.003325892,0.7299558,-0.6834774,-230.11101,1262.6909,8.541,0,0.00030999997,1.3077099
276.54166,2000,0,91.24,0.000002697398,0.000002697398,0.000002697398,0.99999994,0,0,0,0,0,0,0,1,0,0,0,false,false,true,-506.88998,-866.57996,16.99,-0.0034337877,-0.003347471,0.72622275,-0.6874426,-227.981,1262.401,8.541,0,0.00021,1.23821
276.55,2000,0,91.24,0.000002697398,0.000002697398,0.000002697398,0.99999994,0,0,0,0,0,0,0,1,0,0,0,false,false,true,-508.78998,-856.06,16.99,-0.0034176034,-0.0033636554,0.7226654,-0.69118124,-226.041,1262.121,8.541,0,0.00021,1.16891
276.55832,2000,0,91.24,0.000002697398,0.000002697398,0.000002697398,0.99999994,0,0,0,0,0,0,0,1,0,0,0,false,false,true,-510.66998,-845.54,16.99,-0.003401419,-0.0033798397,0.71929,-0.69469327,-224.281,1261.841,8.541,0,0.00021,1.09981
276.56668,2000,0,91.24,0.000002697398,0.000002697398,0.000002697398,0.99999994,0,0,0,0,0,0,0,1,0,0,0,false,false,true,-512.54,-835.01996,16.99,-0.0033852342,-0.0033960238,0.7160971,-0.697984,-222.681,1261.5709,8.541,0,0.00021,1.03101
276.575,2000,0,91.24,0.000002697398,0.000002697398,0.000002697398,0.99999994,0,0,0,0,0,0,0,1,0,0,0,false,false,true,-514.39996,-824.51,16.99,-0.00336905,-0.0034122085,0.71309227,-0.7010537,-221.241,1261.3009,8.541,0,0.00021,0.96270996
276.58334,2000,0,91.24,0.000002697398,0.000002697398,0.000002697398,0.99999994,0,0,0,0,0,0,0,1,0,0,0,false,false,true,-516.24,-814,16.99,-0.0033528658,-0.003428393,0.71027523,-0.7039076,-219.951,1261.031,8.541,0,0.00010999999,0.89491
276.59167,2000,0,91.24,0.000002697398,0.000002697398,0.000002697398,0.99999994,0,0,0,0,0,0,0,1,0,0,0,false,false,true,-518.07,-803.49,16.99,-0.0033420762,-0.0034391826,0.7076457,-0.7065511,-218.801,1260.761,8.541,0,0,0.82761
276.6,2000,0,91.24,0.000002697398,0.000002697398,0.000002697398,0.99999994,0,0,0,0,0,0,0,1,0,0,0,false,false,true,-519.89,-792.98,16.99,0.0033312866,0.0034499723,-0.70520234,0.7089898,-217.771,1260.491,8.541,0,0,0.76091
276.60834,2000,0,91.24,0.000002697398,0.000002697398,0.000002697398,0.99999994,0,0,0,0,0,0,0,1,0,0,0,false,false,true,-521.7,-782.48,16.99,0.003320497,0.0034607616,-0.70295274,0.71122026,-216.86101,1260.2109,8.541,0,0,0.69491
276.61667,2000,0,91.24,0.000002697398,0.000002697398,0.000002697398,0.99999994,0,0,0,0,0,0,0,1,0,0,0,false,false,true,-523.51,-771.98,16.99,0.0033097074,0.0034715512,-0.70089185,0.71325135,-216.061,1259.9309,8.541,0,0,0.62951
276.625,2000,0,91.24,0.000002697398,0.000002697398,0.000002697398,0.99999994,0,0,0,0,0,0,0,1,0,0,0,false,false,true,-525.31,-761.48,16.99,0.0032989178,0.0034823408,-0.69901985,0.71508604,-215.351,1259.641,8.541,0,0,0.56481
276.63333,2000,0,91.24,0.000002697398,0.000002697398,0.000002697398,0.99999994,0,0,0,0,0,0,0,1,0,0,0,false,false,true,-527.1,-750.98,16.99,0.0032881277,0.0034877353,-0.6973366,0.71672755,-214.731,1259.351,8.541,0,0,0.50091
276.64166,2000,0,91.24,0.000002697398,0.000002697398,0.000002697398,0.99999994,0,0,0,0,0,0,0,1,0,0,0,false,false,true,-528.89,-740.49,16.99,0.0032827335,0.0034931304,-0.69583696,0.71818364,-214.19101,1259.0609,8.541,0,0,0.43771002
276.65,2000,0,91.24,0.000002697398,0.000002697398,0.000002697398,0.99999994,0,0,0,0,0,0,0,1,0,0,0,false,false,true,-530.67,-730,16.99,0.0032773386,0.0034985254,-0.694526,0.7194515,-213.711,1258.761,8.541,0,0,0.37531
276.65833,2000,0,91.24,0.000002697398,0.000002697398,0.000002697398,0.99999994,0,0,0,0,0,0,0,1,0,0,0,false,false,true,-532.45,-719.51,16.99,0.003271944,0.00350392,-0.6933985,0.72053826,-213.291,1258.4609,8.541,0,0,0.31371
276.66666,2000,0,91.24,0.000002697398,0.000002697398,0.000002697398,0.99999994,0,0,0,0,0,0,0,1,0,0,0,false,false,true,-534.23,-709.01996,16.99,0.003266549,0.003509315,-0.6924544,0.7214456,-212.921,1258.1609,8.541,0,0,0.25281
276.675,2000,0,91.24,0.000002697398,0.000002697398,0.000002697398,0.99999994,0,0,0,0,0,0,0,1,0,0,0,false,false,true,-536,-698.54,16.99,0.0032611543,0.0035147096,-0.6916937,0.72217494,-212.591,1257.861,8.541,0,0,0.19271
276.68332,2000,0,91.24,0.000002697398,0.000002697398,0.000002697398,0.99999994,0,0,0,0,0,0,0,1,0,0,0,false,false,true,-537.76996,-688.06,16.99,0.0032557594,0.0035147096,-0.6911111,0.72273254,-212.291,1257.5609,8.541,0,0,0.13340999
276.69168,2000,0,91.24,0.000002697398,0.000002697398,0.000002697398,0.99999994,0,0,0,0,0,0,0,1,0,0,0,false,false,true,-539.54,-677.57996,16.99,0.0032557594,0.0035147096,-0.69070643,0.7231193,-212.011,1257.261,8.541,0,0,0.07481
276.7,2000,0,91.24,0.000002697398,0.000002697398,0.000002697398,0.99999994,0,0,0,0,0,0,0,1,0,0,0,false,false,true,-541.31,-667.1,16.99,0.0032557594,0.0035147096,-0.6904799,0.7233356,-211.751,1256.9609,8.541,0,0,0.01701
276.70834,2000,0,91.24,0.000002697398,0.000002697398,0.000002697398,0.99999994,0,0,0,0,0,0,0,1,0,0,0,false,false,true,-543.07,-656.63,16.99,0.0032557596,0.0035147099,-0.690426,0.7233871,-211.491,1256.6709,8.541,0,0,-0.039909996
276.71667,2000,0,91.24,0.000002697398,0.000002697398,0.000002697398,0.99999994,0,0,0,0,0,0,0,1,0,0,0,false,false,true,-544.83,-646.16,16.99,0.0032557594,0.0035147096,-0.6905446,0.7232738,-211.231,1256.381,8.541,0,0,-0.096109994
276.725,2000,0,91.24,0.000002697398,0.000002697398,0.000002697398,0.99999994,0,0,0,0,0,0,0,1,0,0,0,false,false,true,-546.58997,-635.69,16.99,0.0032557594,0.0035147096,-0.69083595,0.7229956,-210.961,1256.101,8.541,0,0,-0.15151
276.73334,2000,0,91.24,0.000002697398,0.000002697398,0.000002697398,0.99999994,0,0,0,0,0,0,0,1,0,0,0,false,false,true,-548.35,-625.22,16.99,0.0032557594,0.0035147096,-0.6912945,0.7225571,-210.671,1255.8209,8.541,0,0,-0.20620999
276.74167,2000,0,91.24,0.000002697398,0.000002697398,0.000002697398,0.99999994,0,0,0,0,0,0,0,1,0,0,0,false,false,true,-550.11,-614.75,16.99,0.0032611543,0.003509315,-0.6919149,0.72196305,-210.351,1255.5509,8.541,0,-0.00010999999,-0.26011002
276.75,2000,0,91.24,0.000002697398,0.000002697398,0.000002697398,0.99999994,0,0,0,0,0,0,0,1,0,0,0,false,false,true,-551.86,-604.29,16.99,0.003266549,0.00350392,-0.69269717,0.7212125,-209.991,1255.2909,8.541,0,-0.00010999999,-0.31331
276.75833,2000,0,91.24,0.000002697398,0.000002697398,0.000002697398,0.99999994,0,0,0,0,0,0,0,1,0,0,0,false,false,true,-553.61,-593.83,16.99,0.003271944,0.0034985254,-0.6936359,0.7203098,-209.591,1255.0409,8.541,0,-0.00010999999,-0.36571
276.76666,2000,0,91.24,0.000002697398,0.000002697398,0.000002697398,0.99999994,0,0,0,0,0,0,0,1,0,0,0,false,false,true,-555.36,-583.37,16.99,0.0032773386,0.0034931304,-0.694731,0.7192536,-209.141,1254.8009,8.541,0,-0.00010999999,-0.41741002
276.775,2000,0,91.24,0.000002697398,0.000002697398,0.000002697398,0.99999994,0,0,0,0,0,0,0,1,0,0,0,false,false,true,-557.1,-572.91,16.99,0.0032827335,0.0034877358,-0.6959826,0.71804255,-208.631,1254.5709,8.541,0,-0.00010999999,-0.46831
276.78333,2000,0,91.24,0.000002697398,0.000002697398,0.000002697398,0.99999994,0,0,0,0,0,0,0,1,0,0,0,false,false,true,-558.83997,-562.45996,16.99,0.0032881277,0.0034823404,-0.69737977,0.7166856,-208.061,1254.351,8.541,0,-0.00010999999,-0.51841
276.79166,2000,0,91.24,0.000002697398,0.000002697398,0.000002697398,0.99999994,0,0,0,0,0,0,0,1,0,0,0,false,false,true,-560.57,-552.01,16.99,0.0032935226,0.0034769457,-0.6989281,0.7151757,-207.421,1254.141,8.541,0,-0.00010999999,-0.56781
276.8,2000,0,91.24,0.000002697398,0.000002697398,0.000002697398,0.99999994,0,0,0,0,0,0,0,1,0,0,0,false,false,true,-562.3,-541.56,16.99,0.0033043127,0.0034715512,-0.7006167,0.7135216,-206.701,1253.9409,8.541,0,-0.00021,-0.61641
276.80832,2000,0,91.24,0.000002697398,0.000002697398,0.000002697398,0.99999994,0,0,0,0,0,0,0,1,0,0,0,false,false,true,-564.01996,-531.11,16.99,0.0033151023,0.0034607616,-0.7024456,0.7117212,-205.901,1253.751,8.541,0,-0.00021,-0.66421
276.81668,2000,0,91.24,0.000002697398,0.000002697398,0.000002697398,0.99999994,0,0,0,0,0,0,0,1,0,0,0,false,false,true,-565.74,-520.66,16.99,0.003325892,0.0034499723,-0.7044147,0.7097723,-205.011,1253.5709,8.541,0,-0.00021,-0.71121
276.825,2000,0,91.24,0.000002697398,0.000002697398,0.000002697398,0.99999994,0,0,0,0,0,0,0,1,0,0,0,false,false,true,-567.45,-510.21,16.99,0.003336681,0.0034391822,-0.7065132,0.70768344,-204.021,1253.401,8.541,0,-0.00021,-0.75741
276.83334,2000,0,91.24,0.000002697398,0.000002697398,0.000002697398,0.99999994,0,0,0,0,0,0,0,1,0,0,0,false,false,true,-569.14996,-499.75998,16.99,-0.0033474711,-0.0034283933,0.70874286,-0.7054506,-202.931,1253.241,8.541,0,-0.00021,-0.80271
276.84167,2000,0,91.24,0.000002697398,0.000002697398,0.000002697398,0.99999994,0,0,0,0,0,0,0,1,0,0,0,false,false,true,-570.83997,-489.31998,16.99,-0.0033582607,-0.0034176037,0.7110977,-0.70307684,-201.731,1253.091,8.541,0,-0.00021,-0.84721
276.85,2000,0,91.24,0.000002697398,0.000002697398,0.000002697398,0.99999994,0,0,0,0,0,0,0,1,0,0,0,false,false,true,-572.51996,-478.87997,16.99,-0.00336905,-0.0034068138,0.7135746,-0.7005628,-200.421,1252.9509,8.541,0,-0.00021,-0.89081
276.85834,2000,0,91.24,0.000002697398,0.000002697398,0.000002697398,0.99999994,0,0,0,0,0,0,0,1,0,0,0,false,false,true,-574.19,-468.44,16.99,-0.0033798397,-0.0033960242,0.7161708,-0.6979085,-198.991,1252.8109,8.541,0,-0.00030999997,-0.93351
276.86667,2000,0,91.24,0.000002697398,0.000002697398,0.000002697398,0.99999994,0,0,0,0,0,0,0,1,0,0,0,false,false,true,-575.85,-458,16.99,-0.0033960245,-0.00337984,0.7188782,-0.6951195,-197.44101,1252.6809,8.541,0,-0.00040999998,-0.97521
276.875,2000,0,91.24,0.000002697398,0.000002697398,0.000002697398,0.99999994,0,0,0,0,0,0,0,1,0,0,0,false,false,true,-577.5,-447.56,16.99,-0.0034122085,-0.0033636554,0.7216993,-0.69219005,-195.761,1252.5509,8.541,0,-0.00040999998,-1.01591
276.88333,2000,0,91.24,0.000002697398,0.000002697398,0.000002697398,0.99999994,0,0,0,0,0,0,0,1,0,0,0,false,false,true,-579.13,-437.12,16.99,-0.0034283933,-0.0033474711,0.7246207,-0.6891312,-193.951,1252.4209,8.541,0,-0.00040999998,-1.05561
276.89166,2000,0,91.24,0.000002697398,0.000002697398,0.000002697398,0.99999994,0,0,0,0,0,0,0,1,0,0,0,false,false,true,-580.75,-426.68,16.99,-0.0034445773,-0.0033312866,0.7276446,-0.68593746,-192.001,1252.281,8.541,0,-0.00040999998,-1.09431
276.9,2000,0,91.24,0.000002697398,0.000002697398,0.000002697398,0.99999994,0,0,0,0,0,0,0,1,0,0,0,false,false,true,-582.35,-416.24,16.99,-0.0034607616,-0.0033151023,0.730763,-0.68261427,-189.911,1252.141,8.541,0,-0.00040999998,-1.13191
276.90833,2000,0,91.24,0.000002697398,0.000002697398,0.000002697398,0.99999994,0,0,0,0,0,0,0,1,0,0,0,false,false,true,-583.93,-405.81,16.99,-0.0034769464,-0.003298918,0.733973,-0.67916167,-187.681,1251.991,8.541,0,-0.00040999998,-1.16841
276.91666,2000,0,91.24,0.000002697398,0.000002697398,0.000002697398,0.99999994,0,0,0,0,0,0,0,1,0,0,0,false,false,true,-585.49,-395.38,16.99,-0.0034931304,-0.0032827335,0.73727155,-0.67557937,-185.30101,1251.8309,8.541,0,-0.00040999998,-1.20381
276.925,2000,0,91.24,0.000002697398,0.000002697398,0.000002697398,0.99999994,0,0,0,0,0,0,0,1,0,0,0,false,false,true,-587.02997,-384.94998,16.99,-0.003509315,-0.003266549,0.7406506,-0.67187315,-182.771,1251.651,8.541,0,-0.00040999998,-1.23811
276.93332,2000,0,91.24,0.000002697398,0.000002697398,0.000002697398,0.99999994,0,0,0,0,0,0,0,1,0,0,0,false,false,true,-588.55,-374.52,16.99,-0.0035254995,-0.00324497,0.7441073,-0.6680429,-180.101,1251.4509,8.541,0,-0.00040999998,-1.27131
276.94168,2000,0,91.24,0.000002697398,0.000002697398,0.000002697398,0.99999994,0,0,0,0,0,0,0,1,0,0,0,false,false,true,-590.05,-364.09,16.99,-0.0035416838,-0.0032233908,0.7476338,-0.66409385,-177.281,1251.231,8.541,0,-0.00040999998,-1.30351
276.95,2000,0,91.24,0.000002697398,0.000002697398,0.000002697398,0.99999994,0,0,0,0,0,0,0,1,0,0,0,false,false,true,-591.52997,-353.66,16.99,-0.003557868,-0.0032018116,0.751232,-0.66002077,-174.311,1250.981,8.541,0,-0.00040999998,-1.33471
276.95834,2000,0,91.24,0.000002697398,0.000002697398,0.000002697398,0.99999994,0,0,0,0,0,0,0,1,0,0,0,false,false,true,-592.98,-343.24,16.99,-0.0035794473,-0.0031802324,0.7548895,-0.6558344,-171.201,1250.7009,8.541,0,-0.00040999998,-1.36491
276.96667,2000,0,91.24,0.000002697398,0.000002697398,0.000002697398,0.99999994,0,0,0,0,0,0,0,1,0,0,0,false,false,true,-594.41,-332.82,16.99,-0.0036010265,-0.0031586532,0.7586082,-0.6515293,-167.94101,1250.381,8.541,0,-0.00040999998,-1.39421
276.975,2000,0,91.24,0.000002697398,0.000002697398,0.000002697398,0.99999994,0,0,0,0,0,0,0,1,0,0,0,false,false,true,-595.81,-322.4,16.99,-0.0036226057,-0.003137074,0.7623807,-0.64711094,-164.541,1250.021,8.541,0,-0.00040999998,-1.42251
276.98334,2000,0,91.24,0.000002697398,0.000002697398,0.000002697398,0.99999994,0,0,0,0,0,0,0,1,0,0,0,false,false,true,-597.18,-311.97998,16.99,-0.003644185,-0.0031154947,0.76620406,-0.6425793,-160.991,1249.621,8.541,0,-0.00030999997,-1.4499099
276.99167,2000,0,91.24,0.000002697398,0.000002697398,0.000002697398,0.99999994,0,0,0,0,0,0,0,1,0,0,0,false,false,true,-598.51996,-301.57,16.99,-0.003665764,-0.0030939155,0.77007127,-0.63793975,-157.30101,1249.1709,8.541,0,-0.00030999997,-1.47641
277,2000,0,91.24,0.000002697398,0.000002697398,0.000002697398,0.99999994,0,0,0,0,0,0,0,1,0,0,0,false,false,true,-599.83,-291.16,16.99,-0.003687343,-0.0030723363,0.77397954,-0.6331923,-153.47101,1248.6609,8.541,0,-0.00030999997,-1.50201
277.00833,2000,0,91.24,0.000002697398,0.000002697398,0.000002697398,0.99999994,0,0,0,0,0,0,0,1,0,0,0,false,false,true,-601.11,-280.75,16.99,-0.0037089223,-0.003050757,0.7779264,-0.62833697,-149.501,1248.101,8.541,0,-0.00030999997,-1.52671
277.01666,2000,0,91.24,0.000002697398,0.000002697398,0.000002697398,0.99999994,0,0,0,0,0,0,0,1,0,0,0,false,false,true,-602.36,-270.35,16.99,-0.003730501,-0.003023783,0.78190917,-0.6233737,-145.401,1247.481,8.541,0,-0.00030999997,-1.5505099
277.025,2000,0,91.24,0.000002697398,0.000002697398,0.000002697398,0.99999994,0,0,0,0,0,0,0,1,0,0,0,false,false,true,-603.57,-259.94998,16.99,-0.0037520807,-0.0029968093,0.7859211,-0.618308,-141.16101,1246.7909,8.541,0,-0.00021,-1.5735099
277.03333,2000,0,91.24,0.000002697398,0.000002697398,0.000002697398,0.99999994,0,0,0,0,0,0,0,1,0,0,0,false,false,true,-604.75,-249.56,16.99,-0.00377366,-0.0029698352,0.7899597,-0.6131398,-136.791,1246.031,8.541,0,-0.00010999999,-1.5957099
277.04166,2000,0,91.24,0.000002697398,0.000002697398,0.000002697398,0.99999994,0,0,0,0,0,0,0,1,0,0,0,false,false,true,-605.89,-239.18,16.99,-0.0037952391,-0.0029428613,0.7940185,-0.60787445,-132.291,1245.2009,8.541,0,-0.00010999999,-1.61711
277.05,2000,0,91.24,0.000002697398,0.000002697398,0.000002697398,0.99999994,0,0,0,0,0,0,0,1,0,0,0,false,false,true,-606.99,-228.79999,16.99,-0.0038168184,-0.0029158874,0.7980953,-0.602512,-127.671,1244.2909,8.541,0,-0.00010999999,-1.63771
277.05832,2000,0,91.24,0.000002697398,0.000002697398,0.000002697398,0.99999994,0,0,0,0,0,0,0,1,0,0,0,false,false,true,-608.05,-218.43,16.99,-0.0038383978,-0.0028889135,0.80218774,-0.5970525,-122.931,1243.3009,8.541,0,0,-1.6575099
277.06668,2000,0,91.24,0.000002697398,0.000002697398,0.000002697398,0.99999994,0,0,0,0,0,0,0,1,0,0,0,false,false,true,-609.07,-208.06999,16.99,-0.0038599768,-0.0028619394,0.80629367,-0.5914958,-118.071,1242.221,8.541,0,0,-1.67651
277.075,2000,0,91.24,0.000002697398,0.000002697398,0.000002697398,0.99999994,0,0,0,0,0,0,0,1,0,0,0,false,false,true,-610.05,-197.72,16.99,-0.003881556,-0.0028349655,0.81040704,-0.58584744,-113.101,1241.0509,8.541,0,0,-1.6948099
277.08334,2000,0,91.24,0.000002697398,0.000002697398,0.000002697398,0.99999994,0,0,0,0,0,0,0,1,0,0,0,false,false,true,-610.99,-187.37999,16.99,-0.003903135,-0.0028079913,0.8145258,-0.5801073,-108.020996,1239.7909,8.541,0,0,-1.71231
277.09167,2000,0,91.24,0.000002697398,0.000002697398,0.000002697398,0.99999994,0,0,0,0,0,0,0,1,0,0,0,false,false,true,-611.89,-177.05,16.99,-0.003924714,-0.0027810175,0.8186441,-0.5742809,-102.83099,1238.4409,8.541,-0.00010999999,0,-1.72911
277.1,2000,0,91.24,0.000002697398,0.000002697398,0.000002697398,0.99999994,0,0,0,0,0,0,0,1,0,0,0,false,false,true,-612.75,-166.73,16.99,-0.003946293,-0.0027540433,0.82276016,-0.5683682,-97.541,1236.991,8.541,-0.00010999999,0,-1.7452099
277.10834,2000,0,91.24,0.000002697398,0.000002697398,0.000002697398,0.99999994,0,0,0,0,0,0,0,1,0,0,0,false,false,true,-613.56,-156.42,16.99,-0.0039678724,-0.0027270694,0.82687217,-0.56236917,-92.160995,1235.4309,8.541,-0.00021,0,-1.76051
277.11667,2000,0,91.24,0.000002697398,0.000002697398,0.000002697398,0.99999994,0,0,0,0,0,0,0,1,0,0,0,false,false,true,-614.32996,-146.12,16.99,-0.0039894516,-0.0026947006,0.8309747,-0.5562892,-86.690994,1233.771,8.541,-0.00030999997,0,-1.77511
277.125,2000,0,91.24,0.000002697398,0.000002697398,0.000002697398,0.99999994,0,0,0,0,0,0,0,1,0,0,0,false,false,true,-615.05,-135.84,16.99,-0.004011031,-0.0026623318,0.83506614,-0.55012834,-81.131,1232.001,8.541,-0.00030999997,0,-1.78911
277.13333,2000,0,91.24,0.000002697398,0.000002697398,0.000002697398,0.99999994,0,0,0,0,0,0,0,1,0,0,0,false,false,true,-615.73,-125.57,16.99,-0.00403261,-0.002629963,0.8391449,-0.5438865,-75.491,1230.121,8.541,-0.00030999997,0,-1.80241
277.14166,2000,0,91.24,0.000002697398,0.000002697398,0.000002697398,0.99999994,0,0,0,0,0,0,0,1,0,0,0,false,false,true,-616.36,-115.32,16.99,-0.004054189,-0.0025975944,0.8432058,-0.5375692,-69.770996,1228.131,8.541,-0.00030999997,0,-1.81501
277.15,2000,0,91.24,0.000002697398,0.000002697398,0.000002697398,0.99999994,0,0,0,0,0,0,0,1,0,0,0,false,false,true,-616.94,-105.09,16.99,-0.0040703737,-0.0025652256,0.84724754,-0.5311763,-63.981,1226.021,8.541,-0.00030999997,0,-1.82691
277.15833,2000,0,91.24,0.000002697398,0.000002697398,0.000002697398,0.99999994,0,0,0,0,0,0,0,1,0,0,0,false,false,true,-617.47,-94.869995,16.99,-0.004086558,-0.0025328568,0.8512653,-0.52471334,-58.121,1223.7909,8.541,-0.00021,0,-1.83821
277.16666,2000,0,91.24,0.000002697398,0.000002697398,0.000002697398,0.99999994,0,0,0,0,0,0,0,1,0,0,0,false,false,true,-617.95,-84.67,16.99,-0.0041027428,-0.0025004882,0.8552579,-0.51818025,-52.200996,1221.4409,8.541,-0.00021,0,-1.84891
277.175,2000,0,91.24,0.000002697398,0.000002697398,0.000002697398,0.99999994,0,0,0,0,0,0,0,1,0,0,0,false,false,true,-618.38,-74.49,16.99,-0.004118927,-0.0024681191,0.85922396,-0.51157695,-46.231,1218.971,8.541,-0.00010999999,0,-1.85891
277.18332,2000,0,91.24,0.000002697398,0.000002697398,0.000002697398,0.99999994,0,0,0,0,0,0,0,1,0,0,0,false,false,true,-618.76996,-64.33,16.99,-0.0041351113,-0.0024357506,0.8631592,-0.50490904,-40.211,1216.381,8.541,-0.00010999999,0,-1.86831
277.19168,2000,0,91.24,0.000002697398,0.000002697398,0.000002697398,0.99999994,0,0,0,0,0,0,0,1,0,0,0,false,false,true,-619.1,-54.19,16.99,-0.0041512954,-0.0024033815,0.86706245,-0.49817625,-34.141,1213.6709,8.541,0,0,-1.87711
277.2,2000,0,91.24,0.000002697398,0.000002697398,0.000002697398,0.99999994,0,0,0,0,0,0,0,1,0,0,0,false,false,true,-619.38,-44.079998,16.99,-0.0041674795,-0.0023710127,0.87093264,-0.49137872,-28.030998,1210.8309,8.541,0,0,-1.8852099
277.20834,2000,0,91.24,0.000002697398,0.000002697398,0.000002697398,0.99999994,0,0,0,0,0,0,0,1,0,0,0,false,false,true,-619.61,-33.989998,16.99,-0.0041836645,-0.0023386441,0.8747659,-0.48452199,-21.890999,1207.871,8.551001,0,0,-1.89271
277.21667,2000,0,91.24,0.000002697398,0.000002697398,0.000002697398,0.99999994,0,0,0,0,0,0,0,1,0,0,0,false,false,true,-619.79,-23.92,16.99,-0.004199849,-0.0023062755,0.87856114,-0.47760585,-15.721,1204.781,8.551001,0,-0.00010999999,-1.8996099
277.225,2000,0,91.24,0.000002697398,0.000002697398,0.000002697398,0.99999994,0,0,0,0,0,0,0,1,0,0,0,false,false,true,-619.92,-13.88,16.99,-0.004216033,-0.0022739065,0.88231456,-0.47063568,-9.521,1201.5609,8.551001,0,-0.00010999999,-1.90591
277.23334,2000,0,91.24,0.000002697398,0.000002697398,0.000002697398,0.99999994,0,0,0,0,0,0,0,1,0,0,0,false,false,true,-620,-3.87,16.99,-0.0042322176,-0.0022415377,0.8860255,-0.46361166,-3.3109999,1198.221,8.551001,0,-0.00021,-1.91171
277.24167,2000,0,91.24,0.000002697398,0.000002697398,0.000002697398,0.99999994,0,0,0,0,0,0,0,1,0,0,0,false,false,true,-620.02997,6.12,16.99,-0.0042484016,-0.0022091689,0.8896904,-0.4565391,2.9009998,1194.751,8.551001,0,-0.00021,-1.9169099
277.25,2000,0,91.24,0.000002697398,0.000002697398,0.000002697398,0.99999994,0,0,0,0,0,0,0,1,0,0,0,false,false,true,-620.01,16.08,16.99,-0.004264586,-0.0021768003,0.89330876,-0.4494179,9.121,1191.151,8.551001,0,-0.00030999997,-1.92151
277.25833,2000,0,91.24,0.000002697398,0.000002697398,0.000002697398,0.99999994,0,0,0,0,0,0,0,1,0,0,0,false,false,true,-619.93,26.01,16.99,-0.00428077,-0.0021444312,0.8968771,-0.44225353,15.341,1187.4309,8.551001,0,-0.00030999997,-1.9255099
277.26666,2000,0,91.24,0.000002697398,0.000002697398,0.000002697398,0.99999994,0,0,0,0,0,0,0,1,0,0,0,false,false,true,-619.8,35.91,16.99,-0.004296955,-0.0021120626,0.90039533,-0.43504614,21.560999,1183.5809,8.551001,0,-0.00040999998,-1.92891
277.275,2000,0,91.24,0.000002697398,0.000002697398,0.000002697398,0.99999994,0,0,0,0,0,0,0,1,0,0,0,false,false,true,-619.62,45.77,16.99,-0.0043131392,-0.002074299,0.90386283,-0.42779544,27.770998,1179.611,8.551001,0,-0.00040999998,-1.93181
277.28333,2000,0,91.24,0.000002697398,0.000002697398,0.000002697398,0.99999994,0,0,0,0,0,0,0,1,0,0,0,false,false,true,-619.39,55.6,16.99,-0.004329324,-0.0020365354,0.9072766,-0.42050707,33.970997,1175.511,8.551001,0,-0.00040999998,-1.9341099
277.29166,2000,0,91.24,0.000002697398,0.000002697398,0.000002697398,0.99999994,0,0,0,0,0,0,0,1,0,0,0,false,false,true,-619.11,65.4,16.99,-0.0043455083,-0.001998772,0.9106363,-0.41318095,40.150997,1171.2909,8.551001,0,-0.00040999998,-1.93591
277.3,2000,0,91.24,0.000002697398,0.000002697398,0.000002697398,0.99999994,0,0,0,0,0,0,0,1,0,0,0,false,false,true,-618.77997,75.159996,16.99,-0.004361693,-0.0019610086,0.9139394,-0.4058224,46.301,1166.9509,8.551001,0,-0.00040999998,-1.93711
277.30832,2000,0,91.24,0.000002697398,0.000002697398,0.000002697398,0.99999994,0,0,0,0,0,0,0,1,0,0,0,false,false,true,-618.39,84.88,16.99,-0.004377877,-0.0019232448,0.91718554,-0.39843148,52.420998,1162.491,8.551001,0,-0.00040999998,-1.93781
277.31668,2000,0,91.24,0.000002697398,0.000002697398,0.000002697398,0.99999994,0,0,0,0,0,0,0,1,0,0,0,false,false,true,-617.95,94.57,16.99,-0.0043940614,-0.0018854813,0.92037237,-0.39101365,58.510998,1157.911,8.551001,0,-0.00040999998,-1.93791
277.325,2000,0,91.24,0.000002697398,0.000002697398,0.000002697398,0.99999994,0,0,0,0,0,0,0,1,0,0,0,false,false,true,-617.45996,104.22,16.99,-0.0044102455,-0.0018477177,0.9234999,-0.38356873,64.561,1153.221,8.551001,0,-0.00040999998,-1.93751
277.33334,2000,0,91.24,0.000002697398,0.000002697398,0.000002697398,0.99999994,0,0,0,0,0,0,0,1,0,0,0,false,false,true,-616.92,113.829994,16.99,-0.00442643,-0.0018099541,0.9265657,-0.37610233,70.571,1148.411,8.551001,0,-0.00040999998,-1.93661
277.34167,2000,0,91.24,0.000002697398,0.000002697398,0.000002697398,0.99999994,0,0,0,0,0,0,0,1,0,0,0,false,false,true,-616.32996,123.399994,16.99,-0.0044426145,-0.0017721906,0.92957,-0.36861438,76.531,1143.491,8.551001,0,-0.00040999998,-1.93511
277.35,2000,0,91.24,0.000002697398,0.000002697398,0.000002697398,0.99999994,0,0,0,0,0,0,0,1,0,0,0,false,false,true,-615.69,132.93,16.99,-0.004458799,-0.001734427,0.93251294,-0.36110473,82.431,1138.471,8.551001,0,-0.00040999998,-1.93311
277.35834,2000,0,91.24,0.000002697398,0.000002697398,0.000002697398,0.99999994,0,0,0,0,0,0,0,1,0,0,0,false,false,true,-615,142.42,16.99,-0.004474983,-0.0016966634,0.93539035,-0.35358438,88.281,1133.341,8.551001,0,-0.00030999997,-1.93061
277.36667,2000,0,91.24,0.000002697398,0.000002697398,0.000002697398,0.99999994,0,0,0,0,0,0,0,1,0,0,0,false,false,true,-614.26,151.86,16.99,-0.004491167,-0.0016588996,0.9382045,-0.34604776,94.071,1128.111,8.551001,0,-0.00030999997,-1.9276099
277.375,2000,0,91.24,0.000002697398,0.000002697398,0.000002697398,0.99999994,0,0,0,0,0,0,0,1,0,0,0,false,false,true,-613.48,161.26,16.99,-0.004507352,-0.0016211362,0.94095397,-0.33850047,99.791,1122.781,8.551001,0,-0.00021,-1.9241099
277.38333,2000,0,91.24,0.000002697398,0.000002697398,0.000002697398,0.99999994,0,0,0,0,0,0,0,1,0,0,0,false,false,true,-612.64996,170.62,16.99,-0.0045235357,-0.0015833726,0.9436368,-0.3309477,105.440994,1117.351,8.551001,0,-0.00021,-1.92011
