time,ball_loc_x,ball_loc_y,ball_loc_z,ball_rot_x,ball_rot_y,ball_rot_z,ball_rot_w,ball_vel_x,ball_vel_y,ball_vel_z,ball_ang_x,ball_ang_y,ball_ang_z,player0_throttle,player0_steer,player0_pitch,player0_yaw,player0_roll,player0_jump,player0_boost,player0_handbrake,player0_loc_x,player0_loc_y,player0_loc_z,player0_rot_x,player0_rot_y,player0_rot_z,player0_rot_w,player0_vel_x,player0_vel_y,player0_vel_z,player0_ang_x,player0_ang_y,player0_ang_z
8.825,2000,0,91.24,0.000002697398,0.000002697398,0.000002697398,0.99999994,0,0,0,0,0,0,0,0,0,0,0,false,false,false,0,0.14999999,17.01,-0.00336905,0.0033798397,0.7071014,0.7070959,0,0.011,8.321,-0.00051,0,0
8.833333,2000,0,73,0.000002697398,0.000002697398,0.000002697398,0.99999994,0,0,0,0,0,0,0,1,0,0,0,false,false,true,0,0,16.94,0.0000026973983,0.0000026973983,0.70710677,0.70710677,0.031,0.011,2.041,-0.050809998,0,-0.00071
8.841666,2000,0,87.6,0.000002697398,0.000002697398,0.000002697398,0.99999994,0,0,0,0,0,0,0,1,0,0,0,false,false,true,0,0,16.89,-0.00014835689,0.00015375168,0.7071067,0.7071067,0.071,0.031,3.8809998,-0.085609995,0,-0.0018099999
8.85,2000,0,90.52,0.000002697398,0.000002697398,0.000002697398,0.99999994,0,0,0,0,0,0,0,1,0,0,0,false,false,true,0,0,16.85,-0.00040191232,0.00040730712,0.7071013,0.7071119,0.111,0.050999995,5.481,-0.107209995,0,-0.00301
8.858334,2000,0,91.1,0.000002697398,0.000002697398,0.000002697398,0.99999994,0,0,0,0,0,0,0,1,0,0,0,false,false,true,0,0,16.83,-0.00072020525,0.00072560005,0.7070905,0.7071222,0.151,0.071,6.791,-0.116409995,0,-0.00411
8.866667,2000,0,91.22,0.000002697398,0.000002697398,0.000002697398,0.99999994,0,0,0,0,0,0,0,1,0,0,0,false,false,true,0,0,16.82,-0.001065472,0.0010708668,0.70707965,0.7071321,0.181,0.091,7.7409997,-0.11491,0,-0.00501
8.875,2000,0,91.24,0.000002697398,0.000002697398,0.000002697398,0.99999994,0,0,0,0,0,0,0,1,0,0,0,false,false,true,0,0,16.82,-0.0014053442,0.001410739,0.7070635,0.70714706,0.20099999,0.100999996,8.431,-0.10691,0,-0.00561
8.883333,2000,0,91.24,0.000002697398,0.000002697398,0.000002697398,0.99999994,0,0,0,0,0,0,0,1,0,0,0,false,false,true,0,0,16.82,-0.0017182425,0.0017236373,0.70704734,0.7071619,0.211,0.111,8.9210005,-0.09560999,0,-0.00601
8.891666,2000,0,91.24,0.000002697398,0.000002697398,0.000002697398,0.99999994,0,0,0,0,0,0,0,1,0,0,0,false,false,true,0,0,16.83,-0.0019987717,0.0020041664,0.70703113,0.70717657,0.211,0.111,9.281,-0.082909994,0,-0.00621
8.9,2000,0,91.24,0.000002697398,0.000002697398,0.000002697398,0.99999994,0,0,0,0,0,0,0,1,0,0,0,false,false,true,0,0,16.84,-0.0022415377,0.0022469326,0.7070096,0.7071967,0.211,0.111,9.521,-0.07010999,0,-0.00621
8.908334,2000,0,91.24,0.000002697398,0.000002697398,0.000002697398,0.99999994,0,0,0,0,0,0,0,1,0,0,0,false,false,true,0,0,16.85,-0.00244654,0.0024519349,0.70698804,0.7072169,0.20099999,0.111,9.6710005,-0.05811,0,-0.00611
8.916667,2000,0,91.24,0.000002697398,0.000002697398,0.000002697398,0.99999994,0,0,0,0,0,0,0,1,0,0,0,false,false,true,0,0,16.859999,-0.0026191734,0.0026245683,0.7069718,0.7072319,0.191,0.100999996,9.761001,-0.047209997,0,-0.00591
8.925,2000,0,91.24,0.000002697398,0.000002697398,0.000002697398,0.99999994,0,0,0,0,0,0,0,1,0,0,0,false,false,true,0,0,16.869999,-0.0027594382,0.002764833,0.7069557,0.70724696,0.181,0.091,9.811,-0.037709996,0,-0.0057099997
8.933333,2000,0,91.24,0.000002697398,0.000002697398,0.000002697398,0.99999994,0,0,0,0,0,0,0,1,0,0,0,false,false,true,0,0,16.88,-0.002872729,0.0028781237,0.70693946,0.7072623,0.171,0.081,9.831,-0.02961,0,-0.0054099998
8.941667,2000,0,91.24,0.000002697398,0.000002697398,0.000002697398,0.99999994,0,0,0,0,0,0,0,1,0,0,0,false,false,true,0,0,16.89,-0.0029590456,0.0029644405,0.7069233,0.7072777,0.161,0.071,9.811,-0.02321,0,-0.00511
8.95,2000,0,91.24,0.000002697398,0.000002697398,0.000002697398,0.99999994,0,0,0,0,0,0,0,1,0,0,0,false,false,true,0,0,16.9,-0.003029178,0.0030345728,0.7069071,0.70729333,0.151,0.060999997,9.761001,-0.01861,0,-0.00481
8.958333,2000,0,91.24,0.000002697398,0.000002697398,0.000002697398,0.99999994,0,0,0,0,0,0,0,1,0,0,0,false,false,true,0,0,16.91,-0.003083126,0.0030885208,0.70689094,0.707309,0.141,0.050999995,9.681,-0.015109999,0,-0.00461
8.966666,2000,0,91.24,0.000002697398,0.000002697398,0.000002697398,0.99999994,0,0,0,0,0,0,0,1,0,0,0,false,false,true,0,0,16.92,-0.0031262846,0.0031316795,0.7068748,0.7073248,0.131,0.040999997,9.591001,-0.012409999,0,-0.00441
8.975,2000,0,91.24,0.000002697398,0.000002697398,0.000002697398,0.99999994,0,0,0,0,0,0,0,1,0,0,0,false,false,true,0,0,16.93,-0.0031640478,0.0031694428,0.70686394,0.70733523,0.121,0.031,9.491,-0.01041,0,-0.00421
8.983334,2000,0,91.24,0.000002697398,0.000002697398,0.000002697398,0.99999994,0,0,0,0,0,0,0,1,0,0,0,false,false,true,0,0,16.94,-0.0031964167,0.0032018116,0.70685315,0.7073457,0.111,0.021,9.391,-0.00881,0,-0.00401
8.991667,2000,0,91.24,0.000002697398,0.000002697398,0.000002697398,0.99999994,0,0,0,0,0,0,0,1,0,0,0,false,false,true,0,0,16.949999,-0.0032233908,0.0032287855,0.70684236,0.7073563,0.100999996,0.011,9.281,-0.00741,0,-0.00381
9,2000,0,91.24,0.000002697398,0.000002697398,0.000002697398,0.99999994,0,0,0,0,0,0,0,1,0,0,0,false,false,true,0,0,16.96,-0.00324497,0.003250365,0.70683163,0.7073669,0.091,0,9.1710005,-0.00631,0,-0.00371
9.008333,2000,0,91.24,0.000002697398,0.000002697398,0.000002697398,0.99999994,0,0,0,0,0,0,0,1,0,0,0,false,false,true,0,0,16.97,-0.0032611543,0.003266549,0.7068208,0.7073775,0.081,0,9.061,-0.0054099998,0,-0.00361
9.016666,2000,0,91.24,0.000002697398,0.000002697398,0.000002697398,0.99999994,0,0,0,0,0,0,0,1,0,0,0,false,false,true,0,0,16.98,-0.0032773386,0.0032827335,0.70681,0.7073881,0.071,0,8.951,-0.00471,0,-0.00351
9.025,2000,0,91.24,0.000002697398,0.000002697398,0.000002697398,0.99999994,0,0,0,0,0,0,0,1,0,0,0,false,false,true,0,0,16.99,-0.0032935233,0.003298918,0.70679927,0.7073988,0.071,0,8.841001,-0.00411,0,-0.00341
9.033334,2000,0,91.24,0.000002697398,0.000002697398,0.000002697398,0.99999994,0,0,0,0,0,0,0,1,0,0,0,false,false,true,0,0,17,-0.0033043127,0.0033097074,0.7067884,0.70740944,0.071,0,8.731,-0.00351,0,-0.00331
9.041667,2000,0,91.24,0.000002697398,0.000002697398,0.000002697398,0.99999994,0,0,0,0,0,0,0,1,0,0,0,false,false,true,0,0,17.01,-0.0033151023,0.003320497,0.70677763,0.7074201,0.071,0,8.621,-0.00311,0,-0.00321
9.05,2000,0,91.24,0.000002697398,0.000002697398,0.000002697398,0.99999994,0,0,0,0,0,0,0,1,0,0,0,false,false,true,0,0,17.01,-0.003325892,0.0033312866,0.70676684,0.7074308,0.071,0,8.511001,-0.00271,0,-0.00311
9.058333,2000,0,91.24,0.000002697398,0.000002697398,0.000002697398,0.99999994,0,0,0,0,0,0,0,1,0,0,0,false,false,true,0,0,17.01,-0.0033312866,0.0033366815,0.70675606,0.7074415,0.071,0,8.441,-0.0023100001,0,-0.00301
9.066667,2000,0,91.24,0.000002697398,0.000002697398,0.000002697398,0.99999994,0,0,0,0,0,0,0,1,0,0,0,false,false,true,0,0,17.01,-0.0033366815,0.0033420762,0.70674527,0.70745224,0.071,0,8.391,-0.00201,0,-0.00291
9.075,2000,0,91.24,0.000002697398,0.000002697398,0.000002697398,0.99999994,0,0,0,0,0,0,0,1,0,0,0,false,false,true,0,0,17.01,-0.0033420762,0.003347471,0.7067345,0.70746297,0.071,0,8.361,-0.0018099999,0,-0.00281
9.083333,2000,0,91.24,0.000002697398,0.000002697398,0.000002697398,0.99999994,0,0,0,0,0,0,0,1,0,0,0,false,false,true,0,0,17.01,-0.0033474711,0.003352866,0.70672375,0.7074737,0.071,0,8.341001,-0.0016099999,0,-0.00271
9.091666,2000,0,91.24,0.000002697398,0.000002697398,0.000002697398,0.99999994,0,0,0,0,0,0,0,1,0,0,0,false,false,true,0,0,17.01,-0.0033528658,0.0033582605,0.70671827,0.70747906,0.071,0,8.331,-0.0014099999,0,-0.00261
9.1,2000,0,91.24,0.000002697398,0.000002697398,0.000002697398,0.99999994,0,0,0,0,0,0,0,1,0,0,0,false,false,true,0,0,17.01,-0.0033582605,0.0033636554,0.7067129,0.70748436,0.071,0,8.321,-0.0012099999,0,-0.00251
9.108334,2000,0,91.24,0.000002697398,0.000002697398,0.000002697398,0.99999994,0,0,0,0,0,0,0,1,0,0,0,false,false,true,0,0,17.01,-0.0033636554,0.00336905,0.7067075,0.7074897,0.071,0,8.321,-0.00111,0,-0.00241
9.116667,2000,0,91.24,0.000002697398,0.000002697398,0.000002697398,0.99999994,0,0,0,0,0,0,0,1,0,0,0,false,false,true,0,0,17.01,-0.00336905,0.003374445,0.7067021,0.70749503,0.071,0,8.321,-0.00091,0,-0.0023100001
9.125,2000,0,91.24,0.000002697398,0.000002697398,0.000002697398,0.99999994,0,0,0,0,0,0,0,1,0,0,0,false,false,true,0,0,17.01,-0.00336905,0.0033798397,0.7066967,0.70750046,0.071,0,8.321,-0.00071,0,-0.00221
9.133333,2000,0,91.24,0.000002697398,0.000002697398,0.000002697398,0.99999994,0,0,0,0,0,0,0,1,0,0,0,false,false,true,0,0,17.01,-0.00336905,0.0033798397,0.7066913,0.70750576,0.071,0,8.321,-0.00061,0,-0.00211
9.141666,2000,0,91.24,0.000002697398,0.000002697398,0.000002697398,0.99999994,0,0,0,0,0,0,0,1,0,0,0,false,false,true,0,0,17.01,-0.00336905,0.0033798397,0.7066859,0.7075112,0.071,0,8.321,-0.00051,0,-0.00201
9.15,2000,0,91.24,0.000002697398,0.000002697398,0.000002697398,0.99999994,0,0,0,0,0,0,0,1,0,0,0,false,false,true,0,0,17.01,-0.00336905,0.0033798397,0.70668054,0.70751655,0.071,0,8.321,-0.00051,0,-0.0019099999
9.158334,2000,0,91.24,0.000002697398,0.000002697398,0.000002697398,0.99999994,0,0,0,0,0,0,0,1,0,0,0,false,false,true,0,0,17.01,-0.00336905,0.0033798397,0.7066751,0.707522,0.071,0,8.321,-0.00051,0,-0.0018099999
9.166667,2000,0,91.24,0.000002697398,0.000002697398,0.000002697398,0.99999994,0,0,0,0,0,0,0,1,0,0,0,false,false,true,0,0,17.01,-0.0033690503,0.00337984,0.7066698,0.70752734,0.071,0,8.321,-0.00051,0,-0.0017099999
9.175,2000,0,91.24,0.000002697398,0.000002697398,0.000002697398,0.99999994,0,0,0,0,0,0,0,1,0,0,0,false,false,true,0,0,17.01,-0.00336905,0.0033798397,0.7066643,0.70753276,0.071,0,8.321,-0.00051,0,-0.0016099999
9.183333,2000,0,91.24,0.000002697398,0.000002697398,0.000002697398,0.99999994,0,0,0,0,0,0,0,1,0,0,0,false,false,true,0,0,17.01,-0.0033690503,0.00337984,0.706659,0.7075381,0.071,0,8.321,-0.00051,0,-0.00151
9.191667,2000,0,91.24,0.000002697398,0.000002697398,0.000002697398,0.99999994,0,0,0,0,0,0,0,1,0,0,0,false,false,true,0,0,17.01,-0.00336905,0.0033798397,0.70665354,0.70754355,0.071,0,8.321,-0.00051,0,-0.0014099999
9.2,2000,0,91.24,0.000002697398,0.000002697398,0.000002697398,0.99999994,0,0,0,0,0,0,0,1,0,0,0,false,false,true,0,0,17.01,-0.00336905,0.0033798397,0.7066482,0.70754886,0.071,0,8.321,-0.00051,0,-0.00131
9.208333,2000,0,91.24,0.000002697398,0.000002697398,0.000002697398,0.99999994,0,0,0,0,0,0,0,1,0,0,0,false,false,true,0,0,17.01,-0.0033690503,0.00337984,0.7066428,0.70755434,0.071,0,8.321,-0.00051,0,-0.0012099999
9.216666,2000,0,91.24,0.000002697398,0.000002697398,0.000002697398,0.99999994,0,0,0,0,0,0,0,1,0,0,0,false,false,true,0,0,17.01,-0.00336905,0.0033798397,0.7066374,0.70755965,0.071,0,8.321,-0.00051,0,-0.00111
9.225,2000,0,91.24,0.000002697398,0.000002697398,0.000002697398,0.99999994,0,0,0,0,0,0,0,1,0,0,0,false,false,true,0,0,17.01,-0.00336905,0.0033798397,0.70663196,0.70756507,0.071,0,8.321,-0.00051,0,-0.0010099999
9.233334,2000,0,91.24,0.000002697398,0.000002697398,0.000002697398,0.99999994,0,0,0,0,0,0,0,1,0,0,0,false,false,true,0,0,17.01,-0.00336905,0.0033798397,0.7066266,0.70757043,0.071,0,8.321,-0.00051,0,-0.0010099999
9.241667,2000,0,91.24,0.000002697398,0.000002697398,0.000002697398,0.99999994,0,0,0,0,0,0,0,1,0,0,0,false,false,true,0,0,17.01,-0.00336905,0.0033798397,0.70662117,0.70757586,0.071,0,8.321,-0.00051,0,-0.0010099999
9.25,2000,0,91.24,0.000002697398,0.000002697398,0.000002697398,0.99999994,0,0,0,0,0,0,0,1,0,0,0,false,false,true,0,0,17.01,-0.00336905,0.0033798397,0.7066158,0.7075812,0.071,0,8.321,-0.00051,0,-0.0010099999
9.258333,2000,0,91.24,0.000002697398,0.000002697398,0.000002697398,0.99999994,0,0,0,0,0,0,0,1,0,0,0,false,false,true,0,0,17.01,-0.0033690503,0.00337984,0.70661044,0.70758665,0.071,0,8.321,-0.00051,0,-0.0010099999
9.266666,2000,0,91.24,0.000002697398,0.000002697398,0.000002697398,0.99999994,0,0,0,0,0,0,0,1,0,0,0,false,false,true,0,0,17.01,-0.00336905,0.0033798397,0.706605,0.707592,0.071,0,8.321,-0.00051,0,-0.0010099999
9.275,2000,0,91.24,0.000002697398,0.000002697398,0.000002697398,0.99999994,0,0,0,0,0,0,0,1,0,0,0,false,false,true,0,0,17.01,-0.00336905,0.0033798397,0.7065996,0.7075974,0.071,0,8.321,-0.00051,0,-0.0010099999
9.283334,2000,0,91.24,0.000002697398,0.000002697398,0.000002697398,0.99999994,0,0,0,0,0,0,0,1,0,0,0,false,false,true,0,0,17.01,-0.00336905,0.0033798397,0.7065942,0.7076028,0.071,0,8.321,-0.00051,0,-0.0010099999
9.291667,2000,0,91.24,0.000002697398,0.000002697398,0.000002697398,0.99999994,0,0,0,0,0,0,0,1,0,0,0,false,false,true,0,0,17.01,-0.00336905,0.0033798397,0.7065888,0.70760816,0.071,0,8.321,-0.00051,0,-0.0010099999
9.3,2000,0,91.24,0.000002697398,0.000002697398,0.000002697398,0.99999994,0,0,0,0,0,0,0,1,0,0,0,false,false,true,0,0,17.01,-0.00336905,0.0033798397,0.70658344,0.7076135,0.071,0,8.321,-0.00051,0,-0.0010099999
9.308333,2000,0,91.24,0.000002697398,0.000002697398,0.000002697398,0.99999994,0,0,0,0,0,0,0,1,0,0,0,false,false,true,0,0,17.01,-0.00336905,0.0033798397,0.706578,0.70761895,0.071,0,8.321,-0.00051,0,-0.0010099999
9.316667,2000,0,91.24,0.000002697398,0.000002697398,0.000002697398,0.99999994,0,0,0,0,0,0,0,1,0,0,0,false,false,true,0,0,17.01,-0.00336905,0.0033798397,0.70657265,0.7076243,0.071,0,8.321,-0.00051,0,-0.0010099999
9.325,2000,0,91.24,0.000002697398,0.000002697398,0.000002697398,0.99999994,0,0,0,0,0,0,0,1,0,0,0,false,false,true,0,0,17.01,-0.00336905,0.0033798397,0.7065672,0.70762974,0.071,0,8.321,-0.00051,0,-0.0010099999
9.333333,2000,0,91.24,0.000002697398,0.000002697398,0.000002697398,0.99999994,0,0,0,0,0,0,0,1,0,0,0,false,false,true,0,0,17.01,-0.00336905,0.0033798397,0.70656186,0.70763505,0.071,0,8.321,-0.00051,0,-0.0010099999
9.341666,2000,0,91.24,0.000002697398,0.000002697398,0.000002697398,0.99999994,0,0,0,0,0,0,0,1,0,0,0,false,false,true,0,0,17.01,-0.00336905,0.0033798397,0.70655644,0.70764047,0.071,0,8.321,-0.00051,0,-0.0010099999
9.35,2000,0,91.24,0.000002697398,0.000002697398,0.000002697398,0.99999994,0,0,0,0,0,0,0,1,0,0,0,false,false,true,0,0,17.01,-0.00336905,0.0033798397,0.7065511,0.70764583,0.071,0,8.321,-0.00051,0,-0.0010099999
9.358334,2000,0,91.24,0.000002697398,0.000002697398,0.000002697398,0.99999994,0,0,0,0,0,0,0,1,0,0,0,false,false,true,0,0,17.01,-0.00336905,0.0033798397,0.70654565,0.70765126,0.071,0,8.321,-0.00051,0,-0.0010099999
9.366667,2000,0,91.24,0.000002697398,0.000002697398,0.000002697398,0.99999994,0,0,0,0,0,0,0,1,0,0,0,false,false,true,0,0,17.01,-0.00336905,0.0033798397,0.7065402,0.7076567,0.071,0,8.321,-0.00051,0,-0.0010099999
9.375,2000,0,91.24,0.000002697398,0.000002697398,0.000002697398,0.99999994,0,0,0,0,0,0,0,1,0,0,0,false,false,true,0,0,17.01,-0.00336905,0.0033798397,0.70653486,0.70766205,0.071,0,8.321,-0.00051,0,-0.0010099999
9.383333,2000,0,91.24,0.000002697398,0.000002697398,0.000002697398,0.99999994,0,0,0,0,0,0,0,1,0,0,0,false,false,true,0,0,17.01,-0.00336905,0.0033798397,0.70652944,0.70766747,0.071,0,8.321,-0.00051,0,-0.0010099999
9.391666,2000,0,91.24,0.000002697398,0.000002697398,0.000002697398,0.99999994,0,0,0,0,0,0,0,1,0,0,0,false,false,true,0,0,17.01,-0.00336905,0.0033798397,0.7065241,0.7076728,0.071,0,8.321,-0.00051,0,-0.0010099999
9.4,2000,0,91.24,0.000002697398,0.000002697398,0.000002697398,0.99999994,0,0,0,0,0,0,0,1,0,0,0,false,false,true,0,0,17.01,-0.00336905,0.0033798397,0.70651865,0.7076782,0.071,0,8.321,-0.00051,0,-0.0010099999
9.408334,2000,0,91.24,0.000002697398,0.000002697398,0.000002697398,0.99999994,0,0,0,0,0,0,0,1,0,0,0,false,false,true,0,0,17.01,-0.00336905,0.0033798397,0.7065133,0.70768356,0.071,0,8.321,-0.00051,0,-0.0010099999
9.416667,2000,0,91.24,0.000002697398,0.000002697398,0.000002697398,0.99999994,0,0,0,0,0,0,0,1,0,0,0,false,false,true,0,0,17.01,-0.00336905,0.0033798397,0.70650786,0.707689,0.071,0,8.321,-0.00051,0,-0.0010099999
9.425,2000,0,91.24,0.000002697398,0.000002697398,0.000002697398,0.99999994,0,0,0,0,0,0,0,1,0,0,0,false,false,true,0,0,17.01,-0.00336905,0.0033798397,0.7065025,0.70769435,0.071,0,8.321,-0.00051,0,-0.0010099999
9.433333,2000,0,91.24,0.000002697398,0.000002697398,0.000002697398,0.99999994,0,0,0,0,0,0,0,1,0,0,0,false,false,true,0,0,17.01,-0.00336905,0.0033798397,0.7064971,0.7076997,0.071,0,8.321,-0.00051,0,-0.0010099999
9.441667,2000,0,91.24,0.000002697398,0.000002697398,0.000002697398,0.99999994,0,0,0,0,0,0,0,1,0,0,0,false,false,true,0,0,17.01,-0.00336905,0.0033798397,0.7064917,0.70770514,0.071,0,8.321,-0.00051,0,-0.0010099999
9.45,2000,0,91.24,0.000002697398,0.000002697398,0.000002697398,0.99999994,0,0,0,0,0,0,0,1,0,0,0,false,false,true,0,0,17.01,-0.00336905,0.0033798397,0.7064863,0.7077105,0.071,0,8.321,-0.00051,0,-0.0010099999
9.458333,2000,0,91.24,0.000002697398,0.000002697398,0.000002697398,0.99999994,0,0,0,0,0,0,0,1,0,0,0,false,false,true,0,0,17.01,-0.0033690496,0.0033798392,0.70648086,0.70771587,0.071,0,8.321,-0.00051,0,-0.0010099999
9.466666,2000,0,91.24,0.000002697398,0.000002697398,0.000002697398,0.99999994,0,0,0,0,0,0,0,1,0,0,0,false,false,true,0,0,17.01,-0.00336905,0.0033798397,0.7064755,0.7077213,0.071,0,8.321,-0.00051,0,-0.0010099999
9.475,2000,0,91.24,0.000002697398,0.000002697398,0.000002697398,0.99999994,0,0,0,0,0,0,0,1,0,0,0,false,false,true,0,0,17.01,-0.00336905,0.0033798397,0.70647013,0.70772666,0.071,0,8.321,-0.00051,0,-0.0010099999
9.483334,2000,0,91.24,0.000002697398,0.000002697398,0.000002697398,0.99999994,0,0,0,0,0,0,0,1,0,0,0,false,false,true,0,0,17.01,-0.00336905,0.0033798397,0.7064647,0.7077321,0.071,0,8.321,-0.00051,0,-0.0010099999
9.491667,2000,0,91.24,0.000002697398,0.000002697398,0.000002697398,0.99999994,0,0,0,0,0,0,0,1,0,0,0,false,false,true,0,0,17.01,-0.00336905,0.0033798397,0.70645934,0.70773745,0.071,0,8.321,-0.00051,0,-0.0010099999
9.5,2000,0,91.24,0.000002697398,0.000002697398,0.000002697398,0.99999994,0,0,0,0,0,0,0,1,0,0,0,false,false,true,0,0,17.01,-0.00336905,0.0033798397,0.7064539,0.70774287,0.071,0,8.321,-0.00051,0,-0.0010099999
9.508333,2000,0,91.24,0.000002697398,0.000002697398,0.000002697398,0.99999994,0,0,0,0,0,0,0,1,0,0,0,false,false,true,0,0,17.01,-0.0033690503,0.00337984,0.7064486,0.70774823,0.071,0,8.321,-0.00051,0,-0.0010099999
9.516666,2000,0,91.24,0.000002697398,0.000002697398,0.000002697398,0.99999994,0,0,0,0,0,0,0,1,0,0,0,false,false,true,0,0,17.01,-0.0033690496,0.0033798392,0.7064431,0.7077536,0.071,0,8.321,-0.00051,0,-0.0010099999
9.525,2000,0,91.24,0.000002697398,0.000002697398,0.000002697398,0.99999994,0,0,0,0,0,0,0,1,0,0,0,false,false,true,0,0,17.01,-0.00336905,0.0033798397,0.70643777,0.70775896,0.071,0,8.321,-0.00051,0,-0.0010099999
9.533334,2000,0,91.24,0.000002697398,0.000002697398,0.000002697398,0.99999994,0,0,0,0,0,0,0,1,0,0,0,false,false,true,0,0,17.01,-0.00336905,0.0033798397,0.70643234,0.7077644,0.071,0,8.321,-0.00051,0,-0.0010099999
9.541667,2000,0,91.24,0.000002697398,0.000002697398,0.000002697398,0.99999994,0,0,0,0,0,0,0,1,0,0,0,false,false,true,0,0,17.01,-0.0033690503,0.00337984,0.70642704,0.70776975,0.071,0,8.321,-0.00051,0,-0.0010099999
9.55,2000,0,91.24,0.000002697398,0.000002697398,0.000002697398,0.99999994,0,0,0,0,0,0,0,1,0,0,0,false,false,true,0,0,17.01,-0.00336905,0.0033798397,0.70642155,0.7077752,0.071,0,8.321,-0.00051,0,-0.0010099999
9.558333,2000,0,91.24,0.000002697398,0.000002697398,0.000002697398,0.99999994,0,0,0,0,0,0,0,1,0,0,0,false,false,true,0,0,17.01,-0.00336905,0.0033798397,0.7064162,0.7077805,0.071,0,8.321,-0.00051,0,-0.0010099999
9.566667,2000,0,91.24,0.000002697398,0.000002697398,0.000002697398,0.99999994,0,0,0,0,0,0,0,1,0,0,0,false,false,true,0,0,17.01,-0.00336905,0.0033798397,0.70641077,0.7077859,0.071,0,8.321,-0.00051,0,-0.0010099999
9.575,2000,0,91.24,0.000002697398,0.000002697398,0.000002697398,0.99999994,0,0,0,0,0,0,0,1,0,0,0,false,false,true,0,0,17.01,-0.00336905,0.0033798397,0.7064054,0.70779127,0.071,0,8.321,-0.00051,0,-0.0010099999
9.583333,2000,0,91.24,0.000002697398,0.000002697398,0.000002697398,0.99999994,0,0,0,0,0,0,0,1,0,0,0,false,false,true,0,0,17.01,-0.00336905,0.0033798397,0.7064,0.7077967,0.071,0,8.321,-0.00051,0,-0.0010099999
9.591666,2000,0,91.24,0.000002697398,0.000002697398,0.000002697398,0.99999994,0,0,0,0,0,0,0,1,0,0,0,false,false,true,0,0,17.01,-0.00336905,0.0033798397,0.7063946,0.70780206,0.071,0,8.321,-0.00051,0,-0.0010099999
9.6,2000,0,91.24,0.000002697398,0.000002697398,0.000002697398,0.99999994,0,0,0,0,0,0,0,1,0,0,0,false,false,true,0,0,17.01,-0.0033690503,0.00337984,0.70638925,0.7078075,0.071,0,8.321,-0.00051,0,-0.0010099999
9.608334,2000,0,91.24,0.000002697398,0.000002697398,0.000002697398,0.99999994,0,0,0,0,0,0,0,1,0,0,0,false,false,true,0,0,17.01,-0.00336905,0.0033798397,0.7063838,0.7078128,0.071,0,8.321,-0.00051,0,-0.0010099999
9.616667,2000,0,91.24,0.000002697398,0.000002697398,0.000002697398,0.99999994,0,0,0,0,0,0,0,1,0,0,0,false,false,true,0,0,17.01,-0.00336905,0.0033798397,0.7063784,0.7078182,0.071,0,8.321,-0.00051,0,-0.0010099999
9.625,2000,0,91.24,0.000002697398,0.000002697398,0.000002697398,0.99999994,0,0,0,0,0,0,0,1,0,0,0,false,false,true,0,0,17.01,-0.00336905,0.0033798397,0.70637304,0.7078236,0.071,0,8.321,-0.00051,0,-0.0010099999
9.633333,2000,0,91.24,0.000002697398,0.000002697398,0.000002697398,0.99999994,0,0,0,0,0,0,0,1,0,0,0,false,false,true,0,0,17.01,-0.00336905,0.0033798397,0.7063676,0.707829,0.071,0,8.321,-0.00051,0,-0.0010099999
9.641666,2000,0,91.24,0.000002697398,0.000002697398,0.000002697398,0.99999994,0,0,0,0,0,0,0,1,0,0,0,false,false,true,0,0,17.01,-0.00336905,0.0033798397,0.70636225,0.7078343,0.071,0,8.321,-0.00051,0,-0.0010099999
9.65,2000,0,91.24,0.000002697398,0.000002697398,0.000002697398,0.99999994,0,0,0,0,0,0,0,1,0,0,0,false,false,true,0,0,17.01,-0.00336905,0.0033798397,0.7063568,0.7078397,0.071,0,8.321,-0.00051,0,-0.0010099999
9.658334,2000,0,91.24,0.000002697398,0.000002697398,0.000002697398,0.99999994,0,0,0,0,0,0,0,1,0,0,0,false,false,true,0,0,17.01,-0.00336905,0.0033798397,0.70635146,0.7078451,0.071,0,8.321,-0.00051,0,-0.0010099999
9.666667,2000,0,91.24,0.000002697398,0.000002697398,0.000002697398,0.99999994,0,0,0,0,0,0,0,1,0,0,0,false,false,true,0,0,17.01,-0.00336905,0.0033798397,0.70634604,0.7078505,0.071,0,8.321,-0.00051,0,-0.0010099999
9.675,2000,0,91.24,0.000002697398,0.000002697398,0.000002697398,0.99999994,0,0,0,0,0,0,0,1,0,0,0,false,false,true,0,0,17.01,-0.00336905,0.0033798397,0.7063407,0.7078559,0.071,0,8.321,-0.00051,0,-0.0010099999
9.683333,2000,0,91.24,0.000002697398,0.000002697398,0.000002697398,0.99999994,0,0,0,0,0,0,0,1,0,0,0,false,false,true,0,0,17.01,-0.00336905,0.0033798397,0.70633525,0.70786124,0.071,0,8.321,-0.00051,0,-0.0010099999
9.691667,2000,0,91.24,0.000002697398,0.000002697398,0.000002697398,0.99999994,0,0,0,0,0,0,0,1,0,0,0,false,false,true,0,0,17.01,-0.0033690496,0.0033798392,0.7063298,0.7078666,0.071,0,8.321,-0.00051,0,-0.0010099999
9.7,2000,0,91.24,0.000002697398,0.000002697398,0.000002697398,0.99999994,0,0,0,0,0,0,0,1,0,0,0,false,false,true,0,0,17.01,-0.00336905,0.0033798397,0.70632446,0.70787203,0.071,0,8.321,-0.00051,0,-0.0010099999
9.708333,2000,0,91.24,0.000002697398,0.000002697398,0.000002697398,0.99999994,0,0,0,0,0,0,0,1,0,0,0,false,false,true,0,0,17.01,-0.00336905,0.0033798397,0.7063191,0.7078774,0.071,0,8.321,-0.00051,0,-0.0010099999
9.716666,2000,0,91.24,0.000002697398,0.000002697398,0.000002697398,0.99999994,0,0,0,0,0,0,0,1,0,0,0,false,false,true,0,0,17.01,-0.00336905,0.0033798397,0.70631367,0.7078828,0.071,0,8.321,-0.00051,0,-0.0010099999
9.725,2000,0,91.24,0.000002697398,0.000002697398,0.000002697398,0.99999994,0,0,0,0,0,0,0,1,0,0,0,false,false,true,0,0,17.01,-0.0033690503,0.00337984,0.70630836,0.7078882,0.071,0,8.321,-0.00051,0,-0.0010099999
9.733334,2000,0,91.24,0.000002697398,0.000002697398,0.000002697398,0.99999994,0,0,0,0,0,0,0,1,0,0,0,false,false,true,0,0,17.01,-0.0033690496,0.0033798392,0.7063028,0.70789355,0.071,0,8.321,-0.00051,0,-0.0010099999
9.741667,2000,0,91.24,0.000002697398,0.000002697398,0.000002697398,0.99999994,0,0,0,0,0,0,0,1,0,0,0,false,false,true,0,0,17.01,-0.00336905,0.0033798397,0.7062975,0.7078989,0.071,0,8.321,-0.00051,0,-0.0010099999
9.75,2000,0,91.24,0.000002697398,0.000002697398,0.000002697398,0.99999994,0,0,0,0,0,0,0,1,0,0,0,false,false,true,0,0,17.01,-0.00336905,0.0033798397,0.7062921,0.70790434,0.071,0,8.321,-0.00051,0,-0.0010099999
9.758333,2000,0,91.24,0.000002697398,0.000002697398,0.000002697398,0.99999994,0,0,0,0,0,0,0,1,0,0,0,false,false,true,0,0,17.01,-0.0033690503,0.00337984,0.7062868,0.7079097,0.071,0,8.321,-0.00051,0,-0.0010099999
9.766666,2000,0,91.24,0.000002697398,0.000002697398,0.000002697398,0.99999994,0,0,0,0,0,0,0,1,0,0,0,false,false,true,0,0,17.01,-0.00336905,0.0033798397,0.7062813,0.7079151,0.071,0,8.321,-0.00051,0,-0.0010099999
9.775,2000,0,91.24,0.000002697398,0.000002697398,0.000002697398,0.99999994,0,0,0,0,0,0,0,1,0,0,0,false,false,true,0,0,17.01,-0.00336905,0.0033798397,0.70627594,0.70792043,0.071,0,8.321,-0.00051,0,-0.0010099999
9.783334,2000,0,91.24,0.000002697398,0.000002697398,0.000002697398,0.99999994,0,0,0,0,0,0,0,1,0,0,0,false,false,true,0,0,17.01,-0.00336905,0.0033798397,0.7062705,0.70792586,0.071,0,8.321,-0.00051,0,-0.0010099999
9.791667,2000,0,91.24,0.000002697398,0.000002697398,0.000002697398,0.99999994,0,0,0,0,0,0,0,1,0,0,0,false,false,true,0,0,17.01,-0.00336905,0.0033798397,0.7062651,0.7079313,0.071,0,8.321,-0.00051,0,-0.0010099999
9.8,2000,0,91.24,0.000002697398,0.000002697398,0.000002697398,0.99999994,0,0,0,0,0,0,0,1,0,0,0,false,false,true,0,0,17.01,-0.0033690503,0.00337984,0.7062598,0.70793664,0.071,0,8.321,-0.00051,0,-0.0010099999
9.808333,2000,0,91.24,0.000002697398,0.000002697398,0.000002697398,0.99999994,0,0,0,0,0,0,0,1,0,0,0,false,false,true,0,0,17.01,-0.00336905,0.0033798397,0.7062543,0.70794207,0.071,0,8.321,-0.00051,0,-0.0010099999
9.816667,2000,0,91.24,0.000002697398,0.000002697398,0.000002697398,0.99999994,0,0,0,0,0,0,0,1,0,0,0,false,false,true,0,0,17.01,-0.00336905,0.0033798397,0.70624894,0.7079474,0.071,0,8.321,-0.00051,0,-0.0010099999
9.825,2000,0,91.24,0.000002697398,0.000002697398,0.000002697398,0.99999994,0,0,0,0,0,0,0,1,0,0,0,false,false,true,0,0,17.01,-0.00336905,0.0033798397,0.7062435,0.7079528,0.071,0,8.321,-0.00051,0,-0.0010099999
9.833333,2000,0,91.24,0.000002697398,0.000002697398,0.000002697398,0.99999994,0,0,0,0,0,0,0,1,0,0,0,false,false,true,0,0,17.01,-0.00336905,0.0033798397,0.70623815,0.70795816,0.071,0,8.321,-0.00051,0,-0.0010099999
9.841666,2000,0,91.24,0.000002697398,0.000002697398,0.000002697398,0.99999994,0,0,0,0,0,0,0,1,0,0,0,false,false,true,0,0,17.01,-0.0033690503,0.00337984,0.7062328,0.7079636,0.071,0,8.321,-0.00051,0,-0.0010099999
9.85,2000,0,91.24,0.000002697398,0.000002697398,0.000002697398,0.99999994,0,0,0,0,0,0,0,1,0,0,0,false,false,true,0,0,17.01,-0.00336905,0.0033798397,0.70622736,0.7079689,0.071,0,8.321,-0.00051,0,-0.0010099999
9.858334,2000,0,91.24,0.000002697398,0.000002697398,0.000002697398,0.99999994,0,0,0,0,0,0,0,1,0,0,0,false,false,true,0,0,17.01,-0.00336905,0.0033798397,0.70622194,0.7079743,0.071,0,8.321,-0.00051,0,-0.0010099999
9.866667,2000,0,91.24,0.000002697398,0.000002697398,0.000002697398,0.99999994,0,0,0,0,0,0,0,1,0,0,0,false,false,true,0,0,17.01,-0.00336905,0.0033798397,0.7062166,0.7079797,0.071,0,8.321,-0.00051,0,-0.0010099999
9.875,2000,0,91.24,0.000002697398,0.000002697398,0.000002697398,0.99999994,0,0,0,0,0,0,0,1,0,0,0,false,false,true,0,0,17.01,-0.00336905,0.0033798397,0.70621115,0.7079851,0.071,0,8.321,-0.00051,0,-0.0010099999
9.883333,2000,0,91.24,0.000002697398,0.000002697398,0.000002697398,0.99999994,0,0,0,0,0,0,0,1,0,0,0,false,false,true,0,0,17.01,-0.00336905,0.0033798397,0.7062058,0.7079904,0.071,0,8.321,-0.00051,0,-0.0010099999
9.891666,2000,0,91.24,0.000002697398,0.000002697398,0.000002697398,0.99999994,0,0,0,0,0,0,0,1,0,0,0,false,false,true,0,0,17.01,-0.00336905,0.0033798397,0.70620036,0.70799583,0.071,0,8.321,-0.00051,0,-0.0010099999
9.9,2000,0,91.24,0.000002697398,0.000002697398,0.000002697398,0.99999994,0,0,0,0,0,0,0,1,0,0,0,false,false,true,0,0,17.01,-0.00336905,0.0033798397,0.706195,0.7080012,0.071,0,8.321,-0.00051,0,-0.0010099999
9.908334,2000,0,91.24,0.000002697398,0.000002697398,0.000002697398,0.99999994,0,0,0,0,0,0,0,1,0,0,0,false,false,true,0,0,17.01,-0.00336905,0.0033798397,0.7061896,0.70800656,0.071,0,8.321,-0.00051,0,-0.0010099999
9.916667,2000,0,91.24,0.000002697398,0.000002697398,0.000002697398,0.99999994,0,0,0,0,0,0,0,1,0,0,0,false,false,true,0,0,17.01,-0.00336905,0.0033798397,0.7061842,0.708012,0.071,0,8.321,-0.00051,0,-0.0010099999
9.925,2000,0,91.24,0.000002697398,0.000002697398,0.000002697398,0.99999994,0,0,0,0,0,0,0,1,0,0,0,false,false,true,0,0,17.01,-0.00336905,0.0033798397,0.7061788,0.70801735,0.071,0,8.321,-0.00051,0,-0.0010099999
9.933333,2000,0,91.24,0.000002697398,0.000002697398,0.000002697398,0.99999994,0,0,0,0,0,0,0,1,0,0,0,false,false,true,0,0,17.01,-0.00336905,0.0033798397,0.7061734,0.7080227,0.071,0,8.321,-0.00051,0,-0.0010099999
9.941667,2000,0,91.24,0.000002697398,0.000002697398,0.000002697398,0.99999994,0,0,0,0,0,0,0,1,0,0,0,false,false,true,0,0,17.01,-0.00336905,0.0033798397,0.706168,0.70802814,0.071,0,8.321,-0.00051,0,-0.0010099999
9.95,2000,0,91.24,0.000002697398,0.000002697398,0.000002697398,0.99999994,0,0,0,0,0,0,0,1,0,0,0,false,false,true,0,0,17.01,-0.0033690503,0.00337984,0.7061627,0.7080335,0.071,0,8.321,-0.00051,0,-0.0010099999
9.958333,2000,0,91.24,0.000002697398,0.000002697398,0.000002697398,0.99999994,0,0,0,0,0,0,0,1,0,0,0,false,false,true,0,0,17.01,-0.0033690496,0.0033798392,0.70615715,0.70803887,0.071,0,8.321,-0.00051,0,-0.0010099999
9.966666,2000,0,91.24,0.000002697398,0.000002697398,0.000002697398,0.99999994,0,0,0,0,0,0,0,1,0,0,0,false,false,true,0,0,17.01,-0.00336905,0.0033798397,0.70615184,0.70804423,0.071,0,8.321,-0.00051,0,-0.0010099999
9.975,2000,0,91.24,0.000002697398,0.000002697398,0.000002697398,0.99999994,0,0,0,0,0,0,0,1,0,0,0,false,false,true,0,0,17.01,-0.00336905,0.0033798397,0.7061464,0.70804965,0.071,0,8.321,-0.00051,0,-0.0010099999
9.983334,2000,0,91.24,0.000002697398,0.000002697398,0.000002697398,0.99999994,0,0,0,0,0,0,0,1,0,0,0,false,false,true,0,0,17.01,-0.00336905,0.0033798397,0.70614105,0.70805496,0.071,0,8.321,-0.00051,0,-0.0010099999
9.991667,2000,0,91.24,0.000002697398,0.000002697398,0.000002697398,0.99999994,0,0,0,0,0,0,0,1,0,0,0,false,false,true,0,0,17.01,-0.0033690503,0.00337984,0.7061357,0.70806044,0.071,0,8.321,-0.00051,0,-0.0010099999
10,2000,0,91.24,0.000002697398,0.000002697398,0.000002697398,0.99999994,0,0,0,0,0,0,0,1,0,0,0,false,false,true,0,0,17.01,-0.00336905,0.0033798397,0.70613027,0.70806575,0.071,0,8.321,-0.00051,0,-0.0010099999
10.008333,2000,0,91.24,0.000002697398,0.000002697398,0.000002697398,0.99999994,0,0,0,0,0,0,0,1,0,0,0,false,false,true,0,0,17.01,-0.0033690503,0.00337984,0.7061249,0.7080712,0.071,0,8.321,-0.00051,0,-0.0010099999
10.016666,2000,0,91.24,0.000002697398,0.000002697398,0.000002697398,0.99999994,0,0,0,0,0,0,0,1,0,0,0,false,false,true,0,0,17.01,-0.00336905,0.0033798397,0.7061195,0.70807654,0.071,0,8.321,-0.00051,0,-0.0010099999
10.025,2000,0,91.24,0.000002697398,0.000002697398,0.000002697398,0.99999994,0,0,0,0,0,0,0,1,0,0,0,false,false,true,0,0,17.01,-0.00336905,0.0033798397,0.70611405,0.7080819,0.071,0,8.321,-0.00051,0,-0.0010099999
10.033334,2000,0,91.24,0.000002697398,0.000002697398,0.000002697398,0.99999994,0,0,0,0,0,0,0,1,0,0,0,false,false,true,0,0,17.01,-0.00336905,0.0033798397,0.7061087,0.70808727,0.071,0,8.321,-0.00051,0,-0.0010099999
10.041667,2000,0,91.24,0.000002697398,0.000002697398,0.000002697398,0.99999994,0,0,0,0,0,0,0,1,0,0,0,false,false,true,0,0,17.01,-0.00336905,0.0033798397,0.70610327,0.7080927,0.071,0,8.321,-0.00051,0,-0.0010099999
10.05,2000,0,91.24,0.000002697398,0.000002697398,0.000002697398,0.99999994,0,0,0,0,0,0,0,1,0,0,0,false,false,true,0,0,17.01,-0.00336905,0.0033798397,0.7060979,0.70809805,0.071,0,8.321,-0.00051,0,-0.0010099999
10.058333,2000,0,91.24,0.000002697398,0.000002697398,0.000002697398,0.99999994,0,0,0,0,0,0,0,1,0,0,0,false,false,true,0,0,17.01,-0.00336905,0.0033798397,0.7060925,0.7081035,0.071,0,8.321,-0.00051,0,-0.0010099999
10.066667,2000,0,91.24,0.000002697398,0.000002697398,0.000002697398,0.99999994,0,0,0,0,0,0,0,1,0,0,0,false,false,true,0,0,17.01,-0.00336905,0.0033798397,0.7060871,0.7081088,0.071,0,8.321,-0.00051,0,-0.0010099999
10.075,2000,0,91.24,0.000002697398,0.000002697398,0.000002697398,0.99999994,0,0,0,0,0,0,0,1,0,0,0,false,false,true,0,0,17.01,-0.00336905,0.0033798397,0.7060817,0.7081142,0.071,0,8.321,-0.00051,0,-0.0010099999
10.083333,2000,0,91.24,0.000002697398,0.000002697398,0.000002697398,0.99999994,0,0,0,0,0,0,0,1,0,0,0,false,false,true,0,0,17.01,-0.00336905,0.0033798397,0.7060763,0.7081196,0.071,0,8.321,-0.00051,0,-0.0010099999
10.091666,2000,0,91.24,0.000002697398,0.000002697398,0.000002697398,0.99999994,0,0,0,0,0,0,0,1,0,0,0,false,false,true,0,0,17.01,-0.00336905,0.0033798397,0.7060709,0.70812494,0.071,0,8.321,-0.00051,0,-0.0010099999
10.1,2000,0,91.24,0.000002697398,0.000002697398,0.000002697398,0.99999994,0,0,0,0,0,0,0,1,0,0,0,false,false,true,0,0,17.01,-0.00336905,0.0033798397,0.70606554,0.7081303,0.071,0,8.321,-0.00051,0,-0.0010099999
10.108334,2000,0,91.24,0.000002697398,0.000002697398,0.000002697398,0.99999994,0,0,0,0,0,0,0,1,0,0,0,false,false,true,0,0,17.01,-0.00336905,0.0033798397,0.7060601,0.7081357,0.071,0,8.321,-0.00051,0,-0.0010099999
10.116667,2000,0,91.24,0.000002697398,0.000002697398,0.000002697398,0.99999994,0,0,0,0,0,0,0,1,0,0,0,false,false,true,0,0,17.01,-0.00336905,0.0033798397,0.70605475,0.708141,0.071,0,8.321,-0.00051,0,-0.0010099999
10.125,2000,0,91.24,0.000002697398,0.000002697398,0.000002697398,0.99999994,0,0,0,0,0,0,0,1,0,0,0,false,false,true,0,0,17.01,-0.00336905,0.0033798397,0.7060493,0.70814645,0.071,0,8.321,-0.00051,0,-0.0010099999
10.133333,2000,0,91.24,0.000002697398,0.000002697398,0.000002697398,0.99999994,0,0,0,0,0,0,0,1,0,0,0,false,false,true,0,0,17.01,-0.00336905,0.0033798397,0.70604396,0.7081518,0.071,0,8.321,-0.00051,0,-0.0010099999
10.141666,2000,0,91.24,0.000002697398,0.000002697398,0.000002697398,0.99999994,0,0,0,0,0,0,0,1,0,0,0,false,false,true,0,0,17.01,-0.00336905,0.0033798397,0.70603853,0.70815724,0.071,0,8.321,-0.00051,0,-0.0010099999
10.15,2000,0,91.24,0.000002697398,0.000002697398,0.000002697398,0.99999994,0,0,0,0,0,0,0,1,0,0,0,false,false,true,0,0,17.01,-0.00336905,0.0033798397,0.7060332,0.70816255,0.071,0,8.321,-0.00051,0,-0.0010099999
10.158334,2000,0,91.24,0.000002697398,0.000002697398,0.000002697398,0.99999994,0,0,0,0,0,0,0,1,0,0,0,false,false,true,0,0,17.01,-0.00336905,0.0033798397,0.70602775,0.70816797,0.071,0,8.321,-0.00051,0,-0.0010099999
10.166667,2000,0,91.24,0.000002697398,0.000002697398,0.000002697398,0.99999994,0,0,0,0,0,0,0,1,0,0,0,false,false,true,0,0,17.01,-0.00336905,0.0033798397,0.7060224,0.70817333,0.071,0,8.321,-0.00051,0,-0.0010099999
10.175,2000,0,91.24,0.000002697398,0.000002697398,0.000002697398,0.99999994,0,0,0,0,0,0,0,1,0,0,0,false,false,true,0,0,17.01,-0.00336905,0.0033798397,0.70601696,0.7081787,0.071,0,8.321,-0.00051,0,-0.0010099999
10.183333,2000,0,91.24,0.000002697398,0.000002697398,0.000002697398,0.99999994,0,0,0,0,0,0,0,1,0,0,0,false,false,true,0,0,17.01,-0.0033690496,0.0033798392,0.70601153,0.70818406,0.071,0,8.321,-0.00051,0,-0.0010099999
10.191667,2000,0,91.24,0.000002697398,0.000002697398,0.000002697398,0.99999994,0,0,0,0,0,0,0,1,0,0,0,false,false,true,0,0,17.01,-0.00336905,0.0033798397,0.70600617,0.7081895,0.071,0,8.321,-0.00051,0,-0.0010099999
10.2,2000,0,91.24,0.000002697398,0.000002697398,0.000002697398,0.99999994,0,0,0,0,0,0,0,1,0,0,0,false,false,true,0,0,17.01,-0.00336905,0.0033798397,0.7060008,0.70819485,0.071,0,8.321,-0.00051,0,-0.0010099999
10.208333,2000,0,91.24,0.000002697398,0.000002697398,0.000002697398,0.99999994,0,0,0,0,0,0,0,1,0,0,0,false,false,true,0,0,17.01,-0.00336905,0.0033798397,0.7059954,0.7082003,0.071,0,8.321,-0.00051,0,-0.0010099999
10.216666,2000,0,91.24,0.000002697398,0.000002697398,0.000002697398,0.99999994,0,0,0,0,0,0,0,1,0,0,0,false,false,true,0,0,17.01,-0.00336905,0.0033798397,0.70598996,0.70820564,0.071,0,8.321,-0.00051,0,-0.0010099999
10.225,2000,0,91.24,0.000002697398,0.000002697398,0.000002697398,0.99999994,0,0,0,0,0,0,0,1,0,0,0,false,false,true,0,0,17.01,-0.00336905,0.0033798397,0.7059846,0.708211,0.071,0,8.321,-0.00051,0,-0.0010099999
10.233334,2000,0,91.24,0.000002697398,0.000002697398,0.000002697398,0.99999994,0,0,0,0,0,0,0,1,0,0,0,false,false,true,0,0,17.01,-0.00336905,0.0033798397,0.70597917,0.7082164,0.071,0,8.321,-0.00051,0,-0.0010099999
10.241667,2000,0,91.24,0.000002697398,0.000002697398,0.000002697398,0.99999994,0,0,0,0,0,0,0,1,0,0,0,false,false,true,0,0,17.01,-0.00336905,0.0033798397,0.7059738,0.70822173,0.071,0,8.321,-0.00051,0,-0.0010099999
10.25,2000,0,91.24,0.000002697398,0.000002697398,0.000002697398,0.99999994,0,0,0,0,0,0,0,1,0,0,0,false,false,true,0,0,17.01,-0.00336905,0.0033798397,0.7059684,0.70822716,0.071,0,8.321,-0.00051,0,-0.0010099999
10.258333,2000,0,91.24,0.000002697398,0.000002697398,0.000002697398,0.99999994,0,0,0,0,0,0,0,1,0,0,0,false,false,true,0,0,17.01,-0.00336905,0.0033798397,0.705963,0.7082325,0.071,0,8.321,-0.00051,0,-0.0010099999
10.266666,2000,0,91.24,0.000002697398,0.000002697398,0.000002697398,0.99999994,0,0,0,0,0,0,0,1,0,0,0,false,false,true,0,0,17.01,-0.00336905,0.0033798397,0.7059576,0.70823795,0.071,0,8.321,-0.00051,0,-0.0010099999
10.275,2000,0,91.24,0.000002697398,0.000002697398,0.000002697398,0.99999994,0,0,0,0,0,0,0,1,0,0,0,false,false,true,0,0,17.01,-0.00336905,0.0033798397,0.7059522,0.70824325,0.071,0,8.321,-0.00051,0,-0.0010099999
10.283334,2000,0,91.24,0.000002697398,0.000002697398,0.000002697398,0.99999994,0,0,0,0,0,0,0,1,0,0,0,false,false,true,0,0,17.01,-0.00336905,0.0033798397,0.7059468,0.7082487,0.071,0,8.321,-0.00051,0,-0.0010099999
10.291667,2000,0,91.24,0.000002697398,0.000002697398,0.000002697398,0.99999994,0,0,0,0,0,0,0,1,0,0,0,false,false,true,0,0,17.01,-0.00336905,0.0033798397,0.70594144,0.70825404,0.071,0,8.321,-0.00051,0,-0.0010099999
10.3,2000,0,91.24,0.000002697398,0.000002697398,0.000002697398,0.99999994,0,0,0,0,0,0,0,1,0,0,0,false,false,true,0,0,17.01,-0.0033690503,0.00337984,0.7059361,0.70825946,0.071,0,8.321,-0.00051,0,-0.0010099999
10.308333,2000,0,91.24,0.000002697398,0.000002697398,0.000002697398,0.99999994,0,0,0,0,0,0,0,1,0,0,0,false,false,true,0,0,17.01,-0.00336905,0.0033798397,0.70593065,0.70826477,0.071,0,8.321,-0.00051,0,-0.0010099999
10.316667,2000,0,91.24,0.000002697398,0.000002697398,0.000002697398,0.99999994,0,0,0,0,0,0,0,1,0,0,0,false,false,true,0,0,17.01,-0.00336905,0.0033798397,0.7059252,0.7082702,0.071,0,8.321,-0.00051,0,-0.0010099999
10.325,2000,0,91.24,0.000002697398,0.000002697398,0.000002697398,0.99999994,0,0,0,0,0,0,0,1,0,0,0,false,false,true,0,0,17.01,-0.00336905,0.0033798397,0.70591986,0.7082755,0.071,0,8.321,-0.00051,0,-0.0010099999
10.333333,2000,0,91.24,0.000002697398,0.000002697398,0.000002697398,0.99999994,0,0,0,0,0,0,0,1,0,0,0,false,false,true,0,0,17.01,-0.00336905,0.0033798397,0.70591444,0.7082809,0.071,0,8.321,-0.00051,0,-0.0010099999
10.341666,2000,0,91.24,0.000002697398,0.000002697398,0.000002697398,0.99999994,0,0,0,0,0,0,0,1,0,0,0,false,false,true,0,0,17.01,-0.00336905,0.0033798397,0.7059091,0.7082863,0.071,0,8.321,-0.00051,0,-0.0010099999
10.35,2000,0,91.24,0.000002697398,0.000002697398,0.000002697398,0.99999994,0,0,0,0,0,0,0,1,0,0,0,false,false,true,0,0,17.01,-0.00336905,0.0033798397,0.70590365,0.70829165,0.071,0,8.321,-0.00051,0,-0.0010099999
10.358334,2000,0,91.24,0.000002697398,0.000002697398,0.000002697398,0.99999994,0,0,0,0,0,0,0,1,0,0,0,false,false,true,0,0,17.01,-0.00336905,0.0033798397,0.7058983,0.708297,0.071,0,8.321,-0.00051,0,-0.0010099999
10.366667,2000,0,91.24,0.000002697398,0.000002697398,0.000002697398,0.99999994,0,0,0,0,0,0,0,1,0,0,0,false,false,true,0,0,17.01,-0.00336905,0.0033798397,0.70589286,0.70830244,0.071,0,8.321,-0.00051,0,-0.0010099999
10.375,2000,0,91.24,0.000002697398,0.000002697398,0.000002697398,0.99999994,0,0,0,0,0,0,0,1,0,0,0,false,false,true,0,0,17.01,-0.0033690503,0.00337984,0.70588756,0.7083078,0.071,0,8.321,-0.00051,0,-0.0010099999
10.383333,2000,0,91.24,0.000002697398,0.000002697398,0.000002697398,0.99999994,0,0,0,0,0,0,0,1,0,0,0,false,false,true,0,0,17.01,-0.0033690496,0.0033798392,0.705882,0.70831317,0.071,0,8.321,-0.00051,0,-0.0010099999
10.391666,2000,0,91.24,0.000002697398,0.000002697398,0.000002697398,0.99999994,0,0,0,0,0,0,0,1,0,0,0,false,false,true,0,0,17.01,-0.0033690503,0.00337984,0.70587677,0.70831853,0.071,0,8.321,-0.00051,0,-0.0010099999
10.4,2000,0,91.24,0.000002697398,0.000002697398,0.000002697398,0.99999994,0,0,0,0,0,0,0,1,0,0,0,false,false,true,0,0,17.01,-0.00336905,0.0033798397,0.7058713,0.70832396,0.071,0,8.321,-0.00051,0,-0.0010099999
10.408334,2000,0,91.24,0.000002697398,0.000002697398,0.000002697398,0.99999994,0,0,0,0,0,0,0,1,0,0,0,false,false,true,0,0,17.01,-0.00336905,0.0033798397,0.7058659,0.70832926,0.071,0,8.321,-0.00051,0,-0.0010099999
10.416667,2000,0,91.24,0.000002697398,0.000002697398,0.000002697398,0.99999994,0,0,0,0,0,0,0,1,0,0,0,false,false,true,0,0,17.01,-0.00336905,0.0033798397,0.7058605,0.7083347,0.071,0,8.321,-0.00051,0,-0.0010099999
10.425,2000,0,91.24,0.000002697398,0.000002697398,0.000002697398,0.99999994,0,0,0,0,0,0,0,1,0,0,0,false,false,true,0,0,17.01,-0.00336905,0.0033798397,0.70585513,0.70834005,0.071,0,8.321,-0.00051,0,-0.0010099999
10.433333,2000,0,91.24,0.000002697398,0.000002697398,0.000002697398,0.99999994,0,0,0,0,0,0,0,1,0,0,0,false,false,true,0,0,17.01,-0.00336905,0.0033798397,0.7058497,0.7083454,0.071,0,8.321,-0.00051,0,-0.0010099999
10.441667,2000,0,91.24,0.000002697398,0.000002697398,0.000002697398,0.99999994,0,0,0,0,0,0,0,1,0,0,0,false,false,true,0,0,17.01,-0.00336905,0.0033798397,0.70584434,0.7083508,0.071,0,8.321,-0.00051,0,-0.0010099999
10.45,2000,0,91.24,0.000002697398,0.000002697398,0.000002697398,0.99999994,0,0,0,0,0,0,0,1,0,0,0,false,false,true,0,0,17.01,-0.00336905,0.0033798397,0.7058389,0.7083562,0.071,0,8.321,-0.00051,0,-0.0010099999
10.458333,2000,0,91.24,0.000002697398,0.000002697398,0.000002697398,0.99999994,0,0,0,0,0,0,0,1,0,0,0,false,false,true,0,0,17.01,-0.00336905,0.0033798397,0.70583355,0.7083615,0.071,0,8.321,-0.00051,0,-0.0010099999
10.466666,2000,0,91.24,0.000002697398,0.000002697398,0.000002697398,0.99999994,0,0,0,0,0,0,0,1,0,0,0,false,false,true,0,0,17.01,-0.00336905,0.0033798397,0.70582813,0.70836693,0.071,0,8.321,-0.00051,0,-0.0010099999
10.475,2000,0,91.24,0.000002697398,0.000002697398,0.000002697398,0.99999994,0,0,0,0,0,0,0,1,0,0,0,false,false,true,0,0,17.01,-0.00336905,0.0033798397,0.70582277,0.7083723,0.071,0,8.321,-0.00051,0,-0.0010099999
10.483334,2000,0,91.24,0.000002697398,0.000002697398,0.000002697398,0.99999994,0,0,0,0,0,0,0,1,0,0,0,false,false,true,0,0,17.01,-0.00336905,0.0033798397,0.70581734,0.70837766,0.071,0,8.321,-0.00051,0,-0.0010099999
10.491667,2000,0,91.24,0.000002697398,0.000002697398,0.000002697398,0.99999994,0,0,0,0,0,0,0,1,0,0,0,false,false,true,0,0,17.01,-0.00336905,0.0033798397,0.705812,0.708383,0.071,0,8.321,-0.00051,0,-0.0010099999
10.5,2000,0,91.24,0.000002697398,0.000002697398,0.000002697398,0.99999994,0,0,0,0,0,0,0,1,0,0,0,false,false,true,0,0,17.01,-0.00336905,0.0033798397,0.70580655,0.70838845,0.071,0,8.321,-0.00051,0,-0.0010099999
10.508333,2000,0,91.24,0.000002697398,0.000002697398,0.000002697398,0.99999994,0,0,0,0,0,0,0,1,0,0,0,false,false,true,0,0,17.01,-0.00336905,0.0033798397,0.7058012,0.70839375,0.071,0,8.321,-0.00051,0,-0.0010099999
10.516666,2000,0,91.24,0.000002697398,0.000002697398,0.000002697398,0.99999994,0,0,0,0,0,0,0,1,0,0,0,false,false,true,0,0,17.01,-0.00336905,0.0033798397,0.70579576,0.7083992,0.071,0,8.321,-0.00051,0,-0.0010099999
10.525,2000,0,91.24,0.000002697398,0.000002697398,0.000002697398,0.99999994,0,0,0,0,0,0,0,1,0,0,0,false,false,true,0,0,17.01,-0.00336905,0.0033798397,0.7057904,0.7084045,0.071,0,8.321,-0.00051,0,-0.0010099999
10.533334,2000,0,91.24,0.000002697398,0.000002697398,0.000002697398,0.99999994,0,0,0,0,0,0,0,1,0,0,0,false,false,true,0,0,17.01,-0.00336905,0.0033798397,0.705785,0.7084099,0.071,0,8.321,-0.00051,0,-0.0010099999
10.541667,2000,0,91.24,0.000002697398,0.000002697398,0.000002697398,0.99999994,0,0,0,0,0,0,0,1,0,0,0,false,false,true,0,0,17.01,-0.00336905,0.0033798397,0.7057796,0.70841527,0.071,0,8.321,-0.00051,0,-0.0010099999
10.55,2000,0,91.24,0.000002697398,0.000002697398,0.000002697398,0.99999994,0,0,0,0,0,0,0,1,0,0,0,false,false,true,0,0,17.01,-0.00336905,0.0033798397,0.7057742,0.70842063,0.071,0,8.321,-0.00051,0,-0.0010099999
10.558333,2000,0,91.24,0.000002697398,0.000002697398,0.000002697398,0.99999994,0,0,0,0,0,0,0,1,0,0,0,false,false,true,0,0,17.01,-0.0033690496,0.0033798392,0.70576876,0.708426,0.071,0,8.321,-0.00051,0,-0.0010099999
10.566667,2000,0,91.24,0.000002697398,0.000002697398,0.000002697398,0.99999994,0,0,0,0,0,0,0,1,0,0,0,false,false,true,0,0,17.01,-0.00336905,0.0033798397,0.7057634,0.7084314,0.071,0,8.321,-0.00051,0,-0.0010099999
10.575,2000,0,91.24,0.000002697398,0.000002697398,0.000002697398,0.99999994,0,0,0,0,0,0,0,1,0,0,0,false,false,true,0,0,17.01,-0.00336905,0.0033798397,0.70575804,0.7084368,0.071,0,8.321,-0.00051,0,-0.0010099999
10.583333,2000,0,91.24,0.000002697398,0.000002697398,0.000002697398,0.99999994,0,0,0,0,0,0,0,1,0,0,0,false,false,true,0,0,17.01,-0.0033690496,0.0033798392,0.70575255,0.70844215,0.071,0,8.321,-0.00051,0,-0.0010099999
10.591666,2000,0,91.24,0.000002697398,0.000002697398,0.000002697398,0.99999994,0,0,0,0,0,0,0,1,0,0,0,false,false,true,0,0,17.01,-0.00336905,0.0033798397,0.70574725,0.7084475,0.071,0,8.321,-0.00051,0,-0.0010099999
10.6,2000,0,91.24,0.000002697398,0.000002697398,0.000002697398,0.99999994,0,0,0,0,0,0,0,1,0,0,0,false,false,true,0,0,17.01,-0.00336905,0.0033798397,0.7057418,0.70845294,0.071,0,8.321,-0.00051,0,-0.0010099999
10.608334,2000,0,91.24,0.000002697398,0.000002697398,0.000002697398,0.99999994,0,0,0,0,0,0,0,1,0,0,0,false,false,true,0,0,17.01,-0.00336905,0.0033798397,0.70573646,0.70845824,0.071,0,8.321,-0.00051,0,-0.0010099999
10.616667,2000,0,91.24,0.000002697398,0.000002697398,0.000002697398,0.99999994,0,0,0,0,0,0,0,1,0,0,0,false,false,true,0,0,17.01,-0.00336905,0.0033798397,0.70573103,0.70846367,0.071,0,8.321,-0.00051,0,-0.0010099999
10.625,2000,0,91.24,0.000002697398,0.000002697398,0.000002697398,0.99999994,0,0,0,0,0,0,0,1,0,0,0,false,false,true,0,0,17.01,-0.00336905,0.0033798397,0.70572567,0.70846903,0.071,0,8.321,-0.00051,0,-0.0010099999
10.633333,2000,0,91.24,0.000002697398,0.000002697398,0.000002697398,0.99999994,0,0,0,0,0,0,0,1,0,0,0,false,false,true,0,0,17.01,-0.00336905,0.0033798397,0.70572025,0.7084744,0.071,0,8.321,-0.00051,0,-0.0010099999
10.641666,2000,0,91.24,0.000002697398,0.000002697398,0.000002697398,0.99999994,0,0,0,0,0,0,0,1,0,0,0,false,false,true,0,0,17.01,-0.00336905,0.0033798397,0.7057149,0.70847976,0.071,0,8.321,-0.00051,0,-0.0010099999
10.65,2000,0,91.24,0.000002697398,0.000002697398,0.000002697398,0.99999994,0,0,0,0,0,0,0,1,0,0,0,false,false,true,0,0,17.01,-0.00336905,0.0033798397,0.70570946,0.7084852,0.071,0,8.321,-0.00051,0,-0.0010099999
10.658334,2000,0,91.24,0.000002697398,0.000002697398,0.000002697398,0.99999994,0,0,0,0,0,0,0,1,0,0,0,false,false,true,0,0,17.01,-0.00336905,0.0033798397,0.70570403,0.70849055,0.071,0,8.321,-0.00051,0,-0.0010099999
10.666667,2000,0,91.24,0.000002697398,0.000002697398,0.000002697398,0.99999994,0,0,0,0,0,0,0,1,0,0,0,false,false,true,0,0,17.01,-0.00336905,0.0033798397,0.70569867,0.7084959,0.071,0,8.321,-0.00051,0,-0.0010099999
10.675,2000,0,91.24,0.000002697398,0.000002697398,0.000002697398,0.99999994,0,0,0,0,0,0,0,1,0,0,0,false,false,true,0,0,17.01,-0.00336905,0.0033798397,0.70569324,0.70850134,0.071,0,8.321,-0.00051,0,-0.0010099999
10.683333,2000,0,91.24,0.000002697398,0.000002697398,0.000002697398,0.99999994,0,0,0,0,0,0,0,1,0,0,0,false,false,true,0,0,17.01,-0.00336905,0.0033798397,0.7056879,0.70850664,0.071,0,8.321,-0.00051,0,-0.0010099999
10.691667,2000,0,91.24,0.000002697398,0.000002697398,0.000002697398,0.99999994,0,0,0,0,0,0,0,1,0,0,0,false,false,true,0,0,17.01,-0.00336905,0.0033798397,0.70568246,0.70851207,0.071,0,8.321,-0.00051,0,-0.0010099999
10.7,2000,0,91.24,0.000002697398,0.000002697398,0.000002697398,0.99999994,0,0,0,0,0,0,0,1,0,0,0,false,false,true,0,0,17.01,-0.00336905,0.0033798397,0.7056771,0.70851743,0.071,0,8.321,-0.00051,0,-0.0010099999
10.708333,2000,0,91.24,0.000002697398,0.000002697398,0.000002697398,0.99999994,0,0,0,0,0,0,0,1,0,0,0,false,false,true,0,0,17.01,-0.00336905,0.0033798397,0.70567167,0.7085228,0.071,0,8.321,-0.00051,0,-0.0010099999
10.716666,2000,0,91.24,0.000002697398,0.000002697398,0.000002697398,0.99999994,0,0,0,0,0,0,0,1,0,0,0,false,false,true,0,0,17.01,-0.00336905,0.0033798397,0.7056663,0.70852816,0.071,0,8.321,-0.00051,0,-0.0010099999
10.725,2000,0,91.24,0.000002697398,0.000002697398,0.000002697398,0.99999994,0,0,0,0,0,0,0,1,0,0,0,false,false,true,0,0,17.01,-0.0033690503,0.00337984,0.70566094,0.7085336,0.071,0,8.321,-0.00051,0,-0.0010099999
10.733334,2000,0,91.24,0.000002697398,0.000002697398,0.000002697398,0.99999994,0,0,0,0,0,0,0,1,0,0,0,false,false,true,0,0,17.01,-0.00336905,0.0033798397,0.7056555,0.7085389,0.071,0,8.321,-0.00051,0,-0.0010099999
10.741667,2000,0,91.24,0.000002697398,0.000002697398,0.000002697398,0.99999994,0,0,0,0,0,0,0,1,0,0,0,false,false,true,0,0,17.01,-0.0033690503,0.00337984,0.70565015,0.7085443,0.071,0,8.321,-0.00051,0,-0.0010099999
10.75,2000,0,91.24,0.000002697398,0.000002697398,0.000002697398,0.99999994,0,0,0,0,0,0,0,1,0,0,0,false,false,true,0,0,17.01,-0.00336905,0.0033798397,0.7056447,0.7085496,0.071,0,8.321,-0.00051,0,-0.0010099999
10.758333,2000,0,91.24,0.000002697398,0.000002697398,0.000002697398,0.99999994,0,0,0,0,0,0,0,1,0,0,0,false,false,true,0,0,17.01,-0.0033690503,0.00337984,0.70563936,0.70855504,0.071,0,8.321,-0.00051,0,-0.0010099999
10.766666,2000,0,91.24,0.000002697398,0.000002697398,0.000002697398,0.99999994,0,0,0,0,0,0,0,1,0,0,0,false,false,true,0,0,17.01,-0.00336905,0.0033798397,0.70563394,0.7085604,0.071,0,8.321,-0.00051,0,-0.0010099999
10.775,2000,0,91.24,0.000002697398,0.000002697398,0.000002697398,0.99999994,0,0,0,0,0,0,0,1,0,0,0,false,false,true,0,0,17.01,-0.00336905,0.0033798397,0.7056285,0.7085658,0.071,0,8.321,-0.00051,0,-0.0010099999
10.783334,2000,0,91.24,0.000002697398,0.000002697398,0.000002697398,0.99999994,0,0,0,0,0,0,0,1,0,0,0,false,false,true,0,0,17.01,-0.00336905,0.0033798397,0.70562315,0.70857114,0.071,0,8.321,-0.00051,0,-0.0010099999
10.791667,2000,0,91.24,0.000002697398,0.000002697398,0.000002697398,0.99999994,0,0,0,0,0,0,0,1,0,0,0,false,false,true,0,0,17.01,-0.00336905,0.0033798397,0.7056177,0.70857656,0.071,0,8.321,-0.00051,0,-0.0010099999
10.8,2000,0,91.24,0.000002697398,0.000002697398,0.000002697398,0.99999994,0,0,0,0,0,0,0,1,0,0,0,false,false,true,0,0,17.01,-0.00336905,0.0033798397,0.70561236,0.70858186,0.071,0,8.321,-0.00051,0,-0.0010099999
10.808333,2000,0,91.24,0.000002697398,0.000002697398,0.000002697398,0.99999994,0,0,0,0,0,0,0,1,0,0,0,false,false,true,0,0,17.01,-0.00336905,0.0033798397,0.70560694,0.7085873,0.071,0,8.321,-0.00051,0,-0.0010099999
10.816667,2000,0,91.24,0.000002697398,0.000002697398,0.000002697398,0.99999994,0,0,0,0,0,0,0,1,0,0,0,false,false,true,0,0,17.01,-0.00336905,0.0033798397,0.7056016,0.7085926,0.071,0,8.321,-0.00051,0,-0.0010099999
10.825,2000,0,91.24,0.000002697398,0.000002697398,0.000002697398,0.99999994,0,0,0,0,0,0,0,1,0,0,0,false,false,true,0,0,17.01,-0.00336905,0.0033798397,0.70559615,0.708598,0.071,0,8.321,-0.00051,0,-0.0010099999
10.833333,2000,0,91.24,0.000002697398,0.000002697398,0.000002697398,0.99999994,0,0,0,0,0,0,0,1,0,0,0,false,false,true,0,0,17.01,-0.00336905,0.0033798397,0.7055908,0.7086034,0.071,0,8.321,-0.00051,0,-0.0010099999
10.841666,2000,0,91.24,0.000002697398,0.000002697398,0.000002697398,0.99999994,0,0,0,0,0,0,0,1,0,0,0,false,false,true,0,0,17.01,-0.00336905,0.0033798397,0.70558536,0.70860875,0.071,0,8.321,-0.00051,0,-0.0010099999
10.85,2000,0,91.24,0.000002697398,0.000002697398,0.000002697398,0.99999994,0,0,0,0,0,0,0,1,0,0,0,false,false,true,0,0,17.01,-0.00336905,0.0033798397,0.70558,0.7086141,0.071,0,8.321,-0.00051,0,-0.0010099999
10.858334,2000,0,91.24,0.000002697398,0.000002697398,0.000002697398,0.99999994,0,0,0,0,0,0,0,1,0,0,0,false,false,true,0,0,17.01,-0.00336905,0.0033798397,0.7055746,0.70861953,0.071,0,8.321,-0.00051,0,-0.0010099999
10.866667,2000,0,91.24,0.000002697398,0.000002697398,0.000002697398,0.99999994,0,0,0,0,0,0,0,1,0,0,0,false,false,true,0,0,17.01,-0.00336905,0.0033798397,0.7055692,0.70862484,0.071,0,8.321,-0.00051,0,-0.0010099999
10.875,2000,0,91.24,0.000002697398,0.000002697398,0.000002697398,0.99999994,0,0,0,0,0,0,0,1,0,0,0,false,false,true,0,0,17.01,-0.00336905,0.0033798397,0.7055638,0.7086302,0.071,0,8.321,-0.00051,0,-0.0010099999
10.883333,2000,0,91.24,0.000002697398,0.000002697398,0.000002697398,0.99999994,0,0,0,0,0,0,0,1,0,0,0,false,false,true,0,0,17.01,-0.00336905,0.0033798397,0.7055584,0.70863557,0.071,0,8.321,-0.00051,0,-0.0010099999
10.891666,2000,0,91.24,0.000002697398,0.000002697398,0.000002697398,0.99999994,0,0,0,0,0,0,0,1,0,0,0,false,false,true,0,0,17.01,-0.00336905,0.0033798397,0.705553,0.708641,0.071,0,8.321,-0.00051,0,-0.0010099999
10.9,2000,0,91.24,0.000002697398,0.000002697398,0.000002697398,0.99999994,0,0,0,0,0,0,0,1,0,0,0,false,false,true,0,0,17.01,-0.00336905,0.0033798397,0.70554763,0.7086463,0.071,0,8.321,-0.00051,0,-0.0010099999
10.908334,2000,0,91.24,0.000002697398,0.000002697398,0.000002697398,0.99999994,0,0,0,0,0,0,0,1,0,0,0,false,false,true,0,0,17.01,-0.00336905,0.0033798397,0.7055422,0.7086517,0.071,0,8.321,-0.00051,0,-0.0010099999
10.916667,2000,0,91.24,0.000002697398,0.000002697398,0.000002697398,0.99999994,0,0,0,0,0,0,0,1,0,0,0,false,false,true,0,0,17.01,-0.00336905,0.0033798397,0.70553684,0.708657,0.071,0,8.321,-0.00051,0,-0.0010099999
10.925,2000,0,91.24,0.000002697398,0.000002697398,0.000002697398,0.99999994,0,0,0,0,0,0,0,1,0,0,0,false,false,true,0,0,17.01,-0.00336905,0.0033798397,0.7055314,0.70866245,0.071,0,8.321,-0.00051,0,-0.0010099999
10.933333,2000,0,91.24,0.000002697398,0.000002697398,0.000002697398,0.99999994,0,0,0,0,0,0,0,1,0,0,0,false,false,true,0,0,17.01,-0.00336905,0.0033798397,0.70552605,0.7086678,0.071,0,8.321,-0.00051,0,-0.0010099999
10.941667,2000,0,91.24,0.000002697398,0.000002697398,0.000002697398,0.99999994,0,0,0,0,0,0,0,1,0,0,0,false,false,true,0,0,17.01,-0.00336905,0.0033798397,0.70552063,0.7086732,0.071,0,8.321,-0.00051,0,-0.0010099999
10.95,2000,0,91.24,0.000002697398,0.000002697398,0.000002697398,0.99999994,0,0,0,0,0,0,0,1,0,0,0,false,false,true,0,0,17.01,-0.00336905,0.0033798397,0.70551527,0.70867854,0.071,0,8.321,-0.00051,0,-0.0010099999
10.958333,2000,0,91.24,0.000002697398,0.000002697398,0.000002697398,0.99999994,0,0,0,0,0,0,0,1,0,0,0,false,false,true,0,0,17.01,-0.00336905,0.0033798397,0.70550984,0.70868397,0.071,0,8.321,-0.00051,0,-0.0010099999
10.966666,2000,0,91.24,0.000002697398,0.000002697398,0.000002697398,0.99999994,0,0,0,0,0,0,0,1,0,0,0,false,false,true,0,0,17.01,-0.00336905,0.0033798397,0.7055045,0.7086893,0.071,0,8.321,-0.00051,0,-0.0010099999
10.975,2000,0,91.24,0.000002697398,0.000002697398,0.000002697398,0.99999994,0,0,0,0,0,0,0,1,0,0,0,false,false,true,0,0,17.01,-0.00336905,0.0033798397,0.70549905,0.7086947,0.071,0,8.321,-0.00051,0,-0.0010099999
10.983334,2000,0,91.24,0.000002697398,0.000002697398,0.000002697398,0.99999994,0,0,0,0,0,0,0,1,0,0,0,false,false,true,0,0,17.01,-0.00336905,0.0033798397,0.7054937,0.7087,0.071,0,8.321,-0.00051,0,-0.0010099999
10.991667,2000,0,91.24,0.000002697398,0.000002697398,0.000002697398,0.99999994,0,0,0,0,0,0,0,1,0,0,0,false,false,true,0,0,17.01,-0.00336905,0.0033798397,0.70548826,0.7087054,0.071,0,8.321,-0.00051,0,-0.0010099999
11,2000,0,91.24,0.000002697398,0.000002697398,0.000002697398,0.99999994,0,0,0,0,0,0,0,1,0,0,0,false,false,true,0,0,17.01,-0.00336905,0.0033798397,0.7054829,0.7087108,0.071,0,8.321,-0.00051,0,-0.0010099999
11.008333,2000,0,91.24,0.000002697398,0.000002697398,0.000002697398,0.99999994,0,0,0,0,0,0,0,1,0,0,0,false,false,true,0,0,17.01,-0.00336905,0.0033798397,0.7054775,0.70871615,0.071,0,8.321,-0.00051,0,-0.0010099999
11.016666,2000,0,91.24,0.000002697398,0.000002697398,0.000002697398,0.99999994,0,0,0,0,0,0,0,1,0,0,0,false,false,true,0,0,17.01,-0.00336905,0.0033798397,0.7054721,0.7087215,0.071,0,8.321,-0.00051,0,-0.0010099999
11.025,2000,0,91.24,0.000002697398,0.000002697398,0.000002697398,0.99999994,0,0,0,0,0,0,0,1,0,0,0,false,false,true,0,0,17.01,-0.00336905,0.0033798397,0.7054667,0.7087269,0.071,0,8.321,-0.00051,0,-0.0010099999
11.033334,2000,0,91.24,0.000002697398,0.000002697398,0.000002697398,0.99999994,0,0,0,0,0,0,0,1,0,0,0,false,false,true,0,0,17.01,-0.00336905,0.0033798397,0.7054613,0.70873225,0.071,0,8.321,-0.00051,0,-0.0010099999
11.041667,2000,0,91.24,0.000002697398,0.000002697398,0.000002697398,0.99999994,0,0,0,0,0,0,0,1,0,0,0,false,false,true,0,0,17.01,-0.00336905,0.0033798397,0.7054559,0.7087376,0.071,0,8.321,-0.00051,0,-0.0010099999
11.05,2000,0,91.24,0.000002697398,0.000002697398,0.000002697398,0.99999994,0,0,0,0,0,0,0,1,0,0,0,false,false,true,0,0,17.01,-0.00336905,0.0033798397,0.70545053,0.708743,0.071,0,8.321,-0.00051,0,-0.0010099999
11.058333,2000,0,91.24,0.000002697398,0.000002697398,0.000002697398,0.99999994,0,0,0,0,0,0,0,1,0,0,0,false,false,true,0,0,17.01,-0.00336905,0.0033798397,0.7054451,0.7087484,0.071,0,8.321,-0.00051,0,-0.0010099999
11.066667,2000,0,91.24,0.000002697398,0.000002697398,0.000002697398,0.99999994,0,0,0,0,0,0,0,1,0,0,0,false,false,true,0,0,17.01,-0.00336905,0.0033798397,0.70543975,0.7087537,0.071,0,8.321,-0.00051,0,-0.0010099999
11.075,2000,0,91.24,0.000002697398,0.000002697398,0.000002697398,0.99999994,0,0,0,0,0,0,0,1,0,0,0,false,false,true,0,0,17.01,-0.00336905,0.0033798397,0.7054343,0.7087591,0.071,0,8.321,-0.00051,0,-0.0010099999
11.083333,2000,0,91.24,0.000002697398,0.000002697398,0.000002697398,0.99999994,0,0,0,0,0,0,0,1,0,0,0,false,false,true,0,0,17.01,-0.0033690503,0.00337984,0.70542896,0.70876455,0.071,0,8.321,-0.00051,0,-0.0010099999
11.091666,2000,0,91.24,0.000002697398,0.000002697398,0.000002697398,0.99999994,0,0,0,0,0,0,0,1,0,0,0,false,false,true,0,0,17.01,-0.00336905,0.0033798397,0.70542353,0.7087698,0.071,0,8.321,-0.00051,0,-0.0010099999
11.1,2000,0,91.24,0.000002697398,0.000002697398,0.000002697398,0.99999994,0,0,0,0,0,0,0,1,0,0,0,false,false,true,0,0,17.01,-0.0033690503,0.00337984,0.70541817,0.7087753,0.071,0,8.321,-0.00051,0,-0.0010099999
11.108334,2000,0,91.24,0.000002697398,0.000002697398,0.000002697398,0.99999994,0,0,0,0,0,0,0,1,0,0,0,false,false,true,0,0,17.01,-0.00336905,0.0033798397,0.70541275,0.7087806,0.071,0,8.321,-0.00051,0,-0.0010099999
11.116667,2000,0,91.24,0.000002697398,0.000002697398,0.000002697398,0.99999994,0,0,0,0,0,0,0,1,0,0,0,false,false,true,0,0,17.01,-0.00336905,0.0033798397,0.7054073,0.70878595,0.071,0,8.321,-0.00051,0,-0.0010099999
11.125,2000,0,91.24,0.000002697398,0.000002697398,0.000002697398,0.99999994,0,0,0,0,0,0,0,1,0,0,0,false,false,true,0,0,17.01,-0.0033690496,0.0033798392,0.7054019,0.7087913,0.071,0,8.321,-0.00051,0,-0.0010099999
11.133333,2000,0,91.24,0.000002697398,0.000002697398,0.000002697398,0.99999994,0,0,0,0,0,0,0,1,0,0,0,false,false,true,0,0,17.01,-0.00336905,0.0033798397,0.70539653,0.70879674,0.071,0,8.321,-0.00051,0,-0.0010099999
11.141666,2000,0,91.24,0.000002697398,0.000002697398,0.000002697398,0.99999994,0,0,0,0,0,0,0,1,0,0,0,false,false,true,0,0,17.01,-0.0033690503,0.00337984,0.7053912,0.7088021,0.071,0,8.321,-0.00051,0,-0.0010099999
11.15,2000,0,91.24,0.000002697398,0.000002697398,0.000002697398,0.99999994,0,0,0,0,0,0,0,1,0,0,0,false,false,true,0,0,17.01,-0.00336905,0.0033798397,0.70538574,0.70880747,0.071,0,8.321,-0.00051,0,-0.0010099999
11.158334,2000,0,91.24,0.000002697398,0.000002697398,0.000002697398,0.99999994,0,0,0,0,0,0,0,1,0,0,0,false,false,true,0,0,17.01,-0.00336905,0.0033798397,0.7053804,0.7088128,0.071,0,8.321,-0.00051,0,-0.0010099999
