time,ball_loc_x,ball_loc_y,ball_loc_z,ball_rot_x,ball_rot_y,ball_rot_z,ball_rot_w,ball_vel_x,ball_vel_y,ball_vel_z,ball_ang_x,ball_ang_y,ball_ang_z,player0_throttle,player0_steer,player0_pitch,player0_yaw,player0_roll,player0_jump,player0_boost,player0_handbrake,player0_loc_x,player0_loc_y,player0_loc_z,player0_rot_x,player0_rot_y,player0_rot_z,player0_rot_w,player0_vel_x,player0_vel_y,player0_vel_z,player0_ang_x,player0_ang_y,player0_ang_z
69.625,2000,0,91.24,0.000002697398,0.000002697398,0.000002697398,0.99999994,0,0,0,0,0,0,0.503937,0,0,0,0,false,false,false,0,-4801.7197,17.01,-0.0033582605,0.003347471,0.7070905,0.70710707,0,501.671,8.321,-0.00051,0.00010999999,0
69.63333,2000,0,91.24,0.000002697398,0.000002697398,0.000002697398,0.99999994,0,0,0,0,0,0,1,1,0,0,0,false,false,true,0,-4797.54,17.01,-0.0033582605,0.003347471,0.7070905,0.70710707,-12.451,506.63098,8.351,-0.00030999997,0.00331,0.33911002
69.64167,2000,0,91.24,0.000002697398,0.000002697398,0.000002697398,0.99999994,0,0,0,0,0,0,1,1,0,0,0,false,false,true,-0.099999994,-4793.32,17.01,-0.003352866,0.003352866,0.7080875,0.70610875,-21.290998,512.571,8.361,-0.00021,0.0043099998,0.57731
69.65,2000,0,91.24,0.000002697398,0.000002697398,0.000002697398,0.99999994,0,0,0,0,0,0,1,1,0,0,0,false,false,true,-0.28,-4789.05,17.01,-0.003347471,0.0033582605,0.7097834,0.70440394,-29.280998,518.59094,8.361,-0.00021,0.00451,0.78441
69.65833,2000,0,91.24,0.000002697398,0.000002697398,0.000002697398,0.99999994,0,0,0,0,0,0,1,1,0,0,0,false,false,true,-0.52,-4784.73,17.01,-0.003347471,0.0033636554,0.71208334,0.70207876,-36.650997,524.621,8.361,-0.00021,0.00421,0.96421
69.666664,2000,0,91.24,0.000002697398,0.000002697398,0.000002697398,0.99999994,0,0,0,0,0,0,1,1,0,0,0,false,false,true,-0.83,-4780.36,17.01,-0.003347471,0.0033636554,0.71489644,0.6992141,-43.591,530.60095,8.361,-0.00021,0.00361,1.12031
69.675,2000,0,91.24,0.000002697398,0.000002697398,0.000002697398,0.99999994,0,0,0,0,0,0,1,1,0,0,0,false,false,true,-1.1899999,-4775.94,17.01,-0.0033528658,0.0033582605,0.7181527,0.69586927,-50.231,536.49097,8.361,-0.00021,0.00291,1.25621
69.683334,2000,0,91.24,0.000002697398,0.000002697398,0.000002697398,0.99999994,0,0,0,0,0,0,1,1,0,0,0,false,false,true,-1.61,-4771.4697,17.01,-0.0033636554,0.003347471,0.7217875,0.6920983,-56.690998,542.251,8.351,-0.00021,0.00221,1.37491
69.691666,2000,0,91.24,0.000002697398,0.000002697398,0.000002697398,0.99999994,0,0,0,0,0,0,1,1,0,0,0,false,false,true,-2.08,-4766.9497,17.01,-0.0033744453,0.0033366818,0.72574276,0.6879498,-63.040997,547.85095,8.351,-0.00021,0.00151,1.47911
69.7,2000,0,91.24,0.000002697398,0.000002697398,0.000002697398,0.99999994,0,0,0,0,0,0,1,1,0,0,0,false,false,true,-2.61,-4762.38,17.01,-0.0033906288,0.0033204965,0.72997123,0.6834612,-69.340996,553.261,8.351,-0.00021,0.00091,1.57101
69.708336,2000,0,91.24,0.000002697398,0.000002697398,0.000002697398,0.99999994,0,0,0,0,0,0,1,1,0,0,0,false,false,true,-3.1899998,-4757.77,17.01,-0.0034122085,0.0032989178,0.7344273,0.67867064,-75.620995,558.46094,8.351,-0.00021,0.00040999998,1.6525099
69.71667,2000,0,91.24,0.000002697398,0.000002697398,0.000002697398,0.99999994,0,0,0,0,0,0,1,1,0,0,0,false,false,true,-3.82,-4753.12,17.01,-0.0034337873,0.003277338,0.7390812,0.6735994,-81.891,563.441,8.341001,-0.00021,0,1.72521
69.725,2000,0,91.24,0.000002697398,0.000002697398,0.000002697398,0.99999994,0,0,0,0,0,0,1,1,0,0,0,false,false,true,-4.5,-4748.42,17.01,-0.0034553672,0.0032557596,0.7439041,0.66826946,-88.160995,568.201,8.341001,-0.00021,-0.00030999997,1.7905099
69.73333,2000,0,91.24,0.000002697398,0.000002697398,0.000002697398,0.99999994,0,0,0,0,0,0,1,1,0,0,0,false,false,true,-5.23,-4743.6797,17.01,-0.0034823408,0.0032287855,0.7488681,0.66270196,-94.410995,572.72095,8.341001,-0.00021,-0.00051,1.8494099
69.74167,2000,0,91.24,0.000002697398,0.000002697398,0.000002697398,0.99999994,0,0,0,0,0,0,1,1,0,0,0,false,false,true,-6.02,-4738.9097,17.01,-0.003509315,0.0032018116,0.753951,0.65691334,-100.641,577.011,8.341001,-0.00021,-0.00071,1.90291
69.75,2000,0,91.24,0.000002697398,0.000002697398,0.000002697398,0.99999994,0,0,0,0,0,0,1,1,0,0,0,false,false,true,-6.8599997,-4734.1,17.01,-0.0035362889,0.0031748374,0.75913626,0.65091425,-106.811,581.081,8.341001,-0.00021,-0.00091,1.95171
69.75833,2000,0,91.24,0.000002697398,0.000002697398,0.000002697398,0.99999994,0,0,0,0,0,0,1,1,0,0,0,false,false,true,-7.75,-4729.26,17.01,-0.0035632628,0.0031424686,0.76440305,0.64472103,-112.90099,584.93097,8.341001,-0.00010999999,-0.0010099999,1.99641
69.76667,2000,0,91.24,0.000002697398,0.000002697398,0.000002697398,0.99999994,0,0,0,0,0,0,1,1,0,0,0,false,false,true,-8.69,-4724.39,17.01,-0.003590237,0.0031101,0.76974064,0.638339,-118.870995,588.581,8.341001,-0.00010999999,-0.00111,2.03751
69.775,2000,0,91.24,0.000002697398,0.000002697398,0.000002697398,0.99999994,0,0,0,0,0,0,1,1,0,0,0,false,false,true,-9.679999,-4719.48,17.01,-0.0036226057,0.0030777312,0.77513397,0.6317789,-124.681,592.04095,8.341001,-0.00010999999,-0.0012099999,2.07541
69.78333,2000,0,91.24,0.000002697398,0.000002697398,0.000002697398,0.99999994,0,0,0,0,0,0,1,1,0,0,0,false,false,true,-10.719999,-4714.55,17.01,-0.0036549745,0.0030453624,0.7805689,0.6250515,-130.291,595.34094,8.341001,-0.00010999999,-0.0012099999,2.1105099
69.791664,2000,0,91.24,0.000002697398,0.000002697398,0.000002697398,0.99999994,0,0,0,0,0,0,1,1,0,0,0,false,false,true,-11.809999,-4709.59,17.01,-0.0036873433,0.0030129938,0.78603595,0.6181624,-135.641,598.511,8.331,0,-0.0012099999,2.14301
69.8,2000,0,91.24,0.000002697398,0.000002697398,0.000002697398,0.99999994,0,0,0,0,0,0,1,1,0,0,0,false,false,true,-12.94,-4704.6,17.01,-0.0037197121,0.0029752303,0.791526,0.6111168,-140.681,601.59094,8.331,0,-0.0012099999,2.17311
69.808334,2000,0,91.24,0.000002697398,0.000002697398,0.000002697398,0.99999994,0,0,0,0,0,0,1,1,0,0,0,false,false,true,-14.11,-4699.59,17.01,-0.0037520807,0.0029374664,0.79702646,0.6039254,-145.351,604.621,8.331,0,-0.00111,2.2009099
69.816666,2000,0,91.24,0.000002697398,0.000002697398,0.000002697398,0.99999994,0,0,0,0,0,0,1,1,0,0,0,false,false,true,-15.32,-4694.55,17.01,-0.003784449,0.0028997026,0.80253303,0.59658843,-149.591,607.641,8.331,0,-0.0010099999,2.22661
69.825,2000,0,91.24,0.000002697398,0.000002697398,0.000002697398,0.99999994,0,0,0,0,0,0,1,1,0,0,0,false,false,true,-16.57,-4689.4897,17.01,-0.0038168184,0.0028619394,0.8080338,0.5891167,-153.33101,610.71094,8.331,0,-0.00091,2.25031
69.833336,2000,0,91.24,0.000002697398,0.000002697398,0.000002697398,0.99999994,0,0,0,0,0,0,1,1,0,0,0,false,false,true,-17.85,-4684.4,17.01,-0.0038491872,0.0028241756,0.8135213,0.5815153,-157.241,613.67096,8.331,0,-0.00081,2.27381
69.84167,2000,0,91.24,0.000002697398,0.000002697398,0.000002697398,0.99999994,0,0,0,0,0,0,1,1,0,0,0,false,false,true,-19.16,-4679.29,17.01,-0.003876161,0.0027864121,0.81899226,0.5737846,-161.33101,616.52094,8.331,0.00010999999,-0.00071,2.2971098
69.85,2000,0,91.24,0.000002697398,0.000002697398,0.000002697398,0.99999994,0,0,0,0,0,0,1,1,0,0,0,false,false,true,-20.5,-4674.15,17.01,-0.003903135,0.0027486486,0.8244469,0.565919,-165.58101,619.251,8.331,0.00010999999,-0.00061,2.3203099
69.85833,2000,0,91.24,0.000002697398,0.000002697398,0.000002697398,0.99999994,0,0,0,0,0,0,1,1,0,0,0,false,false,true,-21.88,-4668.9897,17.01,-0.003930109,0.0027108851,0.8298784,0.55792385,-169.991,621.85095,8.331,0.00010999999,-0.00061,2.3433099
69.86667,2000,0,91.24,0.000002697398,0.000002697398,0.000002697398,0.99999994,0,0,0,0,0,0,1,1,0,0,0,false,false,true,-23.3,-4663.81,17.01,-0.003957083,0.0026731214,0.8352866,0.54979384,-174.561,624.321,8.331,0.00010999999,-0.00061,2.36621
69.875,2000,0,91.24,0.000002697398,0.000002697398,0.000002697398,0.99999994,0,0,0,0,0,0,1,1,0,0,0,false,false,true,-24.75,-4658.61,17.01,-0.003984057,0.002629963,0.8406649,0.5415344,-179.291,626.66095,8.331,0.00010999999,-0.00051,2.38891
69.88333,2000,0,91.24,0.000002697398,0.000002697398,0.000002697398,0.99999994,0,0,0,0,0,0,1,1,0,0,0,false,false,true,-26.24,-4653.39,17.01,-0.004011031,0.0025868048,0.8460135,0.53314,-184.171,628.85095,8.331,0.00010999999,-0.00051,2.41151
69.89167,2000,0,91.24,0.000002697398,0.000002697398,0.000002697398,0.99999994,0,0,0,0,0,0,1,1,0,0,0,false,false,true,-27.769999,-4648.15,17.01,-0.004038005,0.0025436466,0.8513287,0.52461094,-189.19101,630.90094,8.331,0.00010999999,-0.00040999998,2.43391
69.9,2000,0,91.24,0.000002697398,0.000002697398,0.000002697398,0.99999994,0,0,0,0,0,0,1,1,0,0,0,false,false,true,-29.349998,-4642.89,17.01,-0.0040649786,0.002500488,0.85660404,0.5159521,-194.351,632.80096,8.331,0.00010999999,-0.00040999998,2.45621
69.90833,2000,0,91.24,0.000002697398,0.000002697398,0.000002697398,0.99999994,0,0,0,0,0,0,1,1,0,0,0,false,false,true,-30.97,-4637.62,17.01,-0.0040919525,0.0024573295,0.8618394,0.50715864,-199.651,634.54095,8.331,0.00010999999,-0.00030999997,2.4783099
69.916664,2000,0,91.24,0.000002697398,0.000002697398,0.000002697398,0.99999994,0,0,0,0,0,0,1,1,0,0,0,false,false,true,-32.63,-4632.33,17.01,-0.0041189273,0.0024141714,0.8670316,0.49823028,-205.08101,636.121,8.331,0.00010999999,-0.00030999997,2.50031
69.925,2000,0,91.24,0.000002697398,0.000002697398,0.000002697398,0.99999994,0,0,0,0,0,0,1,1,0,0,0,false,false,true,-34.34,-4627.03,17.01,-0.0041459007,0.002371013,0.872174,0.4891723,-210.641,637.54095,8.331,0.00010999999,-0.00021,2.52211
69.933334,2000,0,91.24,0.000002697398,0.000002697398,0.000002697398,0.99999994,0,0,0,0,0,0,1,1,0,0,0,false,false,true,-36.1,-4621.7197,17.01,-0.0041728746,0.0023278545,0.8772666,0.47997957,-216.321,638.79095,8.331,0.00010999999,-0.00021,2.54381
69.941666,2000,0,91.24,0.000002697398,0.000002697398,0.000002697398,0.99999994,0,0,0,0,0,0,1,1,0,0,0,false,false,true,-37.899998,-4616.4,17.01,-0.0041998485,0.002284696,0.8823059,0.4706519,-222.121,639.871,8.331,0.00010999999,-0.00010999999,2.56531
69.95,2000,0,91.24,0.000002697398,0.000002697398,0.000002697398,0.99999994,0,0,0,0,0,0,1,1,0,0,0,false,false,true,-39.75,-4611.07,17.01,-0.0042268224,0.0022415377,0.88728595,0.4611948,-228.031,640.78094,8.331,0.00010999999,-0.00010999999,2.58671
69.958336,2000,0,91.24,0.000002697398,0.000002697398,0.000002697398,0.99999994,0,0,0,0,0,0,1,1,0,0,0,false,false,true,-41.649998,-4605.73,17.01,-0.0042484016,0.0021929846,0.89220625,0.45160276,-234.051,641.511,8.331,0.00021,0,2.60801
69.96667,2000,0,91.24,0.000002697398,0.000002697398,0.000002697398,0.99999994,0,0,0,0,0,0,1,1,0,0,0,false,false,true,-43.6,-4600.38,17.01,-0.004269981,0.0021444315,0.8970607,0.44188136,-240.171,642.061,8.331,0.00021,0,2.6291099
69.975,2000,0,91.24,0.000002697398,0.000002697398,0.000002697398,0.99999994,0,0,0,0,0,0,1,1,0,0,0,false,false,true,-45.6,-4595.03,17.01,-0.00429156,0.0020958781,0.9018463,0.43203044,-246.381,642.43097,8.331,0.00021,0,2.65011
69.98333,2000,0,91.24,0.000002697398,0.000002697398,0.000002697398,0.99999994,0,0,0,0,0,0,1,1,0,0,0,false,false,true,-47.649998,-4589.6797,17.01,-0.0043131392,0.002047325,0.90656245,0.4220446,-252.681,642.61096,8.331,0.00010999999,0,2.67091
69.99167,2000,0,91.24,0.000002697398,0.000002697398,0.000002697398,0.99999994,0,0,0,0,0,0,1,1,0,0,0,false,false,true,-49.76,-4584.32,17.01,-0.0043347185,0.001998772,0.9112032,0.41192934,-259.071,642.60095,8.331,0.00010999999,0,2.6916099
70,2000,0,91.24,0.000002697398,0.000002697398,0.000002697398,0.99999994,0,0,0,0,0,0,1,1,0,0,0,false,false,true,-51.92,-4578.96,17.01,-0.0043562977,0.0019502188,0.9157656,0.40168455,-265.54102,642.40094,8.331,0.00010999999,0,2.71221
70.00833,2000,0,91.24,0.000002697398,0.000002697398,0.000002697398,0.99999994,0,0,0,0,0,0,1,1,0,0,0,false,false,true,-54.129997,-4573.61,17.01,-0.004377877,0.0019016657,0.9202463,0.39131036,-272.081,642.001,8.331,0.00010999999,0,2.73261
70.01667,2000,0,91.24,0.000002697398,0.000002697398,0.000002697398,0.99999994,0,0,0,0,0,0,1,1,0,0,0,false,false,true,-56.399998,-4568.26,17.01,-0.0043994565,0.0018531126,0.9246423,0.38080662,-278.691,641.41095,8.331,0.00010999999,0,2.75291
70.025,2000,0,91.24,0.000002697398,0.000002697398,0.000002697398,0.99999994,0,0,0,0,0,0,1,1,0,0,0,false,false,true,-58.719997,-4562.9097,17.01,-0.0044210353,0.0018045594,0.9289503,0.37017345,-285.361,640.621,8.331,0.00010999999,0,2.77311
70.03333,2000,0,91.24,0.000002697398,0.000002697398,0.000002697398,0.99999994,0,0,0,0,0,0,1,1,0,0,0,false,false,true,-61.1,-4557.57,17.01,-0.0044426145,0.0017506114,0.9331651,0.35941616,-292.081,639.631,8.331,0.00010999999,0,2.79311
70.041664,2000,0,91.24,0.000002697398,0.000002697398,0.000002697398,0.99999994,0,0,0,0,0,0,1,1,0,0,0,false,false,true,-63.53,-4552.2397,17.01,-0.0044641937,0.0016966634,0.9372856,0.34852946,-298.851,638.441,8.331,0.00010999999,0,2.81301
70.05,2000,0,91.24,0.000002697398,0.000002697398,0.000002697398,0.99999994,0,0,0,0,0,0,1,1,0,0,0,false,false,true,-66.02,-4546.92,17.01,-0.0044857725,0.0016427152,0.9413066,0.33751854,-305.661,637.04095,8.331,0.00010999999,0,2.83281
70.058334,2000,0,91.24,0.000002697398,0.000002697398,0.000002697398,0.99999994,0,0,0,0,0,0,1,1,0,0,0,false,false,true,-68.57,-4541.61,17.01,-0.0045073526,0.0015887676,0.94522524,0.32638377,-312.511,635.441,8.331,0.00010999999,0,2.85251
70.066666,2000,0,91.24,0.000002697398,0.000002697398,0.000002697398,0.99999994,0,0,0,0,0,0,1,1,0,0,0,false,false,true,-71.17,-4536.31,17.01,-0.0045235367,0.0015348196,0.9490382,0.31512472,-319.391,633.631,8.331,0.00010999999,0,2.87201
70.075,2000,0,91.24,0.000002697398,0.000002697398,0.000002697398,0.99999994,0,0,0,0,0,0,1,1,0,0,0,false,false,true,-73.83,-4531.03,17.01,-0.0045397207,0.0014808716,0.95274067,0.3037471,-326.291,631.621,8.331,0.00010999999,0,2.8914099
70.083336,2000,0,91.24,0.000002697398,0.000002697398,0.000002697398,0.99999994,0,0,0,0,0,0,1,1,0,0,0,false,false,true,-76.549995,-4525.77,17.01,-0.0045559052,0.0014269236,0.95633143,0.2922453,-333.211,629.40094,8.331,0.00010999999,0,2.9107099
70.09167,2000,0,91.24,0.000002697398,0.000002697398,0.000002697398,0.99999994,0,0,0,0,0,0,1,1,0,0,0,false,false,true,-79.33,-4520.52,17.01,-0.00457209,0.0013729758,0.9598056,0.28062493,-340.141,626.98096,8.331,0.00010999999,0,2.92991
70.1,2000,0,91.24,0.000002697398,0.000002697398,0.000002697398,0.99999994,0,0,0,0,0,0,1,1,0,0,0,false,false,true,-82.159996,-4515.29,17.01,-0.004588274,0.0013190276,0.9631602,0.26888573,-347.081,624.35095,8.331,0.00010999999,0,2.94901
70.10833,2000,0,91.24,0.000002697398,0.000002697398,0.000002697398,0.99999994,0,0,0,0,0,0,1,1,0,0,0,false,false,true,-85.049995,-4510.09,17.01,-0.004604459,0.001259685,0.96639067,0.2570334,-354.021,621.52094,8.331,0.00010999999,0,2.96801
70.11667,2000,0,91.24,0.000002697398,0.000002697398,0.000002697398,0.99999994,0,0,0,0,0,0,1,1,0,0,0,false,false,true,-88,-4504.9097,17.01,-0.004620643,0.0012003421,0.96949553,0.24506225,-360.951,618.48096,8.331,0.00010999999,0,2.98681
70.125,2000,0,91.24,0.000002697398,0.000002697398,0.000002697398,0.99999994,0,0,0,0,0,0,1,1,0,0,0,false,false,true,-91.009995,-4499.76,17.01,-0.004636827,0.0011409994,0.9724702,0.2329779,-367.871,615.24097,8.331,0.00010999999,0,3.0055099
70.13333,2000,0,91.24,0.000002697398,0.000002697398,0.000002697398,0.99999994,0,0,0,0,0,0,1,1,0,0,0,false,false,true,-94.079994,-4494.63,17.01,-0.0046530114,0.0010816565,0.9753118,0.22078018,-374.781,611.79095,8.331,0.00010999999,0,3.0241098
70.14167,2000,0,91.24,0.000002697398,0.000002697398,0.000002697398,0.99999994,0,0,0,0,0,0,1,1,0,0,0,false,false,true,-97.2,-4489.53,17.01,-0.0046638013,0.0010223138,0.9780161,0.20847456,-381.661,608.141,8.331,0.00010999999,0,3.04261
70.15,2000,0,91.24,0.000002697398,0.000002697398,0.000002697398,0.99999994,0,0,0,0,0,0,1,1,0,0,0,false,false,true,-100.38,-4484.46,17.01,-0.004674591,0.0009629712,0.98058003,0.19606115,-388.511,604.29095,8.331,0.00010999999,0,3.06101
70.15833,2000,0,91.24,0.000002697398,0.000002697398,0.000002697398,0.99999994,0,0,0,0,0,0,1,1,0,0,0,false,false,true,-103.619995,-4479.42,17.01,-0.004685381,0.0009036284,0.9830007,0.18353975,-395.331,600.24097,8.331,0.00010999999,0,3.07931
70.166664,2000,0,91.24,0.000002697398,0.000002697398,0.000002697398,0.99999994,0,0,0,0,0,0,1,1,0,0,0,false,false,true,-106.909996,-4474.42,17.01,-0.0046961694,0.0008442855,0.98527485,0.17091049,-402.111,595.99097,8.331,0.00010999999,0,3.0975099
70.175,2000,0,91.24,0.000002697398,0.000002697398,0.000002697398,0.99999994,0,0,0,0,0,0,1,1,0,0,0,false,false,true,-110.259995,-4469.4497,17.01,-0.0047069597,0.0007849428,0.9873989,0.1581787,-408.851,591.55096,8.331,0.00010999999,0,3.11561
70.183334,2000,0,91.24,0.000002697398,0.000002697398,0.000002697398,0.99999994,0,0,0,0,0,0,1,1,0,0,0,false,false,true,-113.67,-4464.52,17.01,-0.0047177495,0.0007256001,0.9893688,0.14534989,-415.541,586.91095,8.331,0.00010999999,0,3.13361
70.191666,2000,0,91.24,0.000002697398,0.000002697398,0.000002697398,0.99999994,0,0,0,0,0,0,1,1,0,0,0,false,false,true,-117.13,-4459.63,17.01,-0.004728539,0.0006608626,0.9911824,0.13241848,-422.171,582.081,8.331,0.00010999999,0,3.15151
70.2,2000,0,91.24,0.000002697398,0.000002697398,0.000002697398,0.99999994,0,0,0,0,0,0,1,1,0,0,0,false,false,true,-120.649994,-4454.78,17.01,-0.0047393283,0.00059612497,0.9928359,0.11938996,-428.741,577.061,8.331,0.00010999999,0,3.1693099
70.208336,2000,0,91.24,0.000002697398,0.000002697398,0.000002697398,0.99999994,0,0,0,0,0,0,1,1,0,0,0,false,false,true,-124.21999,-4449.9697,17.01,-0.0047447234,0.00053138746,0.9943258,0.10626982,-435.251,571.85095,8.331,0,0.00010999999,3.18701
70.21667,2000,0,91.24,0.000002697398,0.000002697398,0.000002697398,0.99999994,0,0,0,0,0,0,1,1,0,0,0,false,false,true,-127.85,-4445.1997,17.01,-0.004750118,0.0004666499,0.9956492,0.09305788,-441.691,566.451,8.331,0,0.00010999999,3.2046099
70.225,2000,0,91.24,0.000002697398,0.000002697398,0.000002697398,0.99999994,0,0,0,0,0,0,1,1,0,0,0,false,false,true,-131.53,-4440.48,17.01,-0.0047555133,0.00040191234,0.9968031,0.07975431,-448.061,560.871,8.331,0,0.00010999999,3.22221
70.23333,2000,0,91.24,0.000002697398,0.000002697398,0.000002697398,0.99999994,0,0,0,0,0,0,1,1,0,0,0,false,false,true,-135.26,-4435.81,17.01,-0.004760908,0.00033717477,0.997784,0.06636434,-454.35098,555.10095,8.331,0,0.00010999999,3.2397099
70.24167,2000,0,91.24,0.000002697398,0.000002697398,0.000002697398,0.99999994,0,0,0,0,0,0,1,1,0,0,0,false,false,true,-139.05,-4431.1797,17.01,-0.0047663026,0.00027243723,0.99858904,0.052888054,-460.561,549.16095,8.331,0,0.00010999999,3.2571099
70.25,2000,0,91.24,0.000002697398,0.000002697398,0.000002697398,0.99999994,0,0,0,0,0,0,1,1,0,0,0,false,false,true,-142.89,-4426.6,17.01,-0.004771697,0.00020769965,0.99921477,0.03933093,-466.681,543.04095,8.331,0,0.00010999999,3.27441
70.25833,2000,0,91.24,0.000002697398,0.000002697398,0.000002697398,0.99999994,0,0,0,0,0,0,1,1,0,0,0,false,false,true,-146.78,-4422.07,17.01,-0.004771697,0.00014296209,0.99965847,0.0256928,-472.711,536.74097,8.331,0,0.00010999999,3.29161
70.26667,2000,0,91.24,0.000002697398,0.000002697398,0.000002697398,0.99999994,0,0,0,0,0,0,1,1,0,0,0,false,false,true,-150.72,-4417.6,17.01,-0.004771697,0.00007822454,0.9999168,0.011979229,-478.651,530.27094,8.331,0,0.00010999999,3.30881
70.275,2000,0,91.24,0.000002697398,0.000002697398,0.000002697398,0.99999994,0,0,0,0,0,0,1,1,0,0,0,false,false,true,-154.70999,-4413.1797,17.01,-0.0047716973,0.0000134869915,0.99998695,-0.0018045595,-484.491,523.631,8.331,0,0.00010999999,3.3259099
70.28333,2000,0,91.24,0.000002697398,0.000002697398,0.000002697398,0.99999994,0,0,0,0,0,0,1,1,0,0,0,false,false,true,-158.75,-4408.82,17.01,-0.004771697,-0.000051250565,0.9998659,-0.015663832,-490.231,516.831,8.331,0,0.00010999999,3.3429098
70.291664,2000,0,91.24,0.000002697398,0.000002697398,0.000002697398,0.99999994,0,0,0,0,0,0,1,1,0,0,0,false,false,true,-162.84,-4404.51,17.01,-0.004771697,-0.00011598812,0.99955076,-0.029587885,-495.871,509.861,8.331,0,0.00010999999,3.3598099
70.3,2000,0,91.24,0.000002697398,0.000002697398,0.000002697398,0.99999994,0,0,0,0,0,0,1,1,0,0,0,false,false,true,-166.97,-4400.26,17.01,-0.004771697,-0.00018072566,0.9990386,-0.043576635,-501.401,502.731,8.331,0,0.00010999999,3.37671
70.308334,2000,0,91.24,0.000002697398,0.000002697398,0.000002697398,0.99999994,0,0,0,0,0,0,1,1,0,0,0,false,false,true,-171.15,-4396.07,17.01,-0.004766302,-0.00024546322,0.99832654,-0.05763012,-506.831,495.451,8.331,0,0.00021,3.3935099
70.316666,2000,0,91.24,0.000002697398,0.000002697398,0.000002697398,0.99999994,0,0,0,0,0,0,1,1,0,0,0,false,false,true,-175.37,-4391.94,17.01,-0.0047609075,-0.00031020076,0.9974121,-0.07173755,-512.141,488.011,8.331,0,0.00021,3.41021
70.325,2000,0,91.24,0.000002697398,0.000002697398,0.000002697398,0.99999994,0,0,0,0,0,0,1,1,0,0,0,false,false,true,-179.64,-4387.87,17.01,-0.0047555123,-0.0003803331,0.9962918,-0.08590437,-517.34094,480.421,8.331,0,0.00021,3.42691
70.333336,2000,0,91.24,0.000002697398,0.000002697398,0.000002697398,0.99999994,0,0,0,0,0,0,1,1,0,0,0,false,false,true,-183.95,-4383.87,17.01,-0.0047501177,-0.00045046548,0.9949639,-0.1001197,-522.42096,472.681,8.331,0,0.00021,3.4435098
70.34167,2000,0,91.24,0.000002697398,0.000002697398,0.000002697398,0.99999994,0,0,0,0,0,0,1,1,0,0,0,false,false,true,-188.3,-4379.9297,17.01,-0.0047447234,-0.00052059785,0.9934252,-0.11438359,-527.381,464.791,8.331,0,0.00021,3.46011
70.35,2000,0,91.24,0.000002697398,0.000002697398,0.000002697398,0.99999994,0,0,0,0,0,0,1,1,0,0,0,false,false,true,-192.69,-4376.06,17.01,-0.004733934,-0.0005907302,0.9916726,-0.12869607,-532.22095,456.751,8.331,0,0.00021,3.47661
70.35833,2000,0,91.24,0.000002697398,0.000002697398,0.000002697398,0.99999994,0,0,0,0,0,0,1,1,0,0,0,false,false,true,-197.12999,-4372.25,17.01,-0.0047231433,-0.0006608625,0.9897044,-0.14304624,-536.941,448.57098,8.331,0,0.00021,3.49301
70.36667,2000,0,91.24,0.000002697398,0.000002697398,0.000002697398,0.99999994,0,0,0,0,0,0,1,1,0,0,0,false,false,true,-201.59999,-4368.51,17.01,-0.0047123544,-0.00073099486,0.9875179,-0.15743423,-541.53094,440.241,8.331,-0.00010999999,0.00021,3.50941
70.375,2000,0,91.24,0.000002697398,0.000002697398,0.000002697398,0.99999994,0,0,0,0,0,0,1,1,0,0,0,false,false,true,-206.11,-4364.84,17.01,-0.004701565,-0.0008011273,0.98511076,-0.17185462,-546.001,431.771,8.331,-0.00010999999,0.00021,3.5257099
70.38333,2000,0,91.24,0.000002697398,0.000002697398,0.000002697398,0.99999994,0,0,0,0,0,0,1,1,0,0,0,false,false,true,-210.65999,-4361.2397,17.01,-0.004690775,-0.0008712596,0.9824799,-0.1863073,-550.34094,423.161,8.331,-0.00021,0.00021,3.5420098
70.39167,2000,0,91.24,0.000002697398,0.000002697398,0.000002697398,0.99999994,0,0,0,0,0,0,1,1,0,0,0,false,false,true,-215.25,-4357.71,17.01,-0.004674591,-0.000941392,0.9796233,-0.200787,-554.55096,414.411,8.331,-0.00021,0.00021,3.55821
70.4,2000,0,91.24,0.000002697398,0.000002697398,0.000002697398,0.99999994,0,0,0,0,0,0,1,1,0,0,0,false,false,true,-219.87,-4354.26,17.01,-0.004658406,-0.0010115242,0.97653884,-0.21528824,-558.621,405.531,8.331,-0.00021,0.00010999999,3.5743098
70.40833,2000,0,91.24,0.000002697398,0.000002697398,0.000002697398,0.99999994,0,0,0,0,0,0,1,1,0,0,0,false,false,true,-224.53,-4350.88,17.01,-0.0046422225,-0.0010816567,0.9732248,-0.22980572,-562.561,396.511,8.331,-0.00030999997,0.00010999999,3.59041
70.416664,2000,0,91.24,0.000002697398,0.000002697398,0.000002697398,0.99999994,0,0,0,0,0,0,1,1,0,0,0,false,false,true,-229.22,-4347.58,17.01,-0.004626038,-0.0011517891,0.96967804,-0.24433935,-566.36096,387.361,8.331,-0.00030999997,0.00010999999,3.60641
70.425,2000,0,91.24,0.000002697398,0.000002697398,0.000002697398,0.99999994,0,0,0,0,0,0,1,1,0,0,0,false,false,true,-233.93999,-4344.35,17.01,-0.004609853,-0.0012219213,0.9658966,-0.25888374,-570.02094,378.07098,8.331,-0.00040999998,0.00010999999,3.62231
70.433334,2000,0,91.24,0.000002697398,0.000002697398,0.000002697398,0.99999994,0,0,0,0,0,0,1,1,0,0,0,false,false,true,-238.68999,-4341.1997,17.01,-0.004588274,-0.0012920536,0.961879,-0.2734336,-573.54095,368.651,8.331,-0.00040999998,0.00010999999,3.63811
70.441666,2000,0,91.24,0.000002697398,0.000002697398,0.000002697398,0.99999994,0,0,0,0,0,0,1,1,0,0,0,false,false,true,-243.47,-4338.13,17.01,-0.0045666946,-0.001362186,0.9576235,-0.2879834,-576.92096,359.101,8.331,-0.00040999998,0,3.65381
70.45,2000,0,91.24,0.000002697398,0.000002697398,0.000002697398,0.99999994,0,0,0,0,0,0,1,1,0,0,0,false,false,true,-248.28,-4335.14,17.01,-0.0045451154,-0.0014323184,0.9531286,-0.30252782,-580.15094,349.421,8.331,-0.00051,0,3.66941
70.458336,2000,0,91.24,0.000002697398,0.000002697398,0.000002697398,0.99999994,0,0,0,0,0,0,1,1,0,0,0,false,false,true,-253.11,-4332.23,17.01,-0.004523536,-0.0014970559,0.94839114,-0.31706688,-583.24097,339.601,8.331,-0.00051,0,3.6849098
70.46667,2000,0,91.24,0.000002697398,0.000002697398,0.000002697398,0.99999994,0,0,0,0,0,0,1,1,0,0,0,false,false,true,-257.97,-4329.4,17.01,-0.0045019574,-0.0015617935,0.9434116,-0.3315897,-586.141,329.661,8.331,-0.00051,0,3.70121
70.475,2000,0,91.24,0.000002697398,0.000002697398,0.000002697398,0.99999994,0,0,0,0,0,0,1,1,0,0,0,false,false,true,-262.85,-4326.65,17.01,-0.004474983,-0.001626531,0.9381868,-0.34609637,-588.811,319.611,8.331,-0.00051,0,3.71941
70.48333,2000,0,91.24,0.000002697398,0.000002697398,0.000002697398,0.99999994,0,0,0,0,0,0,1,1,0,0,0,false,false,true,-267.75998,-4323.9897,17.01,-0.004448009,-0.0016912686,0.93271136,-0.36059222,-591.251,309.451,8.331,-0.00040999998,0,3.73941
70.49167,2000,0,91.24,0.000002697398,0.000002697398,0.000002697398,0.99999994,0,0,0,0,0,0,1,1,0,0,0,false,false,true,-272.69,-4321.4097,17.01,-0.0044210353,-0.001761401,0.92697906,-0.37508273,-593.46094,299.191,8.331,-0.00030999997,0,3.76121
70.5,2000,0,91.24,0.000002697398,0.000002697398,0.000002697398,0.99999994,0,0,0,0,0,0,1,1,0,0,0,false,false,true,-277.63998,-4318.92,17.01,-0.004394062,-0.0018315334,0.9209877,-0.38956246,-595.43097,288.831,8.331,-0.00030999997,0,3.78471
70.50833,2000,0,91.24,0.000002697398,0.000002697398,0.000002697398,0.99999994,0,0,0,0,0,0,1,1,0,0,0,false,false,true,-282.6,-4316.51,17.01,-0.0043616924,-0.0019016657,0.9147303,-0.40403667,-597.17096,278.381,8.331,-0.00030999997,0,3.81001
70.51667,2000,0,91.24,0.000002697398,0.000002697398,0.000002697398,0.99999994,0,0,0,0,0,0,1,1,0,0,0,false,false,true,-287.58,-4314.19,17.01,-0.004329324,-0.0019717978,0.9082017,-0.4185056,-598.67096,267.851,8.331,-0.00030999997,0,3.83701
70.525,2000,0,91.24,0.000002697398,0.000002697398,0.000002697398,0.99999994,0,0,0,0,0,0,1,1,0,0,0,false,false,true,-292.57,-4311.96,17.01,-0.0042969557,-0.0020419306,0.90139616,-0.43296912,-599.941,257.241,8.331,-0.00030999997,-0.00010999999,3.86581
70.53333,2000,0,91.24,0.000002697398,0.000002697398,0.000002697398,0.99999994,0,0,0,0,0,0,1,1,0,0,0,false,false,true,-297.57,-4309.82,17.01,-0.004264586,-0.0021120626,0.89430493,-0.44743258,-600.97095,246.551,8.331,-0.00030999997,-0.00010999999,3.8963099
70.541664,2000,0,91.24,0.000002697398,0.000002697398,0.000002697398,0.99999994,0,0,0,0,0,0,1,1,0,0,0,false,false,true,-302.58,-4307.76,17.01,-0.004232218,-0.0021821952,0.886924,-0.46189076,-601.761,235.791,8.331,-0.00030999997,-0.00021,3.92851
70.55,2000,0,91.24,0.000002697398,0.000002697398,0.000002697398,0.99999994,0,0,0,0,0,0,1,1,0,0,0,false,false,true,-307.59,-4305.79,17.01,-0.004194454,-0.0022469326,0.87924635,-0.47634342,-602.311,224.961,8.331,-0.00030999997,-0.00021,3.96241
70.558334,2000,0,91.24,0.000002697398,0.000002697398,0.000002697398,0.99999994,0,0,0,0,0,0,1,1,0,0,0,false,false,true,-312.61,-4303.92,17.01,-0.00415669,-0.00231167,0.87126136,-0.49079615,-602.61096,214.061,8.331,-0.00030999997,-0.00021,3.9981098
70.566666,2000,0,91.24,0.000002697398,0.000002697398,0.000002697398,0.99999994,0,0,0,0,0,0,1,1,0,0,0,false,false,true,-317.63,-4302.14,17.01,-0.004118927,-0.0023764076,0.8629636,-0.5052435,-602.67096,203.101,8.331,-0.00021,-0.00021,4.03551
70.575,2000,0,91.24,0.000002697398,0.000002697398,0.000002697398,0.99999994,0,0,0,0,0,0,1,1,0,0,0,false,false,true,-322.65,-4300.4497,17.01,-0.004081163,-0.00244654,0.8543477,-0.51967996,-602.48096,192.08101,8.331,-0.00021,-0.00021,4.0746098
70.583336,2000,0,91.24,0.000002697398,0.000002697398,0.000002697398,0.99999994,0,0,0,0,0,0,1,1,0,0,0,false,false,true,-327.66998,-4298.85,17.01,-0.0040380047,-0.0025166722,0.8454008,-0.5341111,-601.96094,181.001,8.331,-0.00021,-0.00021,4.1146097
70.59167,2000,0,91.24,0.000002697398,0.000002697398,0.000002697398,0.99999994,0,0,0,0,0,0,1,1,0,0,0,false,false,true,-332.69,-4297.34,17.01,-0.0039948463,-0.0025868048,0.83611983,-0.54852605,-601.08093,169.871,8.331,-0.00021,-0.00021,4.15521
70.6,2000,0,91.24,0.000002697398,0.000002697398,0.000002697398,0.99999994,0,0,0,0,0,0,1,1,0,0,0,false,false,true,-337.69998,-4295.92,17.01,-0.003951688,-0.002656937,0.826498,-0.56291944,-599.84094,158.711,8.331,-0.00021,-0.00021,4.19651
70.60833,2000,0,91.24,0.000002697398,0.000002697398,0.000002697398,0.99999994,0,0,0,0,0,0,1,1,0,0,0,false,false,true,-342.69998,-4294.6,17.01,-0.0039031352,-0.0027270697,0.8165282,-0.5772859,-598.23096,147.52101,8.331,-0.00021,-0.00010999999,4.23841
70.61667,2000,0,91.24,0.000002697398,0.000002697398,0.000002697398,0.99999994,0,0,0,0,0,0,1,1,0,0,0,false,false,true,-347.69,-4293.37,17.01,-0.0038545819,-0.0027972017,0.8062068,-0.5916145,-596.251,136.311,8.331,-0.00021,-0.00010999999,4.2810097
70.625,2000,0,91.24,0.000002697398,0.000002697398,0.000002697398,0.99999994,0,0,0,0,0,0,1,1,0,0,0,false,false,true,-352.66,-4292.23,17.01,-0.0038060283,-0.0028619391,0.7955265,-0.6058999,-593.871,125.141,8.331,-0.00021,-0.00010999999,4.32441
70.63333,2000,0,91.24,0.000002697398,0.000002697398,0.000002697398,0.99999994,0,0,0,0,0,0,1,1,0,0,0,false,false,true,-357.61,-4291.19,17.01,-0.0037520803,-0.0029266765,0.7844791,-0.6201368,-591.071,114.041,8.331,-0.00021,-0.00010999999,4.36851
70.64167,2000,0,91.24,0.000002697398,0.000002697398,0.000002697398,0.99999994,0,0,0,0,0,0,1,1,0,0,0,false,false,true,-362.53998,-4290.2397,17.01,-0.0036981327,-0.0029914144,0.77306044,-0.6343144,-587.85095,103.031,8.331,-0.00010999999,-0.00010999999,4.41331
70.65,2000,0,91.24,0.000002697398,0.000002697398,0.000002697398,0.99999994,0,0,0,0,0,0,1,1,0,0,0,false,false,true,-367.44,-4289.38,17.01,-0.0036441851,-0.0030561523,0.76126623,-0.64842194,-584.23096,92.230995,8.331,0,0,4.45791
70.65833,2000,0,91.24,0.000002697398,0.000002697398,0.000002697398,0.99999994,0,0,0,0,0,0,1,1,0,0,0,false,false,true,-372.31,-4288.61,17.01,-0.003584842,-0.0031208897,0.74909234,-0.6624484,-580.23096,81.711,8.331,0,0,4.50181
70.666664,2000,0,91.24,0.000002697398,0.000002697398,0.000002697398,0.99999994,0,0,0,0,0,0,1,1,0,0,0,false,false,true,-377.15,-4287.9297,17.01,-0.0035254993,-0.003185627,0.7365345,-0.6763832,-575.871,71.471,8.331,0,0,4.54501
70.675,2000,0,91.24,0.000002697398,0.000002697398,0.000002697398,0.99999994,0,0,0,0,0,0,1,1,0,0,0,false,false,true,-381.94998,-4287.33,17.01,-0.0034661565,-0.0032503647,0.7235933,-0.6902101,-571.17096,61.531,8.331,0.00010999999,0,4.58751
70.683334,2000,0,91.24,0.000002697398,0.000002697398,0.000002697398,0.99999994,0,0,0,0,0,0,1,1,0,0,0,false,false,true,-386.71,-4286.82,17.01,-0.003401419,-0.0033151023,0.7102703,-0.703913,-566.15094,51.911,8.331,0.00010999999,0.00010999999,4.62931
70.691666,2000,0,91.24,0.000002697398,0.000002697398,0.000002697398,0.99999994,0,0,0,0,0,0,1,1,0,0,0,false,false,true,-391.43,-4286.39,17.01,0.0033366815,0.0033798397,-0.69655985,0.71748286,-560.821,42.611,8.331,0.00021,0.00010999999,4.67031
70.7,2000,0,91.24,0.000002697398,0.000002697398,0.000002697398,0.99999994,0,0,0,0,0,0,1,1,0,0,0,false,false,true,-396.1,-4286.03,17.01,0.0032719441,0.0034445776,-0.68246865,0.7308994,-555.21094,33.641,8.331,0.00021,0.00021,4.71051
70.708336,2000,0,91.24,0.000002697398,0.000002697398,0.000002697398,0.99999994,0,0,0,0,0,0,1,1,0,0,0,false,false,true,-400.72998,-4285.75,17.01,0.0032018118,0.0035093152,-0.6679943,0.7441512,-549.34094,25.011,8.331,0.00021,0.00030999997,4.7498097
70.71667,2000,0,91.24,0.000002697398,0.000002697398,0.000002697398,0.99999994,0,0,0,0,0,0,1,1,0,0,0,false,false,true,-405.31,-4285.54,17.01,0.0031316793,0.0035740524,-0.65313697,0.75722474,-543.23096,16.730999,8.331,0.00021,0.00030999997,4.78821
70.725,2000,0,91.24,0.000002697398,0.000002697398,0.000002697398,0.99999994,0,0,0,0,0,0,1,1,0,0,0,false,false,true,-409.84,-4285.4,17.01,0.0030615467,0.00363879,-0.637902,0.77010274,-536.91095,8.801001,8.331,0.00021,0.00040999998,4.8256097
70.73333,2000,0,91.24,0.000002697398,0.000002697398,0.000002697398,0.99999994,0,0,0,0,0,0,1,1,0,0,0,false,false,true,-414.31,-4285.33,17.01,0.0029860197,0.0037035276,-0.62228936,0.7827727,-530.40094,1.2210001,8.331,0.00021,0.00040999998,4.86201
70.74167,2000,0,91.24,0.000002697398,0.000002697398,0.000002697398,0.99999994,0,0,0,0,0,0,1,1,0,0,0,false,false,true,-418.72998,-4285.32,17.01,0.0029104925,0.0037628703,-0.6063046,0.79521817,-523.72095,-6.001,8.331,0.00021,0.00040999998,4.89741
70.75,2000,0,91.24,0.000002697398,0.000002697398,0.000002697398,0.99999994,0,0,0,0,0,0,1,1,0,0,0,false,false,true,-423.09,-4285.37,17.01,0.0028349652,0.003822213,-0.5899529,0.80742353,-516.891,-12.861,8.331,0.00021,0.00051,4.93171
70.75833,2000,0,91.24,0.000002697398,0.000002697398,0.000002697398,0.99999994,0,0,0,0,0,0,1,1,0,0,0,false,false,true,-427.4,-4285.48,17.01,0.0027540433,0.0038815557,-0.57323974,0.8193738,-509.931,-19.370998,8.321,0.00021,0.00061,4.96481
70.76667,2000,0,91.24,0.000002697398,0.000002697398,0.000002697398,0.99999994,0,0,0,0,0,0,1,1,0,0,0,false,false,true,-431.65,-4285.64,17.01,0.0026731216,0.003940899,-0.5561706,0.83105445,-502.85098,-25.520998,8.321,0.00021,0.00061,4.9959097
70.775,2000,0,91.24,0.000002697398,0.000002697398,0.000002697398,0.99999994,0,0,0,0,0,0,1,1,0,0,0,false,false,true,-435.84,-4285.85,17.01,0.0025921995,0.004000241,-0.53875065,0.8424517,-495.63098,-31.261,8.321,0.00021,0.00061,5.02351
70.78333,2000,0,91.24,0.000002697398,0.000002697398,0.000002697398,0.99999994,0,0,0,0,0,0,1,1,0,0,0,false,false,true,-439.97,-4286.11,17.01,0.0025058826,0.004054189,-0.5210017,0.85354227,-488.301,-36.591,8.321,0.00010999999,0.00061,5.0475097
70.791664,2000,0,91.24,0.000002697398,0.000002697398,0.000002697398,0.99999994,0,0,0,0,0,0,1,1,0,0,0,false,false,true,-444.03998,-4286.4097,17.01,0.002419566,0.004108137,-0.50293446,0.86431134,-480.891,-41.521,8.321,0,0.00071,5.06781
70.8,2000,0,91.24,0.000002697398,0.000002697398,0.000002697398,0.99999994,0,0,0,0,0,0,1,1,0,0,0,false,false,true,-448.05,-4286.76,17.01,0.0023332492,0.0041620852,-0.48457053,0.8747391,-473.431,-46.051,8.321,0,0.00081,5.0844097
70.808334,2000,0,91.24,0.000002697398,0.000002697398,0.000002697398,0.99999994,0,0,0,0,0,0,1,1,0,0,0,false,false,true,-452,-4287.14,17.01,0.0022415377,0.004216033,-0.46593145,0.8848079,-465.951,-50.201,8.321,0,0.00081,5.09711
70.816666,2000,0,91.24,0.000002697398,0.000002697398,0.000002697398,0.99999994,0,0,0,0,0,0,1,1,0,0,0,false,false,true,-455.88,-4287.56,17.01,0.0021498261,0.004264586,-0.44703877,0.89450175,-458.471,-53.981,8.321,0,0.00081,5.1058097
70.825,2000,0,91.24,0.000002697398,0.000002697398,0.000002697398,0.99999994,0,0,0,0,0,0,1,1,0,0,0,false,false,true,-459.69998,-4288.01,17.01,0.0020581146,0.0043131392,-0.42790875,0.90380925,-451.021,-57.411,8.321,0,0.00081,5.11031
70.833336,2000,0,91.24,0.000002697398,0.000002697398,0.000002697398,0.99999994,0,0,0,0,0,0,1,1,0,0,0,false,false,true,-463.46,-4288.4897,17.01,0.0019664029,0.004361692,-0.40856832,0.912715,-443.541,-60.540997,8.321,-0.00010999999,0.00081,5.1104097
70.84167,2000,0,91.24,0.000002697398,0.000002697398,0.000002697398,0.99999994,0,0,0,0,0,0,1,1,0,0,0,false,false,true,-467.16,-4288.9897,17.01,0.0018692969,0.004404851,-0.3890445,0.9212065,-436.061,-63.380997,8.321,-0.00021,0.00071,5.10611
70.85,2000,0,91.24,0.000002697398,0.000002697398,0.000002697398,0.99999994,0,0,0,0,0,0,1,1,0,0,0,false,false,true,-470.78998,-4289.52,17.01,0.0017721906,0.004448009,-0.36935884,0.92927444,-428.60098,-65.940994,8.321,-0.00021,0.00061,5.0974097
70.85833,2000,0,91.24,0.000002697398,0.000002697398,0.000002697398,0.99999994,0,0,0,0,0,0,1,1,0,0,0,false,false,true,-474.36,-4290.07,17.01,0.0016750842,0.004485773,-0.34953827,0.9369098,-421.191,-68.230995,8.321,-0.00021,0.00051,5.08411
70.86667,2000,0,91.24,0.000002697398,0.000002697398,0.000002697398,0.99999994,0,0,0,0,0,0,1,1,0,0,0,false,false,true,-477.87,-4290.64,17.01,0.0015779779,0.004523536,-0.3296152,0.9441031,-413.861,-70.261,8.311,-0.00021,0.00051,5.06561
70.875,2000,0,91.24,0.000002697398,0.000002697398,0.000002697398,0.99999994,0,0,0,0,0,0,1,1,0,0,0,false,false,true,-481.31998,-4291.23,17.01,0.0014808716,0.0045559052,-0.30961663,0.95084935,-406.441,-72.090996,8.311,-0.00030999997,0.00040999998,5.04661
70.88333,2000,0,91.24,0.000002697398,0.000002697398,0.000002697398,0.99999994,0,0,0,0,0,0,1,1,0,0,0,false,false,true,-484.71,-4291.83,17.01,0.0013837653,0.0045882743,-0.2895533,0.95714986,-398.941,-73.711,8.311,-0.00030999997,0.00030999997,5.02731
70.89167,2000,0,91.24,0.000002697398,0.000002697398,0.000002697398,0.99999994,0,0,0,0,0,0,1,1,0,0,0,false,false,true,-488.03,-4292.44,17.01,0.0012866588,0.004615248,-0.2694414,0.9630048,-391.361,-75.120995,8.311,-0.00040999998,0.00021,5.00781
70.9,2000,0,91.24,0.000002697398,0.000002697398,0.000002697398,0.99999994,0,0,0,0,0,0,1,1,0,0,0,false,false,true,-491.28998,-4293.07,17.01,0.0011895526,0.0046422225,-0.24929182,0.9684165,-383.731,-76.311,8.311,-0.00051,0.00010999999,4.9882097
70.90833,2000,0,91.24,0.000002697398,0.000002697398,0.000002697398,0.99999994,0,0,0,0,0,0,1,1,0,0,0,false,false,true,-494.49,-4293.71,17.01,0.0010924462,0.0046638013,-0.22910978,0.97338873,-376.051,-77.281,8.311,-0.00051,0,4.9685097
70.916664,2000,0,91.24,0.000002697398,0.000002697398,0.000002697398,0.99999994,0,0,0,0,0,0,1,1,0,0,0,false,false,true,-497.62,-4294.35,17.01,0.0009953398,0.0046853805,-0.20891158,0.97792274,-368.32098,-78.020996,8.311,-0.00051,0,4.9489098
70.925,2000,0,91.24,0.000002697398,0.000002697398,0.000002697398,0.99999994,0,0,0,0,0,0,1,1,0,0,0,false,false,true,-500.69,-4295,17.01,0.00089823356,0.0047069597,-0.1887026,0.9820225,-360.561,-78.531,8.311,-0.00061,0,4.92961
70.933334,2000,0,91.24,0.000002697398,0.000002697398,0.000002697398,0.99999994,0,0,0,0,0,0,1,1,0,0,0,false,false,true,-503.69,-4295.65,17.01,0.0008011273,0.004723144,-0.16849361,0.9856911,-352.771,-78.811,8.311,-0.00061,0,4.91071
70.941666,2000,0,91.24,0.000002697398,0.000002697398,0.000002697398,0.99999994,0,0,0,0,0,0,1,1,0,0,0,false,false,true,-506.62997,-4296.31,17.01,0.0007040209,0.0047393283,-0.14829001,0.98893225,-344.961,-78.861,8.311,-0.00061,0,4.8923097
70.95,2000,0,91.24,0.000002697398,0.000002697398,0.000002697398,0.99999994,0,0,0,0,0,0,1,1,0,0,0,false,false,true,-509.5,-4296.9697,17.01,0.0006069146,0.0047501177,-0.12810263,0.9917493,-337.131,-78.671,8.311,-0.00061,-0.00010999999,4.87461
70.958336,2000,0,91.24,0.000002697398,0.000002697398,0.000002697398,0.99999994,0,0,0,0,0,0,1,1,0,0,0,false,false,true,-512.31,-4297.63,17.01,0.0005098082,0.0047609075,-0.10793681,0.99414617,-329.291,-78.251,8.311,-0.00061,-0.00021,4.85781
70.96667,2000,0,91.24,0.000002697398,0.000002697398,0.000002697398,0.99999994,0,0,0,0,0,0,1,1,0,0,0,false,false,true,-515.05,-4298.28,17.01,0.0004127019,0.004771697,-0.08779255,0.9961272,-321.441,-77.581,8.311,-0.00061,-0.00021,4.84201
70.975,2000,0,91.24,0.000002697398,0.000002697398,0.000002697398,0.99999994,0,0,0,0,0,0,1,1,0,0,0,false,false,true,-517.73,-4298.9297,17.01,0.0003155956,0.0047770925,-0.06768067,0.9976955,-313.581,-76.671,8.311,-0.00061,-0.00030999997,4.8274097
70.98333,2000,0,91.24,0.000002697398,0.000002697398,0.000002697398,0.99999994,0,0,0,0,0,0,1,1,0,0,0,false,false,true,-520.33997,-4299.57,17.01,0.00021848925,0.0047824867,-0.047601152,0.9988549,-305.721,-75.510994,8.311,-0.00061,-0.00040999998,4.81421
70.99167,2000,0,91.24,0.000002697398,0.000002697398,0.000002697398,0.99999994,0,0,0,0,0,0,1,1,0,0,0,false,false,true,-522.89,-4300.1997,17.01,0.00012138292,0.0047824867,-0.027554005,0.9996088,-297.861,-74.101,8.311,-0.00051,-0.00040999998,4.80261
71,2000,0,91.24,0.000002697398,0.000002697398,0.000002697398,0.99999994,0,0,0,0,0,0,1,1,0,0,0,false,false,true,-525.37,-4300.82,17.01,0.000024276584,0.004782487,-0.007544665,0.99996006,-290.011,-72.431,8.311,-0.00040999998,-0.00040999998,4.79271
71.00833,2000,0,91.24,0.000002697398,0.000002697398,0.000002697398,0.99999994,0,0,0,0,0,0,1,1,0,0,0,false,false,true,-527.79,-4301.42,17.01,-0.00007282975,0.004782487,0.0124269985,0.9999113,-282.181,-70.491,8.311,-0.00030999997,-0.00051,4.78481
71.01667,2000,0,91.24,0.000002697398,0.000002697398,0.000002697398,0.99999994,0,0,0,0,0,0,1,1,0,0,0,false,false,true,-530.14,-4302.01,17.01,-0.00016993606,0.0047770916,0.032360762,0.9994647,-274.371,-68.281,8.311,-0.00021,-0.00051,4.77901
71.025,2000,0,91.24,0.000002697398,0.000002697398,0.000002697398,0.99999994,0,0,0,0,0,0,1,1,0,0,0,false,false,true,-532.43,-4302.58,17.01,-0.0002670424,0.004771697,0.05225686,0.9986222,-266.581,-65.791,8.311,-0.00010999999,-0.00051,4.77551
71.03333,2000,0,91.24,0.000002697398,0.000002697398,0.000002697398,0.99999994,0,0,0,0,0,0,1,1,0,0,0,false,false,true,-534.64996,-4303.13,17.01,-0.0003641487,0.004760907,0.07211518,0.9973847,-258.821,-63.010998,8.311,0,-0.00051,4.77451
71.041664,2000,0,91.24,0.000002697398,0.000002697398,0.000002697398,0.99999994,0,0,0,0,0,0,1,1,0,0,0,false,false,true,-536.81,-4303.65,17.01,-0.00046125508,0.0047501177,0.09194115,0.99575293,-251.101,-59.931,8.311,0,-0.00051,4.77631
71.05,2000,0,91.24,0.000002697398,0.000002697398,0.000002697398,0.99999994,0,0,0,0,0,0,1,1,0,0,0,false,false,true,-538.89996,-4304.15,17.01,-0.00055836135,0.0047393283,0.111740135,0.99372596,-243.431,-56.551,8.311,0,-0.00051,4.78111
71.058334,2000,0,91.24,0.000002697398,0.000002697398,0.000002697398,0.99999994,0,0,0,0,0,0,1,1,0,0,0,false,false,true,-540.93,-4304.62,17.01,-0.0006554677,0.0047231433,0.13151214,0.99130297,-235.821,-52.850998,8.311,0.00010999999,-0.00051,4.78921
71.066666,2000,0,91.24,0.000002697398,0.000002697398,0.000002697398,0.99999994,0,0,0,0,0,0,1,1,0,0,0,false,false,true,-542.89996,-4305.06,17.01,-0.0007471793,0.00470696,0.15126799,0.9884813,-228.271,-48.821,8.311,0.00021,-0.00051,4.80091
71.075,2000,0,91.24,0.000002697398,0.000002697398,0.000002697398,0.99999994,0,0,0,0,0,0,1,1,0,0,0,false,false,true,-544.8,-4305.4697,17.01,-0.00083889085,0.0046907756,0.17100763,0.98525816,-220.801,-44.440998,8.311,0.00030999997,-0.00051,4.8165097
71.083336,2000,0,91.24,0.000002697398,0.000002697398,0.000002697398,0.99999994,0,0,0,0,0,0,1,1,0,0,0,false,false,true,-546.64,-4305.84,17.01,-0.0009306024,0.0046691964,0.19074728,0.9816276,-213.421,-39.720997,8.311,0.00030999997,-0.00051,4.83591
71.09167,2000,0,91.24,0.000002697398,0.000002697398,0.000002697398,0.99999994,0,0,0,0,0,0,1,1,0,0,0,false,false,true,-548.42,-4306.17,17.01,-0.001022314,0.004647617,0.21048692,0.9775851,-206.141,-34.771,8.311,0.00030999997,-0.00040999998,4.85541
71.1,2000,0,91.24,0.000002697398,0.000002697398,0.000002697398,0.99999994,0,0,0,0,0,0,1,1,0,0,0,false,false,true,-550.14,-4306.46,17.01,-0.0011140254,0.0046260376,0.23022108,0.97312665,-198.951,-29.581,8.311,0.00030999997,-0.00030999997,4.87541
71.10833,2000,0,91.24,0.000002697398,0.000002697398,0.000002697398,0.99999994,0,0,0,0,0,0,1,1,0,0,0,false,false,true,-551.8,-4306.71,17.01,-0.0012057369,0.0045990637,0.24993914,0.9682498,-191.851,-24.130999,8.311,0.00030999997,-0.00030999997,4.89631
71.11667,2000,0,91.24,0.000002697398,0.000002697398,0.000002697398,0.99999994,0,0,0,0,0,0,1,1,0,0,0,false,false,true,-553.39996,-4306.9097,17.01,-0.0012974485,0.00457209,0.26964104,0.96294916,-184.841,-18.401,8.311,0.00030999997,-0.00021,4.9187098
71.125,2000,0,91.24,0.000002697398,0.000002697398,0.000002697398,0.99999994,0,0,0,0,0,0,1,1,0,0,0,false,false,true,-554.94,-4307.06,17.01,-0.0013891599,0.0045451154,0.2893159,0.9572218,-177.891,-12.361,8.311,0.00030999997,-0.00010999999,4.94341
71.13333,2000,0,91.24,0.000002697398,0.000002697398,0.000002697398,0.99999994,0,0,0,0,0,0,1,1,0,0,0,false,false,true,-556.42,-4307.1597,17.01,-0.0014808717,0.0045127473,0.30896926,0.9510601,-170.961,-5.961,8.311,0.00021,-0.00010999999,4.97181
71.14167,2000,0,91.24,0.000002697398,0.000002697398,0.000002697398,0.99999994,0,0,0,0,0,0,1,1,0,0,0,false,false,true,-557.83997,-4307.21,17.01,-0.0015725832,0.0044803787,0.32860103,0.9444569,-164.36101,0.67099994,8.311,0.00021,0,4.9977098
71.15,2000,0,91.24,0.000002697398,0.000002697398,0.000002697398,0.99999994,0,0,0,0,0,0,1,1,0,0,0,false,false,true,-559.20996,-4307.1997,17.01,-0.0016642944,0.0044480087,0.34819496,0.93740994,-158.131,7.521,8.311,0.00030999997,0,5.0205097
71.15833,2000,0,91.24,0.000002697398,0.000002697398,0.000002697398,0.99999994,0,0,0,0,0,0,1,1,0,0,0,false,false,true,-560.52997,-4307.14,17.01,-0.0017560062,0.0044102455,0.3677242,0.9299227,-152.261,14.581,8.311,0.00040999998,0,5.04111
71.166664,2000,0,91.24,0.000002697398,0.000002697398,0.000002697398,0.99999994,0,0,0,0,0,0,1,1,0,0,0,false,false,true,-561.8,-4307.02,17.01,-0.0018477177,0.004372482,0.38717255,0.921995,-146.731,21.860998,8.311,0.00051,0,5.06011
71.175,2000,0,91.24,0.000002697398,0.000002697398,0.000002697398,0.99999994,0,0,0,0,0,0,1,1,0,0,0,false,false,true,-563.01996,-4306.84,17.01,-0.0019394292,0.004329324,0.40652367,0.91362786,-141.541,29.360998,8.311,0.00061,0,5.0781097
71.183334,2000,0,91.24,0.000002697398,0.000002697398,0.000002697398,0.99999994,0,0,0,0,0,0,1,1,0,0,0,false,false,true,-564.2,-4306.6,17.01,-0.0020257458,0.0042861653,0.4257616,0.9048229,-136.69101,37.080997,8.311,0.00071,0.00010999999,5.0956097
71.191666,2000,0,91.24,0.000002697398,0.000002697398,0.000002697398,0.99999994,0,0,0,0,0,0,1,1,0,0,0,false,false,true,-565.33997,-4306.29,17.01,-0.0021120629,0.0042430074,0.44487548,0.8955799,-132.181,45.031,8.311,0.00071,0.00010999999,5.11291
71.2,2000,0,91.24,0.000002697398,0.000002697398,0.000002697398,0.99999994,0,0,0,0,0,0,1,1,0,0,0,false,false,true,-566.44,-4305.9097,17.01,-0.0021983793,0.004194454,0.46385443,0.8858987,-128.02101,53.220997,8.311,0.00071,0.00021,5.13031
71.208336,2000,0,91.24,0.000002697398,0.000002697398,0.000002697398,0.99999994,0,0,0,0,0,0,1,1,0,0,0,false,false,true,-567.51,-4305.4697,17.01,-0.002284696,0.0041459007,0.48268235,0.8757826,-124.230995,61.650997,8.311,0.00071,0.00030999997,5.14801
71.21667,2000,0,91.24,0.000002697398,0.000002697398,0.000002697398,0.99999994,0,0,0,0,0,0,1,1,0,0,0,false,false,true,-568.55,-4304.96,17.01,-0.002371013,0.0040973476,0.5013538,0.8652293,-120.800995,70.291,8.311,0.00071,0.00040999998,5.16561
71.225,2000,0,91.24,0.000002697398,0.000002697398,0.000002697398,0.99999994,0,0,0,0,0,0,1,1,0,0,0,false,false,true,-569.56,-4304.37,17.01,-0.0024573295,0.0040433994,0.51985806,0.85423946,-117.701,79.001,8.311,0.00071,0.00040999998,5.18091
71.23333,2000,0,91.24,0.000002697398,0.000002697398,0.000002697398,0.99999994,0,0,0,0,0,0,1,1,0,0,0,false,false,true,-570.54,-4303.71,17.01,-0.0025382517,0.003989452,0.53817886,0.84281737,-114.961,87.690994,8.311,0.00061,0.00040999998,5.19341
71.24167,2000,0,91.24,0.000002697398,0.000002697398,0.000002697398,0.99999994,0,0,0,0,0,0,1,1,0,0,0,false,false,true,-571.5,-4302.98,17.01,-0.0026191734,0.003935504,0.5562892,0.83097523,-112.571,96.361,8.311,0.00051,0.00040999998,5.20321
71.25,2000,0,91.24,0.000002697398,0.000002697398,0.000002697398,0.99999994,0,0,0,0,0,0,1,1,0,0,0,false,false,true,-572.44,-4302.1797,17.01,-0.0027000955,0.003876161,0.57417303,0.8187203,-110.531,105.020996,8.311,0.00030999997,0.00040999998,5.21041
71.25833,2000,0,91.24,0.000002697398,0.000002697398,0.000002697398,0.99999994,0,0,0,0,0,0,1,1,0,0,0,false,false,true,-573.36,-4301.3,17.01,-0.0027810177,0.0038168186,0.59180874,0.80606455,-108.851,113.681,8.311,0.00010999999,0.00040999998,5.2150097
71.26667,2000,0,91.24,0.000002697398,0.000002697398,0.000002697398,0.99999994,0,0,0,0,0,0,1,1,0,0,0,false,false,true,-574.26996,-4300.35,17.01,-0.0028619394,0.0037574756,0.6091854,0.7930137,-107.520996,122.340996,8.311,0,0.00040999998,5.2168097
71.275,2000,0,91.24,0.000002697398,0.000002697398,0.000002697398,0.99999994,0,0,0,0,0,0,1,1,0,0,0,false,false,true,-575.17,-4299.33,17.01,-0.0029428613,0.0036981327,0.62627614,0.7795869,-106.541,131.011,8.311,0,0.00030999997,5.21581
71.28333,2000,0,91.24,0.000002697398,0.000002697398,0.000002697398,0.99999994,0,0,0,0,0,0,1,1,0,0,0,false,false,true,-576.06,-4298.2397,17.01,-0.0030237832,0.0036333953,0.6430702,0.76579255,-105.90099,139.701,8.311,-0.00010999999,0.00030999997,5.21181
71.291664,2000,0,91.24,0.000002697398,0.000002697398,0.000002697398,0.99999994,0,0,0,0,0,0,1,1,0,0,0,false,false,true,-576.94,-4297.08,17.01,-0.0030993104,0.0035686577,0.659546,0.7516492,-105.601,148.44101,8.311,-0.00021,0.00030999997,5.20461
71.3,2000,0,91.24,0.000002697398,0.000002697398,0.000002697398,0.99999994,0,0,0,0,0,0,1,1,0,0,0,false,false,true,-577.82,-4295.84,17.01,-0.0031748374,0.00350392,0.6756873,0.7371731,-105.641,157.261,8.311,-0.00030999997,0.00030999997,5.19381
71.308334,2000,0,91.24,0.000002697398,0.000002697398,0.000002697398,0.99999994,0,0,0,0,0,0,1,1,0,0,0,false,false,true,-578.7,-4294.53,17.01,-0.0032503644,0.0034337873,0.69148326,0.7223768,-106.031,166.121,8.311,-0.00040999998,0.00030999997,5.17981
71.316666,2000,0,91.24,0.000002697398,0.000002697398,0.000002697398,0.99999994,0,0,0,0,0,0,1,1,0,0,0,false,false,true,-579.58,-4293.15,17.01,-0.003325892,0.0033636554,0.7069125,0.70728505,-106.861,174.641,8.311,-0.00040999998,0.00021,5.1673098
71.325,2000,0,91.24,0.000002697398,0.000002697398,0.000002697398,0.99999994,0,0,0,0,0,0,1,1,0,0,0,false,false,true,-580.47,-4291.69,17.01,-0.0033960242,0.003293523,0.72197384,0.69190407,-108.090996,182.891,8.311,-0.00040999998,0.00010999999,5.15521
71.333336,2000,0,91.24,0.000002697398,0.000002697398,0.000002697398,0.99999994,0,0,0,0,0,0,1,1,0,0,0,false,false,true,-581.37,-4290.17,17.01,-0.0034661565,0.0032233908,0.7366683,0.6762376,-109.711,190.901,8.311,-0.00040999998,0,5.14311
71.34167,2000,0,91.24,0.000002697398,0.000002697398,0.000002697398,0.99999994,0,0,0,0,0,0,1,1,0,0,0,false,false,true,-582.27997,-4288.58,17.01,-0.0035362889,0.0031478636,0.7509905,0.6602959,-111.711,198.671,8.311,-0.00040999998,-0.00010999999,5.13081
71.35,2000,0,91.24,0.000002697398,0.000002697398,0.000002697398,0.99999994,0,0,0,0,0,0,1,1,0,0,0,false,false,true,-583.20996,-4286.92,17.01,-0.0036064212,0.0030723363,0.7649351,0.6440898,-114.08099,206.201,8.311,-0.00040999998,-0.00010999999,5.1181097
71.35833,2000,0,91.24,0.000002697398,0.000002697398,0.000002697398,0.99999994,0,0,0,0,0,0,1,1,0,0,0,false,false,true,-584.16,-4285.1997,17.01,-0.0036711588,0.0029968093,0.77849704,0.62763023,-116.800995,213.491,8.311,-0.00040999998,-0.00010999999,5.10501
71.36667,2000,0,91.24,0.000002697398,0.000002697398,0.000002697398,0.99999994,0,0,0,0,0,0,1,1,0,0,0,false,false,true,-585.13,-4283.42,17.01,-0.0037358964,0.002921282,0.79167193,0.61092794,-119.870995,220.531,8.311,-0.00030999997,-0.00021,5.09151
71.375,2000,0,91.24,0.000002697398,0.000002697398,0.000002697398,0.99999994,0,0,0,0,0,0,1,1,0,0,0,false,false,true,-586.13,-4281.58,17.01,-0.0038006338,0.0028403602,0.8044517,0.59399897,-123.281,227.311,8.311,-0.00021,-0.00030999997,5.07751
71.38333,2000,0,91.24,0.000002697398,0.000002697398,0.000002697398,0.99999994,0,0,0,0,0,0,1,1,0,0,0,false,false,true,-587.16,-4279.69,17.01,-0.0038599768,0.0027594382,0.816837,0.57684886,-127.010994,233.821,8.311,-0.00021,-0.00030999997,5.06321
71.39167,2000,0,91.24,0.000002697398,0.000002697398,0.000002697398,0.99999994,0,0,0,0,0,0,1,1,0,0,0,false,false,true,-588.22,-4277.7397,17.01,-0.0039193192,0.0026785163,0.8288245,0.5594883,-131.05101,240.051,8.311,-0.00021,-0.00030999997,5.04851
71.4,2000,0,91.24,0.000002697398,0.000002697398,0.000002697398,0.99999994,0,0,0,0,0,0,1,1,0,0,0,false,false,true,-589.31,-4275.7397,17.01,-0.003978662,0.0025975944,0.8404077,0.54193366,-135.391,245.981,8.311,-0.00021,-0.00040999998,5.0335097
71.40833,2000,0,91.24,0.000002697398,0.000002697398,0.000002697398,0.99999994,0,0,0,0,0,0,1,1,0,0,0,false,false,true,-590.44,-4273.69,17.01,-0.0040326104,0.0025112778,0.85158795,0.5241901,-140.011,251.601,8.311,-0.00010999999,-0.00040999998,5.01831
71.416664,2000,0,91.24,0.000002697398,0.000002697398,0.000002697398,0.99999994,0,0,0,0,0,0,1,1,0,0,0,false,false,true,-591.61,-4271.59,17.01,-0.004086558,0.0024249607,0.86236274,0.50626844,-144.901,256.901,8.311,-0.00010999999,-0.00040999998,5.0029097
71.425,2000,0,91.24,0.000002697398,0.000002697398,0.000002697398,0.99999994,0,0,0,0,0,0,1,1,0,0,0,false,false,true,-592.82,-4269.4497,17.01,-0.004140506,0.0023386441,0.8727271,0.48818505,-150.05101,261.871,8.311,-0.00010999999,-0.00040999998,4.98741
71.433334,2000,0,91.24,0.000002697398,0.000002697398,0.000002697398,0.99999994,0,0,0,0,0,0,1,1,0,0,0,false,false,true,-594.07,-4267.27,17.01,-0.004189059,0.0022523273,0.88268274,0.46994516,-155.431,266.501,8.311,-0.00010999999,-0.00040999998,4.97191
71.441666,2000,0,91.24,0.000002697398,0.000002697398,0.000002697398,0.99999994,0,0,0,0,0,0,1,1,0,0,0,false,false,true,-595.37,-4265.05,17.01,-0.0042376122,0.0021660107,0.8922282,0.4515596,-161.031,270.781,8.311,-0.00010999999,-0.00040999998,4.95651
71.45,2000,0,91.24,0.000002697398,0.000002697398,0.000002697398,0.99999994,0,0,0,0,0,0,1,1,0,0,0,false,false,true,-596.70996,-4262.79,17.01,-0.0042807707,0.0020796938,0.9013624,0.43303928,-166.83101,274.701,8.311,-0.00010999999,-0.00040999998,4.94121
71.458336,2000,0,91.24,0.000002697398,0.000002697398,0.000002697398,0.99999994,0,0,0,0,0,0,1,1,0,0,0,false,false,true,-598.1,-4260.5,17.01,-0.0043239295,0.0019933772,0.91008717,0.4143894,-172.821,278.251,8.311,-0.00010999999,-0.00040999998,4.92611
71.46667,2000,0,91.24,0.000002697398,0.000002697398,0.000002697398,0.99999994,0,0,0,0,0,0,1,1,0,0,0,false,false,true,-599.54,-4258.1797,17.01,-0.0043670875,0.0019016657,0.91840154,0.3956208,-178.97101,281.431,8.311,0,-0.00040999998,4.91121
71.475,2000,0,91.24,0.000002697398,0.000002697398,0.000002697398,0.99999994,0,0,0,0,0,0,1,1,0,0,0,false,false,true,-601.02997,-4255.83,17.01,-0.0044048512,0.0018099542,0.926305,0.37674436,-185.261,284.231,8.311,0,-0.00040999998,4.89661
71.48333,2000,0,91.24,0.000002697398,0.000002697398,0.000002697398,0.99999994,0,0,0,0,0,0,1,1,0,0,0,false,false,true,-602.57,-4253.46,17.01,-0.004442615,0.0017182427,0.93379724,0.35777077,-191.681,286.641,8.311,0,-0.00040999998,4.8825097
71.49167,2000,0,91.24,0.000002697398,0.000002697398,0.000002697398,0.99999994,0,0,0,0,0,0,1,1,0,0,0,false,false,true,-604.17,-4251.07,17.01,-0.0044803782,0.001626531,0.94088227,0.33870006,-198.19101,288.651,8.311,0,-0.00040999998,4.86871
71.5,2000,0,91.24,0.000002697398,0.000002697398,0.000002697398,0.99999994,0,0,0,0,0,0,1,1,0,0,0,false,false,true,-605.82,-4248.6597,17.01,-0.0045127473,0.0015348196,0.9475597,0.31954306,-204.83101,290.29102,8.311,0,-0.00040999998,4.85641
71.50833,2000,0,91.24,0.000002697398,0.000002697398,0.000002697398,0.99999994,0,0,0,0,0,0,1,1,0,0,0,false,false,true,-607.52997,-4246.2397,17.01,-0.004545115,0.0014431078,0.9538311,0.30030516,-211.571,291.551,8.311,0,-0.00040999998,4.8456097
71.51667,2000,0,91.24,0.000002697398,0.000002697398,0.000002697398,0.99999994,0,0,0,0,0,0,1,1,0,0,0,false,false,true,-609.29,-4243.81,17.01,-0.004577485,0.0013513966,0.95969987,0.28098637,-218.401,292.431,8.311,0,-0.00040999998,4.83641
71.525,2000,0,91.24,0.000002697398,0.000002697398,0.000002697398,0.99999994,0,0,0,0,0,0,1,1,0,0,0,false,false,true,-611.11,-4241.37,17.01,-0.0046044583,0.0012596849,0.9651667,0.26159197,-225.291,292.931,8.311,0,-0.00030999997,4.82871
71.53333,2000,0,91.24,0.000002697398,0.000002697398,0.000002697398,0.99999994,0,0,0,0,0,0,1,1,0,0,0,false,false,true,-612.99,-4238.9297,17.01,-0.0046314322,0.0011679734,0.970234,0.24212208,-232.22101,293.051,8.311,0,-0.00030999997,4.82251
71.541664,2000,0,91.24,0.000002697398,0.000002697398,0.000002697398,0.99999994,0,0,0,0,0,0,1,1,0,0,0,false,false,true,-614.93,-4236.4897,17.01,-0.004653011,0.0010762616,0.97490335,0.22257662,-239.171,292.79102,8.311,0,-0.00030999997,4.81781
71.55,2000,0,91.24,0.000002697398,0.000002697398,0.000002697398,0.99999994,0,0,0,0,0,0,1,1,0,0,0,false,false,true,-616.92,-4234.05,17.01,-0.0046745907,0.0009845502,0.9791751,0.20296109,-246.091,292.161,8.311,0,-0.00030999997,4.8147097
71.558334,2000,0,91.24,0.000002697398,0.000002697398,0.000002697398,0.99999994,0,0,0,0,0,0,1,1,0,0,0,false,false,true,-618.97,-4231.62,17.01,-0.00469617,0.00089283875,0.9830499,0.18327539,-253.041,291.161,8.311,0,-0.00030999997,4.8130097
71.566666,2000,0,91.24,0.000002697398,0.000002697398,0.000002697398,0.99999994,0,0,0,0,0,0,1,1,0,0,0,false,false,true,-621.07996,-4229.19,17.01,-0.004712355,0.0007957325,0.98652756,0.16352497,-260.051,289.79102,8.311,0,-0.00021,4.81221
71.575,2000,0,91.24,0.000002697398,0.000002697398,0.000002697398,0.99999994,0,0,0,0,0,0,1,1,0,0,0,false,false,true,-623.25,-4226.77,17.01,-0.0047285384,0.0006986261,0.9896075,0.14371526,-267.091,288.061,8.311,0,-0.00021,4.81241
71.583336,2000,0,91.24,0.000002697398,0.000002697398,0.000002697398,0.99999994,0,0,0,0,0,0,1,1,0,0,0,false,false,true,-625.48,-4224.37,17.01,-0.004744723,0.0006015198,0.99228984,0.12384614,-274.131,285.971,8.311,0,-0.00010999999,4.81351
71.59167,2000,0,91.24,0.000002697398,0.000002697398,0.000002697398,0.99999994,0,0,0,0,0,0,1,1,0,0,0,false,false,true,-627.76,-4221.9897,17.01,-0.0047555123,0.0005044134,0.9945737,0.10392307,-281.161,283.521,8.311,0,0,4.81551
71.6,2000,0,91.24,0.000002697398,0.000002697398,0.000002697398,0.99999994,0,0,0,0,0,0,1,1,0,0,0,false,false,true,-630.1,-4219.63,17.01,-0.004766302,0.00040730712,0.99645877,0.083946064,-288.161,280.721,8.311,0,0,4.81821
71.60833,2000,0,91.24,0.000002697398,0.000002697398,0.000002697398,0.99999994,0,0,0,0,0,0,1,1,0,0,0,false,false,true,-632.5,-4217.29,17.01,-0.0047716964,0.00031020073,0.99794304,0.06392588,-295.121,277.571,8.311,0,0,4.82171
71.61667,2000,0,91.24,0.000002697398,0.000002697398,0.000002697398,0.99999994,0,0,0,0,0,0,1,1,0,0,0,false,false,true,-634.95996,-4214.98,17.01,-0.004777092,0.00021309445,0.99902606,0.04386256,-302.011,274.071,8.311,0,0,4.82581
71.625,2000,0,91.24,0.000002697398,0.000002697398,0.000002697398,0.99999994,0,0,0,0,0,0,1,1,0,0,0,false,false,true,-637.48,-4212.6997,17.01,-0.0047824867,0.00011598812,0.99970603,0.023766859,-308.831,270.231,8.311,-0.00010999999,0,4.83061
71.63333,2000,0,91.24,0.000002697398,0.000002697398,0.000002697398,0.99999994,0,0,0,0,0,0,1,1,0,0,0,false,false,true,-640.05,-4210.4497,17.01,-0.004782487,0.000018881788,0.9999819,0.0036441851,-315.551,266.051,8.311,-0.00021,0,4.83601
71.64167,2000,0,91.24,0.000002697398,0.000002697398,0.000002697398,0.99999994,0,0,0,0,0,0,1,1,0,0,0,false,false,true,-642.68,-4208.23,17.01,-0.004782487,-0.00007822455,0.9998523,-0.016505422,-322.171,261.551,8.311,-0.00021,0,4.84191
71.65,2000,0,91.24,0.000002697398,0.000002697398,0.000002697398,0.99999994,0,0,0,0,0,0,1,1,0,0,0,false,false,true,-645.36,-4206.05,17.01,-0.0047824867,-0.00017533088,0.99931586,-0.03667125,-328.671,256.721,8.311,-0.00030999997,0,4.84831
71.65833,2000,0,91.24,0.000002697398,0.000002697398,0.000002697398,0.99999994,0,0,0,0,0,0,1,1,0,0,0,false,false,true,-648.1,-4203.9097,17.01,-0.004777092,-0.0002724372,0.9983713,-0.056847874,-335.041,251.58101,8.311,-0.00030999997,0,4.85521
71.666664,2000,0,91.24,0.000002697398,0.000002697398,0.000002697398,0.99999994,0,0,0,0,0,0,1,1,0,0,0,false,false,true,-650.89,-4201.81,17.01,-0.004771697,-0.00036954353,0.99701726,-0.07702989,-341.261,246.131,8.311,-0.00040999998,0,4.86261
71.675,2000,0,91.24,0.000002697398,0.000002697398,0.000002697398,0.99999994,0,0,0,0,0,0,1,1,0,0,0,false,false,true,-653.73,-4199.76,17.01,-0.004760908,-0.0004666499,0.9952522,-0.09721191,-347.321,240.371,8.311,-0.00040999998,0,4.87051
71.683334,2000,0,91.24,0.000002697398,0.000002697398,0.000002697398,0.99999994,0,0,0,0,0,0,1,1,0,0,0,false,false,true,-656.62,-4197.76,17.01,-0.0047501177,-0.00056375616,0.9930745,-0.11738853,-353.221,234.321,8.311,-0.00040999998,0,4.87881
