time,ball_loc_x,ball_loc_y,ball_loc_z,ball_rot_x,ball_rot_y,ball_rot_z,ball_rot_w,ball_vel_x,ball_vel_y,ball_vel_z,ball_ang_x,ball_ang_y,ball_ang_z,player0_throttle,player0_steer,player0_pitch,player0_yaw,player0_roll,player0_jump,player0_boost,player0_handbrake,player0_loc_x,player0_loc_y,player0_loc_z,player0_rot_x,player0_rot_y,player0_rot_z,player0_rot_w,player0_vel_x,player0_vel_y,player0_vel_z,player0_ang_x,player0_ang_y,player0_ang_z
211.75833,2000,0,91.24,0.000002697398,0.000002697398,0.000002697398,0.99999994,0,0,0,0,0,0,1,0,0,0,0,false,true,false,0,-3888.39,16.99,-0.00336905,0.003374445,0.70711225,0.70708513,-0.031,1708.101,8.411,-0.00061,0,0
211.76666,2000,0,91.24,0.000002697398,0.000002697398,0.000002697398,0.99999994,0,0,0,0,0,0,0,1,0,0,0,false,false,true,0,-3874.16,16.99,-0.00336905,0.003374445,0.70711225,0.70708513,-11.051001,1707.0609,8.471001,-0.00061,0.00281,0.30681
211.775,2000,0,91.24,0.000002697398,0.000002697398,0.000002697398,0.99999994,0,0,0,0,0,0,0,1,0,0,0,false,false,true,-0.089999996,-3859.93,16.99,-0.00336905,0.0033798397,0.70801735,0.7061788,-20.521,1706.131,8.501,-0.00061,0.00401,0.55471
211.78334,2000,0,91.24,0.000002697398,0.000002697398,0.000002697398,0.99999994,0,0,0,0,0,0,0,1,0,0,0,false,false,true,-0.26,-3845.71,16.99,-0.00336905,0.0033852346,0.7096493,0.70453876,-29.911,1705.1709,8.521,-0.00051,0.00441,0.77331
211.79167,2000,0,91.24,0.000002697398,0.000002697398,0.000002697398,0.99999994,0,0,0,0,0,0,0,1,0,0,0,false,false,true,-0.51,-3831.5,16.99,-0.00336905,0.0033906293,0.7119182,0.702246,-39.621,1704.1509,8.531,-0.00051,0.0043099998,0.96781
211.8,2000,0,91.24,0.000002697398,0.000002697398,0.000002697398,0.99999994,0,0,0,0,0,0,0,1,0,0,0,false,false,true,-0.84,-3817.2998,16.99,-0.00336905,0.0033906293,0.7147432,0.69937056,-49.900997,1703.021,8.541,-0.00040999998,0.00391,1.1425099
211.80833,2000,0,91.24,0.000002697398,0.000002697398,0.000002697398,0.99999994,0,0,0,0,0,0,0,1,0,0,0,false,false,true,-1.26,-3803.1099,16.99,-0.003374445,0.0033852346,0.71806353,0.695961,-60.871,1701.731,8.551001,-0.00040999998,0.00331,1.30081
211.81667,2000,0,91.24,0.000002697398,0.000002697398,0.000002697398,0.99999994,0,0,0,0,0,0,0,1,0,0,0,false,false,true,-1.77,-3788.93,16.99,-0.0033852346,0.0033798397,0.7218235,0.69206053,-72.581,1700.251,8.561,-0.00040999998,0.00271,1.44541
211.825,2000,0,91.24,0.000002697398,0.000002697398,0.000002697398,0.99999994,0,0,0,0,0,0,0,1,0,0,0,false,false,true,-2.37,-3774.76,16.99,-0.0033960238,0.0033690496,0.72597766,0.68770146,-85.031,1698.5409,8.561,-0.00030999997,0.00211,1.5785099
211.83333,2000,0,91.24,0.000002697398,0.000002697398,0.000002697398,0.99999994,0,0,0,0,0,0,0,1,0,0,0,false,false,true,-3.08,-3760.6099,16.99,-0.0034122088,0.003352866,0.73048586,0.68291104,-98.160995,1696.5709,8.561,-0.00030999997,0.00151,1.70161
211.84166,2000,0,91.24,0.000002697398,0.000002697398,0.000002697398,0.99999994,0,0,0,0,0,0,0,1,0,0,0,false,false,true,-3.8999999,-3746.47,16.99,-0.0034337877,0.0033312866,0.7353083,0.6777158,-111.90099,1694.3109,8.571,-0.00030999997,0.0010099999,1.81601
211.85,2000,0,91.24,0.000002697398,0.000002697398,0.000002697398,0.99999994,0,0,0,0,0,0,0,1,0,0,0,false,false,true,-4.83,-3732.3499,16.99,-0.003455367,0.0033097074,0.7404157,0.6721321,-126.141,1691.741,8.571,-0.00030999997,0.00061,1.9226099
211.85834,2000,0,91.24,0.000002697398,0.000002697398,0.000002697398,0.99999994,0,0,0,0,0,0,0,1,0,0,0,false,false,true,-5.8799996,-3718.25,16.99,-0.0034823408,0.0032827335,0.7457741,0.6661816,-140.751,1688.851,8.571,-0.00021,0.00021,2.02221
211.86667,2000,0,91.24,0.000002697398,0.000002697398,0.000002697398,0.99999994,0,0,0,0,0,0,0,1,0,0,0,false,false,true,-7.0499997,-3704.18,16.99,-0.003509315,0.0032557594,0.75135994,0.6598751,-155.601,1685.631,8.571,-0.00021,0,2.11521
211.875,2000,0,91.24,0.000002697398,0.000002697398,0.000002697398,0.99999994,0,0,0,0,0,0,0,1,0,0,0,false,false,true,-8.349999,-3690.13,16.99,-0.0035362889,0.0032233908,0.75714546,0.6532287,-170.541,1682.101,8.571,-0.00010999999,-0.00021,2.20201
211.88333,2000,0,91.24,0.000002697398,0.000002697398,0.000002697398,0.99999994,0,0,0,0,0,0,0,1,0,0,0,false,false,true,-9.7699995,-3676.1099,16.99,-0.0035686577,0.003191022,0.76310796,0.64625317,-185.401,1678.271,8.571,-0.00010999999,-0.00040999998,2.28281
211.89166,2000,0,91.24,0.000002697398,0.000002697398,0.000002697398,0.99999994,0,0,0,0,0,0,0,1,0,0,0,false,false,true,-11.32,-3662.1199,16.99,-0.0036010265,0.0031586532,0.769221,0.6389648,-200.021,1674.1809,8.571,0,-0.00061,2.35771
211.9,2000,0,91.24,0.000002697398,0.000002697398,0.000002697398,0.99999994,0,0,0,0,0,0,0,1,0,0,0,false,false,true,-12.99,-3648.17,16.99,-0.0036333948,0.0031208894,0.77545893,0.63137966,-214.22101,1669.881,8.571,0,-0.00081,2.42671
211.90834,2000,0,91.24,0.000002697398,0.000002697398,0.000002697398,0.99999994,0,0,0,0,0,0,0,1,0,0,0,false,false,true,-14.78,-3634.25,16.99,-0.0036657634,0.0030831257,0.7818017,0.6235086,-227.821,1665.4309,8.571,0,-0.00091,2.48981
211.91667,2000,0,91.24,0.000002697398,0.000002697398,0.000002697398,0.99999994,0,0,0,0,0,0,0,1,0,0,0,false,false,true,-16.68,-3620.3699,16.99,-0.0036981327,0.0030399675,0.78822964,0.61536247,-240.631,1660.9109,8.571,0,-0.0010099999,2.54671
211.925,2000,0,91.24,0.000002697398,0.000002697398,0.000002697398,0.99999994,0,0,0,0,0,0,0,1,0,0,0,false,false,true,-18.69,-3606.53,16.99,-0.0037358964,0.0029968093,0.7947158,0.6069627,-252.451,1656.4309,8.571,0,-0.00111,2.59731
211.93333,2000,0,91.24,0.000002697398,0.000002697398,0.000002697398,0.99999994,0,0,0,0,0,0,0,1,0,0,0,false,false,true,-20.789999,-3592.73,16.99,-0.00377366,0.002953651,0.80123866,0.5983256,-263.081,1652.101,8.571,0,-0.0012099999,2.6412098
211.94167,2000,0,91.24,0.000002697398,0.000002697398,0.000002697398,0.99999994,0,0,0,0,0,0,0,1,0,0,0,false,false,true,-22.98,-3578.96,16.99,-0.0038114237,0.0029104927,0.80777395,0.58947283,-272.321,1648.0809,8.571,0.00010999999,-0.0012099999,2.67821
211.95,2000,0,91.24,0.000002697398,0.000002697398,0.000002697398,0.99999994,0,0,0,0,0,0,0,1,0,0,0,false,false,true,-25.25,-3565.23,16.99,-0.0038491872,0.0028619394,0.81430286,0.5804202,-279.961,1644.5309,8.571,0.00021,-0.00131,2.70791
211.95833,2000,0,91.24,0.000002697398,0.000002697398,0.000002697398,0.99999994,0,0,0,0,0,0,0,1,0,0,0,false,false,true,-27.58,-3551.53,16.99,-0.003886951,0.0028133865,0.82080024,0.5711951,-285.79102,1641.641,8.561,0.00030999997,-0.00131,2.73001
211.96666,2000,0,91.24,0.000002697398,0.000002697398,0.000002697398,0.99999994,0,0,0,0,0,0,0,1,0,0,0,false,false,true,-29.96,-3537.8499,16.99,-0.0039247135,0.0027648327,0.82724255,0.5618242,-291.861,1638.4609,8.561,0.00040999998,-0.00131,2.7513099
211.975,2000,0,91.24,0.000002697398,0.000002697398,0.000002697398,0.99999994,0,0,0,0,0,0,0,1,0,0,0,false,false,true,-32.39,-3524.2,16.99,-0.0039570834,0.00271628,0.83362997,0.5523025,-298.151,1634.991,8.561,0.00040999998,-0.0012099999,2.77211
211.98334,2000,0,91.24,0.000002697398,0.000002697398,0.000002697398,0.99999994,0,0,0,0,0,0,0,1,0,0,0,false,false,true,-34.87,-3510.5798,16.99,-0.0039894516,0.0026677267,0.83995485,0.54263496,-304.641,1631.2109,8.561,0.00040999998,-0.00111,2.79241
211.99167,2000,0,91.24,0.000002697398,0.000002697398,0.000002697398,0.99999994,0,0,0,0,0,0,0,1,0,0,0,false,false,true,-37.41,-3496.99,16.99,-0.00402182,0.0026191734,0.8462104,0.53282714,-311.311,1627.121,8.561,0.00040999998,-0.0010099999,2.8122098
212,2000,0,91.24,0.000002697398,0.000002697398,0.000002697398,0.99999994,0,0,0,0,0,0,0,1,0,0,0,false,false,true,-40,-3483.43,16.99,-0.0040541897,0.0025706205,0.85239655,0.5228738,-318.141,1622.7109,8.561,0.00040999998,-0.00091,2.83141
212.00833,2000,0,91.24,0.000002697398,0.000002697398,0.000002697398,0.99999994,0,0,0,0,0,0,0,1,0,0,0,false,false,true,-42.649998,-3469.91,16.99,-0.004086558,0.0025166722,0.85850656,0.51278,-325.101,1617.981,8.561,0.00040999998,-0.00091,2.85011
212.01666,2000,0,91.24,0.000002697398,0.000002697398,0.000002697398,0.99999994,0,0,0,0,0,0,0,1,0,0,0,false,false,true,-45.36,-3456.43,16.99,-0.0041189273,0.0024627247,0.86453706,0.50254613,-332.181,1612.9209,8.561,0.00040999998,-0.00081,2.8682098
212.025,2000,0,91.24,0.000002697398,0.000002697398,0.000002697398,0.99999994,0,0,0,0,0,0,0,1,0,0,0,false,false,true,-48.129997,-3442.99,16.99,-0.004151296,0.0024087767,0.8704818,0.49217722,-339.341,1607.5409,8.561,0.00040999998,-0.00071,2.88581
212.03334,2000,0,91.24,0.000002697398,0.000002697398,0.000002697398,0.99999994,0,0,0,0,0,0,0,1,0,0,0,false,false,true,-50.96,-3429.5898,16.99,-0.004183664,0.0023548282,0.8763374,0.48167348,-346.571,1601.8309,8.561,0.00040999998,-0.00061,2.9028099
212.04167,2000,0,91.24,0.000002697398,0.000002697398,0.000002697398,0.99999994,0,0,0,0,0,0,0,1,0,0,0,false,false,true,-53.85,-3416.24,16.99,-0.0042106383,0.0023008804,0.88209856,0.4710403,-353.841,1595.7909,8.561,0.00040999998,-0.00051,2.91921
212.05,2000,0,91.24,0.000002697398,0.000002697398,0.000002697398,0.99999994,0,0,0,0,0,0,0,1,0,0,0,false,false,true,-56.8,-3402.94,16.99,-0.004237612,0.0022469324,0.8877619,0.46027762,-361.131,1589.4309,8.561,0.00030999997,-0.00051,2.9349098
212.05833,2000,0,91.24,0.000002697398,0.000002697398,0.000002697398,0.99999994,0,0,0,0,0,0,0,1,0,0,0,false,false,true,-59.809998,-3389.69,16.99,-0.0042645866,0.0021929848,0.89332503,0.44938552,-368.421,1582.751,8.561,0.00030999997,-0.00040999998,2.9500098
212.06667,2000,0,91.24,0.000002697398,0.000002697398,0.000002697398,0.99999994,0,0,0,0,0,0,0,1,0,0,0,false,false,true,-62.879997,-3376.5,16.99,-0.00429156,0.0021390365,0.8987821,0.43836933,-375.681,1575.751,8.561,0.00030999997,-0.00040999998,2.9644098
212.075,2000,0,91.24,0.000002697398,0.000002697398,0.000002697398,0.99999994,0,0,0,0,0,0,0,1,0,0,0,false,false,true,-66.01,-3363.3699,16.99,-0.004318534,0.0020850885,0.90412813,0.42723438,-382.901,1568.4309,8.561,0.00030999997,-0.00040999998,2.9781098
212.08333,2000,0,91.24,0.000002697398,0.000002697398,0.000002697398,0.99999994,0,0,0,0,0,0,0,1,0,0,0,false,false,true,-69.2,-3350.2998,16.99,-0.0043455083,0.0020311407,0.90936065,0.41598085,-390.051,1560.8109,8.561,0.00030999997,-0.00040999998,2.9911098
212.09166,2000,0,91.24,0.000002697398,0.000002697398,0.000002697398,0.99999994,0,0,0,0,0,0,0,1,0,0,0,false,false,true,-72.45,-3337.29,16.99,-0.0043724827,0.001977193,0.91447496,0.40461394,-397.111,1552.891,8.561,0.00030999997,-0.00040999998,3.00331
212.1,2000,0,91.24,0.000002697398,0.000002697398,0.000002697398,0.99999994,0,0,0,0,0,0,0,1,0,0,0,false,false,true,-75.759995,-3324.3499,16.99,-0.0043994565,0.0019178501,0.91946644,0.3931392,-404.061,1544.6809,8.561,0.00030999997,-0.00030999997,3.01471
212.10834,2000,0,91.24,0.000002697398,0.000002697398,0.000002697398,0.99999994,0,0,0,0,0,0,0,1,0,0,0,false,false,true,-79.13,-3311.48,16.99,-0.00442643,0.0018585073,0.924333,0.38155648,-410.881,1536.1909,8.561,0.00030999997,-0.00030999997,3.02531
212.11667,2000,0,91.24,0.000002697398,0.000002697398,0.000002697398,0.99999994,0,0,0,0,0,0,0,1,0,0,0,false,false,true,-82.549995,-3298.68,16.99,-0.004448009,0.0017991646,0.9290684,0.36987674,-417.551,1527.4309,8.561,0.00030999997,-0.00021,3.0350099
212.125,2000,0,91.24,0.000002697398,0.000002697398,0.000002697398,0.99999994,0,0,0,0,0,0,0,1,0,0,0,false,false,true,-86.03,-3285.95,16.99,-0.004469589,0.0017398219,0.93367094,0.35809985,-424.061,1518.4109,8.561,0.00021,-0.00021,3.04381
212.13333,2000,0,91.24,0.000002697398,0.000002697398,0.000002697398,0.99999994,0,0,0,0,0,0,0,1,0,0,0,false,false,true,-89.56,-3273.3,16.99,-0.0044911676,0.001680479,0.9381369,0.34623128,-430.381,1509.151,8.561,0.00021,-0.00021,3.05171
212.14166,2000,0,91.24,0.000002697398,0.000002697398,0.000002697398,0.99999994,0,0,0,0,0,0,0,1,0,0,0,false,false,true,-93.15,-3260.72,16.99,-0.0045127473,0.0016211363,0.94246286,0.33427635,-436.501,1499.6609,8.561,0.00021,-0.00021,3.05861
212.15,2000,0,91.24,0.000002697398,0.000002697398,0.000002697398,0.99999994,0,0,0,0,0,0,0,1,0,0,0,false,false,true,-96.79,-3248.22,16.99,-0.004534326,0.0015617935,0.9466456,0.32224053,-442.401,1489.9609,8.561,0.00010999999,-0.00021,3.0645099
212.15834,2000,0,91.24,0.000002697398,0.000002697398,0.000002697398,0.99999994,0,0,0,0,0,0,0,1,0,0,0,false,false,true,-100.479996,-3235.8,16.99,-0.0045559052,0.0015024507,0.9506823,0.3101291,-448.07098,1480.0609,8.561,0.00010999999,-0.00010999999,3.0694098
212.16667,2000,0,91.24,0.000002697398,0.000002697398,0.000002697398,0.99999994,0,0,0,0,0,0,0,1,0,0,0,false,false,true,-104.21,-3223.47,16.99,-0.004577485,0.0014431081,0.9545701,0.29794762,-453.501,1469.991,8.561,0.00010999999,-0.00010999999,3.07321
212.175,2000,0,91.24,0.000002697398,0.000002697398,0.000002697398,0.99999994,0,0,0,0,0,0,0,1,0,0,0,false,false,true,-107.99,-3211.22,16.99,-0.0045936694,0.0013837653,0.95830667,0.28570142,-458.671,1459.761,8.561,0.00010999999,0,3.0759099
212.18333,2000,0,91.24,0.000002697398,0.000002697398,0.000002697398,0.99999994,0,0,0,0,0,0,0,1,0,0,0,false,false,true,-111.81,-3199.0598,16.99,-0.0046098535,0.0013244225,0.9618896,0.2733958,-463.581,1449.391,8.561,0.00010999999,0,3.07741
212.19167,2000,0,91.24,0.000002697398,0.000002697398,0.000002697398,0.99999994,0,0,0,0,0,0,0,1,0,0,0,false,false,true,-115.67,-3186.98,16.99,-0.004626038,0.0012650798,0.9653156,0.26104173,-468.211,1438.891,8.561,0.00010999999,0,3.07771
212.2,2000,0,91.24,0.000002697398,0.000002697398,0.000002697398,0.99999994,0,0,0,0,0,0,0,1,0,0,0,false,false,true,-119.57,-3174.99,16.99,-0.004642222,0.0012057369,0.9685843,0.24863899,-472.561,1428.2909,8.561,0.00010999999,0,3.07671
212.20833,2000,0,91.24,0.000002697398,0.000002697398,0.000002697398,0.99999994,0,0,0,0,0,0,0,1,0,0,0,false,false,true,-123.509995,-3163.0898,16.99,-0.004658406,0.0011463942,0.9716916,0.23620398,-476.621,1417.611,8.561,0.00010999999,0,3.07441
212.21666,2000,0,91.24,0.000002697398,0.000002697398,0.000002697398,0.99999994,0,0,0,0,0,0,0,1,0,0,0,false,false,true,-127.479996,-3151.28,16.99,-0.004674591,0.0010870515,0.9746378,0.22373654,-480.38098,1406.871,8.561,0.00010999999,0,3.0708098
212.225,2000,0,91.24,0.000002697398,0.000002697398,0.000002697398,0.99999994,0,0,0,0,0,0,0,1,0,0,0,false,false,true,-131.48,-3139.5598,16.99,-0.004685381,0.0010277088,0.9774208,0.2112476,-483.841,1396.101,8.561,0.00021,0,3.06581
212.23334,2000,0,91.24,0.000002697398,0.000002697398,0.000002697398,0.99999994,0,0,0,0,0,0,0,1,0,0,0,false,false,true,-135.51,-3127.93,16.99,-0.0046961703,0.000968366,0.98004,0.19874236,-487.001,1385.3109,8.561,0.00021,0,3.0594099
212.24167,2000,0,91.24,0.000002697398,0.000002697398,0.000002697398,0.99999994,0,0,0,0,0,0,0,1,0,0,0,false,false,true,-139.56999,-3116.39,16.99,-0.00470696,0.0009090232,0.9824941,0.18623175,-489.85098,1374.531,8.561,0.00030999997,-0.00010999999,3.0515099
212.25,2000,0,91.24,0.000002697398,0.000002697398,0.000002697398,0.99999994,0,0,0,0,0,0,0,1,0,0,0,false,false,true,-143.65,-3104.94,16.99,-0.0047177486,0.0008496803,0.9847821,0.17372657,-492.401,1363.771,8.561,0.00030999997,-0.00010999999,3.04211
212.25833,2000,0,91.24,0.000002697398,0.000002697398,0.000002697398,0.99999994,0,0,0,0,0,0,0,1,0,0,0,false,false,true,-147.75,-3093.5798,16.99,-0.004728538,0.00079033757,0.98690474,0.16123214,-494.651,1353.0609,8.561,0.00040999998,-0.00010999999,3.03111
212.26666,2000,0,91.24,0.000002697398,0.000002697398,0.000002697398,0.99999994,0,0,0,0,0,0,0,1,0,0,0,false,false,true,-151.87,-3082.3,16.99,-0.0047393288,0.0007309949,0.9888626,0.14875402,-496.60098,1342.4209,8.561,0.00040999998,-0.00010999999,3.0185099
212.275,2000,0,91.24,0.000002697398,0.000002697398,0.000002697398,0.99999994,0,0,0,0,0,0,0,1,0,0,0,false,false,true,-156.01,-3071.1099,16.99,-0.004750118,0.00067165215,0.9906548,0.13630813,-498.261,1331.881,8.561,0.00051,-0.00010999999,3.00421
212.28334,2000,0,91.24,0.000002697398,0.000002697398,0.000002697398,0.99999994,0,0,0,0,0,0,0,1,0,0,0,false,false,true,-160.16,-3060.01,16.99,-0.0047609075,0.0006123093,0.9922837,0.1238947,-499.63098,1321.4509,8.561,0.00061,-0.00010999999,2.98821
212.29167,2000,0,91.24,0.000002697398,0.000002697398,0.000002697398,0.99999994,0,0,0,0,0,0,0,1,0,0,0,false,false,true,-164.31999,-3049,16.99,-0.0047663026,0.00055296667,0.9937495,0.111529745,-500.731,1311.1609,8.561,0.00061,-0.00010999999,2.97051
212.3,2000,0,91.24,0.000002697398,0.000002697398,0.000002697398,0.99999994,0,0,0,0,0,0,0,1,0,0,0,false,false,true,-168.48999,-3038.0698,16.99,-0.0047716973,0.0004936239,0.9950535,0.099224135,-501.561,1301.021,8.561,0.00071,-0.00010999999,2.95101
212.30833,2000,0,91.24,0.000002697398,0.000002697398,0.000002697398,0.99999994,0,0,0,0,0,0,0,1,0,0,0,false,false,true,-172.67,-3027.23,16.99,-0.004777092,0.0004342811,0.9961982,0.08698333,-502.13098,1291.0509,8.561,0.00071,-0.00010999999,2.92961
212.31667,2000,0,91.24,0.000002697398,0.000002697398,0.000002697398,0.99999994,0,0,0,0,0,0,0,1,0,0,0,false,false,true,-176.84999,-3016.47,16.99,-0.0047824862,0.0003749383,0.9971855,0.07481797,-502.451,1281.281,8.561,0.00071,-0.00010999999,2.9063098
212.325,2000,0,91.24,0.000002697398,0.000002697398,0.000002697398,0.99999994,0,0,0,0,0,0,0,1,0,0,0,false,false,true,-181.04,-3005.79,16.99,-0.0047878814,0.00031559556,0.9980184,0.06273903,-502.541,1271.721,8.561,0.00081,-0.00010999999,2.88101
212.33333,2000,0,91.24,0.000002697398,0.000002697398,0.000002697398,0.99999994,0,0,0,0,0,0,0,1,0,0,0,false,false,true,-185.23,-2995.19,16.99,-0.004793276,0.0002562528,0.9986994,0.050757106,-502.411,1262.381,8.561,0.00081,0,2.85371
212.34166,2000,0,91.24,0.000002697398,0.000002697398,0.000002697398,0.99999994,0,0,0,0,0,0,0,1,0,0,0,false,false,true,-189.42,-2984.67,16.99,-0.004793276,0.00019691006,0.9992324,0.038877767,-502.081,1253.2909,8.561,0.00081,0,2.8243098
212.35,2000,0,91.24,0.000002697398,0.000002697398,0.000002697398,0.99999994,0,0,0,0,0,0,0,1,0,0,0,false,false,true,-193.59999,-2974.23,16.99,-0.004793276,0.0001375673,0.99962074,0.027117027,-501.561,1244.4609,8.561,0.00081,0,2.79281
212.35834,2000,0,91.24,0.000002697398,0.000002697398,0.000002697398,0.99999994,0,0,0,0,0,0,0,1,0,0,0,false,false,true,-197.78,-2963.8599,16.99,-0.0047932756,0.00007822453,0.99986845,0.015485845,-500.871,1235.901,8.561,0.00081,0,2.75911
212.36667,2000,0,91.24,0.000002697398,0.000002697398,0.000002697398,0.99999994,0,0,0,0,0,0,0,1,0,0,0,false,false,true,-201.95,-2953.5598,16.99,-0.004793276,0.000018881787,0.9999805,0.0039894516,-500.021,1227.631,8.561,0.00081,0,2.72311
212.375,2000,0,91.24,0.000002697398,0.000002697398,0.000002697398,0.99999994,0,0,0,0,0,0,0,1,0,0,0,false,false,true,-206.12,-2943.3298,16.99,-0.0047932765,-0.000040460975,0.99996144,-0.0073558474,-499.041,1219.651,8.561,0.00081,0,2.68471
212.38333,2000,0,91.24,0.000002697398,0.000002697398,0.000002697398,0.99999994,0,0,0,0,0,0,0,1,0,0,0,false,false,true,-210.28,-2933.17,16.99,-0.0047932756,-0.00009980372,0.9998165,-0.018539298,-497.941,1211.981,8.561,0.00081,0,2.64391
212.39166,2000,0,91.24,0.000002697398,0.000002697398,0.000002697398,0.99999994,0,0,0,0,0,0,0,1,0,0,0,false,false,true,-214.43,-2923.0698,16.99,-0.0047932756,-0.00015375167,0.99955165,-0.029550118,-496.721,1204.5809,8.561,0.00081,0,2.60231
212.4,2000,0,91.24,0.000002697398,0.000002697398,0.000002697398,0.99999994,0,0,0,0,0,0,0,1,0,0,0,false,false,true,-218.56999,-2913.03,16.99,-0.004793276,-0.00020769965,0.9991725,-0.04038831,-495.361,1197.371,8.561,0.00071,0,2.5629098
212.40834,2000,0,91.24,0.000002697398,0.000002697398,0.000002697398,0.99999994,0,0,0,0,0,0,0,1,0,0,0,false,false,true,-222.7,-2903.05,16.99,-0.004793276,-0.0002616476,0.9986843,-0.051053863,-493.871,1190.361,8.561,0.00061,0,2.5255098
212.41667,2000,0,91.24,0.000002697398,0.000002697398,0.000002697398,0.99999994,0,0,0,0,0,0,0,1,0,0,0,false,false,true,-226.81999,-2893.13,16.99,-0.004787882,-0.0003155956,0.99809194,-0.06155758,-492.271,1183.5609,8.561,0.00051,0,2.49001
212.425,2000,0,91.24,0.000002697398,0.000002697398,0.000002697398,0.99999994,0,0,0,0,0,0,0,1,0,0,0,false,false,true,-230.92,-2883.27,16.99,-0.004782487,-0.00036954356,0.99739957,-0.07191023,-490.551,1176.9509,8.561,0.00040999998,0,2.45711
212.43333,2000,0,91.24,0.000002697398,0.000002697398,0.000002697398,0.99999994,0,0,0,0,0,0,0,1,0,0,0,false,false,true,-235.01,-2873.46,16.99,-0.004777092,-0.0004180967,0.99661106,-0.082117185,-488.641,1170.391,8.561,0.00021,0,2.43041
212.44167,2000,0,91.24,0.000002697398,0.000002697398,0.000002697398,0.99999994,0,0,0,0,0,0,0,1,0,0,0,false,false,true,-239.08,-2863.71,16.99,-0.0047716973,-0.0004666499,0.99572843,-0.0922055,-486.551,1163.901,8.561,0.00010999999,0,2.40961
212.45,2000,0,91.24,0.000002697398,0.000002697398,0.000002697398,0.99999994,0,0,0,0,0,0,0,1,0,0,0,false,false,true,-243.12999,-2854.01,16.99,-0.0047663017,-0.00051520293,0.9947525,-0.10219669,-484.291,1157.491,8.561,0,0,2.39451
212.45833,2000,0,91.24,0.000002697398,0.000002697398,0.000002697398,0.99999994,0,0,0,0,0,0,0,1,0,0,0,false,false,true,-247.17,-2844.3599,16.99,-0.004760907,-0.0005637561,0.9936832,-0.11211776,-481.861,1151.1809,8.561,-0.00010999999,0,2.3849099
212.46666,2000,0,91.24,0.000002697398,0.000002697398,0.000002697398,0.99999994,0,0,0,0,0,0,0,1,0,0,0,false,false,true,-251.18999,-2834.77,16.99,-0.0047555123,-0.00061230926,0.9925202,-0.121984884,-479.281,1144.991,8.561,-0.00021,0,2.38071
212.475,2000,0,91.24,0.000002697398,0.000002697398,0.000002697398,0.99999994,0,0,0,0,0,0,0,1,0,0,0,false,false,true,-255.18,-2825.23,16.99,-0.004750118,-0.0006608626,0.99126136,-0.13182506,-476.551,1138.9409,8.561,-0.00030999997,0,2.38171
212.48334,2000,0,91.24,0.000002697398,0.000002697398,0.000002697398,0.99999994,0,0,0,0,0,0,0,1,0,0,0,false,false,true,-259.15,-2815.74,16.99,-0.0047447225,-0.00070402084,0.9899044,-0.14165439,-473.691,1133.031,8.561,-0.00040999998,-0.00010999999,2.38781
212.49167,2000,0,91.24,0.000002697398,0.000002697398,0.000002697398,0.99999994,0,0,0,0,0,0,0,1,0,0,0,false,false,true,-263.1,-2806.3,16.99,-0.0047393283,-0.00074717926,0.9884464,-0.15149455,-470.711,1127.2909,8.561,-0.00051,-0.00010999999,2.39891
212.5,2000,0,91.24,0.000002697398,0.000002697398,0.000002697398,0.99999994,0,0,0,0,0,0,0,1,0,0,0,false,false,true,-267.02,-2796.91,16.99,-0.0047339336,-0.0007903376,0.98688275,-0.16136707,-467.611,1121.731,8.561,-0.00061,-0.00010999999,2.4149098
212.50833,2000,0,91.24,0.000002697398,0.000002697398,0.000002697398,0.99999994,0,0,0,0,0,0,0,1,0,0,0,false,false,true,-270.91998,-2787.56,16.99,-0.004723144,-0.00083349604,0.9852093,-0.17128816,-464.411,1116.361,8.561,-0.00061,-0.00010999999,2.4358099
212.51666,2000,0,91.24,0.000002697398,0.000002697398,0.000002697398,0.99999994,0,0,0,0,0,0,0,1,0,0,0,false,false,true,-274.79,-2778.26,16.99,-0.004712355,-0.0008766544,0.98341995,-0.18127933,-461.10098,1111.121,8.561,-0.00061,-0.00021,2.46011
212.525,2000,0,91.24,0.000002697398,0.000002697398,0.000002697398,0.99999994,0,0,0,0,0,0,0,1,0,0,0,false,false,true,-278.63,-2769,16.99,-0.004701564,-0.00091981265,0.98150975,-0.19135143,-457.641,1105.911,8.561,-0.00061,-0.00021,2.48541
212.53334,2000,0,91.24,0.000002697398,0.000002697398,0.000002697398,0.99999994,0,0,0,0,0,0,0,1,0,0,0,false,false,true,-282.44,-2759.78,16.99,-0.0046907756,-0.000968366,0.97947586,-0.2015045,-454.041,1100.741,8.561,-0.00061,-0.00030999997,2.51181
212.54167,2000,0,91.24,0.000002697398,0.000002697398,0.000002697398,0.99999994,0,0,0,0,0,0,0,1,0,0,0,false,false,true,-286.22,-2750.6099,16.99,-0.004679985,-0.0010169189,0.97731334,-0.21174382,-450.32098,1095.631,8.561,-0.00061,-0.00030999997,2.53911
212.55,2000,0,91.24,0.000002697398,0.000002697398,0.000002697398,0.99999994,0,0,0,0,0,0,0,1,0,0,0,false,false,true,-289.97,-2741.48,16.99,-0.0046691955,-0.001065472,0.9750189,-0.2220695,-446.501,1090.601,8.561,-0.00061,-0.00030999997,2.56711
212.55833,2000,0,91.24,0.000002697398,0.000002697398,0.000002697398,0.99999994,0,0,0,0,0,0,0,1,0,0,0,false,false,true,-293.69,-2732.39,16.99,-0.004658406,-0.0011140254,0.97258765,-0.23248693,-442.581,1085.661,8.561,-0.00051,-0.00040999998,2.5959098
212.56667,2000,0,91.24,0.000002697398,0.000002697398,0.000002697398,0.99999994,0,0,0,0,0,0,0,1,0,0,0,false,false,true,-297.38,-2723.3398,16.99,-0.0046476168,-0.0011625786,0.9700167,-0.24299064,-438.501,1080.7009,8.561,-0.00051,-0.00040999998,2.62301
212.575,2000,0,91.24,0.000002697398,0.000002697398,0.000002697398,0.99999994,0,0,0,0,0,0,0,1,0,0,0,false,false,true,-301.03,-2714.3298,16.99,-0.0046368274,-0.0012111318,0.96730375,-0.2535753,-434.241,1075.6809,8.561,-0.00040999998,-0.00040999998,2.64731
212.58333,2000,0,91.24,0.000002697398,0.000002697398,0.000002697398,0.99999994,0,0,0,0,0,0,0,1,0,0,0,false,false,true,-304.65,-2705.3699,16.99,-0.0046260376,-0.0012596849,0.9644477,-0.26423,-429.801,1070.621,8.561,-0.00030999997,-0.00030999997,2.66881
212.59166,2000,0,91.24,0.000002697398,0.000002697398,0.000002697398,0.99999994,0,0,0,0,0,0,0,1,0,0,0,false,false,true,-308.22998,-2696.45,16.99,-0.004615248,-0.001308238,0.96144974,-0.27493873,-425.191,1065.531,8.561,-0.00021,-0.00021,2.68761
212.6,2000,0,91.24,0.000002697398,0.000002697398,0.000002697398,0.99999994,0,0,0,0,0,0,0,1,0,0,0,false,false,true,-311.77,-2687.5698,16.99,-0.0045990637,-0.0013567912,0.95831144,-0.2856852,-420.401,1060.4309,8.561,-0.00010999999,-0.00010999999,2.70381
212.60834,2000,0,91.24,0.000002697398,0.000002697398,0.000002697398,0.99999994,0,0,0,0,0,0,0,1,0,0,0,false,false,true,-315.27,-2678.73,16.99,-0.0045828787,-0.0014053442,0.9550318,-0.29646403,-415.451,1055.341,8.561,0,0,2.71731
212.61667,2000,0,91.24,0.000002697398,0.000002697398,0.000002697398,0.99999994,0,0,0,0,0,0,0,1,0,0,0,false,false,true,-318.72998,-2669.94,16.99,-0.004566695,-0.0014592925,0.9516138,-0.3072591,-410.341,1050.271,8.561,0,0,2.7283099
212.625,2000,0,91.24,0.000002697398,0.000002697398,0.000002697398,0.99999994,0,0,0,0,0,0,0,1,0,0,0,false,false,true,-322.15,-2661.19,16.99,-0.0045505106,-0.0015132403,0.94805855,-0.3180595,-405.081,1045.241,8.561,0,0,2.73681
212.63333,2000,0,91.24,0.000002697398,0.000002697398,0.000002697398,0.99999994,0,0,0,0,0,0,0,1,0,0,0,false,false,true,-325.53,-2652.48,16.99,-0.004534326,-0.0015671883,0.9443702,-0.32884914,-399.671,1040.261,8.561,0,0,2.74281
212.64166,2000,0,91.24,0.000002697398,0.000002697398,0.000002697398,0.99999994,0,0,0,0,0,0,0,1,0,0,0,false,false,true,-328.86,-2643.81,16.99,-0.004518141,-0.0016211361,0.9405494,-0.33962256,-394.131,1035.341,8.561,0,0,2.74641
212.65,2000,0,91.24,0.000002697398,0.000002697398,0.000002697398,0.99999994,0,0,0,0,0,0,0,1,0,0,0,false,false,true,-332.13998,-2635.18,16.99,-0.0045019574,-0.0016750842,0.93660134,-0.35036367,-388.461,1030.501,8.561,0,0,2.7476099
212.65834,2000,0,91.24,0.000002697398,0.000002697398,0.000002697398,0.99999994,0,0,0,0,0,0,0,1,0,0,0,false,false,true,-335.38,-2626.5898,16.99,-0.0044803787,-0.0017290323,0.93252957,-0.3610616,-382.671,1025.751,8.561,0,0.00010999999,2.74641
212.66667,2000,0,91.24,0.000002697398,0.000002697398,0.000002697398,0.99999994,0,0,0,0,0,0,0,1,0,0,0,false,false,true,-338.57,-2618.04,16.99,-0.0044587995,-0.0017829803,0.928336,-0.37171102,-376.781,1021.11096,8.561,0,0.00010999999,2.74301
212.675,2000,0,91.24,0.000002697398,0.000002697398,0.000002697398,0.99999994,0,0,0,0,0,0,0,1,0,0,0,false,false,true,-341.71,-2609.53,16.99,-0.00443722,-0.0018315333,0.92402756,-0.38229558,-370.801,1016.58093,8.561,0,0.00010999999,2.73731
212.68333,2000,0,91.24,0.000002697398,0.000002697398,0.000002697398,0.99999994,0,0,0,0,0,0,0,1,0,0,0,false,false,true,-344.8,-2601.06,16.99,-0.0044156406,-0.0018800865,0.91960704,-0.3928101,-364.741,1012.17096,8.561,0,0.00010999999,2.72941
212.69167,2000,0,91.24,0.000002697398,0.000002697398,0.000002697398,0.99999994,0,0,0,0,0,0,0,1,0,0,0,false,false,true,-347.84,-2592.63,16.99,-0.0043940614,-0.0019286396,0.91508,-0.40324363,-358.611,1007.8909,8.561,0,0.00010999999,2.71931
212.7,2000,0,91.24,0.000002697398,0.000002697398,0.000002697398,0.99999994,0,0,0,0,0,0,0,1,0,0,0,false,false,true,-350.83,-2584.23,16.99,-0.004372482,-0.0019771927,0.91045254,-0.41358554,-352.431,1003.751,8.561,0.00010999999,0.00021,2.70711
212.70833,2000,0,91.24,0.000002697398,0.000002697398,0.000002697398,0.99999994,0,0,0,0,0,0,0,1,0,0,0,false,false,true,-353.77,-2575.8699,16.99,-0.0043509034,-0.002025746,0.9057289,-0.4238303,-346.211,999.7609,8.561,0.00010999999,0.00021,2.69281
212.71666,2000,0,91.24,0.000002697398,0.000002697398,0.000002697398,0.99999994,0,0,0,0,0,0,0,1,0,0,0,false,false,true,-356.66,-2567.54,16.99,-0.004329324,-0.002074299,0.9009158,-0.43396717,-339.961,995.92096,8.561,0.00021,0.00030999997,2.6765099
212.725,2000,0,91.24,0.000002697398,0.000002697398,0.000002697398,0.99999994,0,0,0,0,0,0,0,1,0,0,0,false,false,true,-359.49,-2559.24,16.99,-0.0043077446,-0.0021228523,0.8960211,-0.4439853,-333.701,992.23096,8.561,0.00021,0.00040999998,2.65821
212.73334,2000,0,91.24,0.000002697398,0.000002697398,0.000002697398,0.99999994,0,0,0,0,0,0,0,1,0,0,0,false,false,true,-362.27,-2550.97,16.99,-0.00428077,-0.0021714051,0.89105004,-0.45387936,-327.431,988.7009,8.561,0.00021,0.00051,2.63801
212.74167,2000,0,91.24,0.000002697398,0.000002697398,0.000002697398,0.99999994,0,0,0,0,0,0,0,1,0,0,0,false,false,true,-365,-2542.73,16.99,-0.0042537972,-0.0022199587,0.8860085,-0.46364406,-321.181,985.33093,8.561,0.00021,0.00051,2.61581
212.75,2000,0,91.24,0.000002697398,0.000002697398,0.000002697398,0.99999994,0,0,0,0,0,0,0,1,0,0,0,false,false,true,-367.68,-2534.52,16.99,-0.004226823,-0.002268512,0.8809023,-0.4732738,-314.951,982.131,8.561,0.00021,0.00051,2.59181
212.75833,2000,0,91.24,0.000002697398,0.000002697398,0.000002697398,0.99999994,0,0,0,0,0,0,0,1,0,0,0,false,false,true,-370.3,-2526.3398,16.99,-0.0041998485,-0.002317065,0.87574065,-0.4827579,-308.761,979.09094,8.561,0.00021,0.00051,2.5659099
212.76666,2000,0,91.24,0.000002697398,0.000002697398,0.000002697398,0.99999994,0,0,0,0,0,0,0,1,0,0,0,false,false,true,-372.87,-2518.18,16.99,-0.0041728746,-0.002365618,0.87053055,-0.49209088,-302.631,976.22095,8.561,0.00021,0.00051,2.53821
212.775,2000,0,91.24,0.000002697398,0.000002697398,0.000002697398,0.99999994,0,0,0,0,0,0,0,1,0,0,0,false,false,true,-375.38998,-2510.04,16.99,-0.0041459007,-0.0024087764,0.865279,-0.5012675,-296.561,973.5109,8.561,0.00021,0.00051,2.50871
212.78334,2000,0,91.24,0.000002697398,0.000002697398,0.000002697398,0.99999994,0,0,0,0,0,0,0,1,0,0,0,false,false,true,-377.86,-2501.93,16.99,-0.0041189273,-0.002451935,0.8599936,-0.5102823,-290.571,970.96094,8.561,0.00021,0.00051,2.47751
212.79167,2000,0,91.24,0.000002697398,0.000002697398,0.000002697398,0.99999994,0,0,0,0,0,0,0,1,0,0,0,false,false,true,-380.28,-2493.8398,16.99,-0.0040919525,-0.0024950933,0.85468197,-0.5191297,-284.671,968.571,8.561,0.00021,0.00051,2.4446099
212.8,2000,0,91.24,0.000002697398,0.000002697398,0.000002697398,0.99999994,0,0,0,0,0,0,0,1,0,0,0,false,false,true,-382.65,-2485.77,16.99,-0.0040649786,-0.0025382515,0.84934884,-0.52781,-278.871,966.33093,8.561,0.00021,0.00051,2.41011
212.80833,2000,0,91.24,0.000002697398,0.000002697398,0.000002697398,0.99999994,0,0,0,0,0,0,0,1,0,0,0,false,false,true,-384.97,-2477.72,16.99,-0.0040380047,-0.0025814099,0.844006,-0.53631216,-273.181,964.251,8.561,0.00021,0.00051,2.37391
212.81667,2000,0,91.24,0.000002697398,0.000002697398,0.000002697398,0.99999994,0,0,0,0,0,0,0,1,0,0,0,false,false,true,-387.25,-2469.68,16.99,-0.004011031,-0.0026245683,0.8386585,-0.54463637,-267.611,962.311,8.561,0.00021,0.00051,2.33621
212.825,2000,0,91.24,0.000002697398,0.000002697398,0.000002697398,0.99999994,0,0,0,0,0,0,0,1,0,0,0,false,false,true,-389.47998,-2461.66,16.99,-0.0039840564,-0.0026677265,0.83331877,-0.55277175,-262.181,960.5109,8.561,0.00021,0.00051,2.29691
212.83333,2000,0,91.24,0.000002697398,0.000002697398,0.000002697398,0.99999994,0,0,0,0,0,0,0,1,0,0,0,false,false,true,-391.66,-2453.66,16.99,-0.003957083,-0.0027054902,0.8279889,-0.5607238,-256.891,958.85095,8.551001,0.00021,0.00051,2.25611
212.84166,2000,0,91.24,0.000002697398,0.000002697398,0.000002697398,0.99999994,0,0,0,0,0,0,0,1,0,0,0,false,false,true,-393.8,-2445.67,16.99,-0.0039301086,-0.0027432537,0.82268196,-0.5684815,-251.741,957.321,8.551001,0.00021,0.00051,2.2139099
212.85,2000,0,91.24,0.000002697398,0.000002697398,0.000002697398,0.99999994,0,0,0,0,0,0,0,1,0,0,0,false,false,true,-395.9,-2437.69,16.99,-0.0039031352,-0.0027810177,0.81740385,-0.5760451,-246.751,955.91095,8.551001,0.00021,0.00051,2.17031
212.85834,2000,0,91.24,0.000002697398,0.000002697398,0.000002697398,0.99999994,0,0,0,0,0,0,0,1,0,0,0,false,false,true,-397.96,-2429.72,16.99,-0.003876161,-0.002818781,0.81216043,-0.5834144,-241.921,954.621,8.551001,0.00021,0.00051,2.12531
212.86667,2000,0,91.24,0.000002697398,0.000002697398,0.000002697398,0.99999994,0,0,0,0,0,0,0,1,0,0,0,false,false,true,-399.97998,-2421.76,16.99,-0.0038491874,-0.0028565447,0.8069618,-0.59058416,-237.261,953.441,8.551001,0.00021,0.00040999998,2.0789099
212.875,2000,0,91.24,0.000002697398,0.000002697398,0.000002697398,0.99999994,0,0,0,0,0,0,0,1,0,0,0,false,false,true,-401.96,-2413.81,16.99,-0.003822213,-0.0028889133,0.80181414,-0.59755415,-232.771,952.36096,8.551001,0.00021,0.00040999998,2.0313098
212.88333,2000,0,91.24,0.000002697398,0.000002697398,0.000002697398,0.99999994,0,0,0,0,0,0,0,1,0,0,0,false,false,true,-403.9,-2405.8699,16.99,-0.0037952391,-0.002921282,0.7967277,-0.6043193,-228.451,951.381,8.551001,0.00021,0.00040999998,1.98241
212.89166,2000,0,91.24,0.000002697398,0.000002697398,0.000002697398,0.99999994,0,0,0,0,0,0,0,1,0,0,0,false,false,true,-405.8,-2397.94,16.99,-0.0037682652,-0.002953651,0.7917091,-0.61087936,-224.311,950.49097,8.551001,0.00021,0.00040999998,1.93231
212.9,2000,0,91.24,0.000002697398,0.000002697398,0.000002697398,0.99999994,0,0,0,0,0,0,0,1,0,0,0,false,false,true,-407.66998,-2390.02,16.99,-0.0037412914,-0.00298602,0.7867646,-0.6172345,-220.36101,949.68097,8.551001,0.00021,0.00040999998,1.88111
212.90834,2000,0,91.24,0.000002697398,0.000002697398,0.000002697398,0.99999994,0,0,0,0,0,0,0,1,0,0,0,false,false,true,-409.50998,-2382.1099,16.99,-0.0037143172,-0.0030183885,0.7819007,-0.62338454,-216.591,948.941,8.551001,0.00021,0.00030999997,1.82881
212.91667,2000,0,91.24,0.000002697398,0.000002697398,0.000002697398,0.99999994,0,0,0,0,0,0,0,1,0,0,0,false,false,true,-411.31,-2374.2,16.99,-0.003692738,-0.003050757,0.777128,-0.62932426,-213.001,948.27094,8.551001,0.00021,0.00021,1.7754099
212.925,2000,0,91.24,0.000002697398,0.000002697398,0.000002697398,0.99999994,0,0,0,0,0,0,0,1,0,0,0,false,false,true,-413.09,-2366.3,16.99,-0.0036711588,-0.0030777312,0.7724531,-0.6350536,-209.601,947.66095,8.541,0.00021,0.00021,1.72101
212.93333,2000,0,91.24,0.000002697398,0.000002697398,0.000002697398,0.99999994,0,0,0,0,0,0,0,1,0,0,0,false,false,true,-414.84,-2358.4,16.99,-0.0036495796,-0.0031047051,0.7678782,-0.64057785,-206.381,947.10095,8.541,0.00021,0.00021,1.66571
212.94167,2000,0,91.24,0.000002697398,0.000002697398,0.000002697398,0.99999994,0,0,0,0,0,0,0,1,0,0,0,false,false,true,-416.56,-2350.51,16.99,-0.0036280006,-0.0031316795,0.7634139,-0.6458918,-203.351,946.59094,8.541,0.00010999999,0.00021,1.60951
212.95,2000,0,91.24,0.000002697398,0.000002697398,0.000002697398,0.99999994,0,0,0,0,0,0,0,1,0,0,0,false,false,true,-418.25,-2342.6199,16.99,-0.0036064207,-0.003158653,0.7590666,-0.65099514,-200.501,946.121,8.541,0.00010999999,0.00021,1.5526099
212.95833,2000,0,91.24,0.000002697398,0.000002697398,0.000002697398,0.99999994,0,0,0,0,0,0,0,1,0,0,0,false,false,true,-419.91998,-2334.74,16.99,-0.003584842,-0.0031802324,0.75483793,-0.6558937,-197.821,945.691,8.541,0.00010999999,0.00021,1.49501
212.96666,2000,0,91.24,0.000002697398,0.000002697398,0.000002697398,0.99999994,0,0,0,0,0,0,0,1,0,0,0,false,false,true,-421.56998,-2326.8599,16.99,-0.0035632628,-0.0032018116,0.7507387,-0.6605818,-195.311,945.29095,8.541,0.00010999999,0.00021,1.43691
212.975,2000,0,91.24,0.000002697398,0.000002697398,0.000002697398,0.99999994,0,0,0,0,0,0,0,1,0,0,0,false,false,true,-423.19998,-2318.98,16.99,-0.0035416833,-0.0032233906,0.7467701,-0.6650648,-192.961,944.92096,8.541,0.00010999999,0.00021,1.37851
212.98334,2000,0,91.24,0.000002697398,0.000002697398,0.000002697398,0.99999994,0,0,0,0,0,0,0,1,0,0,0,false,false,true,-424.81,-2311.1099,16.99,-0.0035201046,-0.0032449698,0.742938,-0.669343,-190.761,944.571,8.541,0.00010999999,0.00021,1.31981
212.99167,2000,0,91.24,0.000002697398,0.000002697398,0.000002697398,0.99999994,0,0,0,0,0,0,0,1,0,0,0,false,false,true,-426.4,-2303.24,16.99,-0.00350392,-0.003266549,0.73924804,-0.6734161,-188.711,944.24097,8.541,0.00010999999,0.00021,1.2610099
213,2000,0,91.24,0.000002697398,0.000002697398,0.000002697398,0.99999994,0,0,0,0,0,0,0,1,0,0,0,false,false,true,-427.97,-2295.3699,16.99,-0.0034877358,-0.0032881282,0.73570085,-0.67728955,-186.80101,943.92096,8.541,0.00010999999,0.00021,1.20221
213.00833,2000,0,91.24,0.000002697398,0.000002697398,0.000002697398,0.99999994,0,0,0,0,0,0,0,1,0,0,0,false,false,true,-429.53,-2287.5,16.99,-0.0034715512,-0.0033043127,0.7323016,-0.68096346,-185.031,943.621,8.541,0.00010999999,0.00021,1.14351
213.01666,2000,0,91.24,0.000002697398,0.000002697398,0.000002697398,0.99999994,0,0,0,0,0,0,0,1,0,0,0,false,false,true,-431.06998,-2279.64,16.99,-0.003455367,-0.003320497,0.72905046,-0.68444306,-183.391,943.33093,8.541,0.00010999999,0.00021,1.08491
213.025,2000,0,91.24,0.000002697398,0.000002697398,0.000002697398,0.99999994,0,0,0,0,0,0,0,1,0,0,0,false,false,true,-432.59998,-2271.78,16.99,-0.0034391826,-0.0033366815,0.72594696,-0.6877339,-181.871,943.05096,8.541,0.00010999999,0.00021,1.02651
213.03334,2000,0,91.24,0.000002697398,0.000002697398,0.000002697398,0.99999994,0,0,0,0,0,0,0,1,0,0,0,false,false,true,-434.12,-2263.92,16.99,-0.0034229984,-0.003352866,0.7230007,-0.69083065,-180.461,942.77094,8.541,0.00010999999,0.00021,0.96841
213.04167,2000,0,91.24,0.000002697398,0.000002697398,0.000002697398,0.99999994,0,0,0,0,0,0,0,1,0,0,0,false,false,true,-435.62,-2256.06,16.99,-0.0034068138,-0.00336905,0.72020584,-0.69374377,-179.161,942.501,8.541,0.00010999999,0.00010999999,0.91071
213.05,2000,0,91.24,0.000002697398,0.000002697398,0.000002697398,0.99999994,0,0,0,0,0,0,0,1,0,0,0,false,false,true,-437.11,-2248.21,16.99,-0.0033960242,-0.0033852346,0.7175664,-0.69647354,-177.97101,942.23096,8.541,0.00010999999,0,0.85341
213.05833,2000,0,91.24,0.000002697398,0.000002697398,0.000002697398,0.99999994,0,0,0,0,0,0,0,1,0,0,0,false,false,true,-438.59,-2240.3599,16.99,-0.0033852342,-0.0033960238,0.71508604,-0.6990198,-176.871,941.96094,8.541,0,0,0.79651
213.06667,2000,0,91.24,0.000002697398,0.000002697398,0.000002697398,0.99999994,0,0,0,0,0,0,0,1,0,0,0,false,false,true,-440.06,-2232.51,16.99,-0.0033744453,-0.003406814,0.71276325,-0.70138824,-175.86101,941.691,8.541,0,0,0.74011
213.075,2000,0,91.24,0.000002697398,0.000002697398,0.000002697398,0.99999994,0,0,0,0,0,0,0,1,0,0,0,false,false,true,-441.53,-2224.66,16.99,-0.0033636554,-0.0034176034,0.7105959,-0.7035839,-174.94101,941.42096,8.541,0,0,0.68421
213.08333,2000,0,91.24,0.000002697398,0.000002697398,0.000002697398,0.99999994,0,0,0,0,0,0,0,1,0,0,0,false,false,true,-442.99,-2216.81,16.99,-0.0033528658,-0.003428393,0.7085871,-0.70560694,-174.101,941.15094,8.541,0,0,0.62881
213.09166,2000,0,91.24,0.000002697398,0.000002697398,0.000002697398,0.99999994,0,0,0,0,0,0,0,1,0,0,0,false,false,true,-444.44,-2208.97,16.99,0.0033420757,0.0034391822,-0.7067344,0.7074625,-173.33101,940.881,8.541,0,0,0.57401
213.1,2000,0,91.24,0.000002697398,0.000002697398,0.000002697398,0.99999994,0,0,0,0,0,0,0,1,0,0,0,false,false,true,-445.88,-2201.13,16.99,0.0033312866,0.0034445773,-0.7050405,0.70915073,-172.621,940.61096,8.541,0,0,0.51971
213.10834,2000,0,91.24,0.000002697398,0.000002697398,0.000002697398,0.99999994,0,0,0,0,0,0,0,1,0,0,0,false,false,true,-447.31998,-2193.29,16.99,0.0033258921,0.0034499725,-0.7035031,0.710676,-171.97101,940.34094,8.541,0,0,0.46601
213.11667,2000,0,91.24,0.000002697398,0.000002697398,0.000002697398,0.99999994,0,0,0,0,0,0,0,1,0,0,0,false,false,true,-448.75,-2185.45,16.99,0.003320497,0.003455367,-0.7021219,0.7120405,-171.381,940.071,8.541,0,0,0.41291
213.125,2000,0,91.24,0.000002697398,0.000002697398,0.000002697398,0.99999994,0,0,0,0,0,0,0,1,0,0,0,false,false,true,-450.18,-2177.6199,16.99,0.0033151023,0.0034607616,-0.7008973,0.71324605,-170.841,939.80096,8.541,0,0,0.36041
213.13333,2000,0,91.24,0.000002697398,0.000002697398,0.000002697398,0.99999994,0,0,0,0,0,0,0,1,0,0,0,false,false,true,-451.59998,-2169.79,16.99,0.0033097074,0.0034661565,-0.6998237,0.71429944,-170.341,939.53094,8.541,0,0,0.30861
213.14166,2000,0,91.24,0.000002697398,0.000002697398,0.000002697398,0.99999994,0,0,0,0,0,0,0,1,0,0,0,false,false,true,-453.02,-2161.96,16.99,0.0033043127,0.0034715512,-0.6989066,0.7151968,-169.881,939.2609,8.541,0,0,0.25741002
213.15,2000,0,91.24,0.000002697398,0.000002697398,0.000002697398,0.99999994,0,0,0,0,0,0,0,1,0,0,0,false,false,true,-454.44,-2154.13,16.99,0.0032989178,0.0034769461,-0.6981405,0.7159446,-169.451,938.99097,8.541,0,0,0.20681
213.15834,2000,0,91.24,0.000002697398,0.000002697398,0.000002697398,0.99999994,0,0,0,0,0,0,0,1,0,0,0,false,false,true,-455.84998,-2146.3,16.99,0.0032935233,0.003482341,-0.69752556,0.71654385,-169.041,938.72095,8.541,0,0,0.15681
213.16667,2000,0,91.24,0.000002697398,0.000002697398,0.000002697398,0.99999994,0,0,0,0,0,0,0,1,0,0,0,false,false,true,-457.25998,-2138.48,16.99,0.003293523,0.0034823408,-0.6970562,0.7170004,-168.651,938.4509,8.541,0,-0.00010999999,0.10750999
213.175,2000,0,91.24,0.000002697398,0.000002697398,0.000002697398,0.99999994,0,0,0,0,0,0,0,1,0,0,0,false,false,true,-458.66998,-2130.66,16.99,0.003293523,0.0034823408,-0.69673246,0.71731496,-168.281,938.18097,8.541,0,-0.00010999999,0.058809996
213.18333,2000,0,91.24,0.000002697398,0.000002697398,0.000002697398,0.99999994,0,0,0,0,0,0,0,1,0,0,0,false,false,true,-460.06998,-2122.8398,16.99,0.003293523,0.0034823408,-0.6965544,0.7174878,-167.921,937.91095,8.541,0,-0.00010999999,0.010709999
213.19167,2000,0,91.24,0.000002697398,0.000002697398,0.000002697398,0.99999994,0,0,0,0,0,0,0,1,0,0,0,false,false,true,-461.47,-2115.02,16.99,0.003293523,0.0034823408,-0.69652206,0.7175193,-167.561,937.65094,8.541,0,-0.00010999999,-0.036709998
213.2,2000,0,91.24,0.000002697398,0.000002697398,0.000002697398,0.99999994,0,0,0,0,0,0,0,1,0,0,0,false,false,true,-462.87,-2107.21,16.99,0.003293523,0.0034823408,-0.69663,0.71741444,-167.201,937.3909,8.541,0,-0.00010999999,-0.08351
213.20833,2000,0,91.24,0.000002697398,0.000002697398,0.000002697398,0.99999994,0,0,0,0,0,0,0,1,0,0,0,false,false,true,-464.25998,-2099.4,16.99,0.003293523,0.0034823408,-0.69687814,0.71717346,-166.841,937.131,8.541,0,-0.00010999999,-0.12970999
213.21666,2000,0,91.24,0.000002697398,0.000002697398,0.000002697398,0.99999994,0,0,0,0,0,0,0,1,0,0,0,false,false,true,-465.65,-2091.5898,16.99,0.003293523,0.0034823408,-0.6972666,0.7167958,-166.47101,936.881,8.541,0,-0.00010999999,-0.17531
213.225,2000,0,91.24,0.000002697398,0.000002697398,0.000002697398,0.99999994,0,0,0,0,0,0,0,1,0,0,0,false,false,true,-467.03998,-2083.78,16.99,0.0032989178,0.0034823408,-0.69778985,0.71628636,-166.08101,936.6409,8.541,0,-0.00021,-0.22020999
213.23334,2000,0,91.24,0.000002697398,0.000002697398,0.000002697398,0.99999994,0,0,0,0,0,0,0,1,0,0,0,false,false,true,-468.41998,-2075.97,16.99,0.003304313,0.0034769464,-0.69844806,0.71564466,-165.671,936.40094,8.541,0,-0.00021,-0.26451
213.24167,2000,0,91.24,0.000002697398,0.000002697398,0.000002697398,0.99999994,0,0,0,0,0,0,0,1,0,0,0,false,false,true,-469.8,-2068.17,16.99,0.0033097074,0.0034715512,-0.6992357,0.71487504,-165.241,936.17096,8.541,0,-0.00021,-0.30821002
213.25,2000,0,91.24,0.000002697398,0.000002697398,0.000002697398,0.99999994,0,0,0,0,0,0,0,1,0,0,0,false,false,true,-471.18,-2060.3699,16.99,0.0033151023,0.0034661565,-0.70015275,0.71397686,-164.781,935.941,8.541,0,-0.00021,-0.35131
213.25833,2000,0,91.24,0.000002697398,0.000002697398,0.000002697398,0.99999994,0,0,0,0,0,0,0,1,0,0,0,false,false,true,-472.55,-2052.57,16.99,0.0033204972,0.0034607619,-0.7011994,0.71294904,-164.291,935.72095,8.541,0,-0.00021,-0.39381
213.26666,2000,0,91.24,0.000002697398,0.000002697398,0.000002697398,0.99999994,0,0,0,0,0,0,0,1,0,0,0,false,false,true,-473.91998,-2044.7699,16.99,0.003325892,0.003455367,-0.7023701,0.7117956,-163.761,935.5109,8.541,0,-0.00021,-0.43571
213.275,2000,0,91.24,0.000002697398,0.000002697398,0.000002697398,0.99999994,0,0,0,0,0,0,0,1,0,0,0,false,false,true,-475.28,-2036.97,16.99,0.0033312861,0.0034499718,-0.70365936,0.7105211,-163.19101,935.311,8.541,0,-0.00021,-0.47691
213.28334,2000,0,91.24,0.000002697398,0.000002697398,0.000002697398,0.99999994,0,0,0,0,0,0,0,1,0,0,0,false,false,true,-476.63998,-2029.1799,16.99,0.0033366815,0.0034445773,-0.70506746,0.7091239,-162.571,935.11096,8.541,0,-0.00021,-0.51751
213.29167,2000,0,91.24,0.000002697398,0.000002697398,0.000002697398,0.99999994,0,0,0,0,0,0,0,1,0,0,0,false,false,true,-477.99,-2021.39,16.99,0.0033420762,0.0034391826,-0.7065942,0.7076026,-161.901,934.92096,8.541,0,-0.00021,-0.55751
213.3,2000,0,91.24,0.000002697398,0.000002697398,0.000002697398,0.99999994,0,0,0,0,0,0,0,1,0,0,0,false,false,true,-479.34,-2013.6,16.99,-0.0033528658,-0.003428393,0.70823777,-0.7059576,-161.181,934.74097,8.541,0,-0.00021,-0.59691
213.30833,2000,0,91.24,0.000002697398,0.000002697398,0.000002697398,0.99999994,0,0,0,0,0,0,0,1,0,0,0,false,false,true,-480.68,-2005.8099,16.99,-0.0033636554,-0.0034176034,0.70999175,-0.70419353,-160.401,934.571,8.541,0,-0.00021,-0.63561
213.31667,2000,0,91.24,0.000002697398,0.000002697398,0.000002697398,0.99999994,0,0,0,0,0,0,0,1,0,0,0,false,false,true,-482.02,-1998.0199,16.99,-0.003374445,-0.0034068138,0.7118542,-0.70231074,-159.561,934.40094,8.541,0,-0.00021,-0.67371
213.325,2000,0,91.24,0.000002697398,0.000002697398,0.000002697398,0.99999994,0,0,0,0,0,0,0,1,0,0,0,false,false,true,-483.34998,-1990.23,16.99,-0.0033852342,-0.0033960238,0.7138234,-0.70030916,-158.66101,934.24097,8.541,0,-0.00021,-0.71111
213.33333,2000,0,91.24,0.000002697398,0.000002697398,0.000002697398,0.99999994,0,0,0,0,0,0,0,1,0,0,0,false,false,true,-484.66998,-1982.44,16.99,-0.0033960242,-0.0033852346,0.71589726,-0.6981891,-157.69101,934.09094,8.541,0,-0.00021,-0.74781
213.34166,2000,0,91.24,0.000002697398,0.000002697398,0.000002697398,0.99999994,0,0,0,0,0,0,0,1,0,0,0,false,false,true,-485.97998,-1974.6599,16.99,-0.0034068138,-0.003374445,0.71806866,-0.69595563,-156.651,933.941,8.541,0,-0.00021,-0.78381
213.35,2000,0,91.24,0.000002697398,0.000002697398,0.000002697398,0.99999994,0,0,0,0,0,0,0,1,0,0,0,false,false,true,-487.28998,-1966.88,16.99,-0.0034176034,-0.0033636554,0.7203357,-0.6936089,-155.541,933.79095,8.541,0,-0.00021,-0.81911
213.35834,2000,0,91.24,0.000002697398,0.000002697398,0.000002697398,0.99999994,0,0,0,0,0,0,0,1,0,0,0,false,false,true,-488.59,-1959.1,16.99,-0.003428393,-0.0033528658,0.72269636,-0.6911489,-154.351,933.65094,8.541,0,-0.00021,-0.85371
213.36667,2000,0,91.24,0.000002697398,0.000002697398,0.000002697398,0.99999994,0,0,0,0,0,0,0,1,0,0,0,false,false,true,-489.87997,-1951.32,16.99,-0.0034391822,-0.0033420757,0.7251487,-0.68857545,-153.08101,933.5109,8.541,0,-0.00021,-0.88761
213.375,2000,0,91.24,0.000002697398,0.000002697398,0.000002697398,0.99999994,0,0,0,0,0,0,0,1,0,0,0,false,false,true,-491.16,-1943.5399,16.99,-0.0034499723,-0.0033312866,0.7276904,-0.6858889,-151.731,933.371,8.541,0,-0.00021,-0.92070997
213.38333,2000,0,91.24,0.000002697398,0.000002697398,0.000002697398,0.99999994,0,0,0,0,0,0,0,1,0,0,0,false,false,true,-492.41998,-1935.76,16.99,-0.0034607612,-0.0033151018,0.73031425,-0.6830943,-150.291,933.23096,8.541,0,-0.00030999997,-0.95300996
213.39166,2000,0,91.24,0.000002697398,0.000002697398,0.000002697398,0.99999994,0,0,0,0,0,0,0,1,0,0,0,false,false,true,-493.66998,-1927.98,16.99,-0.0034769464,-0.003298918,0.7330233,-0.6801866,-148.761,933.09094,8.541,0,-0.00030999997,-0.98451
213.4,2000,0,91.24,0.000002697398,0.000002697398,0.000002697398,0.99999994,0,0,0,0,0,0,0,1,0,0,0,false,false,true,-494.91,-1920.2,16.99,-0.0034931304,-0.0032827335,0.7358051,-0.67717624,-147.141,932.941,8.541,0,-0.00030999997,-1.01521
213.40834,2000,0,91.24,0.000002697398,0.000002697398,0.000002697398,0.99999994,0,0,0,0,0,0,0,1,0,0,0,false,false,true,-496.13998,-1912.4299,16.99,-0.003509315,-0.003266549,0.73866266,-0.6740581,-145.431,932.79095,8.541,0,-0.00030999997,-1.04511
213.41667,2000,0,91.24,0.000002697398,0.000002697398,0.000002697398,0.99999994,0,0,0,0,0,0,0,1,0,0,0,false,false,true,-497.34998,-1904.6599,16.99,-0.0035254993,-0.0032503647,0.7415889,-0.67083734,-143.621,932.631,8.541,0,-0.00030999997,-1.07411
213.425,2000,0,91.24,0.000002697398,0.000002697398,0.000002697398,0.99999994,0,0,0,0,0,0,0,1,0,0,0,false,false,true,-498.55,-1896.89,16.99,-0.0035416833,-0.0032341802,0.7445816,-0.6675141,-141.72101,932.46094,8.541,0,-0.00030999997,-1.10231
213.43333,2000,0,91.24,0.000002697398,0.000002697398,0.000002697398,0.99999994,0,0,0,0,0,0,0,1,0,0,0,false,false,true,-499.72998,-1889.12,16.99,-0.003557868,-0.0032179959,0.7476385,-0.6640884,-139.72101,932.28094,8.541,0,-0.00021,-1.12971
213.44167,2000,0,91.24,0.000002697398,0.000002697398,0.000002697398,0.99999994,0,0,0,0,0,0,0,1,0,0,0,false,false,true,-500.88998,-1881.35,16.99,-0.0035740524,-0.0032018116,0.75075763,-0.66056025,-137.631,932.09094,8.541,0,-0.00021,-1.15631
213.45,2000,0,91.24,0.000002697398,0.000002697398,0.000002697398,0.99999994,0,0,0,0,0,0,0,1,0,0,0,false,false,true,-502.03998,-1873.58,16.99,-0.003590237,-0.003185627,0.75393194,-0.6569349,-135.44101,931.881,8.541,0,-0.00021,-1.18221
213.45833,2000,0,91.24,0.000002697398,0.000002697398,0.000002697398,0.99999994,0,0,0,0,0,0,0,1,0,0,0,false,false,true,-503.16998,-1865.8099,16.99,-0.0036064212,-0.0031694428,0.7571593,-0.6532125,-133.16101,931.65094,8.541,0,-0.00021,-1.20731
213.46666,2000,0,91.24,0.000002697398,0.000002697398,0.000002697398,0.99999994,0,0,0,0,0,0,0,1,0,0,0,false,false,true,-504.28,-1858.0499,16.99,-0.0036226057,-0.0031532582,0.7604377,-0.64939296,-130.781,931.40094,8.541,0,-0.00021,-1.23171
213.475,2000,0,91.24,0.000002697398,0.000002697398,0.000002697398,0.99999994,0,0,0,0,0,0,0,1,0,0,0,false,false,true,-505.37,-1850.2899,16.99,-0.00363879,-0.0031316793,0.7637605,-0.6454817,-128.311,931.131,8.541,0,-0.00021,-1.2553099
213.48334,2000,0,91.24,0.000002697398,0.000002697398,0.000002697398,0.99999994,0,0,0,0,0,0,0,1,0,0,0,false,false,true,-506.44,-1842.5299,16.99,-0.0036549745,-0.0031101,0.76712567,-0.6414788,-125.751,930.83093,8.541,0,-0.00021,-1.2782099
213.49167,2000,0,91.24,0.000002697398,0.000002697398,0.000002697398,0.99999994,0,0,0,0,0,0,0,1,0,0,0,false,false,true,-507.49,-1834.77,16.99,-0.0036711588,-0.0030885208,0.7705312,-0.6373841,-123.090996,930.501,8.541,0,-0.00021,-1.30041
213.5,2000,0,91.24,0.000002697398,0.000002697398,0.000002697398,0.99999994,0,0,0,0,0,0,0,1,0,0,0,false,false,true,-508.52,-1827.02,16.99,-0.003687343,-0.0030669416,0.7739751,-0.6331977,-120.340996,930.1409,8.541,0,-0.00021,-1.32191
213.50833,2000,0,91.24,0.000002697398,0.000002697398,0.000002697398,0.99999994,0,0,0,0,0,0,0,1,0,0,0,false,false,true,-509.52,-1819.27,16.99,-0.0037035276,-0.0030453624,0.77745104,-0.628925,-117.501,929.751,8.541,0,-0.00021,-1.34271
213.51666,2000,0,91.24,0.000002697398,0.000002697398,0.000002697398,0.99999994,0,0,0,0,0,0,0,1,0,0,0,false,false,true,-510.5,-1811.52,16.99,-0.0037197114,-0.003023783,0.7809572,-0.6245659,-114.571,929.321,8.541,0,-0.00021,-1.36291
213.525,2000,0,91.24,0.000002697398,0.000002697398,0.000002697398,0.99999994,0,0,0,0,0,0,0,1,0,0,0,false,false,true,-511.44998,-1803.7799,16.99,-0.0037358964,-0.003002204,0.7844917,-0.62012064,-111.550995,928.85095,8.541,0,-0.00021,-1.3824099
213.53334,2000,0,91.24,0.000002697398,0.000002697398,0.000002697398,0.99999994,0,0,0,0,0,0,0,1,0,0,0,false,false,true,-512.38,-1796.0399,16.99,-0.0037520807,-0.0029806248,0.7880527,-0.615589,-108.451,928.34094,8.541,0,-0.00021,-1.40131
213.54167,2000,0,91.24,0.000002697398,0.000002697398,0.000002697398,0.99999994,0,0,0,0,0,0,0,1,0,0,0,false,false,true,-513.27997,-1788.2999,16.99,-0.0037682652,-0.0029590456,0.7916342,-0.61097646,-105.260994,927.79095,8.541,0,-0.00021,-1.41961
213.55,2000,0,91.24,0.000002697398,0.000002697398,0.000002697398,0.99999994,0,0,0,0,0,0,0,1,0,0,0,false,false,true,-514.16,-1780.57,16.99,-0.0037844495,-0.0029374664,0.7952345,-0.60628295,-101.991,927.191,8.541,0,-0.00030999997,-1.43721
213.55833,2000,0,91.24,0.000002697398,0.000002697398,0.000002697398,0.99999994,0,0,0,0,0,0,0,1,0,0,0,false,false,true,-515.01,-1772.84,16.99,-0.003800634,-0.0029158876,0.7988519,-0.6015086,-98.641,926.54095,8.541,0,-0.00030999997,-1.4542099
213.56667,2000,0,91.24,0.000002697398,0.000002697398,0.000002697398,0.99999994,0,0,0,0,0,0,0,1,0,0,0,false,false,true,-515.83,-1765.12,16.99,-0.0038168184,-0.0028943082,0.80248076,-0.59665865,-95.211,925.84094,8.541,0,-0.00040999998,-1.47061
213.575,2000,0,91.24,0.000002697398,0.000002697398,0.000002697398,0.99999994,0,0,0,0,0,0,0,1,0,0,0,false,false,true,-516.62,-1757.3999,16.99,-0.0038383976,-0.002867334,0.8061235,-0.5917278,-91.701,925.09094,8.541,0,-0.00040999998,-1.48641
213.58333,2000,0,91.24,0.000002697398,0.000002697398,0.000002697398,0.99999994,0,0,0,0,0,0,0,1,0,0,0,false,false,true,-517.38,-1749.69,16.99,-0.0038599768,-0.0028403602,0.80977464,-0.58672136,-88.111,924.28094,8.541,0,-0.00040999998,-1.5017099
213.59166,2000,0,91.24,0.000002697398,0.000002697398,0.000002697398,0.99999994,0,0,0,0,0,0,0,1,0,0,0,false,false,true,-518.11,-1741.99,16.99,-0.0038815557,-0.0028133863,0.81342864,-0.58164483,-84.451,923.41095,8.541,0,-0.00040999998,-1.51641
213.6,2000,0,91.24,0.000002697398,0.000002697398,0.000002697398,0.99999994,0,0,0,0,0,0,0,1,0,0,0,false,false,true,-518.81,-1734.2899,16.99,-0.003903135,-0.0027864121,0.81708807,-0.5764928,-80.721,922.49097,8.541,0,-0.00030999997,-1.53051
213.60834,2000,0,91.24,0.000002697398,0.000002697398,0.000002697398,0.99999994,0,0,0,0,0,0,0,1,0,0,0,false,false,true,-519.48,-1726.6,16.99,-0.0039193197,-0.0027594385,0.8207477,-0.5712707,-76.921,921.501,8.541,0,-0.00021,-1.54411
213.61667,2000,0,91.24,0.000002697398,0.000002697398,0.000002697398,0.99999994,0,0,0,0,0,0,0,1,0,0,0,false,false,true,-520.12,-1718.9199,16.99,-0.0039355042,-0.0027324643,0.82440615,-0.56597835,-73.061,920.4509,8.541,0,-0.00021,-1.55711
213.625,2000,0,91.24,0.000002697398,0.000002697398,0.000002697398,0.99999994,0,0,0,0,0,0,0,1,0,0,0,false,false,true,-520.73,-1711.25,16.99,-0.003951688,-0.0027054902,0.82806206,-0.56061584,-69.131,919.33093,8.541,0,-0.00021,-1.56961
213.63333,2000,0,91.24,0.000002697398,0.000002697398,0.000002697398,0.99999994,0,0,0,0,0,0,0,1,0,0,0,false,false,true,-521.31,-1703.59,16.99,-0.0039678724,-0.0026785163,0.8317106,-0.55518866,-65.141,918.15094,8.541,0,-0.00021,-1.58161
213.64166,2000,0,91.24,0.000002697398,0.000002697398,0.000002697398,0.99999994,0,0,0,0,0,0,0,1,0,0,0,false,false,true,-521.85,-1695.94,16.99,-0.003984057,-0.0026515422,0.8353505,-0.54969674,-61.100998,916.90094,8.541,0,-0.00021,-1.59311
213.65,2000,0,91.24,0.000002697398,0.000002697398,0.000002697398,0.99999994,0,0,0,0,0,0,0,1,0,0,0,false,false,true,-522.36,-1688.2999,16.99,-0.004000241,-0.0026245683,0.8389807,-0.54414004,-57.001,915.58093,8.541,0,-0.00021,-1.60411
213.65834,2000,0,91.24,0.000002697398,0.000002697398,0.000002697398,0.99999994,0,0,0,0,0,0,0,1,0,0,0,false,false,true,-522.83997,-1680.6699,16.99,-0.0040164255,-0.0025975944,0.8425999,-0.53851867,-52.850998,914.191,8.541,0,-0.00021,-1.61461
213.66667,2000,0,91.24,0.000002697398,0.000002697398,0.000002697398,0.99999994,0,0,0,0,0,0,0,1,0,0,0,false,false,true,-523.27997,-1673.0499,16.99,-0.00403261,-0.0025706203,0.8462037,-0.5328379,-48.650997,912.72095,8.541,0,-0.00030999997,-1.62461
213.675,2000,0,91.24,0.000002697398,0.000002697398,0.000002697398,0.99999994,0,0,0,0,0,0,0,1,0,0,0,false,false,true,-523.69,-1665.44,16.99,-0.0040487945,-0.0025436464,0.849791,-0.5270979,-44.400997,911.18097,8.541,0,-0.00030999997,-1.63411
213.68333,2000,0,91.24,0.000002697398,0.000002697398,0.000002697398,0.99999994,0,0,0,0,0,0,0,1,0,0,0,false,false,true,-524.06,-1657.85,16.99,-0.0040649786,-0.0025166722,0.853361,-0.5212984,-40.111,909.561,8.541,0,-0.00030999997,-1.6431099
213.69167,2000,0,91.24,0.000002697398,0.000002697398,0.000002697398,0.99999994,0,0,0,0,0,0,0,1,0,0,0,false,false,true,-524.39,-1650.27,16.99,-0.004081163,-0.0024896984,0.8569093,-0.515445,-35.781,907.86096,8.541,0,-0.00040999998,-1.65161
213.7,2000,0,91.24,0.000002697398,0.000002697398,0.000002697398,0.99999994,0,0,0,0,0,0,0,1,0,0,0,false,false,true,-524.69,-1642.7,16.99,-0.004097348,-0.0024627247,0.860435,-0.50953776,-31.421,906.09094,8.541,0,-0.00040999998,-1.6596099
213.70833,2000,0,91.24,0.000002697398,0.000002697398,0.000002697398,0.99999994,0,0,0,0,0,0,0,1,0,0,0,false,false,true,-524.95,-1635.15,16.99,-0.004113532,-0.0024357506,0.8639374,-0.5035765,-27.020998,904.24097,8.541,0,-0.00040999998,-1.66721
213.71666,2000,0,91.24,0.000002697398,0.000002697398,0.000002697398,0.99999994,0,0,0,0,0,0,0,1,0,0,0,false,false,true,-525.18,-1627.61,16.99,-0.004129716,-0.0024087764,0.8674156,-0.49756125,-22.591,902.311,8.541,0,-0.00051,-1.67431
213.725,2000,0,91.24,0.000002697398,0.000002697398,0.000002697398,0.99999994,0,0,0,0,0,0,0,1,0,0,0,false,false,true,-525.37,-1620.09,16.99,-0.004145901,-0.0023764079,0.8708659,-0.4914975,-18.130999,900.30096,8.541,0,-0.00051,-1.68091
213.73334,2000,0,91.24,0.000002697398,0.000002697398,0.000002697398,0.99999994,0,0,0,0,0,0,0,1,0,0,0,false,false,true,-525.51996,-1612.59,16.99,-0.0041620852,-0.0023440388,0.8742873,-0.48538515,-13.651,898.21094,8.541,0,-0.00051,-1.68711
213.74167,2000,0,91.24,0.000002697398,0.000002697398,0.000002697398,0.99999994,0,0,0,0,0,0,0,1,0,0,0,false,false,true,-525.63,-1605.1,16.99,-0.0041782698,-0.0023116702,0.8776765,-0.47922972,-9.151,896.03094,8.541,0,-0.00051,-1.6928099
213.75,2000,0,91.24,0.000002697398,0.000002697398,0.000002697398,0.99999994,0,0,0,0,0,0,0,1,0,0,0,false,false,true,-525.70996,-1597.63,16.99,-0.004194454,-0.0022793014,0.8810357,-0.47302562,-4.631,893.77094,8.541,0,-0.00051,-1.69811
213.75833,2000,0,91.24,0.000002697398,0.000002697398,0.000002697398,0.99999994,0,0,0,0,0,0,0,1,0,0,0,false,false,true,-525.75,-1590.1799,16.99,-0.0042106383,-0.0022469326,0.8843613,-0.46677843,-0.100999996,891.43097,8.541,0.00010999999,-0.00051,-1.70301
213.76666,2000,0,91.24,0.000002697398,0.000002697398,0.000002697398,0.99999994,0,0,0,0,0,0,0,1,0,0,0,false,false,true,-525.75,-1582.75,16.99,-0.0042268224,-0.0022145638,0.8876502,-0.46049348,4.4309998,889.011,8.541,0.00010999999,-0.00051,-1.70741
213.775,2000,0,91.24,0.000002697398,0.000002697398,0.000002697398,0.99999994,0,0,0,0,0,0,0,1,0,0,0,false,false,true,-525.70996,-1575.34,16.99,-0.0042430074,-0.0021821952,0.8909046,-0.45416537,8.971001,886.511,8.541,0.00010999999,-0.00051,-1.7114099
213.78334,2000,0,91.24,0.000002697398,0.000002697398,0.000002697398,0.99999994,0,0,0,0,0,0,0,1,0,0,0,false,false,true,-525.64,-1567.95,16.99,-0.0042591915,-0.0021498261,0.8941212,-0.44779944,13.521,883.92096,8.541,0.00010999999,-0.00051,-1.7150099
213.79167,2000,0,91.24,0.000002697398,0.000002697398,0.000002697398,0.99999994,0,0,0,0,0,0,0,1,0,0,0,false,false,true,-525.52997,-1560.58,16.99,-0.004275376,-0.0021174573,0.8972971,-0.4414012,18.071,881.251,8.541,0.00021,-0.00051,-1.71821
213.8,2000,0,91.24,0.000002697398,0.000002697398,0.000002697398,0.99999994,0,0,0,0,0,0,0,1,0,0,0,false,false,true,-525.38,-1553.24,16.99,-0.0042915605,-0.0020850888,0.90043455,-0.43496525,22.620998,878.501,8.541,0.00021,-0.00051,-1.72101
213.80833,2000,0,91.24,0.000002697398,0.000002697398,0.000002697398,0.99999994,0,0,0,0,0,0,0,1,0,0,0,false,false,true,-525.19,-1545.9199,16.99,-0.004307745,-0.0020527202,0.90353066,-0.42849684,27.161,875.67096,8.541,0.00021,-0.00051,-1.72331
213.81667,2000,0,91.24,0.000002697398,0.000002697398,0.000002697398,0.99999994,0,0,0,0,0,0,0,1,0,0,0,false,false,true,-524.95996,-1538.62,16.99,-0.004323929,-0.0020203511,0.90658504,-0.42199606,31.700998,872.761,8.541,0.00021,-0.00051,-1.72521
