time,ball_loc_x,ball_loc_y,ball_loc_z,ball_rot_x,ball_rot_y,ball_rot_z,ball_rot_w,ball_vel_x,ball_vel_y,ball_vel_z,ball_ang_x,ball_ang_y,ball_ang_z,player0_throttle,player0_steer,player0_pitch,player0_yaw,player0_roll,player0_jump,player0_boost,player0_handbrake,player0_loc_x,player0_loc_y,player0_loc_z,player0_rot_x,player0_rot_y,player0_rot_z,player0_rot_w,player0_vel_x,player0_vel_y,player0_vel_z,player0_ang_x,player0_ang_y,player0_ang_z
194.025,2000,0,73,0.000002697398,0.000002697398,0.000002697398,0.99999994,0,0,0,0,0,0,0,0,0,0,0,false,false,false,0,0,16.94,0.0000026973983,0.0000026973983,0.70710677,0.70710677,0,0,2.041,-0.050809998,0,0
194.03334,2000,0,87.6,0.000002697398,0.000002697398,0.000002697398,0.99999994,0,0,0,0,0,0,1,0,0,0,0,false,true,false,0,0.07,16.89,-0.00014835689,0.00015375168,0.7071067,0.7071067,0,21.521,3.8809998,-0.085609995,0,0
194.04167,2000,0,90.52,0.000002697398,0.000002697398,0.000002697398,0.99999994,0,0,0,0,0,0,1,0,0,0,0,false,true,false,0,0.32,16.85,-0.00040191234,0.00040730715,0.70710653,0.70710677,0,42.861,5.481,-0.107209995,0,0
194.05,2000,0,91.1,0.000002697398,0.000002697398,0.000002697398,0.99999994,0,0,0,0,0,0,1,0,0,0,0,false,true,false,0,0.75,16.83,-0.00072020525,0.00072560005,0.7071067,0.707106,0,64.011,6.7809997,-0.11630999,0,0
194.05833,2000,0,91.22,0.000002697398,0.000002697398,0.000002697398,0.99999994,0,0,0,0,0,0,1,0,0,0,0,false,true,false,0,1.35,16.82,-0.0010654721,0.001070867,0.70710516,0.7071067,0,84.980995,7.7209997,-0.114609994,0,0
194.06667,2000,0,91.24,0.000002697398,0.000002697398,0.000002697398,0.99999994,0,0,0,0,0,0,1,0,0,0,0,false,true,false,0,2.1299999,16.82,-0.0014053443,0.0014107391,0.7071067,0.70710397,0,105.770996,8.401,-0.10651,0,0
194.075,2000,0,91.24,0.000002697398,0.000002697398,0.000002697398,0.99999994,0,0,0,0,0,0,1,0,0,0,0,false,true,false,0,3.08,16.82,-0.0017182427,0.0017236375,0.707108,0.70710135,0,126.391,8.8810005,-0.09501,0,0
194.08333,2000,0,91.24,0.000002697398,0.000002697398,0.000002697398,0.99999994,0,0,0,0,0,0,1,0,0,0,0,false,true,false,0,4.2,16.83,-0.001998772,0.0020041666,0.70710653,0.7071013,0,146.83101,9.231,-0.08221,0,0
194.09166,2000,0,91.24,0.000002697398,0.000002697398,0.000002697398,0.99999994,0,0,0,0,0,0,1,0,0,0,0,false,true,false,0,5.49,16.84,-0.0022415377,0.0022469326,0.70710504,0.7071013,0,167.091,9.451,-0.069409996,0,0
194.1,2000,0,91.24,0.000002697398,0.000002697398,0.000002697398,0.99999994,0,0,0,0,0,0,1,0,0,0,0,false,true,false,0,6.95,16.85,-0.00244654,0.0024519349,0.70710367,0.7071013,0,187.181,9.591001,-0.057309996,0,0
194.10834,2000,0,91.24,0.000002697398,0.000002697398,0.000002697398,0.99999994,0,0,0,0,0,0,1,0,0,0,0,false,true,false,0,8.58,16.859999,-0.0026137787,0.0026191734,0.7071025,0.7071013,0,207.101,9.6710005,-0.046409998,0,0
194.11667,2000,0,91.24,0.000002697398,0.000002697398,0.000002697398,0.99999994,0,0,0,0,0,0,1,0,0,0,0,false,true,false,0,10.37,16.869999,-0.0027486486,0.0027540433,0.70710146,0.7071013,0,226.851,9.711,-0.03701,0,0
194.125,2000,0,91.24,0.000002697398,0.000002697398,0.000002697398,0.99999994,0,0,0,0,0,0,1,0,0,0,0,false,true,false,0,12.33,16.88,-0.0028565445,0.0028619394,0.70710063,0.7071013,0,246.431,9.721,-0.02911,0,0
194.13333,2000,0,91.24,0.000002697398,0.000002697398,0.000002697398,0.99999994,0,0,0,0,0,0,1,0,0,0,0,false,true,false,0,14.45,16.89,-0.0029428613,0.002948256,0.7071013,0.7070999,0,265.841,9.701,-0.02261,0,0
194.14166,2000,0,91.24,0.000002697398,0.000002697398,0.000002697398,0.99999994,0,0,0,0,0,0,1,0,0,0,0,false,true,false,0,16.73,16.9,-0.003007599,0.0030129936,0.7070993,0.7071013,0,285.081,9.641,-0.01791,0,0
194.15,2000,0,91.24,0.000002697398,0.000002697398,0.000002697398,0.99999994,0,0,0,0,0,0,1,0,0,0,0,false,true,false,0,19.17,16.91,-0.0030615467,0.0030669416,0.7071013,0.7070989,0,304.161,9.561,-0.014409999,0,0
194.15834,2000,0,91.24,0.000002697398,0.000002697398,0.000002697398,0.99999994,0,0,0,0,0,0,1,0,0,0,0,false,true,false,0,21.77,16.92,-0.0031047051,0.0031101,0.7070985,0.7071013,0,323.081,9.471,-0.011809999,0,0
194.16667,2000,0,91.24,0.000002697398,0.000002697398,0.000002697398,0.99999994,0,0,0,0,0,0,1,0,0,0,0,false,true,false,0,24.529999,16.93,-0.003137074,0.0031424686,0.7070959,0.7071036,0,341.831,9.371,-0.00981,0,0
194.175,2000,0,91.24,0.000002697398,0.000002697398,0.000002697398,0.99999994,0,0,0,0,0,0,1,0,0,0,0,false,true,false,0,27.449999,16.94,-0.003164048,0.003169443,0.707096,0.7071034,0,360.421,9.271,-0.0083099995,0,0
194.18333,2000,0,91.24,0.000002697398,0.000002697398,0.000002697398,0.99999994,0,0,0,0,0,0,1,0,0,0,0,false,true,false,0,30.519999,16.949999,-0.003191022,0.0031964167,0.7070959,0.70710313,0,378.851,9.161,-0.00711,0,0
194.19167,2000,0,91.24,0.000002697398,0.000002697398,0.000002697398,0.99999994,0,0,0,0,0,0,1,0,0,0,0,false,true,false,0,33.75,16.96,-0.0032126014,0.003217996,0.707096,0.70710295,0,397.131,9.051001,-0.00601,0,0
194.2,2000,0,91.24,0.000002697398,0.000002697398,0.000002697398,0.99999994,0,0,0,0,0,0,1,0,0,0,0,false,true,false,0,37.13,16.97,-0.0032287855,0.0032341804,0.7070959,0.7071028,0,415.251,8.941,-0.00521,0,0
194.20833,2000,0,91.24,0.000002697398,0.000002697398,0.000002697398,0.99999994,0,0,0,0,0,0,1,0,0,0,0,false,true,false,0,40.66,16.98,-0.00324497,0.003250365,0.707096,0.70710266,0,433.211,8.831,-0.00451,0,0
194.21666,2000,0,91.24,0.000002697398,0.000002697398,0.000002697398,0.99999994,0,0,0,0,0,0,1,0,0,0,0,false,true,false,0,44.34,16.99,-0.0032557594,0.0032611543,0.7070959,0.70710254,0,451.021,8.721001,-0.00391,0,0
194.225,2000,0,91.24,0.000002697398,0.000002697398,0.000002697398,0.99999994,0,0,0,0,0,0,1,0,0,0,0,false,true,false,0,48.17,16.99,-0.003266549,0.003271944,0.7070959,0.7071024,0,468.681,8.601,-0.00341,0,0
194.23334,2000,0,91.24,0.000002697398,0.000002697398,0.000002697398,0.99999994,0,0,0,0,0,0,1,0,0,0,0,false,true,false,0,52.14,16.99,-0.0032773386,0.0032827335,0.7070959,0.7071023,0,486.191,8.531,-0.00301,0,0
194.24167,2000,0,91.24,0.000002697398,0.000002697398,0.000002697398,0.99999994,0,0,0,0,0,0,1,0,0,0,0,false,true,false,0,56.26,16.99,-0.0032881282,0.003293523,0.7070959,0.70710224,0,503.541,8.481,-0.00271,0,0
194.25,2000,0,91.24,0.000002697398,0.000002697398,0.000002697398,0.99999994,0,0,0,0,0,0,1,0,0,0,0,false,true,false,0,60.53,16.99,-0.0032935233,0.003298918,0.707096,0.7071022,0,520.751,8.451,-0.00241,0,0
194.25833,2000,0,91.24,0.000002697398,0.000002697398,0.000002697398,0.99999994,0,0,0,0,0,0,1,0,0,0,0,false,true,false,0,64.939995,16.99,-0.0032989178,0.0033043127,0.7070959,0.7071021,0,537.811,8.431,-0.00211,0,0
194.26666,2000,0,91.24,0.000002697398,0.000002697398,0.000002697398,0.99999994,0,0,0,0,0,0,1,0,0,0,0,false,true,false,0,69.49,16.99,-0.0033043127,0.0033097074,0.7070959,0.70710206,0,554.72095,8.4210005,-0.0019099999,0,0
194.275,2000,0,91.24,0.000002697398,0.000002697398,0.000002697398,0.99999994,0,0,0,0,0,0,1,0,0,0,0,false,true,false,0,74.18,16.99,-0.0033097074,0.0033151023,0.7070959,0.707102,0,571.49097,8.411,-0.0017099999,0,0
194.28334,2000,0,91.24,0.000002697398,0.000002697398,0.000002697398,0.99999994,0,0,0,0,0,0,1,0,0,0,0,false,true,false,0,79.009995,16.99,-0.0033151023,0.003320497,0.7070959,0.707102,0,588.11096,8.411,-0.00151,0,0
194.29167,2000,0,91.24,0.000002697398,0.000002697398,0.000002697398,0.99999994,0,0,0,0,0,0,1,0,0,0,0,false,true,false,0,83.979996,16.99,-0.0033204972,0.0033258921,0.707096,0.70710194,0,604.59094,8.411,-0.0014099999,0,0
194.3,2000,0,91.24,0.000002697398,0.000002697398,0.000002697398,0.99999994,0,0,0,0,0,0,1,0,0,0,0,false,true,false,0,89.09,16.99,-0.003325892,0.0033312866,0.7070959,0.7071019,0,620.93097,8.411,-0.0012099999,0,0
194.30833,2000,0,91.24,0.000002697398,0.000002697398,0.000002697398,0.99999994,0,0,0,0,0,0,1,0,0,0,0,false,true,false,0,94.329994,16.99,-0.0033312866,0.0033366815,0.7070959,0.7071018,0,637.131,8.411,-0.00111,0,0
194.31667,2000,0,91.24,0.000002697398,0.000002697398,0.000002697398,0.99999994,0,0,0,0,0,0,1,0,0,0,0,false,true,false,0,99.71,16.99,-0.0033366815,0.0033420762,0.7070959,0.70710176,0,653.191,8.411,-0.00091,0,0
194.325,2000,0,91.24,0.000002697398,0.000002697398,0.000002697398,0.99999994,0,0,0,0,0,0,1,0,0,0,0,false,true,false,0,105.22,16.99,-0.0033366818,0.0033474711,0.707096,0.70710176,0,669.11096,8.411,-0.00081,0,0
194.33333,2000,0,91.24,0.000002697398,0.000002697398,0.000002697398,0.99999994,0,0,0,0,0,0,1,0,0,0,0,false,true,false,0,110.86,16.99,-0.0033366818,0.0033474711,0.707096,0.70710176,0,684.90094,8.411,-0.00071,0,0
194.34166,2000,0,91.24,0.000002697398,0.000002697398,0.000002697398,0.99999994,0,0,0,0,0,0,1,0,0,0,0,false,true,false,0,116.64,16.99,-0.0033366818,0.0033474711,0.707096,0.70710176,0,700.55096,8.411,-0.00061,0,0
194.35,2000,0,91.24,0.000002697398,0.000002697398,0.000002697398,0.99999994,0,0,0,0,0,0,1,0,0,0,0,false,true,false,0,122.549995,16.99,-0.0033366818,0.0033474711,0.707096,0.70710176,0,716.071,8.411,-0.00061,0,0
194.35834,2000,0,91.24,0.000002697398,0.000002697398,0.000002697398,0.99999994,0,0,0,0,0,0,1,0,0,0,0,false,true,false,0,128.59,16.99,-0.0033366818,0.0033474711,0.707096,0.70710176,0,731.451,8.411,-0.00061,0,0
194.36667,2000,0,91.24,0.000002697398,0.000002697398,0.000002697398,0.99999994,0,0,0,0,0,0,1,0,0,0,0,false,true,false,0,134.75,16.99,-0.0033366818,0.0033474711,0.707096,0.70710176,0,746.701,8.411,-0.00061,0,0
194.375,2000,0,91.24,0.000002697398,0.000002697398,0.000002697398,0.99999994,0,0,0,0,0,0,1,0,0,0,0,false,true,false,0,141.04,16.99,-0.0033366818,0.0033474711,0.707096,0.70710176,0,761.821,8.411,-0.00061,0,0
194.38333,2000,0,91.24,0.000002697398,0.000002697398,0.000002697398,0.99999994,0,0,0,0,0,0,1,0,0,0,0,false,true,false,0,147.45999,16.99,-0.0033366818,0.0033474711,0.707096,0.70710176,0,776.811,8.411,-0.00061,0,0
194.39166,2000,0,91.24,0.000002697398,0.000002697398,0.000002697398,0.99999994,0,0,0,0,0,0,1,0,0,0,0,false,true,false,0,154,16.99,-0.0033366818,0.0033474711,0.707096,0.70710176,0,791.67096,8.411,-0.00061,0,0
194.4,2000,0,91.24,0.000002697398,0.000002697398,0.000002697398,0.99999994,0,0,0,0,0,0,1,0,0,0,0,false,true,false,0,160.67,16.99,-0.0033366818,0.0033474711,0.707096,0.70710176,0,806.41095,8.411,-0.00061,0,0
194.40834,2000,0,91.24,0.000002697398,0.000002697398,0.000002697398,0.99999994,0,0,0,0,0,0,1,0,0,0,0,false,true,false,0,167.45999,16.99,-0.0033366818,0.0033474711,0.707096,0.70710176,0,821.02094,8.411,-0.00061,0,0
194.41667,2000,0,91.24,0.000002697398,0.000002697398,0.000002697398,0.99999994,0,0,0,0,0,0,1,0,0,0,0,false,true,false,0,174.37,16.99,-0.0033366818,0.0033474711,0.707096,0.70710176,0,835.501,8.411,-0.00061,0,0
194.425,2000,0,91.24,0.000002697398,0.000002697398,0.000002697398,0.99999994,0,0,0,0,0,0,1,0,0,0,0,false,true,false,0,181.4,16.99,-0.0033366818,0.0033474711,0.707096,0.70710176,0,849.86096,8.411,-0.00071,0,0
194.43333,2000,0,91.24,0.000002697398,0.000002697398,0.000002697398,0.99999994,0,0,0,0,0,0,1,0,0,0,0,false,true,false,0,188.55,16.99,-0.0033366818,0.0033474711,0.707096,0.70710176,0,864.10095,8.411,-0.00071,0,0
194.44167,2000,0,91.24,0.000002697398,0.000002697398,0.000002697398,0.99999994,0,0,0,0,0,0,1,0,0,0,0,false,true,false,0,195.81999,16.99,-0.0033366818,0.0033474711,0.707096,0.70710176,0,878.22095,8.411,-0.00071,0,0
194.45,2000,0,91.24,0.000002697398,0.000002697398,0.000002697398,0.99999994,0,0,0,0,0,0,1,0,0,0,0,false,true,false,0,203.20999,16.99,-0.0033366818,0.0033474711,0.707096,0.70710176,0,892.21094,8.411,-0.00071,0,0
194.45833,2000,0,91.24,0.000002697398,0.000002697398,0.000002697398,0.99999994,0,0,0,0,0,0,1,0,0,0,0,false,true,false,0,210.70999,16.99,-0.0033366818,0.0033474711,0.707096,0.70710176,0,906.08093,8.411,-0.00071,0,0
194.46666,2000,0,91.24,0.000002697398,0.000002697398,0.000002697398,0.99999994,0,0,0,0,0,0,1,0,0,0,0,false,true,false,0,218.33,16.99,-0.0033366818,0.0033474711,0.707096,0.70710176,0,919.84094,8.411,-0.00071,0,0
194.475,2000,0,91.24,0.000002697398,0.000002697398,0.000002697398,0.99999994,0,0,0,0,0,0,1,0,0,0,0,false,true,false,0,226.06,16.99,-0.0033366818,0.0033474711,0.707096,0.70710176,0,933.48096,8.411,-0.00081,0,0
194.48334,2000,0,91.24,0.000002697398,0.000002697398,0.000002697398,0.99999994,0,0,0,0,0,0,1,0,0,0,0,false,true,false,0,233.90999,16.99,-0.0033366818,0.0033474711,0.707096,0.70710176,0,947.001,8.411,-0.00081,0,0
194.49167,2000,0,91.24,0.000002697398,0.000002697398,0.000002697398,0.99999994,0,0,0,0,0,0,1,0,0,0,0,false,true,false,0,241.87,16.99,-0.0033366818,0.0033474711,0.707096,0.70710176,0,960.41095,8.411,-0.00081,0,0
194.5,2000,0,91.24,0.000002697398,0.000002697398,0.000002697398,0.99999994,0,0,0,0,0,0,1,0,0,0,0,false,true,false,0,249.93999,16.99,-0.0033366818,0.0033474711,0.707096,0.70710176,0,973.7009,8.411,-0.00081,0,0
194.50833,2000,0,91.24,0.000002697398,0.000002697398,0.000002697398,0.99999994,0,0,0,0,0,0,1,0,0,0,0,false,true,false,0,258.12,16.99,-0.0033366818,0.0033474711,0.707096,0.70710176,0,986.881,8.411,-0.00081,0,0
194.51666,2000,0,91.24,0.000002697398,0.000002697398,0.000002697398,0.99999994,0,0,0,0,0,0,1,0,0,0,0,false,true,false,0,266.41,16.99,-0.0033366818,0.0033474711,0.707096,0.70710176,0,999.941,8.411,-0.00081,0,0
194.525,2000,0,91.24,0.000002697398,0.000002697398,0.000002697398,0.99999994,0,0,0,0,0,0,1,0,0,0,0,false,true,false,0,274.81,16.99,-0.0033366818,0.0033474711,0.707096,0.70710176,0,1012.8909,8.411,-0.00081,0,0
194.53334,2000,0,91.24,0.000002697398,0.000002697398,0.000002697398,0.99999994,0,0,0,0,0,0,1,0,0,0,0,false,true,false,0,283.32,16.99,-0.0033366818,0.0033474711,0.707096,0.70710176,0,1025.731,8.411,-0.00091,0,0
194.54167,2000,0,91.24,0.000002697398,0.000002697398,0.000002697398,0.99999994,0,0,0,0,0,0,1,0,0,0,0,false,true,false,0,291.94,16.99,-0.0033366815,0.0033528658,0.7070959,0.7071017,0,1038.4609,8.411,-0.00091,0,0
194.55,2000,0,91.24,0.000002697398,0.000002697398,0.000002697398,0.99999994,0,0,0,0,0,0,1,0,0,0,0,false,true,false,0,300.66,16.99,-0.0033366815,0.0033582605,0.7070959,0.7071017,0,1051.0809,8.411,-0.00091,0,0
194.55833,2000,0,91.24,0.000002697398,0.000002697398,0.000002697398,0.99999994,0,0,0,0,0,0,1,0,0,0,0,false,true,false,0,309.49,16.99,-0.0033366815,0.0033636554,0.7070959,0.70710164,0,1063.591,8.411,-0.00081,-0.00010999999,0
194.56667,2000,0,91.24,0.000002697398,0.000002697398,0.000002697398,0.99999994,0,0,0,0,0,0,1,0,0,0,0,false,true,false,0,318.41998,16.99,-0.0033366815,0.0033636554,0.7070959,0.70710164,0,1076.001,8.411,-0.00081,-0.00021,0
194.575,2000,0,91.24,0.000002697398,0.000002697398,0.000002697398,0.99999994,0,0,0,0,0,0,1,0,0,0,0,false,true,false,0,327.46,16.99,-0.0033420762,0.0033636554,0.7070959,0.70710164,0,1088.3009,8.411,-0.00081,-0.00021,0
194.58333,2000,0,91.24,0.000002697398,0.000002697398,0.000002697398,0.99999994,0,0,0,0,0,0,1,0,0,0,0,false,true,false,0,336.6,16.99,-0.0033474711,0.0033636556,0.707096,0.70710164,0,1100.491,8.411,-0.00071,-0.00021,0
194.59166,2000,0,91.24,0.000002697398,0.000002697398,0.000002697398,0.99999994,0,0,0,0,0,0,1,0,0,0,0,false,true,false,0,345.84,16.99,-0.0033474711,0.0033636556,0.707096,0.70710164,0,1112.5809,8.411,-0.00061,-0.00021,0
194.6,2000,0,91.24,0.000002697398,0.000002697398,0.000002697398,0.99999994,0,0,0,0,0,0,1,0,0,0,0,false,true,false,0,355.18,16.99,-0.0033474711,0.0033636556,0.707096,0.70710164,0,1124.5709,8.411,-0.00061,-0.00021,0
194.60834,2000,0,91.24,0.000002697398,0.000002697398,0.000002697398,0.99999994,0,0,0,0,0,0,1,0,0,0,0,false,true,false,0,364.62,16.99,-0.0033474711,0.0033636556,0.707096,0.70710164,0,1136.4509,8.411,-0.00061,-0.00021,0
194.61667,2000,0,91.24,0.000002697398,0.000002697398,0.000002697398,0.99999994,0,0,0,0,0,0,1,0,0,0,0,false,true,false,0,374.16,16.99,-0.0033474711,0.0033636556,0.707096,0.70710164,0,1148.231,8.411,-0.00061,-0.00021,0
194.625,2000,0,91.24,0.000002697398,0.000002697398,0.000002697398,0.99999994,0,0,0,0,0,0,1,0,0,0,0,false,true,false,0,383.8,16.99,-0.0033474711,0.0033636556,0.707096,0.70710164,0,1159.911,8.411,-0.00061,-0.00021,0
194.63333,2000,0,91.24,0.000002697398,0.000002697398,0.000002697398,0.99999994,0,0,0,0,0,0,1,0,0,0,0,false,true,false,0,393.53,16.99,-0.0033474711,0.0033636556,0.707096,0.70710164,0,1171.491,8.411,-0.00061,-0.00021,0
194.64166,2000,0,91.24,0.000002697398,0.000002697398,0.000002697398,0.99999994,0,0,0,0,0,0,1,0,0,0,0,false,true,false,0,403.36,16.99,-0.0033474711,0.0033636556,0.707096,0.70710164,0,1182.971,8.411,-0.00061,-0.00021,0
194.65,2000,0,91.24,0.000002697398,0.000002697398,0.000002697398,0.99999994,0,0,0,0,0,0,1,0,0,0,0,false,true,false,0,413.28998,16.99,-0.0033474711,0.0033636556,0.707096,0.70710164,0,1194.351,8.411,-0.00061,-0.00021,0
194.65834,2000,0,91.24,0.000002697398,0.000002697398,0.000002697398,0.99999994,0,0,0,0,0,0,1,0,0,0,0,false,true,false,0,423.31,16.99,-0.0033474711,0.0033636556,0.707096,0.70710164,0,1205.641,8.411,-0.00061,-0.00021,0
194.66667,2000,0,91.24,0.000002697398,0.000002697398,0.000002697398,0.99999994,0,0,0,0,0,0,1,0,0,0,0,false,true,false,0,433.43,16.99,-0.0033474711,0.0033636556,0.707096,0.70710164,0,1216.8309,8.411,-0.00061,-0.00021,0
194.675,2000,0,91.24,0.000002697398,0.000002697398,0.000002697398,0.99999994,0,0,0,0,0,0,1,0,0,0,0,false,true,false,0,443.63998,16.99,-0.0033474711,0.0033636556,0.707096,0.70710164,0,1227.9209,8.411,-0.00071,-0.00021,0
194.68333,2000,0,91.24,0.000002697398,0.000002697398,0.000002697398,0.99999994,0,0,0,0,0,0,1,0,0,0,0,false,true,false,0,453.94,16.99,-0.0033474711,0.0033636556,0.707096,0.70710164,0,1238.9209,8.411,-0.00071,-0.00021,0
194.69167,2000,0,91.24,0.000002697398,0.000002697398,0.000002697398,0.99999994,0,0,0,0,0,0,1,0,0,0,0,false,true,false,0,464.33,16.99,-0.0033474711,0.0033636556,0.707096,0.70710164,0,1249.8209,8.411,-0.00071,-0.00021,0
194.7,2000,0,91.24,0.000002697398,0.000002697398,0.000002697398,0.99999994,0,0,0,0,0,0,1,0,0,0,0,false,true,false,0,474.81,16.99,-0.0033474711,0.0033636556,0.707096,0.70710164,0,1260.631,8.411,-0.00071,-0.00021,0
194.70833,2000,0,91.24,0.000002697398,0.000002697398,0.000002697398,0.99999994,0,0,0,0,0,0,1,0,0,0,0,false,true,false,0,485.37997,16.99,-0.0033474711,0.0033636556,0.707096,0.70710164,0,1271.351,8.411,-0.00071,-0.00021,0
194.71666,2000,0,91.24,0.000002697398,0.000002697398,0.000002697398,0.99999994,0,0,0,0,0,0,1,0,0,0,0,false,true,false,0,496.03998,16.99,-0.0033474711,0.0033636556,0.707096,0.70710164,0,1281.981,8.411,-0.00071,-0.00021,0
194.725,2000,0,91.24,0.000002697398,0.000002697398,0.000002697398,0.99999994,0,0,0,0,0,0,1,0,0,0,0,false,true,false,0,506.78998,16.99,-0.0033474711,0.0033636556,0.707096,0.70710164,0,1292.511,8.411,-0.00071,-0.00021,0
194.73334,2000,0,91.24,0.000002697398,0.000002697398,0.000002697398,0.99999994,0,0,0,0,0,0,1,0,0,0,0,false,true,false,0,517.63,16.99,-0.0033474711,0.0033636556,0.707096,0.70710164,0,1302.9509,8.411,-0.00071,-0.00021,0
194.74167,2000,0,91.24,0.000002697398,0.000002697398,0.000002697398,0.99999994,0,0,0,0,0,0,1,0,0,0,0,false,true,false,0,528.56,16.99,-0.0033474711,0.0033636556,0.707096,0.70710164,0,1313.3009,8.411,-0.00081,-0.00021,0
194.75,2000,0,91.24,0.000002697398,0.000002697398,0.000002697398,0.99999994,0,0,0,0,0,0,1,0,0,0,0,false,true,false,0,539.57,16.99,-0.0033528658,0.0033636554,0.7070959,0.7071016,0,1323.5709,8.411,-0.00081,-0.00021,0
194.75833,2000,0,91.24,0.000002697398,0.000002697398,0.000002697398,0.99999994,0,0,0,0,0,0,1,0,0,0,0,false,true,false,0,550.67,16.99,-0.0033582605,0.0033636554,0.7070959,0.7071016,0,1333.751,8.411,-0.00081,-0.00010999999,0
194.76666,2000,0,91.24,0.000002697398,0.000002697398,0.000002697398,0.99999994,0,0,0,0,0,0,1,0,0,0,0,false,true,false,0,561.85,16.99,-0.0033582605,0.0033636554,0.7070959,0.7071016,0,1343.841,8.411,-0.00071,0,0
194.775,2000,0,91.24,0.000002697398,0.000002697398,0.000002697398,0.99999994,0,0,0,0,0,0,1,0,0,0,0,false,true,false,0,573.12,16.99,-0.0033582605,0.0033636554,0.7070959,0.7071016,0,1353.841,8.411,-0.00071,0,0
194.78334,2000,0,91.24,0.000002697398,0.000002697398,0.000002697398,0.99999994,0,0,0,0,0,0,1,0,0,0,0,false,true,false,0,584.47,16.99,-0.0033582605,0.0033636554,0.7070959,0.7071016,0,1363.761,8.411,-0.00071,0,0
194.79167,2000,0,91.24,0.000002697398,0.000002697398,0.000002697398,0.99999994,0,0,0,0,0,0,1,0,0,0,0,false,true,false,0,595.89996,16.99,-0.0033582605,0.0033636554,0.7070959,0.7071016,0,1373.591,8.411,-0.00071,0,0
194.8,2000,0,91.24,0.000002697398,0.000002697398,0.000002697398,0.99999994,0,0,0,0,0,0,1,0,0,0,0,false,true,false,0,607.42,16.99,-0.0033582605,0.0033636554,0.7070959,0.7071016,0,1383.341,8.411,-0.00071,0,0
194.80833,2000,0,91.24,0.000002697398,0.000002697398,0.000002697398,0.99999994,0,0,0,0,0,0,1,0,0,0,0,false,true,false,0,619.01996,16.99,-0.0033582605,0.0033636554,0.7070959,0.7071016,0,1393.011,8.411,-0.00071,0,0
194.81667,2000,0,91.24,0.000002697398,0.000002697398,0.000002697398,0.99999994,0,0,0,0,0,0,1,0,0,0,0,false,true,false,0,630.7,16.99,-0.0033582605,0.0033636554,0.7070959,0.7071016,0,1402.4409,8.411,-0.00071,0,0
194.825,2000,0,91.24,0.000002697398,0.000002697398,0.000002697398,0.99999994,0,0,0,0,0,0,1,0,0,0,0,false,true,false,0,642.45996,16.99,-0.0033582605,0.0033636554,0.7070959,0.7071016,0,1410.7009,8.411,-0.00081,0,0
194.83333,2000,0,91.24,0.000002697398,0.000002697398,0.000002697398,0.99999994,0,0,0,0,0,0,1,0,0,0,0,false,true,false,0,654.27997,16.99,-0.0033582605,0.0033636554,0.7070959,0.7071016,0,1418.9609,8.411,-0.00091,0,0
194.84166,2000,0,91.24,0.000002697398,0.000002697398,0.000002697398,0.99999994,0,0,0,0,0,0,1,0,0,0,0,false,true,false,0,666.17,16.99,-0.0033582605,0.00336905,0.7070959,0.7071016,0,1427.221,8.411,-0.00091,0,0
194.85,2000,0,91.24,0.000002697398,0.000002697398,0.000002697398,0.99999994,0,0,0,0,0,0,1,0,0,0,0,false,true,false,0,678.13,16.99,-0.0033582605,0.003374445,0.7070959,0.7071015,0,1435.481,8.411,-0.00091,0,0
194.85834,2000,0,91.24,0.000002697398,0.000002697398,0.000002697398,0.99999994,0,0,0,0,0,0,1,0,0,0,0,false,true,false,0,690.16,16.99,-0.0033582605,0.0033798397,0.7070959,0.70710146,0,1443.741,8.411,-0.00081,0,0
194.86667,2000,0,91.24,0.000002697398,0.000002697398,0.000002697398,0.99999994,0,0,0,0,0,0,1,0,0,0,0,false,true,false,0,702.26,16.99,-0.0033582605,0.0033798397,0.7070959,0.70710146,0,1452.001,8.411,-0.00071,-0.00010999999,0
194.875,2000,0,91.24,0.000002697398,0.000002697398,0.000002697398,0.99999994,0,0,0,0,0,0,1,0,0,0,0,false,true,false,0,714.43,16.99,-0.0033582605,0.0033798397,0.7070959,0.70710146,0,1460.261,8.411,-0.00071,-0.00010999999,0
194.88333,2000,0,91.24,0.000002697398,0.000002697398,0.000002697398,0.99999994,0,0,0,0,0,0,1,0,0,0,0,false,true,false,0,726.67,16.99,-0.0033582605,0.0033798397,0.7070959,0.70710146,0,1468.521,8.411,-0.00071,-0.00010999999,0
194.89166,2000,0,91.24,0.000002697398,0.000002697398,0.000002697398,0.99999994,0,0,0,0,0,0,1,0,0,0,0,false,true,false,0,738.98,16.99,-0.0033582605,0.0033798397,0.7070959,0.70710146,0,1476.7809,8.411,-0.00071,-0.00010999999,0
194.9,2000,0,91.24,0.000002697398,0.000002697398,0.000002697398,0.99999994,0,0,0,0,0,0,1,0,0,0,0,false,true,false,0,751.36,16.99,-0.0033582605,0.0033798397,0.7070959,0.70710146,0,1485.0409,8.411,-0.00071,-0.00010999999,0
194.90834,2000,0,91.24,0.000002697398,0.000002697398,0.000002697398,0.99999994,0,0,0,0,0,0,1,0,0,0,0,false,true,false,0,763.8,16.99,-0.0033582605,0.0033798397,0.7070959,0.70710146,0,1493.3009,8.411,-0.00071,-0.00010999999,0
194.91667,2000,0,91.24,0.000002697398,0.000002697398,0.000002697398,0.99999994,0,0,0,0,0,0,1,0,0,0,0,false,true,false,0,776.31,16.99,-0.0033582605,0.0033798397,0.7070959,0.70710146,0,1501.5609,8.411,-0.00071,-0.00010999999,0
194.925,2000,0,91.24,0.000002697398,0.000002697398,0.000002697398,0.99999994,0,0,0,0,0,0,1,1,0,0,0,false,false,true,0,788.82,16.99,-0.0033582605,0.0033798397,0.7070959,0.70710146,-11.471,1500.2809,8.471001,-0.00071,0.00281,0.31921
194.93333,2000,0,91.24,0.000002697398,0.000002697398,0.000002697398,0.99999994,0,0,0,0,0,0,1,1,0,0,0,false,false,true,-0.099999994,801.32,16.99,-0.0033582605,0.0033852346,0.7080335,0.70616263,-21.081,1499.1609,8.501,-0.00071,0.00401,0.57241
194.94167,2000,0,91.24,0.000002697398,0.000002697398,0.000002697398,0.99999994,0,0,0,0,0,0,1,1,0,0,0,false,false,true,-0.28,813.81,16.99,-0.0033582605,0.0033906293,0.7097136,0.70447403,-30.440998,1498.0409,8.521,-0.00061,0.0043099998,0.79460996
194.95,2000,0,91.24,0.000002697398,0.000002697398,0.000002697398,0.99999994,0,0,0,0,0,0,1,1,0,0,0,false,false,true,-0.53,826.29,16.99,-0.00335826,0.0033960238,0.7120406,0.70212185,-39.940998,1496.871,8.541,-0.00051,0.00411,0.99121
194.95833,2000,0,91.24,0.000002697398,0.000002697398,0.000002697398,0.99999994,0,0,0,0,0,0,1,1,0,0,0,false,false,true,-0.85999995,838.76,16.99,-0.0033636554,0.0033960242,0.71493316,0.6991764,-49.821,1495.611,8.551001,-0.00051,0.00361,1.16671
194.96666,2000,0,91.24,0.000002697398,0.000002697398,0.000002697398,0.99999994,0,0,0,0,0,0,1,1,0,0,0,false,false,true,-1.28,851.22,16.99,-0.00336905,0.0033906293,0.71832496,0.6956912,-60.220997,1494.221,8.561,-0.00040999998,0.00301,1.32461
194.975,2000,0,91.24,0.000002697398,0.000002697398,0.000002697398,0.99999994,0,0,0,0,0,0,1,1,0,0,0,false,false,true,-1.78,863.67,16.99,-0.00337984,0.00337984,0.7221544,0.69171536,-71.190994,1492.6609,8.561,-0.00040999998,0.00241,1.4679099
194.98334,2000,0,91.24,0.000002697398,0.000002697398,0.000002697398,0.99999994,0,0,0,0,0,0,1,1,0,0,0,false,false,true,-2.37,876.11,16.99,-0.0033960242,0.00336905,0.72637093,0.68728614,-82.741,1490.891,8.561,-0.00040999998,0.0018099999,1.59881
194.99167,2000,0,91.24,0.000002697398,0.000002697398,0.000002697398,0.99999994,0,0,0,0,0,0,1,1,0,0,0,false,false,true,-3.06,888.52997,16.99,-0.0034122085,0.0033528658,0.73093444,0.6824308,-94.821,1488.891,8.561,-0.00030999997,0.00131,1.71901
195,2000,0,91.24,0.000002697398,0.000002697398,0.000002697398,0.99999994,0,0,0,0,0,0,1,1,0,0,0,false,false,true,-3.85,900.94,16.99,-0.0034337877,0.0033312866,0.7358051,0.6771763,-107.370995,1486.631,8.571,-0.00030999997,0.00081,1.8300099
195.00833,2000,0,91.24,0.000002697398,0.000002697398,0.000002697398,0.99999994,0,0,0,0,0,0,1,1,0,0,0,false,false,true,-4.74,913.32996,16.99,-0.003455367,0.0033097074,0.7409491,0.671544,-120.300995,1484.101,8.571,-0.00021,0.00040999998,1.93281
195.01666,2000,0,91.24,0.000002697398,0.000002697398,0.000002697398,0.99999994,0,0,0,0,0,0,1,1,0,0,0,false,false,true,-5.74,925.69995,16.99,-0.0034823408,0.0032827335,0.7463326,0.66555583,-133.501,1481.2909,8.571,-0.00021,0,2.02831
195.025,2000,0,91.24,0.000002697398,0.000002697398,0.000002697398,0.99999994,0,0,0,0,0,0,1,1,0,0,0,false,false,true,-6.85,938.04,16.99,-0.0035093152,0.0032557596,0.7519328,0.65922236,-146.86101,1478.1909,8.571,-0.00010999999,-0.00021,2.1170099
195.03334,2000,0,91.24,0.000002697398,0.000002697398,0.000002697398,0.99999994,0,0,0,0,0,0,1,1,0,0,0,false,false,true,-8.07,950.36,16.99,-0.0035362889,0.0032233908,0.75771743,0.6525651,-160.251,1474.8209,8.571,-0.00010999999,-0.00040999998,2.19931
195.04167,2000,0,91.24,0.000002697398,0.000002697398,0.000002697398,0.99999994,0,0,0,0,0,0,1,1,0,0,0,false,false,true,-9.41,962.64996,16.99,-0.003568658,0.0031910222,0.7636649,0.6455951,-173.531,1471.2009,8.571,-0.00010999999,-0.00061,2.27561
195.05,2000,0,91.24,0.000002697398,0.000002697398,0.000002697398,0.99999994,0,0,0,0,0,0,1,1,0,0,0,false,false,true,-10.86,974.91,16.99,-0.0036010267,0.0031532585,0.7697538,0.6383229,-186.55101,1467.361,8.571,0,-0.00081,2.34601
195.05833,2000,0,91.24,0.000002697398,0.000002697398,0.000002697398,0.99999994,0,0,0,0,0,0,1,1,0,0,0,false,false,true,-12.41,987.13995,16.99,-0.0036333953,0.0031154947,0.7759549,0.6307701,-199.161,1463.351,8.571,0,-0.00091,2.41051
195.06667,2000,0,91.24,0.000002697398,0.000002697398,0.000002697398,0.99999994,0,0,0,0,0,0,1,1,0,0,0,false,false,true,-14.07,999.32996,16.99,-0.0036657641,0.0030777315,0.7822532,0.6229422,-211.201,1459.231,8.571,0,-0.0010099999,2.46911
195.075,2000,0,91.24,0.000002697398,0.000002697398,0.000002697398,0.99999994,0,0,0,0,0,0,1,1,0,0,0,false,false,true,-15.83,1011.49,16.99,-0.0036981327,0.0030399675,0.78862107,0.6148608,-222.511,1455.0709,8.571,0,-0.00111,2.52181
195.08333,2000,0,91.24,0.000002697398,0.000002697398,0.000002697398,0.99999994,0,0,0,0,0,0,1,1,0,0,0,false,false,true,-17.68,1023.62,16.99,-0.0037358964,0.0029968093,0.795037,0.6065419,-232.931,1450.971,8.571,0,-0.0012099999,2.56841
195.09166,2000,0,91.24,0.000002697398,0.000002697398,0.000002697398,0.99999994,0,0,0,0,0,0,1,1,0,0,0,false,false,true,-19.619999,1035.71,16.99,-0.00377366,0.002953651,0.8014843,0.59799653,-242.281,1447.0309,8.571,0.00010999999,-0.00131,2.60871
195.1,2000,0,91.24,0.000002697398,0.000002697398,0.000002697398,0.99999994,0,0,0,0,0,0,1,1,0,0,0,false,false,true,-21.64,1047.77,16.99,-0.0038114237,0.0029104927,0.8079353,0.58925164,-250.391,1443.381,8.571,0.00021,-0.00131,2.64251
195.10834,2000,0,91.24,0.000002697398,0.000002697398,0.000002697398,0.99999994,0,0,0,0,0,0,1,1,0,0,0,false,false,true,-23.73,1059.7999,16.99,-0.0038491874,0.0028619396,0.814376,0.58031774,-257.081,1440.1709,8.571,0.00030999997,-0.0014099999,2.66951
195.11667,2000,0,91.24,0.000002697398,0.000002697398,0.000002697398,0.99999994,0,0,0,0,0,0,1,1,0,0,0,false,false,true,-25.869999,1071.7999,16.99,-0.0038869507,0.0028133863,0.82078147,0.57122207,-262.181,1437.5709,8.561,0.00040999998,-0.0014099999,2.6895099
195.125,2000,0,91.24,0.000002697398,0.000002697398,0.000002697398,0.99999994,0,0,0,0,0,0,1,1,0,0,0,false,false,true,-28.05,1083.78,16.99,-0.003924714,0.002764833,0.82713264,0.5619861,-267.481,1434.721,8.561,0.00040999998,-0.00131,2.70871
195.13333,2000,0,91.24,0.000002697398,0.000002697398,0.000002697398,0.99999994,0,0,0,0,0,0,1,1,0,0,0,false,false,true,-30.279999,1095.74,16.99,-0.003957083,0.0027162798,0.83342254,0.55261534,-272.971,1431.611,8.561,0.00040999998,-0.0012099999,2.7274098
195.14166,2000,0,91.24,0.000002697398,0.000002697398,0.000002697398,0.99999994,0,0,0,0,0,0,1,1,0,0,0,false,false,true,-32.55,1107.6699,16.99,-0.0039894516,0.0026677267,0.83964795,0.5431097,-278.631,1428.241,8.561,0.00040999998,-0.00111,2.7455099
195.15,2000,0,91.24,0.000002697398,0.000002697398,0.000002697398,0.99999994,0,0,0,0,0,0,1,1,0,0,0,false,false,true,-34.87,1119.57,16.99,-0.00402182,0.0026191734,0.8458058,0.53346914,-284.491,1424.6809,8.561,0.00040999998,-0.0010099999,2.7634099
195.15834,2000,0,91.24,0.000002697398,0.000002697398,0.000002697398,0.99999994,0,0,0,0,0,0,1,1,0,0,0,false,false,true,-37.239998,1131.44,16.99,-0.004054189,0.0025706203,0.85189295,0.52369374,-290.891,1421.4409,8.561,0.00040999998,-0.00091,2.78321
195.16667,2000,0,91.24,0.000002697398,0.000002697398,0.000002697398,0.99999994,0,0,0,0,0,0,1,1,0,0,0,false,false,true,-39.66,1143.2899,16.99,-0.004086558,0.0025220672,0.8579096,0.51377803,-297.451,1417.9609,8.561,0.00051,-0.00081,2.80261
195.175,2000,0,91.24,0.000002697398,0.000002697398,0.000002697398,0.99999994,0,0,0,0,0,0,1,1,0,0,0,false,false,true,-42.14,1155.11,16.99,-0.004118927,0.0024681191,0.86384916,0.5037275,-304.151,1414.231,8.561,0.00051,-0.00071,2.82161
195.18333,2000,0,91.24,0.000002697398,0.000002697398,0.000002697398,0.99999994,0,0,0,0,0,0,1,1,0,0,0,false,false,true,-44.67,1166.9,16.99,-0.0041512954,0.0024141711,0.86971164,0.49353668,-310.991,1410.261,8.561,0.00051,-0.00061,2.8403099
195.19167,2000,0,91.24,0.000002697398,0.000002697398,0.000002697398,0.99999994,0,0,0,0,0,0,1,1,0,0,0,false,false,true,-47.26,1178.65,16.99,-0.0041782693,0.0023602233,0.87549067,0.48321104,-317.941,1406.0409,8.561,0.00051,-0.00051,2.85861
195.2,2000,0,91.24,0.000002697398,0.000002697398,0.000002697398,0.99999994,0,0,0,0,0,0,1,1,0,0,0,false,false,true,-49.91,1190.37,16.99,-0.004205243,0.0023062753,0.8811832,0.47275046,-325.001,1401.5809,8.561,0.00040999998,-0.00040999998,2.87661
195.20833,2000,0,91.24,0.000002697398,0.000002697398,0.000002697398,0.99999994,0,0,0,0,0,0,1,1,0,0,0,false,false,true,-52.62,1202.0499,16.99,-0.0042322176,0.0022523273,0.8867861,0.46215507,-332.151,1396.871,8.561,0.00040999998,-0.00030999997,2.8942099
195.21666,2000,0,91.24,0.000002697398,0.000002697398,0.000002697398,0.99999994,0,0,0,0,0,0,1,1,0,0,0,false,false,true,-55.39,1213.69,16.99,-0.004259191,0.002198379,0.89229345,0.45143008,-339.371,1391.9209,8.561,0.00030999997,-0.00030999997,2.91151
195.225,2000,0,91.24,0.000002697398,0.000002697398,0.000002697398,0.99999994,0,0,0,0,0,0,1,1,0,0,0,false,false,true,-58.219997,1225.2899,16.99,-0.0042861653,0.0021444315,0.8977052,0.4405704,-346.661,1386.731,8.561,0.00030999997,-0.00021,2.92841
195.23334,2000,0,91.24,0.000002697398,0.000002697398,0.000002697398,0.99999994,0,0,0,0,0,0,1,1,0,0,0,false,false,true,-61.109997,1236.85,16.99,-0.0043131392,0.0020904834,0.90301293,0.42958653,-354.001,1381.3009,8.561,0.00030999997,-0.00021,2.94501
195.24167,2000,0,91.24,0.000002697398,0.000002697398,0.000002697398,0.99999994,0,0,0,0,0,0,1,1,0,0,0,false,false,true,-64.06,1248.36,16.99,-0.004340113,0.0020365354,0.9082164,0.41847324,-361.381,1375.631,8.561,0.00030999997,-0.00021,2.96121
195.25,2000,0,91.24,0.000002697398,0.000002697398,0.000002697398,0.99999994,0,0,0,0,0,0,1,1,0,0,0,false,false,true,-67.07,1259.82,16.99,-0.004367088,0.0019825876,0.9133104,0.40723583,-368.781,1369.731,8.561,0.00030999997,-0.00010999999,2.97711
195.25833,2000,0,91.24,0.000002697398,0.000002697398,0.000002697398,0.99999994,0,0,0,0,0,0,1,1,0,0,0,false,false,true,-70.14,1271.23,16.99,-0.0043886667,0.0019286396,0.9182921,0.39587435,-376.201,1363.601,8.561,0.00030999997,-0.00010999999,2.99261
195.26666,2000,0,91.24,0.000002697398,0.000002697398,0.000002697398,0.99999994,0,0,0,0,0,0,1,1,0,0,0,false,false,true,-73.28,1282.59,16.99,-0.0044102455,0.0018746917,0.92315656,0.38439414,-383.621,1357.251,8.561,0.00030999997,-0.00010999999,3.0078099
195.275,2000,0,91.24,0.000002697398,0.000002697398,0.000002697398,0.99999994,0,0,0,0,0,0,1,1,0,0,0,false,false,true,-76.479996,1293.9,16.99,-0.0044318247,0.0018153489,0.92790115,0.37279534,-391.041,1350.6809,8.561,0.00030999997,-0.00010999999,3.02261
195.28334,2000,0,91.24,0.000002697398,0.000002697398,0.000002697398,0.99999994,0,0,0,0,0,0,1,1,0,0,0,false,false,true,-79.74,1305.1599,16.99,-0.0044534043,0.0017560063,0.93252337,0.3610778,-398.441,1343.901,8.561,0.00021,-0.00010999999,3.03701
195.29167,2000,0,91.24,0.000002697398,0.000002697398,0.000002697398,0.99999994,0,0,0,0,0,0,1,1,0,0,0,false,false,true,-83.06,1316.36,16.99,-0.004474983,0.0016966634,0.93701845,0.34924695,-405.811,1336.9209,8.561,0.00021,-0.00010999999,3.05111
195.3,2000,0,91.24,0.000002697398,0.000002697398,0.000002697398,0.99999994,0,0,0,0,0,0,1,1,0,0,0,false,false,true,-86.439995,1327.5,16.99,-0.0044965623,0.0016373206,0.94138205,0.3373082,-413.151,1329.741,8.561,0.00021,-0.00010999999,3.06481
195.30833,2000,0,91.24,0.000002697398,0.000002697398,0.000002697398,0.99999994,0,0,0,0,0,0,1,1,0,0,0,false,false,true,-89.88,1338.58,16.99,-0.0045181415,0.0015779779,0.9456119,0.32526162,-420.451,1322.361,8.561,0.00010999999,-0.00010999999,3.07811
195.31667,2000,0,91.24,0.000002697398,0.000002697398,0.000002697398,0.99999994,0,0,0,0,0,0,1,1,0,0,0,false,false,true,-93.38,1349.6,16.99,-0.004539721,0.0015186352,0.9497057,0.31310707,-427.701,1314.8009,8.561,0.00010999999,0,3.0910099
195.325,2000,0,91.24,0.000002697398,0.000002697398,0.000002697398,0.99999994,0,0,0,0,0,0,1,1,0,0,0,false,false,true,-96.939995,1360.5599,16.99,-0.0045613,0.0014592924,0.95365936,0.30085006,-434.891,1307.0609,8.561,0.00010999999,0,3.10351
195.33333,2000,0,91.24,0.000002697398,0.000002697398,0.000002697398,0.99999994,0,0,0,0,0,0,1,1,0,0,0,false,false,true,-100.56,1371.45,16.99,-0.0045774844,0.0013999495,0.9574707,0.2884905,-442.011,1299.151,8.561,0.00010999999,0,3.11571
195.34166,2000,0,91.24,0.000002697398,0.000002697398,0.000002697398,0.99999994,0,0,0,0,0,0,1,1,0,0,0,false,false,true,-104.24,1382.28,16.99,-0.004593669,0.0013406068,0.9611344,0.27603924,-449.061,1291.0809,8.561,0.00010999999,0,3.1275098
195.35,2000,0,91.24,0.000002697398,0.000002697398,0.000002697398,0.99999994,0,0,0,0,0,0,1,1,0,0,0,false,false,true,-107.979996,1393.0399,16.99,-0.0046098535,0.0012812641,0.96465,0.26349097,-456.041,1282.861,8.561,0.00010999999,0,3.13881
195.35834,2000,0,91.24,0.000002697398,0.000002697398,0.000002697398,0.99999994,0,0,0,0,0,0,1,1,0,0,0,false,false,true,-111.78,1403.73,16.99,-0.0046260376,0.0012219213,0.9680139,0.25085086,-462.941,1274.501,8.561,0.00010999999,0,3.14971
195.36667,2000,0,91.24,0.000002697398,0.000002697398,0.000002697398,0.99999994,0,0,0,0,0,0,1,1,0,0,0,false,false,true,-115.64,1414.35,16.99,-0.004642222,0.0011625786,0.97122276,0.23812453,-469.761,1266.001,8.561,0.00010999999,0,3.16021
195.375,2000,0,91.24,0.000002697398,0.000002697398,0.000002697398,0.99999994,0,0,0,0,0,0,1,1,0,0,0,false,false,true,-119.549995,1424.9,16.99,-0.0046584057,0.0011032356,0.97427356,0.22531717,-476.491,1257.371,8.561,0.00010999999,0,3.17031
195.38333,2000,0,91.24,0.000002697398,0.000002697398,0.000002697398,0.99999994,0,0,0,0,0,0,1,1,0,0,0,false,false,true,-123.52,1435.38,16.99,-0.004674591,0.0010438932,0.97716475,0.21242905,-483.13098,1248.631,8.561,0.00021,0,3.1800098
195.39166,2000,0,91.24,0.000002697398,0.000002697398,0.000002697398,0.99999994,0,0,0,0,0,0,1,1,0,0,0,false,false,true,-127.549995,1445.7899,16.99,-0.0046853805,0.0009791554,0.97989315,0.19946526,-489.691,1239.781,8.561,0.00021,0,3.1893098
195.4,2000,0,91.24,0.000002697398,0.000002697398,0.000002697398,0.99999994,0,0,0,0,0,0,1,1,0,0,0,false,false,true,-131.62999,1456.12,16.99,-0.0046961703,0.000914418,0.98245734,0.18642595,-496.161,1230.8209,8.561,0.00021,0,3.1981099
195.40834,2000,0,91.24,0.000002697398,0.000002697398,0.000002697398,0.99999994,0,0,0,0,0,0,1,1,0,0,0,false,false,true,-135.76,1466.38,16.99,-0.00470696,0.00084968045,0.9848545,0.1733166,-502.541,1221.771,8.561,0.00021,0,3.2065098
195.41667,2000,0,91.24,0.000002697398,0.000002697398,0.000002697398,0.99999994,0,0,0,0,0,0,1,1,0,0,0,false,false,true,-139.95,1476.5599,16.99,-0.0047177486,0.00078494276,0.9870822,0.16014239,-508.831,1212.641,8.561,0.00021,0,3.2144098
195.425,2000,0,91.24,0.000002697398,0.000002697398,0.000002697398,0.99999994,0,0,0,0,0,0,1,1,0,0,0,false,false,true,-144.19,1486.6699,16.99,-0.004728539,0.0007202053,0.9891384,0.146909,-515.03094,1203.4309,8.561,0.00021,0,3.22191
195.43333,2000,0,91.24,0.000002697398,0.000002697398,0.000002697398,0.99999994,0,0,0,0,0,0,1,1,0,0,0,false,false,true,-148.48,1496.7,16.99,-0.0047393283,0.00065546774,0.9910216,0.13361612,-521.141,1194.151,8.561,0.00021,0.00010999999,3.22891
195.44167,2000,0,91.24,0.000002697398,0.000002697398,0.000002697398,0.99999994,0,0,0,0,0,0,1,1,0,0,0,false,false,true,-152.81999,1506.65,16.99,-0.004744723,0.00059073017,0.9927297,0.12026931,-527.17096,1184.8109,8.561,0.00021,0.00010999999,3.2355099
195.45,2000,0,91.24,0.000002697398,0.000002697398,0.000002697398,0.99999994,0,0,0,0,0,0,1,1,0,0,0,false,false,true,-157.20999,1516.52,16.99,-0.0047501177,0.0005259926,0.994261,0.106874034,-533.121,1175.411,8.561,0.00021,0.00010999999,3.24161
195.45833,2000,0,91.24,0.000002697398,0.000002697398,0.000002697398,0.99999994,0,0,0,0,0,0,1,1,0,0,0,false,false,true,-161.65,1526.32,16.99,-0.004755513,0.00046125508,0.9956138,0.09343551,-539.001,1165.9609,8.561,0.00010999999,0.00010999999,3.24721
195.46666,2000,0,91.24,0.000002697398,0.000002697398,0.000002697398,0.99999994,0,0,0,0,0,0,1,1,0,0,0,false,false,true,-166.14,1536.0399,16.99,-0.004760908,0.00039651754,0.99678665,0.07995931,-544.811,1156.471,8.561,0.00010999999,0.00010999999,3.25231
195.475,2000,0,91.24,0.000002697398,0.000002697398,0.000002697398,0.99999994,0,0,0,0,0,0,1,1,0,0,0,false,false,true,-170.68,1545.6799,16.99,-0.004766302,0.00033177997,0.9977786,0.066445254,-550.55096,1146.9509,8.561,0.00010999999,0.00010999999,3.2569098
195.48334,2000,0,91.24,0.000002697398,0.000002697398,0.000002697398,0.99999994,0,0,0,0,0,0,1,1,0,0,0,false,false,true,-175.26999,1555.24,16.99,-0.0047716973,0.00026704243,0.99858844,0.052898847,-556.23096,1137.391,8.561,0.00010999999,0.00021,3.26101
195.49167,2000,0,91.24,0.000002697398,0.000002697398,0.000002697398,0.99999994,0,0,0,0,0,0,1,1,0,0,0,false,false,true,-179.90999,1564.72,16.99,-0.0047716973,0.00020230487,0.999215,0.03932554,-561.86096,1127.8109,8.561,0.00010999999,0.00021,3.2646098
195.5,2000,0,91.24,0.000002697398,0.000002697398,0.000002697398,0.99999994,0,0,0,0,0,0,1,1,0,0,0,false,false,true,-184.59,1574.12,16.99,-0.004771697,0.0001375673,0.99965745,0.025730565,-567.441,1118.2009,8.561,0.00010999999,0.00021,3.26771
195.50833,2000,0,91.24,0.000002697398,0.000002697398,0.000002697398,0.99999994,0,0,0,0,0,0,1,1,0,0,0,false,false,true,-189.31999,1583.44,16.99,-0.004771697,0.000072829745,0.9999151,0.012119493,-572.98096,1108.5709,8.561,0.00010999999,0.00021,3.27031
195.51666,2000,0,91.24,0.000002697398,0.000002697398,0.000002697398,0.99999994,0,0,0,0,0,0,1,1,0,0,0,false,false,true,-194.09,1592.6799,16.99,-0.004771697,0.000008092194,0.9999874,-0.0015078455,-578.49097,1098.9309,8.561,0.00010999999,0.00021,3.27231
195.525,2000,0,91.24,0.000002697398,0.000002697398,0.000002697398,0.99999994,0,0,0,0,0,0,1,1,0,0,0,false,false,true,-198.90999,1601.84,16.99,-0.004771697,-0.00005664536,0.99987394,-0.015140538,-583.97095,1089.271,8.561,0.00010999999,0.00021,3.27381
195.53334,2000,0,91.24,0.000002697398,0.000002697398,0.000002697398,0.99999994,0,0,0,0,0,0,1,1,0,0,0,false,false,true,-203.78,1610.9199,16.99,-0.004771697,-0.00012138292,0.99957436,-0.028778667,-589.441,1079.601,8.561,0.00010999999,0.00021,3.27471
195.54167,2000,0,91.24,0.000002697398,0.000002697398,0.000002697398,0.99999994,0,0,0,0,0,0,1,1,0,0,0,false,false,true,-208.69,1619.9199,16.99,-0.0047663017,-0.00018612045,0.99908847,-0.042416748,-594.90094,1069.911,8.561,0.00010999999,0.00030999997,3.2750099
195.55,2000,0,91.24,0.000002697398,0.000002697398,0.000002697398,0.99999994,0,0,0,0,0,0,1,1,0,0,0,false,false,true,-213.65,1628.84,16.99,-0.004760908,-0.00025085805,0.9984169,-0.056044053,-600.36096,1060.2109,8.561,0.00010999999,0.00030999997,3.27471
195.55833,2000,0,91.24,0.000002697398,0.000002697398,0.000002697398,0.99999994,0,0,0,0,0,0,1,1,0,0,0,false,false,true,-218.65,1637.6799,16.99,-0.004755513,-0.00031559556,0.9975593,-0.06966055,-605.83093,1050.491,8.561,0.00010999999,0.00030999997,3.27371
195.56667,2000,0,91.24,0.000002697398,0.000002697398,0.000002697398,0.99999994,0,0,0,0,0,0,1,1,0,0,0,false,false,true,-223.7,1646.4299,16.99,-0.004750117,-0.0003803331,0.9965162,-0.083260916,-611.321,1040.761,8.561,0.00010999999,0.00030999997,3.27211
195.575,2000,0,91.24,0.000002697398,0.000002697398,0.000002697398,0.99999994,0,0,0,0,0,0,1,1,0,0,0,false,false,true,-228.79,1655.1,16.99,-0.004744723,-0.00044507068,0.99528855,-0.09683967,-616.811,1030.981,8.561,0.00010999999,0.00030999997,3.27091
195.58333,2000,0,91.24,0.000002697398,0.000002697398,0.000002697398,0.99999994,0,0,0,0,0,0,1,1,0,0,0,false,false,true,-233.93,1663.69,16.99,-0.0047393283,-0.0005098082,0.9938761,-0.11039683,-622.23096,1021.10095,8.561,0,0.00030999997,3.27331
195.59166,2000,0,91.24,0.000002697398,0.000002697398,0.000002697398,0.99999994,0,0,0,0,0,0,1,1,0,0,0,false,false,true,-239.12,1672.2,16.99,-0.004728539,-0.0005745458,0.99227786,-0.12394322,-627.58093,1011.121,8.561,0,0.00030999997,3.27911
195.6,2000,0,91.24,0.000002697398,0.000002697398,0.000002697398,0.99999994,0,0,0,0,0,0,1,1,0,0,0,false,false,true,-244.34999,1680.63,16.99,-0.0047177486,-0.0006392833,0.9904916,-0.13748956,-632.86096,1001.04095,8.561,0,0.00030999997,3.2883098
195.60834,2000,0,91.24,0.000002697398,0.000002697398,0.000002697398,0.99999994,0,0,0,0,0,0,1,1,0,0,0,false,false,true,-249.62,1688.97,16.99,-0.0047069592,-0.00070402084,0.988515,-0.15104677,-638.08093,990.871,8.561,0,0.00030999997,3.3008099
195.61667,2000,0,91.24,0.000002697398,0.000002697398,0.000002697398,0.99999994,0,0,0,0,0,0,1,1,0,0,0,false,false,true,-254.93999,1697.23,16.99,-0.0046961703,-0.00076875853,0.98634464,-0.16462554,-643.24097,980.61096,8.561,0,0.00021,3.3166099
195.625,2000,0,91.24,0.000002697398,0.000002697398,0.000002697398,0.99999994,0,0,0,0,0,0,1,1,0,0,0,false,false,true,-260.3,1705.3999,16.99,-0.0046853805,-0.000833496,0.9839751,-0.17824204,-648.35095,970.2609,8.561,0,0.00021,3.3357098
195.63333,2000,0,91.24,0.000002697398,0.000002697398,0.000002697398,0.99999994,0,0,0,0,0,0,1,1,0,0,0,false,false,true,-265.69998,1713.49,16.99,-0.004674591,-0.0008982336,0.9814026,-0.19190171,-653.29095,959.751,8.561,-0.00010999999,0.00010999999,3.3598099
195.64166,2000,0,91.24,0.000002697398,0.000002697398,0.000002697398,0.99999994,0,0,0,0,0,0,1,1,0,0,0,false,false,true,-271.13998,1721.49,16.99,-0.004658406,-0.0009629711,0.9786201,-0.20562075,-658.04095,949.071,8.561,-0.00021,0.00010999999,3.38941
195.65,2000,0,91.24,0.000002697398,0.000002697398,0.000002697398,0.99999994,0,0,0,0,0,0,1,1,0,0,0,false,false,true,-276.62,1729.3999,16.99,-0.0046422225,-0.0010277088,0.9756187,-0.2194207,-662.59094,938.23096,8.561,-0.00030999997,0,3.4244099
195.65834,2000,0,91.24,0.000002697398,0.000002697398,0.000002697398,0.99999994,0,0,0,0,0,0,1,1,0,0,0,false,false,true,-282.13998,1737.22,16.99,-0.004626038,-0.0010924463,0.9723889,-0.23331775,-666.951,927.251,8.561,-0.00040999998,0,3.46471
195.66667,2000,0,91.24,0.000002697398,0.000002697398,0.000002697398,0.99999994,0,0,0,0,0,0,1,1,0,0,0,false,false,true,-287.69998,1744.95,16.99,-0.0046098535,-0.0011571839,0.9689201,-0.24732807,-671.11096,916.131,8.561,-0.00051,-0.00010999999,3.51021
195.675,2000,0,91.24,0.000002697398,0.000002697398,0.000002697398,0.99999994,0,0,0,0,0,0,1,1,0,0,0,false,false,true,-293.29,1752.58,16.99,-0.004593669,-0.0012219213,0.96519893,-0.26147327,-675.09094,904.8909,8.561,-0.00051,-0.00021,3.5608099
195.68333,2000,0,91.24,0.000002697398,0.000002697398,0.000002697398,0.99999994,0,0,0,0,0,0,1,1,0,0,0,false,false,true,-298.91998,1760.12,16.99,-0.004577485,-0.0012866589,0.9612135,-0.27576417,-678.881,893.53094,8.561,-0.00051,-0.00030999997,3.61651
195.69167,2000,0,91.24,0.000002697398,0.000002697398,0.000002697398,0.99999994,0,0,0,0,0,0,1,1,0,0,0,false,false,true,-304.58,1767.57,16.99,-0.0045559052,-0.0013513964,0.95694906,-0.29021683,-682.49097,882.05096,8.561,-0.00061,-0.00040999998,3.67711
195.7,2000,0,91.24,0.000002697398,0.000002697398,0.000002697398,0.99999994,0,0,0,0,0,0,1,1,0,0,0,false,false,true,-310.27,1774.9199,16.99,-0.004534326,-0.001416134,0.9523909,-0.30484223,-685.761,870.34094,8.561,-0.00061,-0.00051,3.73981
195.70833,2000,0,91.24,0.000002697398,0.000002697398,0.000002697398,0.99999994,0,0,0,0,0,0,1,1,0,0,0,false,false,true,-315.97998,1782.1699,16.99,-0.004512747,-0.0014808716,0.9475252,-0.31964558,-688.68097,858.41095,8.561,-0.00051,-0.00051,3.8045099
195.71666,2000,0,91.24,0.000002697398,0.000002697398,0.000002697398,0.99999994,0,0,0,0,0,0,1,1,0,0,0,false,false,true,-321.72,1789.32,16.99,-0.0044911676,-0.0015510039,0.94233865,-0.33462697,-691.201,846.35095,8.561,-0.00040999998,-0.00051,3.8705099
195.725,2000,0,91.24,0.000002697398,0.000002697398,0.000002697398,0.99999994,0,0,0,0,0,0,1,1,0,0,0,false,false,true,-327.47998,1796.37,16.99,-0.004469589,-0.0016211363,0.9368194,-0.34978107,-693.18097,834.381,8.561,-0.00030999997,-0.00051,3.93601
195.73334,2000,0,91.24,0.000002697398,0.000002697398,0.000002697398,0.99999994,0,0,0,0,0,0,1,1,0,0,0,false,false,true,-333.25998,1803.32,16.99,-0.0044426145,-0.0016912686,0.9309573,-0.36509693,-694.66095,822.54095,8.561,-0.00021,-0.00051,4.00081
195.74167,2000,0,91.24,0.000002697398,0.000002697398,0.000002697398,0.99999994,0,0,0,0,0,0,1,1,0,0,0,false,false,true,-339.05,1810.1699,16.99,-0.004415641,-0.0017614011,0.9247424,-0.38056386,-695.641,810.85095,8.561,-0.00010999999,-0.00040999998,4.06491
195.75,2000,0,91.24,0.000002697398,0.000002697398,0.000002697398,0.99999994,0,0,0,0,0,0,1,1,0,0,0,false,false,true,-344.85,1816.9299,16.99,-0.0043886667,-0.0018369281,0.9181643,-0.39617106,-696.141,799.34094,8.561,0,-0.00030999997,4.12841
195.75833,2000,0,91.24,0.000002697398,0.000002697398,0.000002697398,0.99999994,0,0,0,0,0,0,1,1,0,0,0,false,false,true,-350.65,1823.59,16.99,-0.004356297,-0.001912455,0.911213,-0.41190773,-696.191,788.04095,8.561,0,-0.00021,4.19121
195.76666,2000,0,91.24,0.000002697398,0.000002697398,0.000002697398,0.99999994,0,0,0,0,0,0,1,1,0,0,0,false,false,true,-356.44998,1830.1599,16.99,-0.004323929,-0.0019879823,0.90388083,-0.42775768,-695.78094,776.97095,8.561,0,-0.00021,4.25291
195.775,2000,0,91.24,0.000002697398,0.000002697398,0.000002697398,0.99999994,0,0,0,0,0,0,1,1,0,0,0,false,false,true,-362.25,1836.63,16.99,-0.0042861653,-0.0020635095,0.8961603,-0.44370478,-694.761,766.071,8.561,0.00010999999,-0.00010999999,4.30941
195.78334,2000,0,91.24,0.000002697398,0.000002697398,0.000002697398,0.99999994,0,0,0,0,0,0,1,1,0,0,0,false,false,true,-368.03998,1843.01,16.99,-0.004248402,-0.0021390368,0.8880501,-0.45972204,-693.16095,755.3909,8.561,0.00021,0,4.36081
195.79167,2000,0,91.24,0.000002697398,0.000002697398,0.000002697398,0.99999994,0,0,0,0,0,0,1,1,0,0,0,false,false,true,-373.81998,1849.3099,16.99,-0.0042106383,-0.0022145638,0.8795501,-0.47578236,-691.001,744.951,8.561,0.00030999997,0,4.4071097
195.8,2000,0,91.24,0.000002697398,0.000002697398,0.000002697398,0.99999994,0,0,0,0,0,0,1,1,0,0,0,false,false,true,-379.58,1855.52,16.99,-0.00416748,-0.0022900908,0.8706649,-0.4918535,-688.311,734.79095,8.561,0.00040999998,0,4.44831
195.80833,2000,0,91.24,0.000002697398,0.000002697398,0.000002697398,0.99999994,0,0,0,0,0,0,1,1,0,0,0,false,false,true,-385.31998,1861.64,16.99,-0.004124321,-0.0023710127,0.8614009,-0.50790304,-685.121,724.941,8.561,0.00051,0.00010999999,4.48441
195.81667,2000,0,91.24,0.000002697398,0.000002697398,0.000002697398,0.99999994,0,0,0,0,0,0,1,1,0,0,0,false,false,true,-391.03,1867.6799,16.99,-0.004081163,-0.0024519349,0.85176057,-0.5239095,-681.46094,715.42096,8.561,0.00051,0.00021,4.51551
195.825,2000,0,91.24,0.000002697398,0.000002697398,0.000002697398,0.99999994,0,0,0,0,0,0,1,1,0,0,0,false,false,true,-396.71,1873.64,16.99,-0.0040326104,-0.002532857,0.84175384,-0.53984046,-677.381,706.251,8.561,0.00051,0.00030999997,4.54161
195.83333,2000,0,91.24,0.000002697398,0.000002697398,0.000002697398,0.99999994,0,0,0,0,0,0,1,1,0,0,0,false,false,true,-402.35,1879.5299,16.99,-0.003984057,-0.0026137787,0.83139,-0.5556688,-672.91095,697.46094,8.561,0.00051,0.00030999997,4.56281
195.84166,2000,0,91.24,0.000002697398,0.000002697398,0.000002697398,0.99999994,0,0,0,0,0,0,1,1,0,0,0,false,false,true,-407.96,1885.34,16.99,-0.003935504,-0.002689306,0.82067645,-0.5713731,-668.10095,689.061,8.561,0.00051,0.00040999998,4.5791097
195.85,2000,0,91.24,0.000002697398,0.000002697398,0.000002697398,0.99999994,0,0,0,0,0,0,1,1,0,0,0,false,false,true,-413.53,1891.08,16.99,-0.0038815557,-0.002764833,0.8096262,-0.58692634,-662.99097,681.061,8.561,0.00051,0.00051,4.59061
195.85834,2000,0,91.24,0.000002697398,0.000002697398,0.000002697398,0.99999994,0,0,0,0,0,0,1,1,0,0,0,false,false,true,-419.05,1896.76,16.99,-0.003827608,-0.0028403602,0.7982543,-0.6023016,-657.621,673.47095,8.561,0.00051,0.00061,4.5974097
195.86667,2000,0,91.24,0.000002697398,0.000002697398,0.000002697398,0.99999994,0,0,0,0,0,0,1,1,0,0,0,false,false,true,-424.53,1902.37,16.99,-0.00377366,-0.0029158874,0.78656995,-0.6174826,-652.04095,666.30096,8.561,0.00051,0.00071,4.5995097
195.875,2000,0,91.24,0.000002697398,0.000002697398,0.000002697398,0.99999994,0,0,0,0,0,0,1,1,0,0,0,false,false,true,-429.96,1907.9199,16.99,-0.0037143168,-0.0029914142,0.7745926,-0.63244236,-646.29095,659.54095,8.561,0.00051,0.00081,4.59691
195.88333,2000,0,91.24,0.000002697398,0.000002697398,0.000002697398,0.99999994,0,0,0,0,0,0,1,1,0,0,0,false,false,true,-435.34998,1913.4199,16.99,-0.0036549745,-0.0030669416,0.7623396,-0.6471595,-640.42096,653.191,8.561,0.00040999998,0.00081,4.58981
195.89166,2000,0,91.24,0.000002697398,0.000002697398,0.000002697398,0.99999994,0,0,0,0,0,0,1,1,0,0,0,false,false,true,-440.69,1918.86,16.99,-0.003595631,-0.0031370737,0.7498261,-0.6616176,-634.47095,647.24097,8.561,0.00040999998,0.00081,4.5781097
195.9,2000,0,91.24,0.000002697398,0.000002697398,0.000002697398,0.99999994,0,0,0,0,0,0,1,1,0,0,0,false,false,true,-445.97998,1924.25,16.99,-0.0035362889,-0.0032072063,0.73706895,-0.67580056,-628.49097,641.68097,8.561,0.00040999998,0.00091,4.5619097
195.90834,2000,0,91.24,0.000002697398,0.000002697398,0.000002697398,0.99999994,0,0,0,0,0,0,1,1,0,0,0,false,false,true,-451.22,1929.6,16.99,-0.0034715512,-0.0032773386,0.72409195,-0.68968683,-622.511,636.501,8.561,0.00030999997,0.0010099999,4.54131
195.91667,2000,0,91.24,0.000002697398,0.000002697398,0.000002697398,0.99999994,0,0,0,0,0,0,1,1,0,0,0,false,false,true,-456.41,1934.8999,16.99,-0.0034068138,-0.003347471,0.71091104,-0.7032656,-616.58093,631.67096,8.551001,0.00030999997,0.0010099999,4.51621
195.925,2000,0,91.24,0.000002697398,0.000002697398,0.000002697398,0.99999994,0,0,0,0,0,0,1,1,0,0,0,false,false,true,-461.55,1940.1599,16.99,0.0033420762,0.0034122085,-0.6975525,0.7165177,-610.73096,627.18097,8.551001,0.00021,0.0010099999,4.48671
195.93333,2000,0,91.24,0.000002697398,0.000002697398,0.000002697398,0.99999994,0,0,0,0,0,0,1,1,0,0,0,false,false,true,-466.63998,1945.39,16.99,0.0032773386,0.0034769461,-0.68403846,0.7294302,-604.99097,623.001,8.551001,0.00021,0.00111,4.45281
195.94167,2000,0,91.24,0.000002697398,0.000002697398,0.000002697398,0.99999994,0,0,0,0,0,0,1,1,0,0,0,false,false,true,-471.68,1950.58,16.99,0.0032072063,0.0035416838,-0.6703896,0.7419938,-599.40094,619.10095,8.551001,0.00010999999,0.0012099999,4.41451
195.95,2000,0,91.24,0.000002697398,0.000002697398,0.000002697398,0.99999994,0,0,0,0,0,0,1,1,0,0,0,false,false,true,-476.66998,1955.74,16.99,0.003137074,0.0036064212,-0.6566274,0.75419986,-593.99097,615.451,8.551001,0.00010999999,0.0012099999,4.37181
195.95833,2000,0,91.24,0.000002697398,0.000002697398,0.000002697398,0.99999994,0,0,0,0,0,0,1,1,0,0,0,false,false,true,-481.62,1960.87,16.99,0.0030669416,0.003665764,-0.6427789,0.76603675,-588.78094,612.02094,8.541,0,0.0012099999,4.32471
195.96666,2000,0,91.24,0.000002697398,0.000002697398,0.000002697398,0.99999994,0,0,0,0,0,0,1,1,0,0,0,false,false,true,-486.53,1965.97,16.99,0.0029968093,0.0037251068,-0.6288711,0.7774948,-583.78094,608.761,8.541,0,0.0012099999,4.27321
195.975,2000,0,91.24,0.000002697398,0.000002697398,0.000002697398,0.99999994,0,0,0,0,0,0,1,1,0,0,0,false,false,true,-491.38998,1971.0399,16.99,0.0029266768,0.0037844495,-0.61493087,0.7885664,-578.99097,605.621,8.541,0,0.00111,4.2175097
195.98334,2000,0,91.24,0.000002697398,0.000002697398,0.000002697398,0.99999994,0,0,0,0,0,0,1,1,0,0,0,false,false,true,-496.21,1976.09,16.99,0.0028565445,0.0038383976,-0.60097986,0.79924977,-574.40094,602.571,8.541,0,0.0010099999,4.15841
195.99167,2000,0,91.24,0.000002697398,0.000002697398,0.000002697398,0.99999994,0,0,0,0,0,0,1,1,0,0,0,false,false,true,-501,1981.11,16.99,0.0027864121,0.0038923454,-0.58703965,0.80954397,-569.98096,599.55096,8.541,-0.00010999999,0.0010099999,4.09721
196,2000,0,91.24,0.000002697398,0.000002697398,0.000002697398,0.99999994,0,0,0,0,0,0,1,1,0,0,0,false,false,true,-505.75,1986.11,16.99,0.0027162798,0.0039408985,-0.5731318,0.8194491,-565.73096,596.561,8.541,-0.00021,0.00091,4.03441
196.00833,2000,0,91.24,0.000002697398,0.000002697398,0.000002697398,0.99999994,0,0,0,0,0,0,1,1,0,0,0,false,false,true,-510.46,1991.08,16.99,0.0026461475,0.0039894516,-0.5592779,0.8289663,-561.641,593.581,8.541,-0.00021,0.00081,3.9704099
196.01666,2000,0,91.24,0.000002697398,0.000002697398,0.000002697398,0.99999994,0,0,0,0,0,0,1,1,0,0,0,false,false,true,-515.14,1996.0299,16.99,0.0025760152,0.00403261,-0.5454888,0.83810437,-557.701,590.60095,8.531,-0.00021,0.00071,3.9056098
196.025,2000,0,91.24,0.000002697398,0.000002697398,0.000002697398,0.99999994,0,0,0,0,0,0,1,1,0,0,0,false,false,true,-519.79,2000.95,16.99,0.0025058826,0.0040757684,-0.53178054,0.8468686,-553.90094,587.61096,8.531,-0.00021,0.00061,3.8403099
196.03334,2000,0,91.24,0.000002697398,0.000002697398,0.000002697398,0.99999994,0,0,0,0,0,0,1,1,0,0,0,false,false,true,-524.41,2005.85,16.99,0.0024357506,0.0041189273,-0.5181641,0.85526776,-550.23096,584.59094,8.531,-0.00021,0.00051,3.77491
196.04167,2000,0,91.24,0.000002697398,0.000002697398,0.000002697398,0.99999994,0,0,0,0,0,0,1,1,0,0,0,false,false,true,-529,2010.72,16.99,0.002371013,0.00415669,-0.50465006,0.86331064,-546.691,581.54095,8.531,-0.00021,0.00040999998,3.70971
196.05,2000,0,91.24,0.000002697398,0.000002697398,0.000002697398,0.99999994,0,0,0,0,0,0,1,1,0,0,0,false,false,true,-533.56,2015.57,16.99,0.0023062755,0.0041944543,-0.49124393,0.8710089,-543.261,578.441,8.531,-0.00030999997,0.00030999997,3.6449099
196.05833,2000,0,91.24,0.000002697398,0.000002697398,0.000002697398,0.99999994,0,0,0,0,0,0,1,1,0,0,0,false,false,true,-538.08997,2020.39,16.99,0.0022415377,0.0042322176,-0.47796193,0.8783674,-539.941,575.29095,8.531,-0.00030999997,0.00030999997,3.5808098
196.06667,2000,0,91.24,0.000002697398,0.000002697398,0.000002697398,0.99999994,0,0,0,0,0,0,1,1,0,0,0,false,false,true,-542.58997,2025.1799,16.99,0.0021768005,0.0042645866,-0.46480396,0.88540065,-536.72095,572.081,8.531,-0.00030999997,0.00021,3.51771
196.075,2000,0,91.24,0.000002697398,0.000002697398,0.000002697398,0.99999994,0,0,0,0,0,0,1,1,0,0,0,false,false,true,-547.06,2029.95,16.99,0.0021120629,0.0042969557,-0.45177546,0.8921188,-533.581,568.80096,8.531,-0.00030999997,0.00010999999,3.4558098
196.08333,2000,0,91.24,0.000002697398,0.000002697398,0.000002697398,0.99999994,0,0,0,0,0,0,1,1,0,0,0,false,false,true,-551.51,2034.69,16.99,0.002047325,0.004329324,-0.43888184,0.898532,-530.52094,565.441,8.531,-0.00030999997,0,3.39531
196.09166,2000,0,91.24,0.000002697398,0.000002697398,0.000002697398,0.99999994,0,0,0,0,0,0,1,1,0,0,0,false,false,true,-555.93,2039.3999,16.99,0.0019825876,0.004356298,-0.42612848,0.90465,-527.53094,562.001,8.531,-0.00030999997,0,3.33641
196.1,2000,0,91.24,0.000002697398,0.000002697398,0.000002697398,0.99999994,0,0,0,0,0,0,1,1,0,0,0,false,false,true,-560.33,2044.08,16.99,0.0019232446,0.004383271,-0.41351,0.9104868,-524.59094,558.48096,8.531,-0.00030999997,0,3.2792099
196.10834,2000,0,91.24,0.000002697398,0.000002697398,0.000002697398,0.99999994,0,0,0,0,0,0,1,1,0,0,0,false,false,true,-564.7,2048.73,16.99,0.0018639021,0.0044102455,-0.4010318,0.91605157,-521.701,554.871,8.531,-0.00030999997,0,3.22401
196.11667,2000,0,91.24,0.000002697398,0.000002697398,0.000002697398,0.99999994,0,0,0,0,0,0,1,1,0,0,0,false,false,true,-569.05,2053.3499,16.99,0.0018045595,0.004431825,-0.38868847,0.92135674,-518.85095,551.17096,8.531,-0.00030999997,-0.00010999999,3.17091
196.125,2000,0,91.24,0.000002697398,0.000002697398,0.000002697398,0.99999994,0,0,0,0,0,0,1,1,0,0,0,false,false,true,-573.37,2057.94,16.99,0.0017452165,0.004453404,-0.37647998,0.92641234,-516.03094,547.371,8.531,-0.00030999997,-0.00010999999,3.12001
196.13333,2000,0,91.24,0.000002697398,0.000002697398,0.000002697398,0.99999994,0,0,0,0,0,0,1,1,0,0,0,false,false,true,-577.67,2062.5,16.99,0.0016858738,0.004474983,-0.36440638,0.9312277,-513.23096,543.48096,8.531,-0.00021,-0.00021,3.0715098
196.14166,2000,0,91.24,0.000002697398,0.000002697398,0.000002697398,0.99999994,0,0,0,0,0,0,1,1,0,0,0,false,false,true,-581.95,2067.03,16.99,0.001626531,0.0044965623,-0.35245687,0.9358158,-510.441,539.49097,8.531,-0.00010999999,-0.00021,3.02561
196.15,2000,0,91.24,0.000002697398,0.000002697398,0.000002697398,0.99999994,0,0,0,0,0,0,1,1,0,0,0,false,false,true,-586.2,2071.53,16.99,0.0015671882,0.004518141,-0.3406314,0.9401846,-507.661,535.41095,8.531,-0.00010999999,-0.00030999997,2.98231
196.15834,2000,0,91.24,0.000002697398,0.000002697398,0.000002697398,0.99999994,0,0,0,0,0,0,1,1,0,0,0,false,false,true,-590.43,2075.99,16.99,0.0015132403,0.004534326,-0.3289247,0.944344,-504.871,531.23096,8.531,0,-0.00040999998,2.94181
196.16667,2000,0,91.24,0.000002697398,0.000002697398,0.000002697398,0.99999994,0,0,0,0,0,0,1,1,0,0,0,false,false,true,-594.64,2080.42,16.99,0.0014592924,0.0045505106,-0.31732583,0.9483045,-502.061,526.951,8.531,0,-0.00051,2.90431
