time,ball_loc_x,ball_loc_y,ball_loc_z,ball_rot_x,ball_rot_y,ball_rot_z,ball_rot_w,ball_vel_x,ball_vel_y,ball_vel_z,ball_ang_x,ball_ang_y,ball_ang_z,player0_throttle,player0_steer,player0_pitch,player0_yaw,player0_roll,player0_jump,player0_boost,player0_handbrake,player0_loc_x,player0_loc_y,player0_loc_z,player0_rot_x,player0_rot_y,player0_rot_z,player0_rot_w,player0_vel_x,player0_vel_y,player0_vel_z,player0_ang_x,player0_ang_y,player0_ang_z
52.925,2000,0,73,0.000002697398,0.000002697398,0.000002697398,0.99999994,0,0,0,0,0,0,0,0,0,0,0,false,false,false,0,0,16.94,0.0000026973983,0.0000026973983,0.70710677,0.70710677,0,0,2.041,-0.050809998,0,0
52.933334,2000,0,87.6,0.000002697398,0.000002697398,0.000002697398,0.99999994,0,0,0,0,0,0,0.4015748,0,0,0,0,false,false,false,0,0,16.89,-0.00014835689,0.00015375168,0.7071067,0.7071067,0,5.351,3.8809998,-0.085609995,0,0
52.941666,2000,0,90.52,0.000002697398,0.000002697398,0.000002697398,0.99999994,0,0,0,0,0,0,0.4015748,0,0,0,0,false,false,false,0,0.04,16.85,-0.00040191234,0.00040730715,0.70710653,0.70710677,0,10.681,5.481,-0.107209995,0,0
52.95,2000,0,91.1,0.000002697398,0.000002697398,0.000002697398,0.99999994,0,0,0,0,0,0,0.4015748,0,0,0,0,false,false,false,0,0.13,16.83,-0.00072020525,0.00072560005,0.7071067,0.707106,0,15.991,6.791,-0.11630999,0,0
52.958332,2000,0,91.22,0.000002697398,0.000002697398,0.000002697398,0.99999994,0,0,0,0,0,0,0.4015748,0,0,0,0,false,false,false,0,0.26,16.82,-0.0010654721,0.001070867,0.70710516,0.7071067,0,21.290998,7.7409997,-0.114709996,0,0
52.966667,2000,0,91.24,0.000002697398,0.000002697398,0.000002697398,0.99999994,0,0,0,0,0,0,0.4015748,0,0,0,0,false,false,false,0,0.44,16.82,-0.0014053443,0.0014107391,0.7071067,0.70710397,0,26.571,8.431,-0.106709994,0,0
52.975,2000,0,91.24,0.000002697398,0.000002697398,0.000002697398,0.99999994,0,0,0,0,0,0,0.4015748,0,0,0,0,false,false,false,0,0.65999997,16.82,-0.0017182427,0.0017236375,0.707108,0.70710135,0,31.831,8.9210005,-0.095309995,0,0
52.983334,2000,0,91.24,0.000002697398,0.000002697398,0.000002697398,0.99999994,0,0,0,0,0,0,0.4015748,0,0,0,0,false,false,false,0,0.93,16.83,-0.001998772,0.0020041666,0.70710653,0.7071013,0,37.071,9.281,-0.082509995,0,0
52.991665,2000,0,91.24,0.000002697398,0.000002697398,0.000002697398,0.99999994,0,0,0,0,0,0,0.4015748,0,0,0,0,false,false,false,0,1.24,16.84,-0.0022415377,0.0022469326,0.70710504,0.7071013,0,42.291,9.521,-0.06961,0,0
53,2000,0,91.24,0.000002697398,0.000002697398,0.000002697398,0.99999994,0,0,0,0,0,0,0.4015748,0,0,0,0,false,false,false,0,1.5899999,16.85,-0.00244654,0.0024519349,0.70710367,0.7071013,0,47.490997,9.6710005,-0.057509996,0,0
53.008335,2000,0,91.24,0.000002697398,0.000002697398,0.000002697398,0.99999994,0,0,0,0,0,0,0.4015748,0,0,0,0,false,false,false,0,1.99,16.859999,-0.0026137787,0.0026191734,0.7071025,0.7071013,0,52.681,9.771,-0.046609998,0,0
53.016666,2000,0,91.24,0.000002697398,0.000002697398,0.000002697398,0.99999994,0,0,0,0,0,0,0.4015748,0,0,0,0,false,false,false,0,2.4299998,16.869999,-0.0027486486,0.0027540433,0.70710146,0.7071013,0,57.850998,9.821,-0.037109997,0,0
53.025,2000,0,91.24,0.000002697398,0.000002697398,0.000002697398,0.99999994,0,0,0,0,0,0,0.4015748,0,0,0,0,false,false,false,0,2.9099998,16.88,-0.0028565445,0.0028619394,0.70710063,0.7071013,0,63.001,9.841001,-0.02911,0,0
53.033333,2000,0,91.24,0.000002697398,0.000002697398,0.000002697398,0.99999994,0,0,0,0,0,0,0.4015748,0,0,0,0,false,false,false,0,3.4399998,16.89,-0.0029428613,0.002948256,0.7071013,0.7070999,0,68.131,9.821,-0.02291,0,0
53.041668,2000,0,91.24,0.000002697398,0.000002697398,0.000002697398,0.99999994,0,0,0,0,0,0,0.4015748,0,0,0,0,false,false,false,0,4.0099998,16.9,-0.0030129936,0.0030183885,0.7070993,0.7071013,0,73.251,9.761001,-0.018410001,0,0
53.05,2000,0,91.24,0.000002697398,0.000002697398,0.000002697398,0.99999994,0,0,0,0,0,0,0.4015748,0,0,0,0,false,false,false,0,4.62,16.91,-0.0030669416,0.0030723363,0.7071013,0.70709884,0,78.351,9.681,-0.014909999,0,0
53.058334,2000,0,91.24,0.000002697398,0.000002697398,0.000002697398,0.99999994,0,0,0,0,0,0,0.4015748,0,0,0,0,false,false,false,0,5.27,16.92,-0.0031101,0.0031154947,0.7070985,0.7071013,0,83.431,9.591001,-0.012309999,0,0
53.066666,2000,0,91.24,0.000002697398,0.000002697398,0.000002697398,0.99999994,0,0,0,0,0,0,0.4015748,0,0,0,0,false,false,false,0,5.97,16.93,-0.0031478636,0.0031532582,0.7070959,0.7071035,0,88.491,9.491,-0.01031,0,0
53.075,2000,0,91.24,0.000002697398,0.000002697398,0.000002697398,0.99999994,0,0,0,0,0,0,0.4015748,0,0,0,0,false,false,false,0,6.71,16.94,-0.0031802324,0.003185627,0.7070959,0.7071032,0,93.541,9.391,-0.00871,0,0
53.083332,2000,0,91.24,0.000002697398,0.000002697398,0.000002697398,0.99999994,0,0,0,0,0,0,0.4015748,0,0,0,0,false,false,false,0,7.49,16.949999,-0.0032072063,0.0032126012,0.7070959,0.70710295,0,98.571,9.281,-0.00731,0,0
53.091667,2000,0,91.24,0.000002697398,0.000002697398,0.000002697398,0.99999994,0,0,0,0,0,0,0.4015748,0,0,0,0,false,false,false,0,8.309999,16.96,-0.0032287855,0.0032341804,0.7070959,0.7071028,0,103.58099,9.1710005,-0.00621,0,0
53.1,2000,0,91.24,0.000002697398,0.000002697398,0.000002697398,0.99999994,0,0,0,0,0,0,0.4015748,0,0,0,0,false,false,false,0,9.17,16.97,-0.00324497,0.003250365,0.707096,0.70710266,0,108.571,9.061,-0.00531,0,0
53.108334,2000,0,91.24,0.000002697398,0.000002697398,0.000002697398,0.99999994,0,0,0,0,0,0,0.4015748,0,0,0,0,false,false,false,0,10.07,16.98,-0.0032611543,0.003266549,0.7070959,0.7071025,0,113.550995,8.951,-0.00461,0,0
53.116665,2000,0,91.24,0.000002697398,0.000002697398,0.000002697398,0.99999994,0,0,0,0,0,0,0.4015748,0,0,0,0,false,false,false,0,11.0199995,16.99,-0.0032773386,0.0032827335,0.7070959,0.7071023,0,118.510994,8.841001,-0.00401,0,0
53.125,2000,0,91.24,0.000002697398,0.000002697398,0.000002697398,0.99999994,0,0,0,0,0,0,0.4015748,0,0,0,0,false,false,false,0,12.009999,17,-0.0032881282,0.003293523,0.7070959,0.70710224,0,123.451,8.731,-0.00341,0,0
53.133335,2000,0,91.24,0.000002697398,0.000002697398,0.000002697398,0.99999994,0,0,0,0,0,0,0.4015748,0,0,0,0,false,false,false,0,13.04,17.01,-0.0032989178,0.0033043127,0.7070959,0.7071021,0,128.381,8.621,-0.00291,0,0
53.141666,2000,0,91.24,0.000002697398,0.000002697398,0.000002697398,0.99999994,0,0,0,0,0,0,0.4015748,0,0,0,0,false,false,false,0,14.11,17.01,-0.0033097074,0.0033151023,0.7070959,0.707102,0,133.291,8.511001,-0.00251,0,0
53.15,2000,0,91.24,0.000002697398,0.000002697398,0.000002697398,0.99999994,0,0,0,0,0,0,0.4015748,0,0,0,0,false,false,false,0,15.219999,17.01,-0.0033151023,0.003320497,0.7070959,0.707102,0,138.181,8.441,-0.00221,0,0
53.158333,2000,0,91.24,0.000002697398,0.000002697398,0.000002697398,0.99999994,0,0,0,0,0,0,0.4015748,0,0,0,0,false,false,false,0,16.369999,17.01,-0.0033204972,0.0033258921,0.707096,0.70710194,0,143.05101,8.391,-0.0019099999,0,0
53.166668,2000,0,91.24,0.000002697398,0.000002697398,0.000002697398,0.99999994,0,0,0,0,0,0,0.4015748,0,0,0,0,false,false,false,0,17.56,17.01,-0.003325892,0.0033312866,0.7070959,0.7071019,0,147.91101,8.361,-0.0017099999,0,0
53.175,2000,0,91.24,0.000002697398,0.000002697398,0.000002697398,0.99999994,0,0,0,0,0,0,0.4015748,0,0,0,0,false,false,false,0,18.789999,17.01,-0.0033312866,0.0033366815,0.7070959,0.7071018,0,152.751,8.341001,-0.00151,0,0
53.183334,2000,0,91.24,0.000002697398,0.000002697398,0.000002697398,0.99999994,0,0,0,0,0,0,0.4015748,0,0,0,0,false,false,false,0,20.06,17.01,-0.0033366815,0.0033420762,0.7070959,0.70710176,0,157.571,8.331,-0.00131,0,0
53.191666,2000,0,91.24,0.000002697398,0.000002697398,0.000002697398,0.99999994,0,0,0,0,0,0,0.4015748,0,0,0,0,false,false,false,0,21.369999,17.01,-0.0033420762,0.003347471,0.7070959,0.7071017,0,162.381,8.321,-0.00111,0,0
53.2,2000,0,91.24,0.000002697398,0.000002697398,0.000002697398,0.99999994,0,0,0,0,0,0,0.4015748,0,0,0,0,false,false,false,0,22.72,17.01,-0.003347471,0.0033528658,0.7070959,0.70710164,0,167.171,8.321,-0.00091,0,0
53.208332,2000,0,91.24,0.000002697398,0.000002697398,0.000002697398,0.99999994,0,0,0,0,0,0,0.4015748,0,0,0,0,false,false,false,0,24.109999,17.01,-0.003347471,0.0033582605,0.7070959,0.70710164,0,171.94101,8.321,-0.00081,0,0
53.216667,2000,0,91.24,0.000002697398,0.000002697398,0.000002697398,0.99999994,0,0,0,0,0,0,0.4015748,0,0,0,0,false,false,false,0,25.539999,17.01,-0.003347471,0.0033582605,0.7070959,0.70710164,0,176.701,8.321,-0.00071,0,0
53.225,2000,0,91.24,0.000002697398,0.000002697398,0.000002697398,0.99999994,0,0,0,0,0,0,0.4015748,0,0,0,0,false,false,false,0,27.01,17.01,-0.003347471,0.0033582605,0.7070959,0.70710164,0,181.44101,8.321,-0.00061,0,0
53.233334,2000,0,91.24,0.000002697398,0.000002697398,0.000002697398,0.99999994,0,0,0,0,0,0,0.4015748,0,0,0,0,false,false,false,0,28.519999,17.01,-0.003347471,0.0033582605,0.7070959,0.70710164,0,186.171,8.321,-0.00061,0,0
53.241665,2000,0,91.24,0.000002697398,0.000002697398,0.000002697398,0.99999994,0,0,0,0,0,0,0.4015748,0,0,0,0,false,false,false,0,30.07,17.01,-0.003347471,0.0033582605,0.7070959,0.70710164,0,190.881,8.321,-0.00061,0,0
53.25,2000,0,91.24,0.000002697398,0.000002697398,0.000002697398,0.99999994,0,0,0,0,0,0,0.4015748,0,0,0,0,false,false,false,0,31.66,17.01,-0.003347471,0.0033582605,0.7070959,0.70710164,0,195.571,8.321,-0.00061,0,0
53.258335,2000,0,91.24,0.000002697398,0.000002697398,0.000002697398,0.99999994,0,0,0,0,0,0,0.4015748,0,0,0,0,false,false,false,0,33.29,17.01,-0.003347471,0.0033582605,0.7070959,0.70710164,0,200.251,8.321,-0.00061,0,0
53.266666,2000,0,91.24,0.000002697398,0.000002697398,0.000002697398,0.99999994,0,0,0,0,0,0,0.4015748,0,0,0,0,false,false,false,0,34.96,17.01,-0.003347471,0.0033582605,0.7070959,0.70710164,0,204.911,8.321,-0.00061,0,0
53.275,2000,0,91.24,0.000002697398,0.000002697398,0.000002697398,0.99999994,0,0,0,0,0,0,0.4015748,0,0,0,0,false,false,false,0,36.67,17.01,-0.003347471,0.0033582605,0.7070959,0.70710164,0,209.561,8.321,-0.00061,0,0
53.283333,2000,0,91.24,0.000002697398,0.000002697398,0.000002697398,0.99999994,0,0,0,0,0,0,0.4015748,0,0,0,0,false,false,false,0,38.42,17.01,-0.003347471,0.0033582605,0.7070959,0.70710164,0,214.19101,8.321,-0.00061,0,0
53.291668,2000,0,91.24,0.000002697398,0.000002697398,0.000002697398,0.99999994,0,0,0,0,0,0,0.4015748,0,0,0,0,false,false,false,0,40.2,17.01,-0.003347471,0.0033582605,0.7070959,0.70710164,0,218.801,8.321,-0.00061,0,0
53.3,2000,0,91.24,0.000002697398,0.000002697398,0.000002697398,0.99999994,0,0,0,0,0,0,0.4015748,0,0,0,0,false,false,false,0,42.02,17.01,-0.003347471,0.0033582605,0.7070959,0.70710164,0,223.401,8.321,-0.00061,0,0
53.308334,2000,0,91.24,0.000002697398,0.000002697398,0.000002697398,0.99999994,0,0,0,0,0,0,0.4015748,0,0,0,0,false,false,false,0,43.879997,17.01,-0.003347471,0.0033582605,0.7070959,0.70710164,0,227.981,8.321,-0.00061,0,0
53.316666,2000,0,91.24,0.000002697398,0.000002697398,0.000002697398,0.99999994,0,0,0,0,0,0,0.4015748,0,0,0,0,false,false,false,0,45.78,17.01,-0.003347471,0.0033582605,0.7070959,0.70710164,0,232.551,8.321,-0.00061,0,0
53.325,2000,0,91.24,0.000002697398,0.000002697398,0.000002697398,0.99999994,0,0,0,0,0,0,0.4015748,0,0,0,0,false,false,false,0,47.719997,17.01,-0.003347471,0.0033582605,0.7070959,0.70710164,0,237.101,8.321,-0.00061,0,0
53.333332,2000,0,91.24,0.000002697398,0.000002697398,0.000002697398,0.99999994,0,0,0,0,0,0,0.4015748,0,0,0,0,false,false,false,0,49.7,17.01,-0.003347471,0.0033582605,0.7070959,0.70710164,0,241.631,8.321,-0.00061,0,0
53.341667,2000,0,91.24,0.000002697398,0.000002697398,0.000002697398,0.99999994,0,0,0,0,0,0,0.4015748,0,0,0,0,false,false,false,0,51.71,17.01,-0.003347471,0.0033582605,0.7070959,0.70710164,0,246.151,8.321,-0.00061,0,0
53.35,2000,0,91.24,0.000002697398,0.000002697398,0.000002697398,0.99999994,0,0,0,0,0,0,0.4015748,0,0,0,0,false,false,false,0,53.76,17.01,-0.003347471,0.0033582605,0.7070959,0.70710164,0,250.651,8.321,-0.00061,0,0
53.358334,2000,0,91.24,0.000002697398,0.000002697398,0.000002697398,0.99999994,0,0,0,0,0,0,0.4015748,0,0,0,0,false,false,false,0,55.85,17.01,-0.003347471,0.0033582605,0.7070959,0.70710164,0,255.141,8.321,-0.00061,0,0
53.366665,2000,0,91.24,0.000002697398,0.000002697398,0.000002697398,0.99999994,0,0,0,0,0,0,0.4015748,0,0,0,0,false,false,false,0,57.98,17.01,-0.003347471,0.0033582605,0.7070959,0.70710164,0,259.611,8.321,-0.00061,0,0
53.375,2000,0,91.24,0.000002697398,0.000002697398,0.000002697398,0.99999994,0,0,0,0,0,0,0.4015748,0,0,0,0,false,false,false,0,60.14,17.01,-0.003347471,0.0033582605,0.7070959,0.70710164,0,264.071,8.321,-0.00061,0,0
53.383335,2000,0,91.24,0.000002697398,0.000002697398,0.000002697398,0.99999994,0,0,0,0,0,0,0.4015748,0,0,0,0,false,false,false,0,62.34,17.01,-0.003347471,0.0033582605,0.7070959,0.70710164,0,268.511,8.321,-0.00061,0,0
53.391666,2000,0,91.24,0.000002697398,0.000002697398,0.000002697398,0.99999994,0,0,0,0,0,0,0.4015748,0,0,0,0,false,false,false,0,64.58,17.01,-0.003347471,0.0033582605,0.7070959,0.70710164,0,272.941,8.321,-0.00061,0,0
53.4,2000,0,91.24,0.000002697398,0.000002697398,0.000002697398,0.99999994,0,0,0,0,0,0,0.4015748,0,0,0,0,false,false,false,0,66.85,17.01,-0.003347471,0.0033582605,0.7070959,0.70710164,0,277.351,8.321,-0.00061,0,0
53.408333,2000,0,91.24,0.000002697398,0.000002697398,0.000002697398,0.99999994,0,0,0,0,0,0,0.4015748,0,0,0,0,false,false,false,0,69.159996,17.01,-0.003347471,0.0033582605,0.7070959,0.70710164,0,281.751,8.321,-0.00061,0,0
53.416668,2000,0,91.24,0.000002697398,0.000002697398,0.000002697398,0.99999994,0,0,0,0,0,0,0.4015748,0,0,0,0,false,false,false,0,71.51,17.01,-0.003347471,0.0033582605,0.7070959,0.70710164,0,286.131,8.321,-0.00061,0,0
53.425,2000,0,91.24,0.000002697398,0.000002697398,0.000002697398,0.99999994,0,0,0,0,0,0,0.4015748,0,0,0,0,false,false,false,0,73.89,17.01,-0.003347471,0.0033582605,0.7070959,0.70710164,0,290.501,8.321,-0.00061,0,0
53.433334,2000,0,91.24,0.000002697398,0.000002697398,0.000002697398,0.99999994,0,0,0,0,0,0,0.4015748,0,0,0,0,false,false,false,0,76.31,17.01,-0.003347471,0.0033582605,0.7070959,0.70710164,0,294.851,8.321,-0.00061,0,0
53.441666,2000,0,91.24,0.000002697398,0.000002697398,0.000002697398,0.99999994,0,0,0,0,0,0,0.4015748,0,0,0,0,false,false,false,0,78.77,17.01,-0.003347471,0.0033582605,0.7070959,0.70710164,0,299.191,8.321,-0.00061,0,0
53.45,2000,0,91.24,0.000002697398,0.000002697398,0.000002697398,0.99999994,0,0,0,0,0,0,0.4015748,0,0,0,0,false,false,false,0,81.259995,17.01,-0.003347471,0.0033582605,0.7070959,0.70710164,0,303.511,8.321,-0.00061,0,0
53.458332,2000,0,91.24,0.000002697398,0.000002697398,0.000002697398,0.99999994,0,0,0,0,0,0,0.4015748,0,0,0,0,false,false,false,0,83.79,17.01,-0.003347471,0.0033582605,0.7070959,0.70710164,0,307.821,8.321,-0.00061,0,0
53.466667,2000,0,91.24,0.000002697398,0.000002697398,0.000002697398,0.99999994,0,0,0,0,0,0,0.4015748,0,0,0,0,false,false,false,0,86.36,17.01,-0.003347471,0.0033582605,0.7070959,0.70710164,0,312.111,8.321,-0.00061,0,0
53.475,2000,0,91.24,0.000002697398,0.000002697398,0.000002697398,0.99999994,0,0,0,0,0,0,0.4015748,0,0,0,0,false,false,false,0,88.96,17.01,-0.003347471,0.0033582605,0.7070959,0.70710164,0,316.391,8.321,-0.00061,0,0
53.483334,2000,0,91.24,0.000002697398,0.000002697398,0.000002697398,0.99999994,0,0,0,0,0,0,0.4015748,0,0,0,0,false,false,false,0,91.6,17.01,-0.003347471,0.0033582605,0.7070959,0.70710164,0,320.651,8.321,-0.00061,0,0
53.491665,2000,0,91.24,0.000002697398,0.000002697398,0.000002697398,0.99999994,0,0,0,0,0,0,0.4015748,0,0,0,0,false,false,false,0,94.27,17.01,-0.003347471,0.0033582605,0.7070959,0.70710164,0,324.901,8.321,-0.00061,0,0
53.5,2000,0,91.24,0.000002697398,0.000002697398,0.000002697398,0.99999994,0,0,0,0,0,0,0.4015748,0,0,0,0,false,false,false,0,96.979996,17.01,-0.003347471,0.0033582605,0.7070959,0.70710164,0,329.131,8.321,-0.00061,0,0
53.508335,2000,0,91.24,0.000002697398,0.000002697398,0.000002697398,0.99999994,0,0,0,0,0,0,0.4015748,0,0,0,0,false,false,false,0,99.72,17.01,-0.003347471,0.0033582605,0.7070959,0.70710164,0,333.351,8.321,-0.00061,0,0
53.516666,2000,0,91.24,0.000002697398,0.000002697398,0.000002697398,0.99999994,0,0,0,0,0,0,0.4015748,0,0,0,0,false,false,false,0,102.5,17.01,-0.003347471,0.0033582605,0.7070959,0.70710164,0,337.551,8.321,-0.00061,0,0
53.525,2000,0,91.24,0.000002697398,0.000002697398,0.000002697398,0.99999994,0,0,0,0,0,0,0.4015748,0,0,0,0,false,false,false,0,105.31,17.01,-0.003347471,0.0033582605,0.7070959,0.70710164,0,341.741,8.321,-0.00061,0,0
53.533333,2000,0,91.24,0.000002697398,0.000002697398,0.000002697398,0.99999994,0,0,0,0,0,0,0.4015748,0,0,0,0,false,false,false,0,108.159996,17.01,-0.003347471,0.0033582605,0.7070959,0.70710164,0,345.911,8.321,-0.00061,0,0
53.541668,2000,0,91.24,0.000002697398,0.000002697398,0.000002697398,0.99999994,0,0,0,0,0,0,0.4015748,0,0,0,0,false,false,false,0,111.04,17.01,-0.003347471,0.0033582605,0.7070959,0.70710164,0,350.071,8.321,-0.00061,0,0
53.55,2000,0,91.24,0.000002697398,0.000002697398,0.000002697398,0.99999994,0,0,0,0,0,0,0.4015748,0,0,0,0,false,false,false,0,113.96,17.01,-0.003347471,0.0033582605,0.7070959,0.70710164,0,354.221,8.321,-0.00061,0,0
53.558334,2000,0,91.24,0.000002697398,0.000002697398,0.000002697398,0.99999994,0,0,0,0,0,0,0.4015748,0,0,0,0,false,false,false,0,116.909996,17.01,-0.003347471,0.0033582605,0.7070959,0.70710164,0,358.351,8.321,-0.00061,0,0
53.566666,2000,0,91.24,0.000002697398,0.000002697398,0.000002697398,0.99999994,0,0,0,0,0,0,0.4015748,0,0,0,0,false,false,false,0,119.899994,17.01,-0.003347471,0.0033582605,0.7070959,0.70710164,0,362.471,8.321,-0.00061,0,0
53.575,2000,0,91.24,0.000002697398,0.000002697398,0.000002697398,0.99999994,0,0,0,0,0,0,0.4015748,0,0,0,0,false,false,false,0,122.92,17.01,-0.003347471,0.0033582605,0.7070959,0.70710164,0,366.57098,8.321,-0.00061,0,0
53.583332,2000,0,91.24,0.000002697398,0.000002697398,0.000002697398,0.99999994,0,0,0,0,0,0,0.4015748,0,0,0,0,false,false,false,0,125.96999,17.01,-0.003347471,0.0033582605,0.7070959,0.70710164,0,370.661,8.321,-0.00061,0,0
53.591667,2000,0,91.24,0.000002697398,0.000002697398,0.000002697398,0.99999994,0,0,0,0,0,0,0.4015748,0,0,0,0,false,false,false,0,129.06,17.01,-0.003347471,0.0033582605,0.7070959,0.70710164,0,374.731,8.321,-0.00061,0,0
53.6,2000,0,91.24,0.000002697398,0.000002697398,0.000002697398,0.99999994,0,0,0,0,0,0,0.4015748,0,0,0,0,false,false,false,0,132.18,17.01,-0.003347471,0.0033582605,0.7070959,0.70710164,0,378.791,8.321,-0.00061,0,0
53.608334,2000,0,91.24,0.000002697398,0.000002697398,0.000002697398,0.99999994,0,0,0,0,0,0,0.4015748,0,0,0,0,false,false,false,0,135.34,17.01,-0.003347471,0.0033582605,0.7070959,0.70710164,0,382.841,8.321,-0.00061,0,0
53.616665,2000,0,91.24,0.000002697398,0.000002697398,0.000002697398,0.99999994,0,0,0,0,0,0,0.4015748,0,0,0,0,false,false,false,0,138.53,17.01,-0.003347471,0.0033582605,0.7070959,0.70710164,0,386.871,8.321,-0.00061,0,0
53.625,2000,0,91.24,0.000002697398,0.000002697398,0.000002697398,0.99999994,0,0,0,0,0,0,0.4015748,0,0,0,0,false,false,false,0,141.75,17.01,-0.003347471,0.0033582605,0.7070959,0.70710164,0,390.891,8.321,-0.00061,0,0
53.633335,2000,0,91.24,0.000002697398,0.000002697398,0.000002697398,0.99999994,0,0,0,0,0,0,0.4015748,0,0,0,0,false,false,false,0,145.01,17.01,-0.003347471,0.0033582605,0.7070959,0.70710164,0,394.891,8.321,-0.00061,0,0
53.641666,2000,0,91.24,0.000002697398,0.000002697398,0.000002697398,0.99999994,0,0,0,0,0,0,0.4015748,0,0,0,0,false,false,false,0,148.3,17.01,-0.003347471,0.0033582605,0.7070959,0.70710164,0,398.881,8.321,-0.00061,0,0
53.65,2000,0,91.24,0.000002697398,0.000002697398,0.000002697398,0.99999994,0,0,0,0,0,0,0.4015748,0,0,0,0,false,false,false,0,151.62,17.01,-0.003347471,0.0033582605,0.7070959,0.70710164,0,402.861,8.321,-0.00061,0,0
53.658333,2000,0,91.24,0.000002697398,0.000002697398,0.000002697398,0.99999994,0,0,0,0,0,0,0,1,0,0,0,false,false,true,0,154.98,17.01,-0.003347471,0.0033582605,0.7070959,0.70710164,-10.011001,399.081,8.351,-0.00091,0.00241,0.26971
53.666668,2000,0,91.24,0.000002697398,0.000002697398,0.000002697398,0.99999994,0,0,0,0,0,0,0,1,0,0,0,false,false,true,-0.08,158.31,17.01,-0.003347471,0.0033636554,0.7078883,0.7063083,-16.601,396.57098,8.361,-0.0010099999,0.00301,0.44661
53.675,2000,0,91.24,0.000002697398,0.000002697398,0.000002697398,0.99999994,0,0,0,0,0,0,0,1,0,0,0,false,false,true,-0.22,161.61,17.01,-0.003347471,0.00336905,0.7091993,0.70499194,-22.401,394.361,8.361,-0.0010099999,0.00311,0.59861
53.683334,2000,0,91.24,0.000002697398,0.000002697398,0.000002697398,0.99999994,0,0,0,0,0,0,0,1,0,0,0,false,false,true,-0.41,164.9,17.01,-0.003347471,0.003374445,0.7109539,0.70322245,-27.571,392.401,8.361,-0.0010099999,0.00281,0.72881
53.691666,2000,0,91.24,0.000002697398,0.000002697398,0.000002697398,0.99999994,0,0,0,0,0,0,0,1,0,0,0,false,false,true,-0.64,168.17,17.01,-0.003352866,0.0033744453,0.71308714,0.7010592,-32.240997,390.651,8.361,-0.0010099999,0.0023100001,0.83991
53.7,2000,0,91.24,0.000002697398,0.000002697398,0.000002697398,0.99999994,0,0,0,0,0,0,0,1,0,0,0,false,false,true,-0.90999997,171.43,17.01,-0.0033582607,0.0033744453,0.7155342,0.69856143,-36.510998,389.07098,8.361,-0.00091,0.0018099999,0.93461
53.708332,2000,0,91.24,0.000002697398,0.000002697398,0.000002697398,0.99999994,0,0,0,0,0,0,0,1,0,0,0,false,false,true,-1.2099999,174.67,17.01,-0.00336905,0.00336905,0.71824664,0.6957722,-40.461,387.641,8.351,-0.00081,0.0012099999,1.01521
53.716667,2000,0,91.24,0.000002697398,0.000002697398,0.000002697398,0.99999994,0,0,0,0,0,0,0,1,0,0,0,false,false,true,-1.55,177.9,17.01,-0.0033798397,0.0033582605,0.7211817,0.6927295,-44.141,386.32098,8.351,-0.00071,0.00071,1.08381
53.725,2000,0,91.24,0.000002697398,0.000002697398,0.000002697398,0.99999994,0,0,0,0,0,0,0,1,0,0,0,false,false,true,-1.92,181.12,17.01,-0.0033960242,0.003347471,0.7243026,0.68946564,-47.600998,385.101,8.351,-0.00071,0.00030999997,1.14221
53.733334,2000,0,91.24,0.000002697398,0.000002697398,0.000002697398,0.99999994,0,0,0,0,0,0,0,1,0,0,0,false,false,true,-2.32,184.33,17.01,-0.0034122085,0.0033366815,0.7275735,0.686013,-50.871,383.961,8.341001,-0.00061,0,1.19191
53.741665,2000,0,91.24,0.000002697398,0.000002697398,0.000002697398,0.99999994,0,0,0,0,0,0,0,1,0,0,0,false,false,true,-2.74,187.53,17.01,-0.003428393,0.003320497,0.7309697,0.6823931,-53.981,382.891,8.341001,-0.00051,-0.00030999997,1.23421
53.75,2000,0,91.24,0.000002697398,0.000002697398,0.000002697398,0.99999994,0,0,0,0,0,0,0,1,0,0,0,false,false,true,-3.1899998,190.72,17.01,-0.0034499723,0.0033043127,0.73446697,0.6786275,-56.940998,381.871,8.341001,-0.00040999998,-0.00051,1.27021
53.758335,2000,0,91.24,0.000002697398,0.000002697398,0.000002697398,0.99999994,0,0,0,0,0,0,0,1,0,0,0,false,false,true,-3.6599998,193.9,17.01,-0.0034715508,0.0032881277,0.7380468,0.6747324,-59.760998,380.901,8.341001,-0.00030999997,-0.00071,1.30081
53.766666,2000,0,91.24,0.000002697398,0.000002697398,0.000002697398,0.99999994,0,0,0,0,0,0,0,1,0,0,0,false,false,true,-4.16,197.06999,17.01,-0.0034931304,0.003266549,0.74169147,0.67072403,-62.450996,379.971,8.341001,-0.00021,-0.00091,1.32681
53.775,2000,0,91.24,0.000002697398,0.000002697398,0.000002697398,0.99999994,0,0,0,0,0,0,0,1,0,0,0,false,false,true,-4.68,200.23999,17.01,-0.0035147096,0.0032449698,0.7453883,0.6666132,-65.011,379.081,8.331,-0.00021,-0.0010099999,1.34881
53.783333,2000,0,91.24,0.000002697398,0.000002697398,0.000002697398,0.99999994,0,0,0,0,0,0,0,1,0,0,0,false,false,true,-5.22,203.4,17.01,-0.0035362889,0.0032233908,0.7491208,0.66241604,-67.431,378.231,8.331,-0.00010999999,-0.0010099999,1.36741
53.791668,2000,0,91.24,0.000002697398,0.000002697398,0.000002697398,0.99999994,0,0,0,0,0,0,0,1,0,0,0,false,false,true,-5.7799997,206.54999,17.01,-0.003557868,0.0032018116,0.75288206,0.658138,-69.701,377.421,8.331,-0.00010999999,-0.0010099999,1.3831099
53.8,2000,0,91.24,0.000002697398,0.000002697398,0.000002697398,0.99999994,0,0,0,0,0,0,0,1,0,0,0,false,false,true,-6.3599997,209.7,17.01,-0.0035794473,0.0031802324,0.756661,0.65378976,-71.821,376.651,8.331,-0.00010999999,-0.0010099999,1.39621
53.808334,2000,0,91.24,0.000002697398,0.000002697398,0.000002697398,0.99999994,0,0,0,0,0,0,0,1,0,0,0,false,false,true,-6.96,212.84,17.01,-0.0036010265,0.0031586532,0.7604516,0.64937675,-73.770996,375.931,8.331,0,-0.0010099999,1.40711
53.816666,2000,0,91.24,0.000002697398,0.000002697398,0.000002697398,0.99999994,0,0,0,0,0,0,0,1,0,0,0,false,false,true,-7.5699997,215.97,17.01,-0.0036226057,0.003137074,0.7642481,0.64490443,-75.541,375.261,8.331,0,-0.0010099999,1.41601
53.825,2000,0,91.24,0.000002697398,0.000002697398,0.000002697398,0.99999994,0,0,0,0,0,0,0,1,0,0,0,false,false,true,-8.2,219.09999,17.01,-0.003644185,0.0031154947,0.7680402,0.6403836,-77.111,374.651,8.331,0,-0.0010099999,1.42321
53.833332,2000,0,91.24,0.000002697398,0.000002697398,0.000002697398,0.99999994,0,0,0,0,0,0,0,1,0,0,0,false,false,true,-8.84,222.22,17.01,-0.0036657641,0.003088521,0.77182275,0.6358197,-78.461,374.111,8.321,0,-0.0010099999,1.42881
53.841667,2000,0,91.24,0.000002697398,0.000002697398,0.000002697398,0.99999994,0,0,0,0,0,0,0,1,0,0,0,false,false,true,-9.49,225.34,17.01,-0.003687343,0.0030615467,0.77559507,0.6312125,-79.571,373.661,8.321,0,-0.0010099999,1.43301
53.85,2000,0,91.24,0.000002697398,0.000002697398,0.000002697398,0.99999994,0,0,0,0,0,0,0,1,0,0,0,false,false,true,-10.15,228.45,17.01,-0.0037089223,0.0030345728,0.779348,0.62657285,-80.410995,373.311,8.321,0,-0.00091,1.43591
53.858334,2000,0,91.24,0.000002697398,0.000002697398,0.000002697398,0.99999994,0,0,0,0,0,0,0,1,0,0,0,false,false,true,-10.82,231.56,17.01,-0.0037305017,0.0030075992,0.7830812,0.62190104,-81.291,372.931,8.321,0,-0.00081,1.43881
53.866665,2000,0,91.24,0.000002697398,0.000002697398,0.000002697398,0.99999994,0,0,0,0,0,0,0,1,0,0,0,false,false,true,-11.5,234.67,17.01,-0.0037520807,0.0029806248,0.78679425,0.6171967,-82.211,372.521,8.321,0,-0.00071,1.44161
53.875,2000,0,91.24,0.000002697398,0.000002697398,0.000002697398,0.99999994,0,0,0,0,0,0,0,1,0,0,0,false,false,true,-12.19,237.76999,17.01,-0.00377366,0.002953651,0.79048693,0.6124601,-83.171,372.081,8.321,0,-0.00061,1.44431
53.883335,2000,0,91.24,0.000002697398,0.000002697398,0.000002697398,0.99999994,0,0,0,0,0,0,0,1,0,0,0,false,false,true,-12.88,240.87,17.01,-0.0037952394,0.002926677,0.794159,0.6076911,-84.171,371.611,8.321,0,-0.00051,1.4470099
53.891666,2000,0,91.24,0.000002697398,0.000002697398,0.000002697398,0.99999994,0,0,0,0,0,0,0,1,0,0,0,false,false,true,-13.58,243.97,17.01,-0.003816818,0.0029050976,0.7978101,0.60288954,-85.201,371.111,8.321,0,-0.00040999998,1.44961
53.9,2000,0,91.24,0.000002697398,0.000002697398,0.000002697398,0.99999994,0,0,0,0,0,0,0,1,0,0,0,false,false,true,-14.29,247.06,17.01,-0.0038330026,0.0028835186,0.80143595,0.59806126,-86.270996,370.581,8.321,0,-0.00030999997,1.4521099
53.908333,2000,0,91.24,0.000002697398,0.000002697398,0.000002697398,0.99999994,0,0,0,0,0,0,0,1,0,0,0,false,false,true,-15.009999,250.15,17.01,-0.0038491872,0.0028619394,0.8050403,0.59320056,-87.370995,370.021,8.321,0,-0.00030999997,1.45461
53.916668,2000,0,91.24,0.000002697398,0.000002697398,0.000002697398,0.99999994,0,0,0,0,0,0,0,1,0,0,0,false,false,true,-15.74,253.23,17.01,-0.0038653717,0.0028403604,0.8086191,0.5883129,-88.501,369.431,8.321,0,-0.00030999997,1.45701
53.925,2000,0,91.24,0.000002697398,0.000002697398,0.000002697398,0.99999994,0,0,0,0,0,0,0,1,0,0,0,false,false,true,-16.48,256.31,17.01,-0.0038815557,0.002818781,0.8121759,0.58339274,-89.660995,368.811,8.321,0,-0.00030999997,1.4593099
53.933334,2000,0,91.24,0.000002697398,0.000002697398,0.000002697398,0.99999994,0,0,0,0,0,0,0,1,0,0,0,false,false,true,-17.23,259.38,17.01,-0.0038977403,0.002791807,0.8157067,0.5784457,-90.851,368.151,8.321,0,-0.00030999997,1.46161
53.941666,2000,0,91.24,0.000002697398,0.000002697398,0.000002697398,0.99999994,0,0,0,0,0,0,0,1,0,0,0,false,false,true,-17.99,262.44998,17.01,-0.0039139246,0.002764833,0.81921506,0.5734663,-92.061,367.461,8.321,0,-0.00030999997,1.46381
53.95,2000,0,91.24,0.000002697398,0.000002697398,0.000002697398,0.99999994,0,0,0,0,0,0,0,1,0,0,0,false,false,true,-18.76,265.50998,17.01,-0.0039301086,0.002737859,0.8226969,0.5684599,-93.300995,366.741,8.321,0,-0.00030999997,1.46591
53.958332,2000,0,91.24,0.000002697398,0.000002697398,0.000002697398,0.99999994,0,0,0,0,0,0,0,1,0,0,0,false,false,true,-19.539999,268.57,17.01,-0.0039462927,0.0027108847,0.8261522,0.56342643,-94.561,365.991,8.321,0,-0.00030999997,1.46801
53.966667,2000,0,91.24,0.000002697398,0.000002697398,0.000002697398,0.99999994,0,0,0,0,0,0,0,1,0,0,0,false,false,true,-20.33,271.62,17.01,-0.003962478,0.0026839112,0.82958436,0.5583609,-95.840996,365.211,8.321,0,-0.00030999997,1.4700099
53.975,2000,0,91.24,0.000002697398,0.000002697398,0.000002697398,0.99999994,0,0,0,0,0,0,0,1,0,0,0,false,false,true,-21.13,274.66,17.01,-0.0039786617,0.0026569369,0.8329894,0.553268,-97.141,364.391,8.321,0,-0.00030999997,1.47191
53.983334,2000,0,91.24,0.000002697398,0.000002697398,0.000002697398,0.99999994,0,0,0,0,0,0,0,1,0,0,0,false,false,true,-21.939999,277.69998,17.01,-0.003994846,0.0026299627,0.8363672,0.5481484,-98.461,363.541,8.321,0,-0.00030999997,1.47371
53.991665,2000,0,91.24,0.000002697398,0.000002697398,0.000002697398,0.99999994,0,0,0,0,0,0,0,1,0,0,0,false,false,true,-22.76,280.72998,17.01,-0.004011031,0.002602989,0.8397178,0.54300183,-99.791,362.661,8.321,-0.00010999999,-0.00030999997,1.47551
54,2000,0,91.24,0.000002697398,0.000002697398,0.000002697398,0.99999994,0,0,0,0,0,0,0,1,0,0,0,false,false,true,-23.59,283.75,17.01,-0.0040272153,0.0025760152,0.8430409,0.5378281,-101.141,361.741,8.321,-0.00010999999,-0.00021,1.4772099
54.008335,2000,0,91.24,0.000002697398,0.000002697398,0.000002697398,0.99999994,0,0,0,0,0,0,0,1,0,0,0,false,false,true,-24.43,286.75998,17.01,-0.0040433994,0.002549041,0.8463362,0.5326275,-102.501,360.791,8.321,-0.00021,-0.00021,1.47881
54.016666,2000,0,91.24,0.000002697398,0.000002697398,0.000002697398,0.99999994,0,0,0,0,0,0,0,1,0,0,0,false,false,true,-25.279999,289.77,17.01,-0.0040595834,0.002522067,0.84960353,0.5273999,-103.881,359.811,8.321,-0.00021,-0.00021,1.48041
54.025,2000,0,91.24,0.000002697398,0.000002697398,0.000002697398,0.99999994,0,0,0,0,0,0,0,1,0,0,0,false,false,true,-26.15,292.77,17.01,-0.0040757684,0.0024950933,0.8528397,0.5221508,-105.270996,358.791,8.321,-0.00021,-0.00021,1.48191
54.033333,2000,0,91.24,0.000002697398,0.000002697398,0.000002697398,0.99999994,0,0,0,0,0,0,0,1,0,0,0,false,false,true,-27.029999,295.75998,17.01,-0.0040919525,0.0024681191,0.8560477,0.5168746,-106.671,357.741,8.321,-0.00021,-0.00010999999,1.48331
54.041668,2000,0,91.24,0.000002697398,0.000002697398,0.000002697398,0.99999994,0,0,0,0,0,0,0,1,0,0,0,false,false,true,-27.92,298.74,17.01,-0.0041081365,0.002441145,0.85922724,0.51157147,-108.08099,356.661,8.321,-0.00030999997,-0.00010999999,1.48461
54.05,2000,0,91.24,0.000002697398,0.000002697398,0.000002697398,0.99999994,0,0,0,0,0,0,0,1,0,0,0,false,false,true,-28.82,301.71,17.01,-0.0041243215,0.0024141711,0.86237526,0.50624686,-109.491,355.541,8.321,-0.00030999997,-0.00010999999,1.4859099
54.058334,2000,0,91.24,0.000002697398,0.000002697398,0.000002697398,0.99999994,0,0,0,0,0,0,0,1,0,0,0,false,false,true,-29.73,304.66998,17.01,-0.004140506,0.0023871972,0.8654946,0.50089526,-110.910995,354.391,8.321,-0.00030999997,0,1.48711
54.066666,2000,0,91.24,0.000002697398,0.000002697398,0.000002697398,0.99999994,0,0,0,0,0,0,0,1,0,0,0,false,false,true,-30.65,307.62,17.01,-0.00415669,0.0023602233,0.8685822,0.49552196,-112.340996,353.211,8.321,-0.00030999997,0,1.48821
54.075,2000,0,91.24,0.000002697398,0.000002697398,0.000002697398,0.99999994,0,0,0,0,0,0,0,1,0,0,0,false,false,true,-31.59,310.56,17.01,-0.0041728746,0.0023332492,0.87163776,0.49012718,-113.770996,352.001,8.321,-0.00030999997,0,1.48921
54.083332,2000,0,91.24,0.000002697398,0.000002697398,0.000002697398,0.99999994,0,0,0,0,0,0,0,1,0,0,0,false,false,true,-32.54,313.49,17.01,-0.004189059,0.0023062753,0.8746613,0.4847108,-115.201,350.751,8.321,-0.00030999997,0,1.4902099
54.091667,2000,0,91.24,0.000002697398,0.000002697398,0.000002697398,0.99999994,0,0,0,0,0,0,0,1,0,0,0,false,false,true,-33.5,316.41,17.01,-0.0042052427,0.0022793012,0.87765276,0.47927278,-116.631,349.471,8.321,-0.00030999997,0,1.49111
54.1,2000,0,91.24,0.000002697398,0.000002697398,0.000002697398,0.99999994,0,0,0,0,0,0,0,1,0,0,0,false,false,true,-34.469997,319.32,17.01,-0.0042214277,0.0022523273,0.8806123,0.47381324,-118.061,348.161,8.321,-0.00030999997,0,1.49191
54.108334,2000,0,91.24,0.000002697398,0.000002697398,0.000002697398,0.99999994,0,0,0,0,0,0,0,1,0,0,0,false,false,true,-35.45,322.22,17.01,-0.0042376122,0.0022253534,0.8835395,0.4683321,-119.491,346.821,8.321,-0.00030999997,0,1.49261
54.116665,2000,0,91.24,0.000002697398,0.000002697398,0.000002697398,0.99999994,0,0,0,0,0,0,0,1,0,0,0,false,false,true,-36.45,325.11,17.01,-0.0042537972,0.0021983795,0.8864344,0.46282944,-120.921,345.451,8.321,-0.00030999997,0,1.49331
54.125,2000,0,91.24,0.000002697398,0.000002697398,0.000002697398,0.99999994,0,0,0,0,0,0,0,1,0,0,0,false,false,true,-37.46,327.99,17.01,-0.0042699804,0.0021714051,0.88929677,0.4573051,-122.351,344.051,8.321,-0.00030999997,0,1.49391
54.133335,2000,0,91.24,0.000002697398,0.000002697398,0.000002697398,0.99999994,0,0,0,0,0,0,0,1,0,0,0,false,false,true,-38.48,330.86,17.01,-0.0042861653,0.0021444315,0.892127,0.45175922,-123.770996,342.611,8.321,-0.00030999997,0.00010999999,1.4944099
54.141666,2000,0,91.24,0.000002697398,0.000002697398,0.000002697398,0.99999994,0,0,0,0,0,0,0,1,0,0,0,false,false,true,-39.51,333.72,17.01,-0.004296955,0.0021174573,0.8949218,0.44619718,-125.190994,341.141,8.321,-0.00030999997,0.00021,1.49481
54.15,2000,0,91.24,0.000002697398,0.000002697398,0.000002697398,0.99999994,0,0,0,0,0,0,0,1,0,0,0,false,false,true,-40.55,336.56,17.01,-0.004307744,0.0020904832,0.897684,0.4406135,-126.601,339.641,8.321,-0.00030999997,0.00021,1.4952099
54.158333,2000,0,91.24,0.000002697398,0.000002697398,0.000002697398,0.99999994,0,0,0,0,0,0,0,1,0,0,0,false,false,true,-41.61,339.38998,17.01,-0.004318534,0.0020635095,0.900411,0.43501377,-128.011,338.121,8.321,-0.00030999997,0.00021,1.49551
54.166668,2000,0,91.24,0.000002697398,0.000002697398,0.000002697398,0.99999994,0,0,0,0,0,0,0,1,0,0,0,false,false,true,-42.68,342.21,17.01,-0.004329324,0.0020365354,0.9031053,0.4293923,-129.41101,336.571,8.321,-0.00030999997,0.00010999999,1.49571
54.175,2000,0,91.24,0.000002697398,0.000002697398,0.000002697398,0.99999994,0,0,0,0,0,0,0,1,0,0,0,false,false,true,-43.76,345.00998,17.01,-0.004340113,0.0020095615,0.9057643,0.42375475,-130.80101,334.991,8.321,-0.00030999997,0.00010999999,1.49581
54.183334,2000,0,91.24,0.000002697398,0.000002697398,0.000002697398,0.99999994,0,0,0,0,0,0,0,1,0,0,0,false,false,true,-44.85,347.8,17.01,-0.0043509034,0.0019825876,0.9083879,0.41810104,-132.181,333.381,8.321,-0.00040999998,0,1.49581
54.191666,2000,0,91.24,0.000002697398,0.000002697398,0.000002697398,0.99999994,0,0,0,0,0,0,0,1,0,0,0,false,false,true,-45.95,350.58,17.01,-0.004361693,0.0019556137,0.91097623,0.4124311,-133.55101,331.741,8.321,-0.00040999998,0,1.49581
54.2,2000,0,91.24,0.000002697398,0.000002697398,0.000002697398,0.99999994,0,0,0,0,0,0,0,1,0,0,0,false,false,true,-47.059998,353.34,17.01,-0.0043724827,0.0019286397,0.9135293,0.4067449,-134.91101,330.071,8.321,-0.00040999998,0,1.49571
54.208332,2000,0,91.24,0.000002697398,0.000002697398,0.000002697398,0.99999994,0,0,0,0,0,0,0,1,0,0,0,false,false,true,-48.18,356.09,17.01,-0.0043832716,0.0019016657,0.91604686,0.40104258,-136.261,328.381,8.321,-0.00040999998,0,1.49551
54.216667,2000,0,91.24,0.000002697398,0.000002697398,0.000002697398,0.99999994,0,0,0,0,0,0,0,1,0,0,0,false,false,true,-49.32,358.83,17.01,-0.0043940614,0.0018746917,0.9185292,0.39532408,-137.591,326.661,8.321,-0.00040999998,0,1.4952099
54.225,2000,0,91.24,0.000002697398,0.000002697398,0.000002697398,0.99999994,0,0,0,0,0,0,0,1,0,0,0,false,false,true,-50.469997,361.55,17.01,-0.004404851,0.0018477177,0.9209739,0.38959482,-138.91101,324.921,8.321,-0.00040999998,0,1.49481
54.233334,2000,0,91.24,0.000002697398,0.000002697398,0.000002697398,0.99999994,0,0,0,0,0,0,0,1,0,0,0,false,false,true,-51.629997,364.25998,17.01,-0.004415641,0.0018207438,0.92338336,0.3838493,-140.211,323.151,8.321,-0.00040999998,0,1.4944099
54.241665,2000,0,91.24,0.000002697398,0.000002697398,0.000002697398,0.99999994,0,0,0,0,0,0,0,1,0,0,0,false,false,true,-52.8,366.94998,17.01,-0.00442643,0.0017937698,0.9257552,0.37809303,-141.501,321.361,8.321,-0.00040999998,0,1.49391
54.25,2000,0,91.24,0.000002697398,0.000002697398,0.000002697398,0.99999994,0,0,0,0,0,0,0,1,0,0,0,false,false,true,-53.98,369.63,17.01,-0.00443722,0.0017667958,0.9280918,0.3723206,-142.77101,319.541,8.321,-0.00040999998,0,1.49331
54.258335,2000,0,91.24,0.000002697398,0.000002697398,0.000002697398,0.99999994,0,0,0,0,0,0,0,1,0,0,0,false,false,true,-55.17,372.28998,17.01,-0.004448009,0.0017398217,0.930391,0.36653736,-144.02101,317.701,8.321,-0.00040999998,0,1.49261
54.266666,2000,0,91.24,0.000002697398,0.000002697398,0.000002697398,0.99999994,0,0,0,0,0,0,0,1,0,0,0,false,false,true,-56.37,374.94,17.01,-0.004458799,0.0017128477,0.93265283,0.36074328,-145.261,315.841,8.321,-0.00040999998,0,1.49191
54.275,2000,0,91.24,0.000002697398,0.000002697398,0.000002697398,0.99999994,0,0,0,0,0,0,0,1,0,0,0,false,false,true,-57.579998,377.56998,17.01,-0.0044695884,0.0016858738,0.9348774,0.35493848,-146.481,313.961,8.321,-0.00040999998,0,1.49111
54.283333,2000,0,91.24,0.000002697398,0.000002697398,0.000002697398,0.99999994,0,0,0,0,0,0,0,1,0,0,0,false,false,true,-58.8,380.19,17.01,-0.0044803782,0.0016588998,0.9370647,0.34912288,-147.681,312.051,8.321,-0.00040999998,0,1.4902099
54.291668,2000,0,91.24,0.000002697398,0.000002697398,0.000002697398,0.99999994,0,0,0,0,0,0,0,1,0,0,0,false,false,true,-60.03,382.78998,17.01,-0.0044911676,0.0016319258,0.9392149,0.3432965,-148.86101,310.121,8.321,-0.00040999998,0,1.48921
54.3,2000,0,91.24,0.000002697398,0.000002697398,0.000002697398,0.99999994,0,0,0,0,0,0,0,1,0,0,0,false,false,true,-61.27,385.37,17.01,-0.0045019574,0.0016049518,0.941326,0.33746463,-150.02101,308.171,8.321,-0.00040999998,0,1.48811
54.308334,2000,0,91.24,0.000002697398,0.000002697398,0.000002697398,0.99999994,0,0,0,0,0,0,0,1,0,0,0,false,false,true,-62.52,387.94,17.01,-0.0045127473,0.001577978,0.9434002,0.3316221,-151.16101,306.201,8.321,-0.00040999998,0,1.48701
54.316666,2000,0,91.24,0.000002697398,0.000002697398,0.000002697398,0.99999994,0,0,0,0,0,0,0,1,0,0,0,false,false,true,-63.78,390.49,17.01,-0.004523536,0.0015510039,0.9454373,0.3257687,-152.281,304.221,8.321,-0.00030999997,0,1.4858099
54.325,2000,0,91.24,0.000002697398,0.000002697398,0.000002697398,0.99999994,0,0,0,0,0,0,0,1,0,0,0,false,false,true,-65.049995,393.03,17.01,-0.0045343265,0.00152403,0.94743586,0.31990993,-153.381,302.221,8.321,-0.00030999997,0,1.48451
54.333332,2000,0,91.24,0.000002697398,0.000002697398,0.000002697398,0.99999994,0,0,0,0,0,0,0,1,0,0,0,false,false,true,-66.33,395.55,17.01,-0.0045451154,0.0014970559,0.9493957,0.31404576,-154.451,300.201,8.321,-0.00030999997,0,1.48311
54.341667,2000,0,91.24,0.000002697398,0.000002697398,0.000002697398,0.99999994,0,0,0,0,0,0,0,1,0,0,0,false,false,true,-67.619995,398.05,17.01,-0.0045559057,0.0014700821,0.951319,0.30817083,-155.501,298.161,8.321,-0.00021,0,1.48171
54.35,2000,0,91.24,0.000002697398,0.000002697398,0.000002697398,0.99999994,0,0,0,0,0,0,0,1,0,0,0,false,false,true,-68.92,400.53,17.01,-0.004566695,0.0014431081,0.9532038,0.3022905,-156.531,296.111,8.321,-0.00021,0,1.48021
54.358334,2000,0,91.24,0.000002697398,0.000002697398,0.000002697398,0.99999994,0,0,0,0,0,0,0,1,0,0,0,false,false,true,-70.22,403,17.01,-0.0045774844,0.001416134,0.95505035,0.29640466,-157.531,294.04102,8.321,-0.00010999999,0,1.4786099
54.366665,2000,0,91.24,0.000002697398,0.000002697398,0.000002697398,0.99999994,0,0,0,0,0,0,0,1,0,0,0,false,false,true,-71.53,405.44998,17.01,-0.004588274,0.0013891599,0.9568588,0.29051355,-158.511,291.961,8.321,-0.00010999999,0,1.47691
54.375,2000,0,91.24,0.000002697398,0.000002697398,0.000002697398,0.99999994,0,0,0,0,0,0,0,1,0,0,0,false,false,true,-72.85,407.88,17.01,-0.0045990637,0.001362186,0.95862925,0.28461704,-159.461,289.861,8.321,0,0,1.47521
54.383335,2000,0,91.24,0.000002697398,0.000002697398,0.000002697398,0.99999994,0,0,0,0,0,0,0,1,0,0,0,false,false,true,-74.18,410.3,17.01,-0.0046098535,0.0013352121,0.9603602,0.27872056,-160.391,287.751,8.321,0,0,1.47341
54.391666,2000,0,91.24,0.000002697398,0.000002697398,0.000002697398,0.99999994,0,0,0,0,0,0,0,1,0,0,0,false,false,true,-75.52,412.69998,17.01,-0.004615248,0.001308238,0.9620535,0.27281854,-161.291,285.631,8.321,0,0,1.4715099
54.4,2000,0,91.24,0.000002697398,0.000002697398,0.000002697398,0.99999994,0,0,0,0,0,0,0,1,0,0,0,false,false,true,-76.86,415.08,17.01,-0.004620643,0.001281264,0.9637076,0.26691663,-162.171,283.501,8.321,0,0,1.46951
54.408333,2000,0,91.24,0.000002697398,0.000002697398,0.000002697398,0.99999994,0,0,0,0,0,0,0,1,0,0,0,false,false,true,-78.21,417.44,17.01,-0.0046260376,0.0012542901,0.96532434,0.26100934,-163.021,281.361,8.321,0,0,1.46751
54.416668,2000,0,91.24,0.000002697398,0.000002697398,0.000002697398,0.99999994,0,0,0,0,0,0,0,1,0,0,0,false,false,true,-79.57,419.78,17.01,-0.0046314322,0.0012273161,0.9669022,0.25510204,-163.851,279.211,8.321,0,0,1.46541
54.425,2000,0,91.24,0.000002697398,0.000002697398,0.000002697398,0.99999994,0,0,0,0,0,0,0,1,0,0,0,false,false,true,-80.939995,422.11,17.01,-0.0046368274,0.0012003422,0.96844155,0.24919467,-164.651,277.051,8.321,0,0,1.46321
54.433334,2000,0,91.24,0.000002697398,0.000002697398,0.000002697398,0.99999994,0,0,0,0,0,0,0,1,0,0,0,false,false,true,-82.31,424.41998,17.01,-0.004642222,0.0011733681,0.9699424,0.24328735,-165.431,274.881,8.321,0,-0.00010999999,1.46091
54.441666,2000,0,91.24,0.000002697398,0.000002697398,0.000002697398,0.99999994,0,0,0,0,0,0,0,1,0,0,0,false,false,true,-83.689995,426.71,17.01,-0.0046476168,0.0011463942,0.971405,0.23738006,-166.181,272.701,8.321,0,-0.00010999999,1.4586099
54.45,2000,0,91.24,0.000002697398,0.000002697398,0.000002697398,0.99999994,0,0,0,0,0,0,0,1,0,0,0,false,false,true,-85.07,428.97998,17.01,-0.0046530114,0.0011194202,0.9728296,0.23147267,-166.901,270.511,8.321,0,-0.00021,1.45621
54.458332,2000,0,91.24,0.000002697398,0.000002697398,0.000002697398,0.99999994,0,0,0,0,0,0,0,1,0,0,0,false,false,true,-86.46,431.22998,17.01,-0.0046584066,0.0010924463,0.9742163,0.22556537,-167.591,268.321,8.321,0,-0.00021,1.45371
54.466667,2000,0,91.24,0.000002697398,0.000002697398,0.000002697398,0.99999994,0,0,0,0,0,0,0,1,0,0,0,false,false,true,-87.86,433.47,17.01,-0.0046638013,0.0010654721,0.97556514,0.21965806,-168.261,266.121,8.321,0,-0.00021,1.45111
54.475,2000,0,91.24,0.000002697398,0.000002697398,0.000002697398,0.99999994,0,0,0,0,0,0,0,1,0,0,0,false,false,true,-89.259995,435.69,17.01,-0.004669196,0.0010384982,0.97687525,0.21375616,-168.901,263.921,8.321,0,-0.00030999997,1.4485099
54.483334,2000,0,91.24,0.000002697398,0.000002697398,0.000002697398,0.99999994,0,0,0,0,0,0,0,1,0,0,0,false,false,true,-90.67,437.88998,17.01,-0.004674591,0.0010115243,0.9781481,0.20785418,-169.511,261.711,8.321,0,-0.00030999997,1.44581
54.491665,2000,0,91.24,0.000002697398,0.000002697398,0.000002697398,0.99999994,0,0,0,0,0,0,0,1,0,0,0,false,false,true,-92.079994,440.06998,17.01,-0.0046799853,0.0009845502,0.9793825,0.20195764,-170.101,259.501,8.321,0.00010999999,-0.00030999997,1.44301
54.5,2000,0,91.24,0.000002697398,0.000002697398,0.000002697398,0.99999994,0,0,0,0,0,0,0,1,0,0,0,false,false,true,-93.5,442.22998,17.01,-0.00468538,0.0009575762,0.9805788,0.19606651,-170.66101,257.29102,8.321,0.00010999999,-0.00030999997,1.44021
54.508335,2000,0,91.24,0.000002697398,0.000002697398,0.000002697398,0.99999994,0,0,0,0,0,0,0,1,0,0,0,false,false,true,-94.92,444.37,17.01,-0.004690775,0.0009306023,0.9817374,0.19018081,-171.19101,255.071,8.321,0.00010999999,-0.00030999997,1.43731
54.516666,2000,0,91.24,0.000002697398,0.000002697398,0.000002697398,0.99999994,0,0,0,0,0,0,0,1,0,0,0,false,false,true,-96.35,446.5,17.01,-0.00469617,0.00090362836,0.98285824,0.1843004,-171.69101,252.851,8.321,0.00021,-0.00030999997,1.43431
54.525,2000,0,91.24,0.000002697398,0.000002697398,0.000002697398,0.99999994,0,0,0,0,0,0,0,1,0,0,0,false,false,true,-97.78,448.61,17.01,-0.0047015646,0.00087665435,0.98394173,0.17842546,-172.171,250.631,8.321,0.00021,-0.00040999998,1.4313099
54.533333,2000,0,91.24,0.000002697398,0.000002697398,0.000002697398,0.99999994,0,0,0,0,0,0,0,1,0,0,0,false,false,true,-99.21,450.69998,17.01,-0.0047069597,0.0008496804,0.98498803,0.17255592,-172.621,248.411,8.321,0.00021,-0.00040999998,1.42821
54.541668,2000,0,91.24,0.000002697398,0.000002697398,0.000002697398,0.99999994,0,0,0,0,0,0,0,1,0,0,0,false,false,true,-100.65,452.77,17.01,-0.0047123544,0.00082270644,0.9859974,0.16669178,-173.041,246.191,8.321,0.00030999997,-0.00040999998,1.42501
54.55,2000,0,91.24,0.000002697398,0.000002697398,0.000002697398,0.99999994,0,0,0,0,0,0,0,1,0,0,0,false,false,true,-102.09,454.81998,17.01,-0.004717749,0.0007957324,0.98697,0.16083294,-173.44101,243.981,8.321,0.00030999997,-0.00040999998,1.42181
54.558334,2000,0,91.24,0.000002697398,0.000002697398,0.000002697398,0.99999994,0,0,0,0,0,0,0,1,0,0,0,false,false,true,-103.54,456.84998,17.01,-0.004723144,0.00076875853,0.9879052,0.154985,-173.811,241.771,8.321,0.00030999997,-0.00040999998,1.41851
54.566666,2000,0,91.24,0.000002697398,0.000002697398,0.000002697398,0.99999994,0,0,0,0,0,0,0,1,0,0,0,false,false,true,-104.99,458.86,17.01,-0.0047285384,0.00074178446,0.9888041,0.14914243,-174.151,239.561,8.321,0.00040999998,-0.00040999998,1.41511
54.575,2000,0,91.24,0.000002697398,0.000002697398,0.000002697398,0.99999994,0,0,0,0,0,0,0,1,0,0,0,false,false,true,-106.439995,460.86,17.01,-0.004733933,0.00070941565,0.98966604,0.14331055,-174.461,237.351,8.321,0.00040999998,-0.00040999998,1.41171
54.583332,2000,0,91.24,0.000002697398,0.000002697398,0.000002697398,0.99999994,0,0,0,0,0,0,0,1,0,0,0,false,false,true,-107.89,462.84,17.01,-0.004739328,0.00067704683,0.9904922,0.13748416,-174.751,235.151,8.321,0.00040999998,-0.00040999998,1.4082099
54.591667,2000,0,91.24,0.000002697398,0.000002697398,0.000002697398,0.99999994,0,0,0,0,0,0,0,1,0,0,0,false,false,true,-109.35,464.8,17.01,-0.004744723,0.00064467813,0.99128217,0.1316686,-175.011,232.951,8.321,0.00040999998,-0.00030999997,1.4046099
54.6,2000,0,91.24,0.000002697398,0.000002697398,0.000002697398,0.99999994,0,0,0,0,0,0,0,1,0,0,0,false,false,true,-110.81,466.74,17.01,-0.004750118,0.0006177042,0.9920359,0.1258638,-175.251,230.761,8.321,0.00030999997,-0.00030999997,1.40101
54.608334,2000,0,91.24,0.000002697398,0.000002697398,0.000002697398,0.99999994,0,0,0,0,0,0,0,1,0,0,0,false,false,true,-112.27,468.66,17.01,-0.004755513,0.00059073017,0.99275386,0.120069705,-175.461,228.571,8.321,0.00030999997,-0.00021,1.39731
54.616665,2000,0,91.24,0.000002697398,0.000002697398,0.000002697398,0.99999994,0,0,0,0,0,0,0,1,0,0,0,false,false,true,-113.729996,470.56,17.01,-0.0047609075,0.00056375616,0.9934362,0.11428648,-175.641,226.391,8.321,0.00030999997,-0.00021,1.39361
54.625,2000,0,91.24,0.000002697398,0.000002697398,0.000002697398,0.99999994,0,0,0,0,0,0,0,1,0,0,0,false,false,true,-115.189995,472.44998,17.01,-0.004766302,0.0005367822,0.9940833,0.10851405,-175.80101,224.22101,8.321,0.00030999997,-0.00010999999,1.38981
54.633335,2000,0,91.24,0.000002697398,0.000002697398,0.000002697398,0.99999994,0,0,0,0,0,0,0,1,0,0,0,false,false,true,-116.659996,474.31998,17.01,-0.0047716973,0.00050980825,0.9946948,0.10275781,-175.931,222.051,8.321,0.00030999997,-0.00010999999,1.38591
54.641666,2000,0,91.24,0.000002697398,0.000002697398,0.000002697398,0.99999994,0,0,0,0,0,0,0,1,0,0,0,false,false,true,-118.13,476.16998,17.01,-0.0047770925,0.0004828343,0.99527156,0.09701227,-176.041,219.891,8.321,0.00030999997,0,1.38201
54.65,2000,0,91.24,0.000002697398,0.000002697398,0.000002697398,0.99999994,0,0,0,0,0,0,0,1,0,0,0,false,false,true,-119.6,478,17.01,-0.0047770916,0.00045586022,0.9958138,0.091277584,-176.121,217.741,8.321,0.00030999997,0,1.37801
54.658333,2000,0,91.24,0.000002697398,0.000002697398,0.000002697398,0.99999994,0,0,0,0,0,0,0,1,0,0,0,false,false,true,-121.07,479.81,17.01,-0.004777092,0.0004288863,0.9963215,0.08555911,-176.181,215.601,8.321,0.00030999997,0,1.37401
54.666668,2000,0,91.24,0.000002697398,0.000002697398,0.000002697398,0.99999994,0,0,0,0,0,0,0,1,0,0,0,false,false,true,-122.54,481.61,17.01,-0.004777092,0.00040191232,0.9967952,0.07985141,-176.211,213.47101,8.321,0.00030999997,0,1.36991
54.675,2000,0,91.24,0.000002697398,0.000002697398,0.000002697398,0.99999994,0,0,0,0,0,0,0,1,0,0,0,false,false,true,-124.009995,483.38998,17.01,-0.004777092,0.00037493833,0.9972348,0.074159816,-176.22101,211.351,8.321,0.00030999997,0,1.36581
54.683334,2000,0,91.24,0.000002697398,0.000002697398,0.000002697398,0.99999994,0,0,0,0,0,0,0,1,0,0,0,false,false,true,-125.479996,485.15,17.01,-0.0047770925,0.00034796438,0.99764067,0.0684845,-176.211,209.241,8.321,0.00030999997,0,1.3616099
54.691666,2000,0,91.24,0.000002697398,0.000002697398,0.000002697398,0.99999994,0,0,0,0,0,0,0,1,0,0,0,false,false,true,-126.95,486.88998,17.01,-0.0047770925,0.0003209904,0.998013,0.06282536,-176.171,207.141,8.321,0.00030999997,-0.00010999999,1.3573099
54.7,2000,0,91.24,0.000002697398,0.000002697398,0.000002697398,0.99999994,0,0,0,0,0,0,0,1,0,0,0,false,false,true,-128.42,488.62,17.01,-0.004777092,0.00029401638,0.9983522,0.057182394,-176.11101,205.051,8.321,0.00030999997,-0.00010999999,1.3530099
54.708332,2000,0,91.24,0.000002697398,0.000002697398,0.000002697398,0.99999994,0,0,0,0,0,0,0,1,0,0,0,false,false,true,-129.89,490.33,17.01,-0.0047770925,0.00026704243,0.99865866,0.05155554,-176.031,202.981,8.321,0.00030999997,-0.00021,1.3486099
54.716667,2000,0,91.24,0.000002697398,0.000002697398,0.000002697398,0.99999994,0,0,0,0,0,0,0,1,0,0,0,false,false,true,-131.36,492.02,17.01,-0.0047770925,0.00024006845,0.9989325,0.04594495,-175.931,200.921,8.321,0.00030999997,-0.00021,1.34421
54.725,2000,0,91.24,0.000002697398,0.000002697398,0.000002697398,0.99999994,0,0,0,0,0,0,0,1,0,0,0,false,false,true,-132.83,493.69,17.01,-0.0047770925,0.00021309446,0.9991741,0.04035055,-175.80101,198.871,8.321,0.00030999997,-0.00021,1.33971
54.733334,2000,0,91.24,0.000002697398,0.000002697398,0.000002697398,0.99999994,0,0,0,0,0,0,0,1,0,0,0,false,false,true,-134.3,495.34998,17.01,-0.0047770925,0.00018612048,0.9993838,0.03477233,-175.651,196.83101,8.321,0.00030999997,-0.00021,1.33521
54.741665,2000,0,91.24,0.000002697398,0.000002697398,0.000002697398,0.99999994,0,0,0,0,0,0,0,1,0,0,0,false,false,true,-135.76,496.99,17.01,-0.0047770925,0.0001591465,0.99956185,0.02921021,-175.481,194.811,8.321,0.00030999997,-0.00030999997,1.33061
54.75,2000,0,91.24,0.000002697398,0.000002697398,0.000002697398,0.99999994,0,0,0,0,0,0,0,1,0,0,0,false,false,true,-137.22,498.61,17.01,-0.004777092,0.0001321725,0.99970835,0.023669751,-175.291,192.80101,8.321,0.00030999997,-0.00030999997,1.32601
54.758335,2000,0,91.24,0.000002697398,0.000002697398,0.000002697398,0.99999994,0,0,0,0,0,0,0,1,0,0,0,false,false,true,-138.68,500.22,17.01,-0.004777092,0.000105198524,0.99982387,0.018145481,-175.08101,190.811,8.321,0.00030999997,-0.00030999997,1.3213099
54.766666,2000,0,91.24,0.000002697398,0.000002697398,0.000002697398,0.99999994,0,0,0,0,0,0,0,1,0,0,0,false,false,true,-140.14,501.81,17.01,-0.0047770925,0.00007822455,0.9999086,0.01264279,-174.851,188.83101,8.321,0.00030999997,-0.00030999997,1.31661
54.775,2000,0,91.24,0.000002697398,0.000002697398,0.000002697398,0.99999994,0,0,0,0,0,0,0,1,0,0,0,false,false,true,-141.59999,503.37997,17.01,-0.004777092,0.000051250565,0.9999629,0.007156197,-174.601,186.871,8.321,0.00030999997,-0.00030999997,1.31181
54.783333,2000,0,91.24,0.000002697398,0.000002697398,0.000002697398,0.99999994,0,0,0,0,0,0,0,1,0,0,0,false,false,true,-143.05,504.94,17.01,-0.0047770925,0.000024276584,0.9999871,0.0016912688,-174.33101,184.921,8.321,0.00030999997,-0.00030999997,1.3070099
54.791668,2000,0,91.24,0.000002697398,0.000002697398,0.000002697398,0.99999994,0,0,0,0,0,0,0,1,0,0,0,false,false,true,-144.5,506.47998,17.01,-0.0047770925,-0.0000026973983,0.9999815,-0.003752081,-174.041,182.991,8.321,0.00030999997,-0.00030999997,1.30211
54.8,2000,0,91.24,0.000002697398,0.000002697398,0.000002697398,0.99999994,0,0,0,0,0,0,0,1,0,0,0,false,false,true,-145.95,508,17.01,-0.0047770925,-0.00002967138,0.9999464,-0.0091792885,-173.731,181.08101,8.321,0.00030999997,-0.00030999997,1.29721
54.808334,2000,0,91.24,0.000002697398,0.000002697398,0.000002697398,0.99999994,0,0,0,0,0,0,0,1,0,0,0,false,false,true,-147.4,509.50998,17.01,-0.004777092,-0.00005664536,0.99988216,-0.014584874,-173.41101,179.181,8.321,0.00030999997,-0.00030999997,1.29231
54.816666,2000,0,91.24,0.000002697398,0.000002697398,0.000002697398,0.99999994,0,0,0,0,0,0,0,1,0,0,0,false,false,true,-148.84999,511,17.01,-0.004777092,-0.000083619336,0.9997891,-0.019968921,-173.071,177.30101,8.321,0.00030999997,-0.00030999997,1.28731
54.825,2000,0,91.24,0.000002697398,0.000002697398,0.000002697398,0.99999994,0,0,0,0,0,0,0,1,0,0,0,false,false,true,-150.29,512.48,17.01,-0.004777092,-0.00011059332,0.99966764,-0.02533135,-172.711,175.44101,8.321,0.00030999997,-0.00030999997,1.28231
54.833332,2000,0,91.24,0.000002697398,0.000002697398,0.000002697398,0.99999994,0,0,0,0,0,0,0,1,0,0,0,false,false,true,-151.73,513.94,17.01,-0.004777092,-0.0001375673,0.99951804,-0.030672241,-172.33101,173.591,8.321,0.00030999997,-0.00030999997,1.27721
54.841667,2000,0,91.24,0.000002697398,0.000002697398,0.000002697398,0.99999994,0,0,0,0,0,0,0,1,0,0,0,false,false,true,-153.17,515.39,17.01,-0.0047770925,-0.0001645413,0.99934065,-0.035991512,-171.94101,171.761,8.321,0.00030999997,-0.00030999997,1.27211
54.85,2000,0,91.24,0.000002697398,0.000002697398,0.000002697398,0.99999994,0,0,0,0,0,0,0,1,0,0,0,false,false,true,-154.59999,516.82,17.01,-0.004777092,-0.00019151527,0.99913573,-0.04128924,-171.531,169.951,8.321,0.00030999997,-0.00030999997,1.26691
54.858334,2000,0,91.24,0.000002697398,0.000002697398,0.000002697398,0.99999994,0,0,0,0,0,0,0,1,0,0,0,false,false,true,-156.03,518.24,17.01,-0.0047770925,-0.00021848927,0.99890375,-0.046565354,-171.11101,168.16101,8.321,0.00030999997,-0.00030999997,1.2617099
54.866665,2000,0,91.24,0.000002697398,0.000002697398,0.000002697398,0.99999994,0,0,0,0,0,0,0,1,0,0,0,false,false,true,-157.45999,519.64,17.01,-0.004777092,-0.00024546322,0.9986452,-0.05181453,-170.671,166.391,8.321,0.00021,-0.00030999997,1.25641
54.875,2000,0,91.24,0.000002697398,0.000002697398,0.000002697398,0.99999994,0,0,0,0,0,0,0,1,0,0,0,false,false,true,-158.87999,521.02997,17.01,-0.0047770925,-0.00027243723,0.9983603,-0.057042092,-170.22101,164.631,8.321,0.00021,-0.00030999997,1.25111
54.883335,2000,0,91.24,0.000002697398,0.000002697398,0.000002697398,0.99999994,0,0,0,0,0,0,0,1,0,0,0,false,false,true,-160.3,522.39996,17.01,-0.0047770925,-0.00029941121,0.9980492,-0.06224811,-169.751,162.891,8.321,0.00010999999,-0.00021,1.24581
54.891666,2000,0,91.24,0.000002697398,0.000002697398,0.000002697398,0.99999994,0,0,0,0,0,0,0,1,0,0,0,false,false,true,-161.70999,523.76,17.01,-0.0047770916,-0.00032638514,0.99771255,-0.0674271,-169.271,161.171,8.321,0.00010999999,-0.00021,1.24041
54.9,2000,0,91.24,0.000002697398,0.000002697398,0.000002697398,0.99999994,0,0,0,0,0,0,0,1,0,0,0,false,false,true,-163.12,525.1,17.01,-0.004777092,-0.00035335915,0.9973507,-0.07258458,-168.781,159.47101,8.321,0.00010999999,-0.00021,1.23501
54.908333,2000,0,91.24,0.000002697398,0.000002697398,0.000002697398,0.99999994,0,0,0,0,0,0,0,1,0,0,0,false,false,true,-164.53,526.43,17.01,-0.004777092,-0.00038033313,0.99696404,-0.07771503,-168.271,157.791,8.321,0,-0.00010999999,1.22961
54.916668,2000,0,91.24,0.000002697398,0.000002697398,0.000002697398,0.99999994,0,0,0,0,0,0,0,1,0,0,0,false,false,true,-165.93,527.74,17.01,-0.0047770925,-0.00040730715,0.99655265,-0.08282391,-167.751,156.131,8.321,0,-0.00010999999,1.22411
54.925,2000,0,91.24,0.000002697398,0.000002697398,0.000002697398,0.99999994,0,0,0,0,0,0,0,1,0,0,0,false,false,true,-167.33,529.04,17.01,-0.004777092,-0.0004342811,0.9961172,-0.08790584,-167.22101,154.491,8.321,0,0,1.2186099
54.933334,2000,0,91.24,0.000002697398,0.000002697398,0.000002697398,0.99999994,0,0,0,0,0,0,0,1,0,0,0,false,false,true,-168.72,530.33,17.01,-0.004777092,-0.00045586028,0.99565816,-0.09296077,-166.681,152.871,8.321,0,0,1.21301
54.941666,2000,0,91.24,0.000002697398,0.000002697398,0.000002697398,0.99999994,0,0,0,0,0,0,0,1,0,0,0,false,false,true,-170.11,531.6,17.01,-0.0047770916,-0.0004774394,0.99517524,-0.09799415,-166.131,151.271,8.321,0,0,1.20741
54.95,2000,0,91.24,0.000002697398,0.000002697398,0.000002697398,0.99999994,0,0,0,0,0,0,0,1,0,0,0,false,false,true,-171.48999,532.86,17.01,-0.0047770916,-0.0004990186,0.99466956,-0.103000514,-165.571,149.69101,8.321,0,0,1.20181
54.958332,2000,0,91.24,0.000002697398,0.000002697398,0.000002697398,0.99999994,0,0,0,0,0,0,0,1,0,0,0,false,false,true,-172.87,534.11,17.01,-0.004777092,-0.0005205978,0.9941414,-0.10797996,-165.001,148.131,8.321,0,0,1.19611
54.966667,2000,0,91.24,0.000002697398,0.000002697398,0.000002697398,0.99999994,0,0,0,0,0,0,0,1,0,0,0,false,false,true,-174.23999,535.33997,17.01,-0.0047770925,-0.00054217706,0.993591,-0.11293239,-164.421,146.591,8.321,0,0,1.19041
54.975,2000,0,91.24,0.000002697398,0.000002697398,0.000002697398,0.99999994,0,0,0,0,0,0,0,1,0,0,0,false,false,true,-175.61,536.56,17.01,-0.004771697,-0.00056375616,0.9930188,-0.11785788,-163.83101,145.071,8.321,0,0.00010999999,1.18471
54.983334,2000,0,91.24,0.000002697398,0.000002697398,0.000002697398,0.99999994,0,0,0,0,0,0,0,1,0,0,0,false,false,true,-176.98,537.76996,17.01,-0.004766302,-0.00058533537,0.99242514,-0.122756355,-163.231,143.571,8.321,0,0.00010999999,1.17891
54.991665,2000,0,91.24,0.000002697398,0.000002697398,0.000002697398,0.99999994,0,0,0,0,0,0,0,1,0,0,0,false,false,true,-178.34,538.97,17.01,-0.004760908,-0.00060691463,0.9918105,-0.12762791,-162.621,142.091,8.321,0,0.00010999999,1.17311
55,2000,0,91.24,0.000002697398,0.000002697398,0.000002697398,0.99999994,0,0,0,0,0,0,0,1,0,0,0,false,false,true,-179.7,540.14996,17.01,-0.0047555123,-0.00062849367,0.99117494,-0.1324724,-162.001,140.631,8.321,0,0.00010999999,1.16731
55.008335,2000,0,91.24,0.000002697398,0.000002697398,0.000002697398,0.99999994,0,0,0,0,0,0,0,1,0,0,0,false,false,true,-181.05,541.32,17.01,-0.0047501177,-0.00065007294,0.9905192,-0.13728997,-161.381,139.19101,8.321,0.00010999999,0,1.16141
55.016666,2000,0,91.24,0.000002697398,0.000002697398,0.000002697398,0.99999994,0,0,0,0,0,0,0,1,0,0,0,false,false,true,-182.39,542.48,17.01,-0.004744723,-0.0006716521,0.9898434,-0.14208059,-160.751,137.77101,8.321,0.00010999999,0,1.15551
55.025,2000,0,91.24,0.000002697398,0.000002697398,0.000002697398,0.99999994,0,0,0,0,0,0,0,1,0,0,0,false,false,true,-183.73,543.63,17.01,-0.0047393283,-0.0006932313,0.98914796,-0.1468442,-160.11101,136.371,8.321,0.00021,0,1.14961
55.033333,2000,0,91.24,0.000002697398,0.000002697398,0.000002697398,0.99999994,0,0,0,0,0,0,0,1,0,0,0,false,false,true,-185.06,544.76996,17.01,-0.0047339336,-0.0007148105,0.9884332,-0.15158087,-159.47101,134.991,8.321,0.00021,0,1.14361
55.041668,2000,0,91.24,0.000002697398,0.000002697398,0.000002697398,0.99999994,0,0,0,0,0,0,0,1,0,0,0,false,false,true,-186.39,545.89,17.01,-0.004728539,-0.0007363897,0.9876995,-0.15629055,-158.821,133.631,8.321,0.00030999997,0,1.13761
55.05,2000,0,91.24,0.000002697398,0.000002697398,0.000002697398,0.99999994,0,0,0,0,0,0,0,1,0,0,0,false,false,true,-187.70999,547,17.01,-0.004723144,-0.0007579689,0.986948,-0.16096787,-158.171,132.291,8.321,0.00030999997,0,1.13161
55.058334,2000,0,91.24,0.000002697398,0.000002697398,0.000002697398,0.99999994,0,0,0,0,0,0,0,1,0,0,0,false,false,true,-189.03,548.1,17.01,-0.004717749,-0.000779548,0.9861783,-0.16561817,-157.511,130.97101,8.321,0.00030999997,0,1.12551
