time,ball_loc_x,ball_loc_y,ball_loc_z,ball_rot_x,ball_rot_y,ball_rot_z,ball_rot_w,ball_vel_x,ball_vel_y,ball_vel_z,ball_ang_x,ball_ang_y,ball_ang_z,player0_throttle,player0_steer,player0_pitch,player0_yaw,player0_roll,player0_jump,player0_boost,player0_handbrake,player0_loc_x,player0_loc_y,player0_loc_z,player0_rot_x,player0_rot_y,player0_rot_z,player0_rot_w,player0_vel_x,player0_vel_y,player0_vel_z,player0_ang_x,player0_ang_y,player0_ang_z
122.825,2000,0,91.24,0.000002697398,0.000002697398,0.000002697398,0.99999994,0,0,0,0,0,0,0,0,0,0,0,false,false,false,0,0.14,17.01,-0.00336905,0.0033798397,0.7071014,0.7070959,0,0.011,8.321,-0.00051,0,0
122.833336,2000,0,73,0.000002697398,0.000002697398,0.000002697398,0.99999994,0,0,0,0,0,0,1,0,0,0,0,false,false,false,0,0,16.94,0.0000026973983,0.0000026973983,0.70710677,0.70710677,0,13.331,2.041,-0.050809998,0,0
122.84167,2000,0,87.6,0.000002697398,0.000002697398,0.000002697398,0.99999994,0,0,0,0,0,0,1,0,0,0,0,false,false,false,0,0.11,16.89,-0.00014835689,0.00015375168,0.7071067,0.7071067,0,26.550999,3.8809998,-0.085609995,0,0
122.85,2000,0,90.52,0.000002697398,0.000002697398,0.000002697398,0.99999994,0,0,0,0,0,0,1,0,0,0,0,false,false,false,0,0.32999998,16.85,-0.00040191234,0.00040730715,0.70710653,0.70710677,0,39.650997,5.481,-0.107209995,0,0
122.85833,2000,0,91.1,0.000002697398,0.000002697398,0.000002697398,0.99999994,0,0,0,0,0,0,1,0,0,0,0,false,false,false,0,0.65999997,16.83,-0.00072020525,0.00072560005,0.7071067,0.707106,0,52.641,6.791,-0.11621,0,0
122.86667,2000,0,91.22,0.000002697398,0.000002697398,0.000002697398,0.99999994,0,0,0,0,0,0,1,0,0,0,0,false,false,false,0,1.1,16.82,-0.0010600775,0.0010654721,0.70710516,0.7071067,0,65.520996,7.7409997,-0.11450999,0,0
122.875,2000,0,91.24,0.000002697398,0.000002697398,0.000002697398,0.99999994,0,0,0,0,0,0,1,0,0,0,0,false,false,false,0,1.65,16.82,-0.0013999495,0.0014053443,0.7071067,0.70710397,0,78.291,8.431,-0.10641,0,0
122.88333,2000,0,91.24,0.000002697398,0.000002697398,0.000002697398,0.99999994,0,0,0,0,0,0,1,0,0,0,0,false,false,false,0,2.3,16.82,-0.0017128479,0.0017182427,0.707108,0.70710135,0,90.951,8.9210005,-0.094909996,0,0
122.89167,2000,0,91.24,0.000002697398,0.000002697398,0.000002697398,0.99999994,0,0,0,0,0,0,1,0,0,0,0,false,false,false,0,3.06,16.83,-0.001993377,0.001998772,0.70710653,0.7071013,0,103.501,9.281,-0.082109995,0,0
122.9,2000,0,91.24,0.000002697398,0.000002697398,0.000002697398,0.99999994,0,0,0,0,0,0,1,0,0,0,0,false,false,false,0,3.9199998,16.84,-0.002236143,0.0022415377,0.7071051,0.7071013,0,115.940994,9.521,-0.06921,0,0
122.90833,2000,0,91.24,0.000002697398,0.000002697398,0.000002697398,0.99999994,0,0,0,0,0,0,1,0,0,0,0,false,false,false,0,4.89,16.85,-0.0024411452,0.00244654,0.7071037,0.7071013,0,128.281,9.6710005,-0.05701,0,0
122.916664,2000,0,91.24,0.000002697398,0.000002697398,0.000002697398,0.99999994,0,0,0,0,0,0,1,0,0,0,0,false,false,false,0,5.96,16.859999,-0.002608384,0.002613779,0.70710254,0.70710135,0,140.511,9.771,-0.04601,0,0
122.925,2000,0,91.24,0.000002697398,0.000002697398,0.000002697398,0.99999994,0,0,0,0,0,0,1,0,0,0,0,false,false,false,0,7.1299996,16.869999,-0.0027432537,0.0027486486,0.7071015,0.7071013,0,152.641,9.821,-0.03651,0,0
122.933334,2000,0,91.24,0.000002697398,0.000002697398,0.000002697398,0.99999994,0,0,0,0,0,0,1,0,0,0,0,false,false,false,0,8.4,16.88,-0.0028511498,0.0028565445,0.70710063,0.7071013,0,164.66101,9.841001,-0.02841,0,0
122.941666,2000,0,91.24,0.000002697398,0.000002697398,0.000002697398,0.99999994,0,0,0,0,0,0,1,0,0,0,0,false,false,false,0,9.7699995,16.89,-0.0029374664,0.0029428613,0.7071013,0.7070999,0,176.58101,9.821,-0.02221,0,0
122.95,2000,0,91.24,0.000002697398,0.000002697398,0.000002697398,0.99999994,0,0,0,0,0,0,1,0,0,0,0,false,false,false,0,11.24,16.9,-0.003002204,0.003007599,0.7070994,0.7071013,0,188.401,9.761001,-0.01771,0,0
122.958336,2000,0,91.24,0.000002697398,0.000002697398,0.000002697398,0.99999994,0,0,0,0,0,0,1,0,0,0,0,false,false,false,0,12.809999,16.91,-0.003056152,0.0030615467,0.7071013,0.7070989,0,200.11101,9.681,-0.014409999,0,0
122.96667,2000,0,91.24,0.000002697398,0.000002697398,0.000002697398,0.99999994,0,0,0,0,0,0,1,0,0,0,0,false,false,false,0,14.48,16.92,-0.0030993104,0.0031047051,0.70709854,0.7071013,0,211.72101,9.591001,-0.011809999,0,0
122.975,2000,0,91.24,0.000002697398,0.000002697398,0.000002697398,0.99999994,0,0,0,0,0,0,1,0,0,0,0,false,false,false,0,16.24,16.93,-0.0031316795,0.0031370742,0.707096,0.70710367,0,223.231,9.491,-0.00981,0,0
122.98333,2000,0,91.24,0.000002697398,0.000002697398,0.000002697398,0.99999994,0,0,0,0,0,0,1,0,0,0,0,false,false,false,0,18.1,16.94,-0.0031586532,0.0031640478,0.7070959,0.70710343,0,234.651,9.391,-0.0083099995,0,0
122.99167,2000,0,91.24,0.000002697398,0.000002697398,0.000002697398,0.99999994,0,0,0,0,0,0,1,0,0,0,0,false,false,false,0,20.06,16.949999,-0.003185627,0.003191022,0.7070959,0.70710313,0,245.97101,9.281,-0.00711,0,0
123,2000,0,91.24,0.000002697398,0.000002697398,0.000002697398,0.99999994,0,0,0,0,0,0,1,0,0,0,0,false,false,false,0,22.109999,16.96,-0.0032072063,0.0032126012,0.7070959,0.70710295,0,257.191,9.1710005,-0.00611,0,0
123.00833,2000,0,91.24,0.000002697398,0.000002697398,0.000002697398,0.99999994,0,0,0,0,0,0,1,0,0,0,0,false,false,false,0,24.25,16.97,-0.0032233908,0.0032287855,0.7070959,0.70710284,0,268.321,9.061,-0.00521,0,0
123.01667,2000,0,91.24,0.000002697398,0.000002697398,0.000002697398,0.99999994,0,0,0,0,0,0,1,0,0,0,0,false,false,false,0,26.49,16.98,-0.003239575,0.0032449698,0.7070959,0.70710266,0,279.351,8.951,-0.00451,0,0
123.025,2000,0,91.24,0.000002697398,0.000002697398,0.000002697398,0.99999994,0,0,0,0,0,0,1,0,0,0,0,false,false,false,0,28.82,16.99,-0.0032503647,0.0032557594,0.7070959,0.7071026,0,290.29102,8.841001,-0.00391,0,0
123.03333,2000,0,91.24,0.000002697398,0.000002697398,0.000002697398,0.99999994,0,0,0,0,0,0,1,0,0,0,0,false,false,false,0,31.24,17,-0.0032611543,0.003266549,0.7070959,0.7071025,0,301.131,8.731,-0.00341,0,0
123.041664,2000,0,91.24,0.000002697398,0.000002697398,0.000002697398,0.99999994,0,0,0,0,0,0,1,0,0,0,0,false,false,false,0,33.75,17.01,-0.003271944,0.0032773386,0.7070959,0.70710236,0,311.881,8.621,-0.00301,0,0
123.05,2000,0,91.24,0.000002697398,0.000002697398,0.000002697398,0.99999994,0,0,0,0,0,0,1,0,0,0,0,false,false,false,0,36.35,17.01,-0.0032827335,0.0032881282,0.7070959,0.7071023,0,322.541,8.511001,-0.00261,0,0
123.058334,2000,0,91.24,0.000002697398,0.000002697398,0.000002697398,0.99999994,0,0,0,0,0,0,1,0,0,0,0,false,false,false,0,39.04,17.01,-0.0032881282,0.003293523,0.7070959,0.70710224,0,333.101,8.441,-0.0023100001,0,0
123.066666,2000,0,91.24,0.000002697398,0.000002697398,0.000002697398,0.99999994,0,0,0,0,0,0,1,0,0,0,0,false,false,false,0,41.82,17.01,-0.0032935233,0.003298918,0.707096,0.7071022,0,343.571,8.391,-0.00201,0,0
123.075,2000,0,91.24,0.000002697398,0.000002697398,0.000002697398,0.99999994,0,0,0,0,0,0,1,0,0,0,0,false,false,false,0,44.68,17.01,-0.0032989178,0.0033043127,0.7070959,0.7071021,0,353.951,8.361,-0.0018099999,0,0
123.083336,2000,0,91.24,0.000002697398,0.000002697398,0.000002697398,0.99999994,0,0,0,0,0,0,1,0,0,0,0,false,false,false,0,47.629997,17.01,-0.0033043127,0.0033097074,0.7070959,0.70710206,0,364.251,8.341001,-0.0016099999,0,0
123.09167,2000,0,91.24,0.000002697398,0.000002697398,0.000002697398,0.99999994,0,0,0,0,0,0,1,0,0,0,0,false,false,false,0,50.67,17.01,-0.0033097074,0.0033151023,0.7070959,0.707102,0,374.461,8.331,-0.0014099999,0,0
123.1,2000,0,91.24,0.000002697398,0.000002697398,0.000002697398,0.99999994,0,0,0,0,0,0,1,0,0,0,0,false,false,false,0,53.789997,17.01,-0.0033151023,0.003320497,0.7070959,0.707102,0,384.581,8.321,-0.00131,0,0
123.10833,2000,0,91.24,0.000002697398,0.000002697398,0.000002697398,0.99999994,0,0,0,0,0,0,1,0,0,0,0,false,false,false,0,56.989998,17.01,-0.0033204972,0.0033258921,0.707096,0.70710194,0,394.611,8.321,-0.00111,0,0
123.11667,2000,0,91.24,0.000002697398,0.000002697398,0.000002697398,0.99999994,0,0,0,0,0,0,1,0,0,0,0,false,false,false,0,60.28,17.01,-0.003325892,0.0033312866,0.7070959,0.7071019,0,404.561,8.321,-0.0010099999,0,0
123.125,2000,0,91.24,0.000002697398,0.000002697398,0.000002697398,0.99999994,0,0,0,0,0,0,1,0,0,0,0,false,false,false,0,63.649998,17.01,-0.0033312866,0.0033366815,0.7070959,0.7071018,0,414.421,8.321,-0.00081,0,0
123.13333,2000,0,91.24,0.000002697398,0.000002697398,0.000002697398,0.99999994,0,0,0,0,0,0,1,0,0,0,0,false,false,false,0,67.1,17.01,-0.0033312866,0.0033366815,0.7070959,0.7071018,0,424.201,8.321,-0.00061,0,0
123.14167,2000,0,91.24,0.000002697398,0.000002697398,0.000002697398,0.99999994,0,0,0,0,0,0,1,0,0,0,0,false,false,false,0,70.64,17.01,-0.0033312866,0.0033366815,0.7070959,0.7071018,0,433.891,8.321,-0.00051,0,0
123.15,2000,0,91.24,0.000002697398,0.000002697398,0.000002697398,0.99999994,0,0,0,0,0,0,1,0,0,0,0,false,false,false,0,74.26,17.01,-0.0033312866,0.0033366815,0.7070959,0.7071018,0,443.501,8.321,-0.00051,0,0
123.15833,2000,0,91.24,0.000002697398,0.000002697398,0.000002697398,0.99999994,0,0,0,0,0,0,1,0,0,0,0,false,false,false,0,77.96,17.01,-0.0033312866,0.0033366815,0.7070959,0.7071018,0,453.031,8.321,-0.00051,0,0
123.166664,2000,0,91.24,0.000002697398,0.000002697398,0.000002697398,0.99999994,0,0,0,0,0,0,1,0,0,0,0,false,false,false,0,81.74,17.01,-0.0033312866,0.0033366815,0.7070959,0.7071018,0,462.481,8.321,-0.00051,0,0
123.175,2000,0,91.24,0.000002697398,0.000002697398,0.000002697398,0.99999994,0,0,0,0,0,0,1,0,0,0,0,false,false,false,0,85.59,17.01,-0.0033312866,0.0033366815,0.7070959,0.7071018,0,471.85098,8.321,-0.00051,0,0
123.183334,2000,0,91.24,0.000002697398,0.000002697398,0.000002697398,0.99999994,0,0,0,0,0,0,1,0,0,0,0,false,false,false,0,89.52,17.01,-0.0033312866,0.0033366815,0.7070959,0.7071018,0,481.141,8.321,-0.00051,0,0
123.191666,2000,0,91.24,0.000002697398,0.000002697398,0.000002697398,0.99999994,0,0,0,0,0,0,1,0,0,0,0,false,false,false,0,93.53,17.01,-0.0033312866,0.0033366815,0.7070959,0.7071018,0,490.35098,8.321,-0.00051,0,0
123.2,2000,0,91.24,0.000002697398,0.000002697398,0.000002697398,0.99999994,0,0,0,0,0,0,1,0,0,0,0,false,false,false,0,97.619995,17.01,-0.0033312866,0.0033366815,0.7070959,0.7071018,0,499.481,8.321,-0.00051,0,0
123.208336,2000,0,91.24,0.000002697398,0.000002697398,0.000002697398,0.99999994,0,0,0,0,0,0,1,0,0,0,0,false,false,false,0,101.78,17.01,-0.0033312866,0.0033366815,0.7070959,0.7071018,0,508.531,8.321,-0.00051,0,0
123.21667,2000,0,91.24,0.000002697398,0.000002697398,0.000002697398,0.99999994,0,0,0,0,0,0,1,0,0,0,0,false,false,false,0,106.02,17.01,-0.0033312866,0.0033366815,0.7070959,0.7071018,0,517.501,8.321,-0.00051,0,0
123.225,2000,0,91.24,0.000002697398,0.000002697398,0.000002697398,0.99999994,0,0,0,0,0,0,1,0,0,0,0,false,false,false,0,110.329994,17.01,-0.0033312866,0.0033366815,0.7070959,0.7071018,0,526.391,8.321,-0.00051,0,0
123.23333,2000,0,91.24,0.000002697398,0.000002697398,0.000002697398,0.99999994,0,0,0,0,0,0,1,0,0,0,0,false,false,false,0,114.72,17.01,-0.0033312866,0.0033366815,0.7070959,0.7071018,0,535.21094,8.321,-0.00051,0,0
123.24167,2000,0,91.24,0.000002697398,0.000002697398,0.000002697398,0.99999994,0,0,0,0,0,0,1,0,0,0,0,false,false,false,0,119.18,17.01,-0.0033312866,0.0033366815,0.7070959,0.7071018,0,543.951,8.321,-0.00061,0,0
123.25,2000,0,91.24,0.000002697398,0.000002697398,0.000002697398,0.99999994,0,0,0,0,0,0,1,0,0,0,0,false,false,false,0,123.71,17.01,-0.0033312866,0.0033366815,0.7070959,0.7071018,0,552.621,8.321,-0.00061,0,0
123.25833,2000,0,91.24,0.000002697398,0.000002697398,0.000002697398,0.99999994,0,0,0,0,0,0,1,0,0,0,0,false,false,false,0,128.31999,17.01,-0.0033312866,0.0033366815,0.7070959,0.7071018,0,561.21094,8.321,-0.00061,0,0
123.26667,2000,0,91.24,0.000002697398,0.000002697398,0.000002697398,0.99999994,0,0,0,0,0,0,1,0,0,0,0,false,false,false,0,133,17.01,-0.0033312866,0.0033366815,0.7070959,0.7071018,0,569.73096,8.321,-0.00061,0,0
123.275,2000,0,91.24,0.000002697398,0.000002697398,0.000002697398,0.99999994,0,0,0,0,0,0,1,0,0,0,0,false,false,false,0,137.75,17.01,-0.0033312866,0.0033366815,0.7070959,0.7071018,0,578.18097,8.321,-0.00061,0,0
123.28333,2000,0,91.24,0.000002697398,0.000002697398,0.000002697398,0.99999994,0,0,0,0,0,0,1,0,0,0,0,false,false,false,0,142.56999,17.01,-0.0033312866,0.0033366815,0.7070959,0.7071018,0,586.55096,8.321,-0.00061,0,0
123.291664,2000,0,91.24,0.000002697398,0.000002697398,0.000002697398,0.99999994,0,0,0,0,0,0,1,0,0,0,0,false,false,false,0,147.45999,17.01,-0.0033312866,0.0033366815,0.7070959,0.7071018,0,594.85095,8.321,-0.00061,0,0
123.3,2000,0,91.24,0.000002697398,0.000002697398,0.000002697398,0.99999994,0,0,0,0,0,0,1,0,0,0,0,false,false,false,0,152.42,17.01,-0.0033312866,0.0033366815,0.7070959,0.7071018,0,603.08093,8.321,-0.00061,0,0
123.308334,2000,0,91.24,0.000002697398,0.000002697398,0.000002697398,0.99999994,0,0,0,0,0,0,1,0,0,0,0,false,false,false,0,157.45,17.01,-0.0033312866,0.0033366815,0.7070959,0.7071018,0,611.24097,8.321,-0.00061,0,0
123.316666,2000,0,91.24,0.000002697398,0.000002697398,0.000002697398,0.99999994,0,0,0,0,0,0,1,0,0,0,0,false,false,false,0,162.54,17.01,-0.0033312866,0.0033366815,0.7070959,0.7071018,0,619.33093,8.321,-0.00061,0,0
123.325,2000,0,91.24,0.000002697398,0.000002697398,0.000002697398,0.99999994,0,0,0,0,0,0,1,0,0,0,0,false,false,false,0,167.7,17.01,-0.0033312866,0.0033366815,0.7070959,0.7071018,0,627.35095,8.321,-0.00071,0,0
123.333336,2000,0,91.24,0.000002697398,0.000002697398,0.000002697398,0.99999994,0,0,0,0,0,0,1,0,0,0,0,false,false,false,0,172.93,17.01,-0.0033312866,0.0033366815,0.7070959,0.7071018,0,635.30096,8.321,-0.00071,0,0
123.34167,2000,0,91.24,0.000002697398,0.000002697398,0.000002697398,0.99999994,0,0,0,0,0,0,1,0,0,0,0,false,false,false,0,178.22,17.01,-0.0033312866,0.0033366815,0.7070959,0.7071018,0,643.18097,8.321,-0.00071,0,0
123.35,2000,0,91.24,0.000002697398,0.000002697398,0.000002697398,0.99999994,0,0,0,0,0,0,1,0,0,0,0,false,false,false,0,183.58,17.01,-0.0033312866,0.0033366815,0.7070959,0.7071018,0,651.001,8.321,-0.00071,0,0
123.35833,2000,0,91.24,0.000002697398,0.000002697398,0.000002697398,0.99999994,0,0,0,0,0,0,1,0,0,0,0,false,false,false,0,189.01,17.01,-0.0033312866,0.0033366815,0.7070959,0.7071018,0,658.751,8.321,-0.00071,0,0
123.36667,2000,0,91.24,0.000002697398,0.000002697398,0.000002697398,0.99999994,0,0,0,0,0,0,1,0,0,0,0,false,false,false,0,194.5,17.01,-0.0033312866,0.0033366815,0.7070959,0.7071018,0,666.43097,8.321,-0.00071,0,0
123.375,2000,0,91.24,0.000002697398,0.000002697398,0.000002697398,0.99999994,0,0,0,0,0,0,1,0,0,0,0,false,false,false,0,200.05,17.01,-0.0033312866,0.0033366815,0.7070959,0.7071018,0,674.05096,8.321,-0.00071,0,0
123.38333,2000,0,91.24,0.000002697398,0.000002697398,0.000002697398,0.99999994,0,0,0,0,0,0,1,0,0,0,0,false,false,false,0,205.67,17.01,-0.0033312866,0.0033366815,0.7070959,0.7071018,0,681.60095,8.321,-0.00071,0,0
123.39167,2000,0,91.24,0.000002697398,0.000002697398,0.000002697398,0.99999994,0,0,0,0,0,0,1,0,0,0,0,false,false,false,0,211.34999,17.01,-0.0033312866,0.0033366815,0.7070959,0.7071018,0,689.09094,8.321,-0.00071,0,0
123.4,2000,0,91.24,0.000002697398,0.000002697398,0.000002697398,0.99999994,0,0,0,0,0,0,1,0,0,0,0,false,false,false,0,217.09,17.01,-0.0033312866,0.0033366815,0.7070959,0.7071018,0,696.511,8.321,-0.00071,0,0
123.40833,2000,0,91.24,0.000002697398,0.000002697398,0.000002697398,0.99999994,0,0,0,0,0,0,1,0,0,0,0,false,false,false,0,222.89,17.01,-0.0033312866,0.0033366815,0.7070959,0.7071018,0,703.871,8.321,-0.00071,0,0
123.416664,2000,0,91.24,0.000002697398,0.000002697398,0.000002697398,0.99999994,0,0,0,0,0,0,1,0,0,0,0,false,false,false,0,228.76,17.01,-0.0033312866,0.0033366815,0.7070959,0.7071018,0,711.17096,8.321,-0.00071,0,0
123.425,2000,0,91.24,0.000002697398,0.000002697398,0.000002697398,0.99999994,0,0,0,0,0,0,1,0,0,0,0,false,false,false,0,234.68999,17.01,-0.0033312866,0.0033366815,0.7070959,0.7071018,0,718.40094,8.321,-0.00081,0,0
123.433334,2000,0,91.24,0.000002697398,0.000002697398,0.000002697398,0.99999994,0,0,0,0,0,0,1,0,0,0,0,false,false,false,0,240.68,17.01,-0.0033312866,0.0033366815,0.7070959,0.7071018,0,725.571,8.321,-0.00081,0,0
123.441666,2000,0,91.24,0.000002697398,0.000002697398,0.000002697398,0.99999994,0,0,0,0,0,0,1,0,0,0,0,false,false,false,0,246.73,17.01,-0.0033312866,0.0033366815,0.7070959,0.7071018,0,732.68097,8.321,-0.00081,0,0
123.45,2000,0,91.24,0.000002697398,0.000002697398,0.000002697398,0.99999994,0,0,0,0,0,0,1,0,0,0,0,false,false,false,0,252.84,17.01,-0.0033312866,0.0033366815,0.7070959,0.7071018,0,739.73096,8.321,-0.00081,0,0
123.458336,2000,0,91.24,0.000002697398,0.000002697398,0.000002697398,0.99999994,0,0,0,0,0,0,1,0,0,0,0,false,false,false,0,259,17.01,-0.0033312866,0.0033366815,0.7070959,0.7071018,0,746.72095,8.321,-0.00081,0,0
123.46667,2000,0,91.24,0.000002697398,0.000002697398,0.000002697398,0.99999994,0,0,0,0,0,0,1,0,0,0,0,false,false,false,0,265.22,17.01,-0.0033312866,0.0033366815,0.7070959,0.7071018,0,753.65094,8.321,-0.00081,0,0
123.475,2000,0,91.24,0.000002697398,0.000002697398,0.000002697398,0.99999994,0,0,0,0,0,0,1,0,0,0,0,false,false,false,0,271.5,17.01,-0.0033312866,0.0033366815,0.7070959,0.7071018,0,760.52094,8.321,-0.00081,0,0
123.48333,2000,0,91.24,0.000002697398,0.000002697398,0.000002697398,0.99999994,0,0,0,0,0,0,1,0,0,0,0,false,false,false,0,277.84,17.01,-0.0033312866,0.0033366815,0.7070959,0.7071018,0,767.33093,8.321,-0.00081,0,0
123.49167,2000,0,91.24,0.000002697398,0.000002697398,0.000002697398,0.99999994,0,0,0,0,0,0,1,0,0,0,0,false,false,false,0,284.22998,17.01,-0.0033312866,0.0033366815,0.7070959,0.7071018,0,774.08093,8.321,-0.00081,0,0
123.5,2000,0,91.24,0.000002697398,0.000002697398,0.000002697398,0.99999994,0,0,0,0,0,0,1,0,0,0,0,false,false,false,0,290.68,17.01,-0.0033312866,0.0033366815,0.7070959,0.7071018,0,780.77094,8.321,-0.00081,0,0
123.50833,2000,0,91.24,0.000002697398,0.000002697398,0.000002697398,0.99999994,0,0,0,0,0,0,1,0,0,0,0,false,false,false,0,297.19,17.01,-0.0033312866,0.0033366815,0.7070959,0.7071018,0,787.41095,8.321,-0.00081,0,0
123.51667,2000,0,91.24,0.000002697398,0.000002697398,0.000002697398,0.99999994,0,0,0,0,0,0,1,0,0,0,0,false,false,false,0,303.75,17.01,-0.0033312866,0.0033366815,0.7070959,0.7071018,0,793.99097,8.321,-0.00081,0,0
123.525,2000,0,91.24,0.000002697398,0.000002697398,0.000002697398,0.99999994,0,0,0,0,0,0,1,0,0,0,0,false,false,false,0,310.37,17.01,-0.0033312866,0.0033366815,0.7070959,0.7071018,0,800.511,8.321,-0.00081,0,0
123.53333,2000,0,91.24,0.000002697398,0.000002697398,0.000002697398,0.99999994,0,0,0,0,0,0,1,0,0,0,0,false,false,false,0,317.03998,17.01,-0.0033312866,0.0033366815,0.7070959,0.7071018,0,806.98096,8.321,-0.00091,0,0
123.541664,2000,0,91.24,0.000002697398,0.000002697398,0.000002697398,0.99999994,0,0,0,0,0,0,1,0,0,0,0,false,false,false,0,323.75998,17.01,-0.0033312866,0.0033420762,0.7070959,0.7071018,0,813.3909,8.321,-0.00091,0,0
123.55,2000,0,91.24,0.000002697398,0.000002697398,0.000002697398,0.99999994,0,0,0,0,0,0,1,0,0,0,0,false,false,false,0,330.53998,17.01,-0.0033312866,0.003347471,0.7070959,0.70710176,0,819.751,8.321,-0.00091,0,0
123.558334,2000,0,91.24,0.000002697398,0.000002697398,0.000002697398,0.99999994,0,0,0,0,0,0,1,0,0,0,0,false,false,false,0,337.37,17.01,-0.0033312868,0.003352866,0.707096,0.70710176,0,826.05096,8.321,-0.00081,0,0
123.566666,2000,0,91.24,0.000002697398,0.000002697398,0.000002697398,0.99999994,0,0,0,0,0,0,1,0,0,0,0,false,false,false,0,344.25,17.01,-0.0033312868,0.003352866,0.707096,0.70710176,0,832.30096,8.321,-0.00071,-0.00010999999,0
123.575,2000,0,91.24,0.000002697398,0.000002697398,0.000002697398,0.99999994,0,0,0,0,0,0,1,0,0,0,0,false,false,false,0,351.19,17.01,-0.0033312868,0.003352866,0.707096,0.70710176,0,838.501,8.321,-0.00071,-0.00010999999,0
123.583336,2000,0,91.24,0.000002697398,0.000002697398,0.000002697398,0.99999994,0,0,0,0,0,0,1,0,0,0,0,false,false,false,0,358.18,17.01,-0.0033312868,0.003352866,0.707096,0.70710176,0,844.6409,8.321,-0.00071,-0.00010999999,0
123.59167,2000,0,91.24,0.000002697398,0.000002697398,0.000002697398,0.99999994,0,0,0,0,0,0,1,0,0,0,0,false,false,false,0,365.22,17.01,-0.0033312868,0.003352866,0.707096,0.70710176,0,850.73096,8.321,-0.00071,-0.00010999999,0
123.6,2000,0,91.24,0.000002697398,0.000002697398,0.000002697398,0.99999994,0,0,0,0,0,0,1,0,0,0,0,false,false,false,0,372.31,17.01,-0.0033312868,0.003352866,0.707096,0.70710176,0,856.77094,8.321,-0.00071,-0.00010999999,0
123.60833,2000,0,91.24,0.000002697398,0.000002697398,0.000002697398,0.99999994,0,0,0,0,0,0,1,0,0,0,0,false,false,false,0,379.44998,17.01,-0.0033312868,0.003352866,0.707096,0.70710176,0,862.761,8.321,-0.00071,-0.00010999999,0
123.61667,2000,0,91.24,0.000002697398,0.000002697398,0.000002697398,0.99999994,0,0,0,0,0,0,1,0,0,0,0,false,false,false,0,386.63998,17.01,-0.0033312868,0.003352866,0.707096,0.70710176,0,868.691,8.321,-0.00071,-0.00010999999,0
123.625,2000,0,91.24,0.000002697398,0.000002697398,0.000002697398,0.99999994,0,0,0,0,0,0,1,0,0,0,0,false,false,false,0,393.88,17.01,-0.0033312868,0.003352866,0.707096,0.70710176,0,874.571,8.321,-0.00071,-0.00010999999,0
123.63333,2000,0,91.24,0.000002697398,0.000002697398,0.000002697398,0.99999994,0,0,0,0,0,0,1,0,0,0,0,false,false,false,0,401.16998,17.01,-0.0033312868,0.003352866,0.707096,0.70710176,0,880.40094,8.321,-0.00071,-0.00010999999,0
123.64167,2000,0,91.24,0.000002697398,0.000002697398,0.000002697398,0.99999994,0,0,0,0,0,0,1,0,0,0,0,false,false,false,0,408.50998,17.01,-0.0033312868,0.003352866,0.707096,0.70710176,0,886.18097,8.321,-0.00071,-0.00010999999,0
123.65,2000,0,91.24,0.000002697398,0.000002697398,0.000002697398,0.99999994,0,0,0,0,0,0,1,0,0,0,0,false,false,false,0,415.88998,17.01,-0.0033312868,0.003352866,0.707096,0.70710176,0,891.91095,8.321,-0.00071,-0.00010999999,0
123.65833,2000,0,91.24,0.000002697398,0.000002697398,0.000002697398,0.99999994,0,0,0,0,0,0,1,0,0,0,0,false,false,false,0,423.31998,17.01,-0.0033312868,0.003352866,0.707096,0.70710176,0,897.59094,8.321,-0.00071,-0.00010999999,0
123.666664,2000,0,91.24,0.000002697398,0.000002697398,0.000002697398,0.99999994,0,0,0,0,0,0,1,0,0,0,0,false,false,false,0,430.8,17.01,-0.0033312868,0.003352866,0.707096,0.70710176,0,903.23096,8.321,-0.00071,-0.00010999999,0
123.675,2000,0,91.24,0.000002697398,0.000002697398,0.000002697398,0.99999994,0,0,0,0,0,0,1,0,0,0,0,false,false,false,0,438.33,17.01,-0.0033312868,0.003352866,0.707096,0.70710176,0,908.821,8.321,-0.00071,-0.00010999999,0
123.683334,2000,0,91.24,0.000002697398,0.000002697398,0.000002697398,0.99999994,0,0,0,0,0,0,1,0,0,0,0,false,false,false,0,445.9,17.01,-0.0033312868,0.003352866,0.707096,0.70710176,0,914.36096,8.321,-0.00071,-0.00010999999,0
123.691666,2000,0,91.24,0.000002697398,0.000002697398,0.000002697398,0.99999994,0,0,0,0,0,0,1,0,0,0,0,false,false,false,0,453.52,17.01,-0.0033312868,0.003352866,0.707096,0.70710176,0,919.85095,8.321,-0.00071,-0.00010999999,0
123.7,2000,0,91.24,0.000002697398,0.000002697398,0.000002697398,0.99999994,0,0,0,0,0,0,1,0,0,0,0,false,false,false,0,461.19,17.01,-0.0033312868,0.003352866,0.707096,0.70710176,0,925.30096,8.321,-0.00071,-0.00010999999,0
123.708336,2000,0,91.24,0.000002697398,0.000002697398,0.000002697398,0.99999994,0,0,0,0,0,0,1,0,0,0,0,false,false,false,0,468.9,17.01,-0.0033312868,0.003352866,0.707096,0.70710176,0,930.7009,8.321,-0.00071,-0.00010999999,0
123.71667,2000,0,91.24,0.000002697398,0.000002697398,0.000002697398,0.99999994,0,0,0,0,0,0,1,0,0,0,0,false,false,false,0,476.66,17.01,-0.0033312868,0.003352866,0.707096,0.70710176,0,936.05096,8.321,-0.00071,-0.00010999999,0
123.725,2000,0,91.24,0.000002697398,0.000002697398,0.000002697398,0.99999994,0,0,0,0,0,0,1,0,0,0,0,false,false,false,0,484.46,17.01,-0.0033312868,0.003352866,0.707096,0.70710176,0,941.36096,8.321,-0.00071,-0.00010999999,0
123.73333,2000,0,91.24,0.000002697398,0.000002697398,0.000002697398,0.99999994,0,0,0,0,0,0,1,0,0,0,0,false,false,false,0,492.3,17.01,-0.0033312868,0.003352866,0.707096,0.70710176,0,946.621,8.321,-0.00081,-0.00010999999,0
123.74167,2000,0,91.24,0.000002697398,0.000002697398,0.000002697398,0.99999994,0,0,0,0,0,0,1,0,0,0,0,false,false,false,0,500.19,17.01,-0.0033312868,0.003352866,0.707096,0.70710176,0,951.84094,8.321,-0.00081,-0.00010999999,0
123.75,2000,0,91.24,0.000002697398,0.000002697398,0.000002697398,0.99999994,0,0,0,0,0,0,1,0,0,0,0,false,false,false,0,508.12,17.01,-0.0033312868,0.003352866,0.707096,0.70710176,0,957.0109,8.321,-0.00081,-0.00010999999,0
123.75833,2000,0,91.24,0.000002697398,0.000002697398,0.000002697398,0.99999994,0,0,0,0,0,0,1,0,0,0,0,false,false,false,0,516.1,17.01,-0.0033312868,0.003352866,0.707096,0.70710176,0,962.1409,8.321,-0.00081,-0.00010999999,0
123.76667,2000,0,91.24,0.000002697398,0.000002697398,0.000002697398,0.99999994,0,0,0,0,0,0,1,0,0,0,0,false,false,false,0,524.12,17.01,-0.0033312868,0.003352866,0.707096,0.70710176,0,967.22095,8.321,-0.00081,-0.00010999999,0
123.775,2000,0,91.24,0.000002697398,0.000002697398,0.000002697398,0.99999994,0,0,0,0,0,0,1,0,0,0,0,false,false,false,0,532.18,17.01,-0.0033312868,0.003352866,0.707096,0.70710176,0,972.2609,8.321,-0.00081,-0.00010999999,0
123.78333,2000,0,91.24,0.000002697398,0.000002697398,0.000002697398,0.99999994,0,0,0,0,0,0,1,0,0,0,0,false,false,false,0,540.27997,17.01,-0.0033312868,0.003352866,0.707096,0.70710176,0,977.2609,8.321,-0.00081,-0.00010999999,0
123.791664,2000,0,91.24,0.000002697398,0.000002697398,0.000002697398,0.99999994,0,0,0,0,0,0,1,0,0,0,0,false,false,false,0,548.42,17.01,-0.0033312868,0.003352866,0.707096,0.70710176,0,982.21094,8.321,-0.00081,-0.00010999999,0
123.8,2000,0,91.24,0.000002697398,0.000002697398,0.000002697398,0.99999994,0,0,0,0,0,0,1,0,0,0,0,false,false,false,0,556.61,17.01,-0.0033312868,0.003352866,0.707096,0.70710176,0,987.121,8.321,-0.00081,-0.00010999999,0
123.808334,2000,0,91.24,0.000002697398,0.000002697398,0.000002697398,0.99999994,0,0,0,0,0,0,1,0,0,0,0,false,false,false,0,564.83997,17.01,-0.0033312868,0.003352866,0.707096,0.70710176,0,991.99097,8.321,-0.00081,-0.00010999999,0
123.816666,2000,0,91.24,0.000002697398,0.000002697398,0.000002697398,0.99999994,0,0,0,0,0,0,1,0,0,0,0,false,false,false,0,573.11,17.01,-0.0033312868,0.003352866,0.707096,0.70710176,0,996.821,8.321,-0.00081,-0.00010999999,0
123.825,2000,0,91.24,0.000002697398,0.000002697398,0.000002697398,0.99999994,0,0,0,0,0,0,1,0,0,0,0,false,false,false,0,581.42,17.01,-0.0033312868,0.003352866,0.707096,0.70710176,0,1001.61096,8.321,-0.00081,-0.00010999999,0
123.833336,2000,0,91.24,0.000002697398,0.000002697398,0.000002697398,0.99999994,0,0,0,0,0,0,0,1,0,0,0,false,false,true,0,589.76996,17.01,-0.0033312868,0.003352866,0.707096,0.70710176,-12.851,999.191,8.341001,-0.00111,0.00311,0.35541
123.85833,2000,0,91.24,0.000002697398,0.000002697398,0.000002697398,0.99999994,0,0,0,0,0,0,0,1,0,0,0,false,false,true,-0.57,614.70996,17.01,-0.0033312861,0.0033690496,0.7124343,0.7017226,-40.571,993.79095,8.351,-0.00131,0.00421,1.04081
123.86667,2000,0,91.24,0.000002697398,0.000002697398,0.000002697398,0.99999994,0,0,0,0,0,0,0,1,0,0,0,false,false,true,-0.90999997,622.99,17.01,-0.0033366818,0.0033690503,0.71547115,0.69862616,-49.190998,992.08093,8.351,-0.00131,0.00361,1.21151
123.875,2000,0,91.24,0.000002697398,0.000002697398,0.000002697398,0.99999994,0,0,0,0,0,0,0,1,0,0,0,false,false,true,-1.3199999,631.26,17.01,-0.003347471,0.00336905,0.71898806,0.6950061,-57.810997,990.35095,8.351,-0.0012099999,0.00291,1.3609099
123.88333,2000,0,91.24,0.000002697398,0.000002697398,0.000002697398,0.99999994,0,0,0,0,0,0,0,1,0,0,0,false,false,true,-1.8,639.51,17.01,-0.0033636554,0.0033636554,0.72291845,0.69091684,-66.511,988.561,8.351,-0.00111,0.00221,1.49241
123.89167,2000,0,91.24,0.000002697398,0.000002697398,0.000002697398,0.99999994,0,0,0,0,0,0,0,1,0,0,0,false,false,true,-2.35,647.75,17.01,-0.00337984,0.003352866,0.7272021,0.68640685,-75.340996,986.68097,8.351,-0.0010099999,0.00151,1.60881
123.9,2000,0,91.24,0.000002697398,0.000002697398,0.000002697398,0.99999994,0,0,0,0,0,0,0,1,0,0,0,false,false,true,-2.98,655.97,17.01,-0.003401419,0.0033366815,0.7317847,0.6815191,-84.291,984.691,8.351,-0.00091,0.00081,1.71251
123.90833,2000,0,91.24,0.000002697398,0.000002697398,0.000002697398,0.99999994,0,0,0,0,0,0,0,1,0,0,0,false,false,true,-3.6799998,664.18,17.01,-0.0034229981,0.0033151023,0.7366285,0.67628074,-93.351,982.58093,8.351,-0.00081,0.00030999997,1.80531
123.916664,2000,0,91.24,0.000002697398,0.000002697398,0.000002697398,0.99999994,0,0,0,0,0,0,0,1,0,0,0,false,false,true,-4.46,672.37,17.01,-0.0034499723,0.003293523,0.7416964,0.6707186,-102.480995,980.33093,8.351,-0.00071,-0.00010999999,1.88871
123.925,2000,0,91.24,0.000002697398,0.000002697398,0.000002697398,0.99999994,0,0,0,0,0,0,0,1,0,0,0,false,false,true,-5.31,680.54,17.01,-0.0034769461,0.003266549,0.7469527,0.6648599,-111.631,977.941,8.351,-0.00061,-0.00040999998,1.96391
123.933334,2000,0,91.24,0.000002697398,0.000002697398,0.000002697398,0.99999994,0,0,0,0,0,0,0,1,0,0,0,false,false,true,-6.24,688.69,17.01,-0.00350392,0.003239575,0.7523677,0.658726,-120.730995,975.42096,8.351,-0.00051,-0.00071,2.03191
123.941666,2000,0,91.24,0.000002697398,0.000002697398,0.000002697398,0.99999994,0,0,0,0,0,0,0,1,0,0,0,false,false,true,-7.25,696.82,17.01,-0.003536289,0.0032072065,0.75791717,0.65233326,-129.72101,972.77094,8.351,-0.00040999998,-0.00091,2.09341
123.95,2000,0,91.24,0.000002697398,0.000002697398,0.000002697398,0.99999994,0,0,0,0,0,0,0,1,0,0,0,false,false,true,-8.33,704.93,17.01,-0.0035686577,0.0031748374,0.7635783,0.6456975,-138.531,970.0109,8.351,-0.00030999997,-0.0010099999,2.14891
123.958336,2000,0,91.24,0.000002697398,0.000002697398,0.000002697398,0.99999994,0,0,0,0,0,0,0,1,0,0,0,false,false,true,-9.48,713.01,17.01,-0.0036010267,0.0031424689,0.7693286,0.6388354,-147.08101,967.16095,8.351,-0.00021,-0.00111,2.19901
123.96667,2000,0,91.24,0.000002697398,0.000002697398,0.000002697398,0.99999994,0,0,0,0,0,0,0,1,0,0,0,false,false,true,-10.71,721.07,17.01,-0.0036333953,0.0031047051,0.7751514,0.6317573,-155.281,964.2609,8.351,-0.00010999999,-0.0012099999,2.24391
123.975,2000,0,91.24,0.000002697398,0.000002697398,0.000002697398,0.99999994,0,0,0,0,0,0,0,1,0,0,0,false,false,true,-12,729.11,17.01,-0.003665764,0.0030669416,0.78102636,0.62447965,-163.05101,961.34094,8.351,-0.00010999999,-0.00131,2.28401
123.98333,2000,0,91.24,0.000002697398,0.000002697398,0.000002697398,0.99999994,0,0,0,0,0,0,0,1,0,0,0,false,false,true,-13.36,737.12,17.01,-0.0036981327,0.003029178,0.7869339,0.61701864,-170.30101,958.4509,8.351,0,-0.00131,2.31931
123.99167,2000,0,91.24,0.000002697398,0.000002697398,0.000002697398,0.99999994,0,0,0,0,0,0,0,1,0,0,0,false,false,true,-14.78,745.11,17.01,-0.0037305015,0.0029914144,0.79286,0.609385,-176.931,955.65094,8.351,0,-0.00131,2.35001
124,2000,0,91.24,0.000002697398,0.000002697398,0.000002697398,0.99999994,0,0,0,0,0,0,0,1,0,0,0,false,false,true,-16.25,753.07,17.01,-0.0037628703,0.002953651,0.79878694,0.60159487,-182.851,953.001,8.341001,0,-0.00131,2.37621
124.00833,2000,0,91.24,0.000002697398,0.000002697398,0.000002697398,0.99999994,0,0,0,0,0,0,0,1,0,0,0,false,false,true,-17.77,761.01,17.01,-0.0037952391,0.0029104925,0.80470234,0.5936591,-187.961,950.59094,8.341001,0,-0.0014099999,2.39781
124.01667,2000,0,91.24,0.000002697398,0.000002697398,0.000002697398,0.99999994,0,0,0,0,0,0,0,1,0,0,0,false,false,true,-19.34,768.93,17.01,-0.003827608,0.002867334,0.81059426,0.5855885,-192.171,948.49097,8.341001,0,-0.0014099999,2.4149098
124.025,2000,0,91.24,0.000002697398,0.000002697398,0.000002697398,0.99999994,0,0,0,0,0,0,0,1,0,0,0,false,false,true,-20.939999,776.82996,17.01,-0.003859977,0.0028241759,0.81644416,0.57740456,-195.371,946.811,8.331,0,-0.0014099999,2.42741
124.03333,2000,0,91.24,0.000002697398,0.000002697398,0.000002697398,0.99999994,0,0,0,0,0,0,0,1,0,0,0,false,false,true,-22.57,784.72,17.01,-0.0038923454,0.0027810175,0.8222418,0.5691181,-198.69101,944.98096,8.331,0,-0.0014099999,2.43941
124.041664,2000,0,91.24,0.000002697398,0.000002697398,0.000002697398,0.99999994,0,0,0,0,0,0,0,1,0,0,0,false,false,true,-24.23,792.58997,17.01,-0.003924714,0.002737859,0.8279854,0.5607291,-202.131,943.001,8.331,0,-0.00131,2.45101
124.05,2000,0,91.24,0.000002697398,0.000002697398,0.000002697398,0.99999994,0,0,0,0,0,0,0,1,0,0,0,false,false,true,-25.91,800.45,17.01,-0.003957083,0.0026947006,0.83366925,0.5522431,-205.681,940.871,8.331,0,-0.0012099999,2.46221
124.058334,2000,0,91.24,0.000002697398,0.000002697398,0.000002697398,0.99999994,0,0,0,0,0,0,0,1,0,0,0,false,false,true,-27.619999,808.29,17.01,-0.003989452,0.0026515424,0.8392918,0.54366004,-209.321,938.59094,8.331,0.00010999999,-0.00111,2.47301
124.066666,2000,0,91.24,0.000002697398,0.000002697398,0.000002697398,0.99999994,0,0,0,0,0,0,0,1,0,0,0,false,false,true,-29.359999,816.11,17.01,-0.0040218197,0.0026083835,0.84484774,0.534985,-213.051,936.15094,8.331,0.00010999999,-0.0010099999,2.48351
124.075,2000,0,91.24,0.000002697398,0.000002697398,0.000002697398,0.99999994,0,0,0,0,0,0,0,1,0,0,0,false,false,true,-31.14,823.91,17.01,-0.004054189,0.0025652256,0.8503391,0.5262131,-216.851,933.55096,8.331,0.00021,-0.00091,2.49361
124.083336,2000,0,91.24,0.000002697398,0.000002697398,0.000002697398,0.99999994,0,0,0,0,0,0,0,1,0,0,0,false,false,true,-32.95,831.69,17.01,-0.004081163,0.0025220672,0.85576075,0.51734936,-220.72101,930.79095,8.331,0.00021,-0.00081,2.50331
124.09167,2000,0,91.24,0.000002697398,0.000002697398,0.000002697398,0.99999994,0,0,0,0,0,0,0,1,0,0,0,false,false,true,-34.79,839.44995,17.01,-0.0041081375,0.002478909,0.86111116,0.50839406,-224.641,927.871,8.331,0.00021,-0.00071,2.51261
124.1,2000,0,91.24,0.000002697398,0.000002697398,0.000002697398,0.99999994,0,0,0,0,0,0,0,1,0,0,0,false,false,true,-36.66,847.18,17.01,-0.0041351113,0.0024357506,0.86638564,0.4993524,-228.61101,924.79095,8.331,0.00021,-0.00061,2.52151
124.10833,2000,0,91.24,0.000002697398,0.000002697398,0.000002697398,0.99999994,0,0,0,0,0,0,0,1,0,0,0,false,false,true,-38.57,854.88995,17.01,-0.0041620852,0.002392592,0.87158304,0.49022427,-232.61101,921.55096,8.331,0.00030999997,-0.00061,2.53001
124.11667,2000,0,91.24,0.000002697398,0.000002697398,0.000002697398,0.99999994,0,0,0,0,0,0,0,1,0,0,0,false,false,true,-40.51,862.57,17.01,-0.0041890587,0.0023440386,0.87670183,0.4810099,-236.641,918.15094,8.331,0.00030999997,-0.00061,2.53811
124.125,2000,0,91.24,0.000002697398,0.000002697398,0.000002697398,0.99999994,0,0,0,0,0,0,0,1,0,0,0,false,false,true,-42.48,870.22,17.01,-0.0042160326,0.0022954855,0.8817409,0.4717092,-240.681,914.59094,8.331,0.00030999997,-0.00051,2.54581
124.13333,2000,0,91.24,0.000002697398,0.000002697398,0.000002697398,0.99999994,0,0,0,0,0,0,0,1,0,0,0,false,false,true,-44.489998,877.83997,17.01,-0.004243007,0.0022469326,0.88669604,0.46232772,-244.731,910.871,8.331,0.00030999997,-0.00040999998,2.55311
124.14167,2000,0,91.24,0.000002697398,0.000002697398,0.000002697398,0.99999994,0,0,0,0,0,0,0,1,0,0,0,false,false,true,-46.53,885.43,17.01,-0.0042699813,0.0021983795,0.8915633,0.45287058,-248.781,906.99097,8.331,0.00030999997,-0.00030999997,2.56001
124.15,2000,0,91.24,0.000002697398,0.000002697398,0.000002697398,0.99999994,0,0,0,0,0,0,0,1,0,0,0,false,false,true,-48.6,892.99,17.01,-0.0042915596,0.002149826,0.8963442,0.4433325,-252.811,902.96094,8.331,0.00030999997,-0.00021,2.56641
124.15833,2000,0,91.24,0.000002697398,0.000002697398,0.000002697398,0.99999994,0,0,0,0,0,0,0,1,0,0,0,false,false,true,-50.71,900.51,17.01,-0.0043131392,0.002101273,0.90103275,0.4337244,-256.821,898.78094,8.331,0.00021,-0.00021,2.5724099
124.166664,2000,0,91.24,0.000002697398,0.000002697398,0.000002697398,0.99999994,0,0,0,0,0,0,0,1,0,0,0,false,false,true,-52.85,908,17.01,-0.0043347185,0.00205272,0.90563035,0.42404068,-260.801,894.4509,8.331,0.00021,-0.00021,2.57791
124.175,2000,0,91.24,0.000002697398,0.000002697398,0.000002697398,0.99999994,0,0,0,0,0,0,0,1,0,0,0,false,false,true,-55.02,915.44995,17.01,-0.0043562977,0.0020041666,0.91013366,0.41428688,-264.741,889.97095,8.331,0.00010999999,-0.00021,2.58301
124.183334,2000,0,91.24,0.000002697398,0.000002697398,0.000002697398,0.99999994,0,0,0,0,0,0,0,1,0,0,0,false,false,true,-57.23,922.87,17.01,-0.004377877,0.0019556135,0.9145394,0.40446827,-268.641,885.35095,8.331,0.00010999999,-0.00021,2.58761
124.191666,2000,0,91.24,0.000002697398,0.000002697398,0.000002697398,0.99999994,0,0,0,0,0,0,0,1,0,0,0,false,false,true,-59.469997,930.25,17.01,-0.004399456,0.0019070605,0.91884685,0.39458498,-272.481,880.59094,8.331,0.00010999999,-0.00021,2.59181
124.2,2000,0,91.24,0.000002697398,0.000002697398,0.000002697398,0.99999994,0,0,0,0,0,0,0,1,0,0,0,false,false,true,-61.739998,937.58997,17.01,-0.0044210353,0.0018585073,0.9230554,0.3846369,-276.261,875.7009,8.331,0.00010999999,-0.00021,2.59551
124.208336,2000,0,91.24,0.000002697398,0.000002697398,0.000002697398,0.99999994,0,0,0,0,0,0,0,1,0,0,0,false,false,true,-64.04,944.88995,17.01,-0.004442615,0.0018099542,0.9271621,0.3746296,-279.971,870.68097,8.331,0.00010999999,-0.00021,2.59871
124.21667,2000,0,91.24,0.000002697398,0.000002697398,0.000002697398,0.99999994,0,0,0,0,0,0,0,1,0,0,0,false,false,true,-66.369995,952.14996,17.01,-0.004464194,0.0017614011,0.9311643,0.3645682,-283.601,865.54095,8.331,0.00010999999,-0.00010999999,2.60141
124.225,2000,0,91.24,0.000002697398,0.000002697398,0.000002697398,0.99999994,0,0,0,0,0,0,0,1,0,0,0,false,false,true,-68.729996,959.36,17.01,-0.004485773,0.0017128477,0.93506145,0.35445294,-287.141,860.28094,8.331,0.00010999999,-0.00010999999,2.60361
124.23333,2000,0,91.24,0.000002697398,0.000002697398,0.000002697398,0.99999994,0,0,0,0,0,0,0,1,0,0,0,false,false,true,-71.119995,966.52997,17.01,-0.004501957,0.0016642944,0.93885124,0.34428912,-290.591,854.91095,8.331,0.00010999999,0,2.60531
124.24167,2000,0,91.24,0.000002697398,0.000002697398,0.000002697398,0.99999994,0,0,0,0,0,0,0,1,0,0,0,false,false,true,-73.54,973.64996,17.01,-0.0045181415,0.0016157414,0.9425336,0.3340767,-293.941,849.43097,8.331,0.00010999999,0,2.60651
124.25,2000,0,91.24,0.000002697398,0.000002697398,0.000002697398,0.99999994,0,0,0,0,0,0,0,1,0,0,0,false,false,true,-75.99,980.73,17.01,-0.004534326,0.0015671883,0.9461061,0.3238212,-297.191,843.85095,8.331,0.00010999999,0,2.60721
124.25833,2000,0,91.24,0.000002697398,0.000002697398,0.000002697398,0.99999994,0,0,0,0,0,0,0,1,0,0,0,false,false,true,-78.47,987.75995,17.01,-0.00455051,0.001518635,0.9495685,0.31352243,-300.331,838.18097,8.331,0.00010999999,0,2.60741
124.26667,2000,0,91.24,0.000002697398,0.000002697398,0.000002697398,0.99999994,0,0,0,0,0,0,0,1,0,0,0,false,false,true,-80.97,994.74,17.01,-0.0045666946,0.001470082,0.95291924,0.30318603,-303.361,832.42096,8.331,0.00010999999,0,2.60701
124.275,2000,0,91.24,0.000002697398,0.000002697398,0.000002697398,0.99999994,0,0,0,0,0,0,0,1,0,0,0,false,false,true,-83.5,1001.68,17.01,-0.004582879,0.0014215288,0.9561564,0.29281715,-306.271,826.59094,8.331,0.00010999999,0,2.6061099
124.28333,2000,0,91.24,0.000002697398,0.000002697398,0.000002697398,0.99999994,0,0,0,0,0,0,0,1,0,0,0,false,false,true,-86.049995,1008.57,17.01,-0.004599064,0.0013729758,0.95928,0.282416,-309.061,820.68097,8.331,0.00021,0,2.6047099
124.291664,2000,0,91.24,0.000002697398,0.000002697398,0.000002697398,0.99999994,0,0,0,0,0,0,0,1,0,0,0,false,false,true,-88.63,1015.41,17.01,-0.004615248,0.0013244224,0.9622887,0.27198774,-311.721,814.71094,8.331,0.00021,0,2.60271
124.3,2000,0,91.24,0.000002697398,0.000002697398,0.000002697398,0.99999994,0,0,0,0,0,0,0,1,0,0,0,false,false,true,-91.229996,1022.19995,17.01,-0.0046314322,0.0012758692,0.9651812,0.26153803,-314.251,808.68097,8.331,0.00030999997,0,2.60011
124.308334,2000,0,91.24,0.000002697398,0.000002697398,0.000002697398,0.99999994,0,0,0,0,0,0,0,1,0,0,0,false,false,true,-93.85,1028.94,17.01,-0.0046422225,0.0012219214,0.96795785,0.25106665,-316.651,802.60095,8.331,0.00030999997,0,2.59701
124.316666,2000,0,91.24,0.000002697398,0.000002697398,0.000002697398,0.99999994,0,0,0,0,0,0,0,1,0,0,0,false,false,true,-96.49,1035.63,17.01,-0.0046530114,0.0011679734,0.9706176,0.24057917,-318.911,796.48096,8.331,0.00030999997,0,2.5933099
124.325,2000,0,91.24,0.000002697398,0.000002697398,0.000002697398,0.99999994,0,0,0,0,0,0,0,1,0,0,0,false,false,true,-99.15,1042.27,17.01,-0.0046638013,0.0011140254,0.9731609,0.23007542,-321.041,790.33093,8.331,0.00030999997,0,2.58901
124.333336,2000,0,91.24,0.000002697398,0.000002697398,0.000002697398,0.99999994,0,0,0,0,0,0,0,1,0,0,0,false,false,true,-101.829994,1048.86,17.01,-0.004674591,0.0010600776,0.97558576,0.21956636,-323.031,784.15094,8.331,0.00021,0,2.58411
124.34167,2000,0,91.24,0.000002697398,0.000002697398,0.000002697398,0.99999994,0,0,0,0,0,0,0,1,0,0,0,false,false,true,-104.52,1055.39,17.01,-0.004685381,0.0010115243,0.9778928,0.20905182,-324.881,777.951,8.331,0.00021,0,2.57861
124.35,2000,0,91.24,0.000002697398,0.000002697398,0.000002697398,0.99999994,0,0,0,0,0,0,0,1,0,0,0,false,false,true,-107.229996,1061.87,17.01,-0.00469617,0.0009629711,0.98008263,0.19853196,-326.591,771.74097,8.331,0.00021,-0.00010999999,2.57251
124.35833,2000,0,91.24,0.000002697398,0.000002697398,0.000002697398,0.99999994,0,0,0,0,0,0,0,1,0,0,0,false,false,true,-109.95,1068.2999,17.01,-0.00470696,0.0009090232,0.98215395,0.1880175,-328.151,765.53094,8.331,0.00021,-0.00010999999,2.56581
124.36667,2000,0,91.24,0.000002697398,0.000002697398,0.000002697398,0.99999994,0,0,0,0,0,0,0,1,0,0,0,false,false,true,-112.68,1074.6799,17.01,-0.004717749,0.0008550752,0.98410755,0.17750834,-329.571,759.33093,8.331,0.00021,-0.00010999999,2.55851
124.375,2000,0,91.24,0.000002697398,0.000002697398,0.000002697398,0.99999994,0,0,0,0,0,0,0,1,0,0,0,false,false,true,-115.43,1081.01,17.01,-0.004728538,0.000806522,0.9859434,0.16701005,-330.851,753.1409,8.331,0.00021,-0.00010999999,2.55051
124.38333,2000,0,91.24,0.000002697398,0.000002697398,0.000002697398,0.99999994,0,0,0,0,0,0,0,1,0,0,0,false,false,true,-118.189995,1087.2899,17.01,-0.0047393283,0.00075796887,0.9876627,0.1565225,-331.991,746.97095,8.331,0.00021,-0.00010999999,2.54191
124.39167,2000,0,91.24,0.000002697398,0.000002697398,0.000002697398,0.99999994,0,0,0,0,0,0,0,1,0,0,0,false,false,true,-120.96,1093.51,17.01,-0.0047447234,0.00070941576,0.9892654,0.14605121,-333.001,740.83093,8.331,0.00021,0,2.53261
124.4,2000,0,91.24,0.000002697398,0.000002697398,0.000002697398,0.99999994,0,0,0,0,0,0,0,1,0,0,0,false,false,true,-123.74,1099.6799,17.01,-0.0047501177,0.00066086254,0.9907518,0.1356014,-333.871,734.73096,8.331,0.00021,0,2.5227098
124.40833,2000,0,91.24,0.000002697398,0.000002697398,0.000002697398,0.99999994,0,0,0,0,0,0,0,1,0,0,0,false,false,true,-126.52,1105.7999,17.01,-0.004755513,0.0006123093,0.9921226,0.12517865,-334.611,728.67096,8.331,0.00030999997,0,2.51211
124.416664,2000,0,91.24,0.000002697398,0.000002697398,0.000002697398,0.99999994,0,0,0,0,0,0,0,1,0,0,0,false,false,true,-129.31,1111.87,17.01,-0.004760907,0.0005637561,0.9933783,0.11478818,-335.211,722.67096,8.331,0.00030999997,0,2.50091
124.425,2000,0,91.24,0.000002697398,0.000002697398,0.000002697398,0.99999994,0,0,0,0,0,0,0,1,0,0,0,false,false,true,-132.09999,1117.89,17.01,-0.004766302,0.000515203,0.9945206,0.10443019,-335.691,716.72095,8.331,0.00040999998,0,2.4890099
124.433334,2000,0,91.24,0.000002697398,0.000002697398,0.000002697398,0.99999994,0,0,0,0,0,0,0,1,0,0,0,false,false,true,-134.9,1123.86,17.01,-0.004771697,0.00046664986,0.9955502,0.094109856,-336.041,710.84094,8.331,0.00040999998,0,2.47641
124.441666,2000,0,91.24,0.000002697398,0.000002697398,0.000002697398,0.99999994,0,0,0,0,0,0,0,1,0,0,0,false,false,true,-137.7,1129.78,17.01,-0.004777092,0.0004180967,0.99646825,0.08383277,-336.271,705.03094,8.331,0.00040999998,0,2.46311
124.45,2000,0,91.24,0.000002697398,0.000002697398,0.000002697398,0.99999994,0,0,0,0,0,0,0,1,0,0,0,false,false,true,-140.5,1135.66,17.01,-0.0047824867,0.00036954353,0.99727595,0.07360415,-336.381,699.30096,8.331,0.00051,0,2.44911
124.458336,2000,0,91.24,0.000002697398,0.000002697398,0.000002697398,0.99999994,0,0,0,0,0,0,0,1,0,0,0,false,false,true,-143.3,1141.49,17.01,-0.004787882,0.0003209904,0.9979751,0.06342418,-336.381,693.66095,8.331,0.00051,0,2.4344099
124.46667,2000,0,91.24,0.000002697398,0.000002697398,0.000002697398,0.99999994,0,0,0,0,0,0,0,1,0,0,0,false,false,true,-146.09999,1147.27,17.01,-0.004793276,0.0002724372,0.99856704,0.053298056,-336.271,688.11096,8.331,0.00051,0,2.41901
124.475,2000,0,91.24,0.000002697398,0.000002697398,0.000002697398,0.99999994,0,0,0,0,0,0,0,1,0,0,0,false,false,true,-148.9,1153,17.01,-0.0047932765,0.00022388405,0.99905354,0.04323137,-336.061,682.66095,8.331,0.00061,0,2.4028099
124.48333,2000,0,91.24,0.000002697398,0.000002697398,0.000002697398,0.99999994,0,0,0,0,0,0,0,1,0,0,0,false,false,true,-151.7,1158.69,17.01,-0.004793276,0.00017533088,0.9994362,0.033229414,-335.751,677.311,8.331,0.00061,0,2.38591
124.49167,2000,0,91.24,0.000002697398,0.000002697398,0.000002697398,0.99999994,0,0,0,0,0,0,0,1,0,0,0,false,false,true,-154.5,1164.33,17.01,-0.0047932756,0.00012677768,0.99971706,0.023292115,-335.341,672.071,8.331,0.00061,0,2.3682098
124.5,2000,0,91.24,0.000002697398,0.000002697398,0.000002697398,0.99999994,0,0,0,0,0,0,0,1,0,0,0,false,false,true,-157.29,1169.9299,17.01,-0.004793276,0.00007822454,0.9998983,0.0134250345,-334.851,666.941,8.331,0.00061,0,2.34981
124.50833,2000,0,91.24,0.000002697398,0.000002697398,0.000002697398,0.99999994,0,0,0,0,0,0,0,1,0,0,0,false,false,true,-160.08,1175.49,17.01,-0.004793276,0.000029671379,0.9999819,0.0036333953,-334.271,661.93097,8.331,0.00061,0,2.33061
124.51667,2000,0,91.24,0.000002697398,0.000002697398,0.000002697398,0.99999994,0,0,0,0,0,0,0,1,0,0,0,false,false,true,-162.87,1181.01,17.01,-0.0047932765,-0.000018881788,0.99997,-0.0060772803,-333.621,657.04095,8.331,0.00061,0,2.31061
124.525,2000,0,91.24,0.000002697398,0.000002697398,0.000002697398,0.99999994,0,0,0,0,0,0,0,1,0,0,0,false,false,true,-165.65,1186.49,17.01,-0.004793276,-0.00006743495,0.9998652,-0.015701596,-332.901,652.27094,8.331,0.00061,0,2.28981
124.53333,2000,0,91.24,0.000002697398,0.000002697398,0.000002697398,0.99999994,0,0,0,0,0,0,0,1,0,0,0,false,false,true,-168.42,1191.9299,17.01,-0.0047932756,-0.00011598811,0.9996698,-0.025239635,-332.121,647.631,8.331,0.00061,0,2.26811
124.541664,2000,0,91.24,0.000002697398,0.000002697398,0.000002697398,0.99999994,0,0,0,0,0,0,0,1,0,0,0,false,false,true,-171.19,1197.33,17.01,-0.004793276,-0.00016454128,0.9993867,-0.034685966,-331.281,643.131,8.331,0.00061,0,2.24561
124.55,2000,0,91.24,0.000002697398,0.000002697398,0.000002697398,0.99999994,0,0,0,0,0,0,0,1,0,0,0,false,false,true,-173.95,1202.69,17.01,-0.0047932765,-0.00021309446,0.99901843,-0.044035196,-330.391,638.761,8.331,0.00061,0,2.22221
124.558334,2000,0,91.24,0.000002697398,0.000002697398,0.000002697398,0.99999994,0,0,0,0,0,0,0,1,0,0,0,false,false,true,-176.7,1208.01,17.01,-0.004793276,-0.0002616476,0.99856794,-0.053281914,-329.461,634.53094,8.331,0.00051,0,2.19791
124.566666,2000,0,91.24,0.000002697398,0.000002697398,0.000002697398,0.99999994,0,0,0,0,0,0,0,1,0,0,0,false,false,true,-179.45,1213.2999,17.01,-0.0047932756,-0.00031020073,0.9980379,-0.06242613,-328.471,630.40094,8.331,0.00040999998,0,2.17421
124.575,2000,0,91.24,0.000002697398,0.000002697398,0.000002697398,0.99999994,0,0,0,0,0,0,0,1,0,0,0,false,false,true,-182.19,1218.5499,17.01,-0.004787881,-0.00035335912,0.9974316,-0.07146241,-327.421,626.36096,8.331,0.00030999997,0,2.15161
124.583336,2000,0,91.24,0.000002697398,0.000002697398,0.000002697398,0.99999994,0,0,0,0,0,0,0,1,0,0,0,false,false,true,-184.92,1223.77,17.01,-0.004782487,-0.00039651754,0.99675095,-0.080401644,-326.311,622.42096,8.331,0.00030999997,0,2.13001
124.59167,2000,0,91.24,0.000002697398,0.000002697398,0.000002697398,0.99999994,0,0,0,0,0,0,0,1,0,0,0,false,false,true,-187.64,1228.96,17.01,-0.004777092,-0.00043967587,0.9959982,-0.089243755,-325.151,618.571,8.331,0.00021,0,2.10931
124.6,2000,0,91.24,0.000002697398,0.000002697398,0.000002697398,0.99999994,0,0,0,0,0,0,0,1,0,0,0,false,false,true,-190.34999,1234.11,17.01,-0.004771697,-0.00048283426,0.99517536,-0.097994156,-323.951,614.821,8.331,0.00021,0,2.08951
124.60833,2000,0,91.24,0.000002697398,0.000002697398,0.000002697398,0.99999994,0,0,0,0,0,0,0,1,0,0,0,false,false,true,-193.05,1239.23,17.01,-0.004766302,-0.0005259926,0.9942847,-0.10665284,-322.711,611.18097,8.331,0.00021,0,2.07061
124.61667,2000,0,91.24,0.000002697398,0.000002697398,0.000002697398,0.99999994,0,0,0,0,0,0,0,1,0,0,0,false,false,true,-195.73999,1244.32,17.01,-0.004760907,-0.0005691509,0.9933277,-0.11522516,-321.431,607.641,8.331,0.00010999999,0,2.05251
124.625,2000,0,91.24,0.000002697398,0.000002697398,0.000002697398,0.99999994,0,0,0,0,0,0,0,1,0,0,0,false,false,true,-198.42,1249.38,17.01,-0.004755513,-0.0006123093,0.99230593,-0.12371663,-320.121,604.21094,8.331,0,0,2.03521
124.63333,2000,0,91.24,0.000002697398,0.000002697398,0.000002697398,0.99999994,0,0,0,0,0,0,0,1,0,0,0,false,false,true,-201.09,1254.4199,17.01,-0.0047501177,-0.00065007294,0.99122113,-0.13212715,-318.761,600.86096,8.331,0,0,2.01961
124.64167,2000,0,91.24,0.000002697398,0.000002697398,0.000002697398,0.99999994,0,0,0,0,0,0,0,1,0,0,0,false,false,true,-203.75,1259.4299,17.01,-0.0047447225,-0.00068783644,0.9900743,-0.14046213,-317.331,597.55096,8.331,0,0,2.00661
124.65,2000,0,91.24,0.000002697398,0.000002697398,0.000002697398,0.99999994,0,0,0,0,0,0,0,1,0,0,0,false,false,true,-206.39,1264.4099,17.01,-0.0047393283,-0.00072560005,0.9888658,-0.14873238,-315.831,594.30096,8.331,0,0,1.99611
124.65833,2000,0,91.24,0.000002697398,0.000002697398,0.000002697398,0.99999994,0,0,0,0,0,0,0,1,0,0,0,false,false,true,-209.01999,1269.36,17.01,-0.0047339336,-0.00076336367,0.9875942,-0.1569541,-314.271,591.10095,8.331,0,0,1.9880099
124.666664,2000,0,91.24,0.000002697398,0.000002697398,0.000002697398,0.99999994,0,0,0,0,0,0,0,1,0,0,0,false,false,true,-211.64,1274.2899,17.01,-0.0047285384,-0.00080112723,0.98626053,-0.16512725,-312.651,587.96094,8.331,0,0,1.9822099
124.675,2000,0,91.24,0.000002697398,0.000002697398,0.000002697398,0.99999994,0,0,0,0,0,0,0,1,0,0,0,false,false,true,-214.25,1279.19,17.01,-0.0047231438,-0.0008388908,0.984863,-0.17326804,-310.971,584.891,8.331,0,0,1.9787099
124.683334,2000,0,91.24,0.000002697398,0.000002697398,0.000002697398,0.99999994,0,0,0,0,0,0,0,1,0,0,0,false,false,true,-216.84,1284.0599,17.01,-0.004717749,-0.00087665435,0.983401,-0.1813818,-309.241,581.891,8.331,0,0,1.97751
124.691666,2000,0,91.24,0.000002697398,0.000002697398,0.000002697398,0.99999994,0,0,0,0,0,0,0,1,0,0,0,false,false,true,-219.42,1288.9099,17.01,-0.004712354,-0.00091441785,0.9818728,-0.18947943,-307.471,578.97095,8.331,0,0,1.97851
124.7,2000,0,91.24,0.000002697398,0.000002697398,0.000002697398,0.99999994,0,0,0,0,0,0,0,1,0,0,0,false,false,true,-221.98,1293.73,17.01,-0.0047069597,-0.0009521815,0.9802777,-0.19756629,-305.661,576.131,8.331,0,0,1.98171
124.708336,2000,0,91.24,0.000002697398,0.000002697398,0.000002697398,0.99999994,0,0,0,0,0,0,0,1,0,0,0,false,false,true,-224.53,1298.53,17.01,-0.004701564,-0.0009899449,0.978613,-0.20565312,-303.811,573.381,8.331,0,0,1.98711
124.71667,2000,0,91.24,0.000002697398,0.000002697398,0.000002697398,0.99999994,0,0,0,0,0,0,0,1,0,0,0,false,false,true,-227.06,1303.3099,17.01,-0.004690775,-0.0010277086,0.9768764,-0.21375072,-301.901,570.65094,8.331,0,0,1.99311
124.725,2000,0,91.24,0.000002697398,0.000002697398,0.000002697398,0.99999994,0,0,0,0,0,0,0,1,0,0,0,false,false,true,-229.58,1308.07,17.01,-0.004679985,-0.001065472,0.975068,-0.22185372,-299.921,567.93097,8.331,0,0,1.99961
124.73333,2000,0,91.24,0.000002697398,0.000002697398,0.000002697398,0.99999994,0,0,0,0,0,0,0,1,0,0,0,false,false,true,-232.08,1312.7999,17.01,-0.0046691964,-0.0011032359,0.97318643,-0.22996758,-297.881,565.23096,8.331,0,0,2.00651
124.74167,2000,0,91.24,0.000002697398,0.000002697398,0.000002697398,0.99999994,0,0,0,0,0,0,0,1,0,0,0,false,false,true,-234.56,1317.51,17.01,-0.0046584066,-0.0011409995,0.9712294,-0.23809758,-295.781,562.55096,8.331,0,0,2.01381
124.75,2000,0,91.24,0.000002697398,0.000002697398,0.000002697398,0.99999994,0,0,0,0,0,0,0,1,0,0,0,false,false,true,-237.01999,1322.2,17.01,-0.0046476168,-0.0011787629,0.9691974,-0.2462383,-293.621,559.90094,8.331,0,0,2.02161
124.75833,2000,0,91.24,0.000002697398,0.000002697398,0.000002697398,0.99999994,0,0,0,0,0,0,0,1,0,0,0,false,false,true,-239.47,1326.87,17.01,-0.004636827,-0.0012165265,0.96708834,-0.25439528,-291.411,557.28094,8.331,0,0,2.02971
124.76667,2000,0,91.24,0.000002697398,0.000002697398,0.000002697398,0.99999994,0,0,0,0,0,0,0,1,0,0,0,false,false,true,-241.9,1331.51,17.01,-0.0046260376,-0.0012542901,0.9649029,-0.26256302,-289.161,554.701,8.331,0,0,2.03821
124.775,2000,0,91.24,0.000002697398,0.000002697398,0.000002697398,0.99999994,0,0,0,0,0,0,0,1,0,0,0,false,false,true,-244.31,1336.13,17.01,-0.004615248,-0.0012920536,0.96263856,-0.27074698,-286.871,552.17096,8.331,0,0,2.04701
124.78333,2000,0,91.24,0.000002697398,0.000002697398,0.000002697398,0.99999994,0,0,0,0,0,0,0,1,0,0,0,false,false,true,-246.7,1340.73,17.01,-0.004604459,-0.0013298173,0.9602945,-0.2789471,-284.54102,549.68097,8.331,0,0,2.05621
124.791664,2000,0,91.24,0.000002697398,0.000002697398,0.000002697398,0.99999994,0,0,0,0,0,0,0,1,0,0,0,false,false,true,-249.06999,1345.3099,17.01,-0.0045936694,-0.001367581,0.9578696,-0.2871634,-282.181,547.24097,8.331,0,0,2.06571
124.8,2000,0,91.24,0.000002697398,0.000002697398,0.000002697398,0.99999994,0,0,0,0,0,0,0,1,0,0,0,false,false,true,-251.42,1349.87,17.01,-0.004582879,-0.0014053443,0.95536286,-0.29539588,-279.771,544.84094,8.331,0,0,2.07511
124.808334,2000,0,91.24,0.000002697398,0.000002697398,0.000002697398,0.99999994,0,0,0,0,0,0,0,1,0,0,0,false,false,true,-253.75,1354.4099,17.01,-0.00457209,-0.0014431081,0.9527733,-0.30364457,-277.29102,542.43097,8.331,0,0,2.08331
124.816666,2000,0,91.24,0.000002697398,0.000002697398,0.000002697398,0.99999994,0,0,0,0,0,0,0,1,0,0,0,false,false,true,-256.06,1358.9299,17.01,-0.0045613,-0.0014808716,0.95010144,-0.311904,-274.731,540.011,8.331,0,0,2.0903099
124.825,2000,0,91.24,0.000002697398,0.000002697398,0.000002697398,0.99999994,0,0,0,0,0,0,0,1,0,0,0,false,false,true,-258.35,1363.4299,17.01,-0.00455051,-0.001518635,0.9473482,-0.32016885,-272.101,537.59094,8.331,0,0,2.0961099
124.833336,2000,0,91.24,0.000002697398,0.000002697398,0.000002697398,0.99999994,0,0,0,0,0,0,0,1,0,0,0,false,false,true,-260.62,1367.9099,17.01,-0.004539721,-0.0015563988,0.94451666,-0.3284284,-269.401,535.17096,8.331,0,0,2.10071
124.84167,2000,0,91.24,0.000002697398,0.000002697398,0.000002697398,0.99999994,0,0,0,0,0,0,0,1,0,0,0,false,false,true,-262.86,1372.37,17.01,-0.004523536,-0.0015941622,0.941606,-0.33668238,-266.641,532.761,8.331,0.00010999999,0.00010999999,2.10421
124.85,2000,0,91.24,0.000002697398,0.000002697398,0.000002697398,0.99999994,0,0,0,0,0,0,0,1,0,0,0,false,false,true,-265.08,1376.8099,17.01,-0.0045073517,-0.0016319256,0.9386176,-0.34492564,-263.811,530.371,8.331,0.00021,0.00010999999,2.10651
124.85833,2000,0,91.24,0.000002697398,0.000002697398,0.000002697398,0.99999994,0,0,0,0,0,0,0,1,0,0,0,false,false,true,-267.28,1381.23,17.01,-0.0044911676,-0.0016696894,0.9355533,-0.35315278,-260.921,528.001,8.331,0.00021,0.00010999999,2.10771
124.86667,2000,0,91.24,0.000002697398,0.000002697398,0.000002697398,0.99999994,0,0,0,0,0,0,0,1,0,0,0,false,false,true,-269.44998,1385.63,17.01,-0.004474983,-0.0017074529,0.93241674,-0.3613529,-257.981,525.65094,8.331,0.00030999997,0.00010999999,2.10771
124.875,2000,0,91.24,0.000002697398,0.000002697398,0.000002697398,0.99999994,0,0,0,0,0,0,0,1,0,0,0,false,false,true,-271.6,1390.01,17.01,-0.0044587995,-0.0017506115,0.929208,-0.36952612,-254.991,523.331,8.331,0.00040999998,0.00010999999,2.10661
124.88333,2000,0,91.24,0.000002697398,0.000002697398,0.000002697398,0.99999994,0,0,0,0,0,0,0,1,0,0,0,false,false,true,-273.72,1394.37,17.01,-0.004442615,-0.0017937699,0.9259291,-0.37766686,-251.951,521.05096,8.331,0.00040999998,0.00010999999,2.10441
124.89167,2000,0,91.24,0.000002697398,0.000002697398,0.000002697398,0.99999994,0,0,0,0,0,0,0,1,0,0,0,false,false,true,-275.82,1398.71,17.01,-0.0044264304,-0.0018369282,0.92258257,-0.38576987,-248.86101,518.80096,8.331,0.00040999998,0.00010999999,2.1012099
124.9,2000,0,91.24,0.000002697398,0.000002697398,0.000002697398,0.99999994,0,0,0,0,0,0,0,1,0,0,0,false,false,true,-277.88998,1403.03,17.01,-0.0044102455,-0.0018746917,0.91917086,-0.39382973,-245.731,516.59094,8.331,0.00030999997,0.00010999999,2.09691
124.90833,2000,0,91.24,0.000002697398,0.000002697398,0.000002697398,0.99999994,0,0,0,0,0,0,0,1,0,0,0,false,false,true,-279.94,1407.34,17.01,-0.0043940614,-0.0019124552,0.9156945,-0.40184638,-242.571,514.43097,8.331,0.00030999997,0.00010999999,2.09151
124.916664,2000,0,91.24,0.000002697398,0.000002697398,0.000002697398,0.99999994,0,0,0,0,0,0,0,1,0,0,0,false,false,true,-281.96,1411.63,17.01,-0.0043778773,-0.0019502189,0.91215867,-0.40980917,-239.371,512.311,8.331,0.00030999997,0.00010999999,2.08511
124.925,2000,0,91.24,0.000002697398,0.000002697398,0.000002697398,0.99999994,0,0,0,0,0,0,0,1,0,0,0,false,false,true,-283.94998,1415.9,17.01,-0.004361693,-0.0019879825,0.9085641,-0.417718,-236.151,510.241,8.331,0.00030999997,0.00010999999,2.07761
124.933334,2000,0,91.24,0.000002697398,0.000002697398,0.000002697398,0.99999994,0,0,0,0,0,0,0,1,0,0,0,false,false,true,-285.91998,1420.15,17.01,-0.0043455083,-0.0020257458,0.90491396,-0.4255674,-232.901,508.221,8.331,0.00030999997,0.00021,2.06911
124.941666,2000,0,91.24,0.000002697398,0.000002697398,0.000002697398,0.99999994,0,0,0,0,0,0,0,1,0,0,0,false,false,true,-287.86,1424.39,17.01,-0.004329324,-0.0020635095,0.90121186,-0.43335214,-229.641,506.261,8.331,0.00030999997,0.00021,2.05961
124.95,2000,0,91.24,0.000002697398,0.000002697398,0.000002697398,0.99999994,0,0,0,0,0,0,0,1,0,0,0,false,false,true,-289.77,1428.61,17.01,-0.0043131397,-0.0021012733,0.8974588,-0.44107217,-226.36101,504.35098,8.331,0.00030999997,0.00030999997,2.04911
124.958336,2000,0,91.24,0.000002697398,0.000002697398,0.000002697398,0.99999994,0,0,0,0,0,0,0,1,0,0,0,false,false,true,-291.66,1432.8099,17.01,-0.004296955,-0.0021390365,0.89366114,-0.44871655,-223.071,502.501,8.331,0.00030999997,0.00030999997,2.03771
124.96667,2000,0,91.24,0.000002697398,0.000002697398,0.000002697398,0.99999994,0,0,0,0,0,0,0,1,0,0,0,false,false,true,-293.52,1437,17.01,-0.004275376,-0.0021768003,0.8898204,-0.45628554,-219.781,500.711,8.331,0.00030999997,0.00040999998,2.02531
124.975,2000,0,91.24,0.000002697398,0.000002697398,0.000002697398,0.99999994,0,0,0,0,0,0,0,1,0,0,0,false,false,true,-295.35,1441.1699,17.01,-0.004253797,-0.0022145638,0.8859379,-0.4637789,-216.491,498.981,8.331,0.00030999997,0.00040999998,2.01191
124.98333,2000,0,91.24,0.000002697398,0.000002697398,0.000002697398,0.99999994,0,0,0,0,0,0,0,1,0,0,0,false,false,true,-297.15,1445.33,17.01,-0.0042322176,-0.0022523273,0.8820179,-0.47119135,-213.201,497.311,8.331,0.00030999997,0.00040999998,1.99761
124.99167,2000,0,91.24,0.000002697398,0.000002697398,0.000002697398,0.99999994,0,0,0,0,0,0,0,1,0,0,0,false,false,true,-298.93,1449.47,17.01,-0.0042106383,-0.0022900908,0.8780648,-0.4785176,-209.921,495.701,8.331,0.00030999997,0.00040999998,1.98241
125,2000,0,91.24,0.000002697398,0.000002697398,0.000002697398,0.99999994,0,0,0,0,0,0,0,1,0,0,0,false,false,true,-300.68,1453.6,17.01,-0.0041890587,-0.0023278543,0.8740834,-0.48575193,-206.651,494.161,8.331,0.00030999997,0.00030999997,1.9663099
125.00833,2000,0,91.24,0.000002697398,0.000002697398,0.000002697398,0.99999994,0,0,0,0,0,0,0,1,0,0,0,false,false,true,-302.4,1457.72,17.01,-0.00416748,-0.002365618,0.8700757,-0.4928947,-203.401,492.681,8.331,0.00030999997,0.00030999997,1.94931
125.01667,2000,0,91.24,0.000002697398,0.000002697398,0.000002697398,0.99999994,0,0,0,0,0,0,0,1,0,0,0,false,false,true,-304.09,1461.83,17.01,-0.0041459007,-0.0024033815,0.8660434,-0.49994576,-200.171,491.261,8.331,0.00030999997,0.00021,1.93141
