time,ball_loc_x,ball_loc_y,ball_loc_z,ball_rot_x,ball_rot_y,ball_rot_z,ball_rot_w,ball_vel_x,ball_vel_y,ball_vel_z,ball_ang_x,ball_ang_y,ball_ang_z,player0_throttle,player0_steer,player0_pitch,player0_yaw,player0_roll,player0_jump,player0_boost,player0_handbrake,player0_loc_x,player0_loc_y,player0_loc_z,player0_rot_x,player0_rot_y,player0_rot_z,player0_rot_w,player0_vel_x,player0_vel_y,player0_vel_z,player0_ang_x,player0_ang_y,player0_ang_z
98.791664,2000,0,91.24,0.000002697398,0.000002697398,0.000002697398,0.99999994,0,0,0,0,0,0,0.8031496,0,0,0,0,false,false,false,0,-4610.29,17.01,-0.003352866,0.0033420764,0.7070852,0.7071125,0,802.15094,8.321,-0.00061,0.00010999999,0
98.8,2000,0,91.24,0.000002697398,0.000002697398,0.000002697398,0.99999994,0,0,0,0,0,0,0,1,0,0,0,false,false,true,0,-4603.61,17.01,-0.003352866,0.0033420764,0.7070852,0.7071125,-13.231,798.92096,8.351,-0.00091,0.00351,0.36391
98.808334,2000,0,91.24,0.000002697398,0.000002697398,0.000002697398,0.99999994,0,0,0,0,0,0,0,1,0,0,0,false,false,true,-0.11,-4596.9497,17.01,-0.0033528658,0.003347471,0.7081574,0.70603853,-22.860998,796.53094,8.361,-0.00111,0.00461,0.62201
98.816666,2000,0,91.24,0.000002697398,0.000002697398,0.000002697398,0.99999994,0,0,0,0,0,0,0,1,0,0,0,false,false,true,-0.29999998,-4590.31,17.01,-0.0033528658,0.0033582605,0.7099868,0.7041989,-31.620998,794.35095,8.361,-0.0012099999,0.00481,0.84331
98.825,2000,0,91.24,0.000002697398,0.000002697398,0.000002697398,0.99999994,0,0,0,0,0,0,0,1,0,0,0,false,false,true,-0.56,-4583.69,17.01,-0.0033528658,0.0033636554,0.7124555,0.7017011,-39.810997,792.321,8.361,-0.0012099999,0.00451,1.03321
98.833336,2000,0,91.24,0.000002697398,0.000002697398,0.000002697398,0.99999994,0,0,0,0,0,0,0,1,0,0,0,false,false,true,-0.89,-4577.09,17.01,-0.0033582605,0.0033636554,0.715471,0.6986261,-47.641,790.381,8.361,-0.00111,0.00391,1.19671
98.84167,2000,0,91.24,0.000002697398,0.000002697398,0.000002697398,0.99999994,0,0,0,0,0,0,0,1,0,0,0,false,false,true,-1.29,-4570.5,17.01,-0.00336905,0.0033636554,0.7189463,0.6950492,-55.260998,788.49097,8.361,-0.0010099999,0.00321,1.3378099
98.85,2000,0,91.24,0.000002697398,0.000002697398,0.000002697398,0.99999994,0,0,0,0,0,0,0,1,0,0,0,false,false,true,-1.75,-4563.9297,17.01,-0.0033798397,0.0033582605,0.72281015,0.69103014,-62.760998,786.621,8.361,-0.00091,0.00241,1.4600099
98.85833,2000,0,91.24,0.000002697398,0.000002697398,0.000002697398,0.99999994,0,0,0,0,0,0,0,1,0,0,0,false,false,true,-2.27,-4557.37,17.01,-0.0033960242,0.003347471,0.7269983,0.68662256,-70.201,784.74097,8.361,-0.00081,0.0017099999,1.56641
98.86667,2000,0,91.24,0.000002697398,0.000002697398,0.000002697398,0.99999994,0,0,0,0,0,0,0,1,0,0,0,false,false,true,-2.86,-4550.83,17.01,-0.0034176034,0.0033312866,0.73146296,0.6818644,-77.601,782.83093,8.361,-0.00071,0.0010099999,1.65941
98.875,2000,0,91.24,0.000002697398,0.000002697398,0.000002697398,0.99999994,0,0,0,0,0,0,0,1,0,0,0,false,false,true,-3.51,-4544.31,17.01,-0.0034391822,0.0033151018,0.73615754,0.6767932,-84.971,780.871,8.361,-0.00061,0.00040999998,1.74101
98.88333,2000,0,91.24,0.000002697398,0.000002697398,0.000002697398,0.99999994,0,0,0,0,0,0,0,1,0,0,0,false,false,true,-4.22,-4537.8,17.01,-0.0034661565,0.003293523,0.7410469,0.67143613,-92.291,778.85095,8.361,-0.00051,0,1.81291
98.89167,2000,0,91.24,0.000002697398,0.000002697398,0.000002697398,0.99999994,0,0,0,0,0,0,0,1,0,0,0,false,false,true,-4.99,-4531.31,17.01,-0.0034931304,0.003266549,0.7460968,0.6658202,-99.541,776.761,8.351,-0.00030999997,-0.00030999997,1.87641
98.9,2000,0,91.24,0.000002697398,0.000002697398,0.000002697398,0.99999994,0,0,0,0,0,0,0,1,0,0,0,false,false,true,-5.8199997,-4524.84,17.01,-0.0035201046,0.003239575,0.7512794,0.6599668,-106.681,774.61096,8.351,-0.00021,-0.00061,1.9326099
98.90833,2000,0,91.24,0.000002697398,0.000002697398,0.000002697398,0.99999994,0,0,0,0,0,0,0,1,0,0,0,false,false,true,-6.71,-4518.38,17.01,-0.0035470785,0.0032126012,0.7565678,0.65389764,-113.671,772.40094,8.351,-0.00010999999,-0.00081,1.98251
98.916664,2000,0,91.24,0.000002697398,0.000002697398,0.000002697398,0.99999994,0,0,0,0,0,0,0,1,0,0,0,false,false,true,-7.66,-4511.94,17.01,-0.0035740524,0.0031802324,0.7619454,0.6476234,-120.47099,770.15094,8.351,0,-0.0010099999,2.02671
98.925,2000,0,91.24,0.000002697398,0.000002697398,0.000002697398,0.99999994,0,0,0,0,0,0,0,1,0,0,0,false,false,true,-8.66,-4505.52,17.01,-0.0036064212,0.0031478636,0.76738733,0.64116585,-127.031,767.86096,8.351,0,-0.00111,2.06581
98.933334,2000,0,91.24,0.000002697398,0.000002697398,0.000002697398,0.99999994,0,0,0,0,0,0,0,1,0,0,0,false,false,true,-9.719999,-4499.12,17.01,-0.00363879,0.0031154947,0.7728786,0.6345357,-133.291,765.571,8.351,0,-0.0012099999,2.1003098
98.941666,2000,0,91.24,0.000002697398,0.000002697398,0.000002697398,0.99999994,0,0,0,0,0,0,0,1,0,0,0,false,false,true,-10.83,-4492.7397,17.01,-0.003671159,0.0030777315,0.7784011,0.62774897,-139.19101,763.29095,8.351,0,-0.0012099999,2.13061
98.95,2000,0,91.24,0.000002697398,0.000002697398,0.000002697398,0.99999994,0,0,0,0,0,0,0,1,0,0,0,false,false,true,-11.99,-4486.38,17.01,-0.0037035276,0.0030399675,0.7839411,0.6208166,-144.681,761.071,8.341001,0,-0.0012099999,2.15691
98.958336,2000,0,91.24,0.000002697398,0.000002697398,0.000002697398,0.99999994,0,0,0,0,0,0,0,1,0,0,0,false,false,true,-13.2,-4480.04,17.01,-0.0037358964,0.003002204,0.78949046,0.613744,-149.69101,758.941,8.341001,0,-0.0012099999,2.17941
98.96667,2000,0,91.24,0.000002697398,0.000002697398,0.000002697398,0.99999994,0,0,0,0,0,0,0,1,0,0,0,false,false,true,-14.45,-4473.7197,17.01,-0.0037682652,0.0029644405,0.79503286,0.6065473,-154.151,756.941,8.341001,0,-0.0012099999,2.19841
98.975,2000,0,91.24,0.000002697398,0.000002697398,0.000002697398,0.99999994,0,0,0,0,0,0,0,1,0,0,0,false,false,true,-15.73,-4467.4097,17.01,-0.0038006338,0.0029266768,0.80055696,0.5992373,-158.001,755.131,8.341001,0.00010999999,-0.00111,2.2139099
98.98333,2000,0,91.24,0.000002697398,0.000002697398,0.000002697398,0.99999994,0,0,0,0,0,0,0,1,0,0,0,false,false,true,-17.05,-4461.12,17.01,-0.0038330026,0.0028889133,0.80605215,0.5918249,-161.16101,753.571,8.331,0.00021,-0.0010099999,2.2260098
98.99167,2000,0,91.24,0.000002697398,0.000002697398,0.000002697398,0.99999994,0,0,0,0,0,0,0,1,0,0,0,false,false,true,-18.39,-4454.84,17.01,-0.0038599768,0.0028511498,0.8115047,0.584326,-163.561,752.33093,8.331,0.00021,-0.0010099999,2.2348099
99,2000,0,91.24,0.000002697398,0.000002697398,0.000002697398,0.99999994,0,0,0,0,0,0,0,1,0,0,0,false,false,true,-19.75,-4448.57,17.01,-0.003886951,0.0028133865,0.81690913,0.5767464,-166.061,750.98096,8.331,0.00021,-0.00091,2.2432098
99.00833,2000,0,91.24,0.000002697398,0.000002697398,0.000002697398,0.99999994,0,0,0,0,0,0,0,1,0,0,0,false,false,true,-21.13,-4442.31,17.01,-0.0039139246,0.0027756225,0.82226413,0.5690857,-168.651,749.52094,8.331,0.00021,-0.00091,2.25141
99.01667,2000,0,91.24,0.000002697398,0.000002697398,0.000002697398,0.99999994,0,0,0,0,0,0,0,1,0,0,0,false,false,true,-22.539999,-4436.06,17.01,-0.003940899,0.0027378593,0.82756484,0.5613496,-171.33101,747.96094,8.331,0.00021,-0.00091,2.25931
99.025,2000,0,91.24,0.000002697398,0.000002697398,0.000002697398,0.99999994,0,0,0,0,0,0,0,1,0,0,0,false,false,true,-23.97,-4429.83,17.01,-0.0039678724,0.0027000955,0.83281374,0.5535324,-174.091,746.28094,8.331,0.00021,-0.00081,2.26701
99.03333,2000,0,91.24,0.000002697398,0.000002697398,0.000002697398,0.99999994,0,0,0,0,0,0,0,1,0,0,0,false,false,true,-25.42,-4423.61,17.01,-0.0039948463,0.0026623318,0.8380059,0.5456399,-176.921,744.49097,8.331,0.00030999997,-0.00081,2.27441
99.041664,2000,0,91.24,0.000002697398,0.000002697398,0.000002697398,0.99999994,0,0,0,0,0,0,0,1,0,0,0,false,false,true,-26.89,-4417.4097,17.01,-0.00402182,0.0026191734,0.84314054,0.5376717,-179.811,742.59094,8.331,0.00030999997,-0.00081,2.2815099
99.05,2000,0,91.24,0.000002697398,0.000002697398,0.000002697398,0.99999994,0,0,0,0,0,0,0,1,0,0,0,false,false,true,-28.39,-4411.2197,17.01,-0.0040487945,0.0025760152,0.848213,0.5296334,-182.761,740.571,8.331,0.00030999997,-0.00071,2.28831
99.058334,2000,0,91.24,0.000002697398,0.000002697398,0.000002697398,0.99999994,0,0,0,0,0,0,0,1,0,0,0,false,false,true,-29.91,-4405.05,17.01,-0.004075769,0.002532857,0.8532257,0.5215197,-185.761,738.441,8.331,0.00030999997,-0.00061,2.29491
99.066666,2000,0,91.24,0.000002697398,0.000002697398,0.000002697398,0.99999994,0,0,0,0,0,0,0,1,0,0,0,false,false,true,-31.46,-4398.9,17.01,-0.0041027423,0.0024896984,0.85817444,0.51333565,-188.80101,736.191,8.331,0.00030999997,-0.00051,2.30121
99.075,2000,0,91.24,0.000002697398,0.000002697398,0.000002697398,0.99999994,0,0,0,0,0,0,0,1,0,0,0,false,false,true,-33.03,-4392.76,17.01,-0.0041297157,0.0024465397,0.8630581,0.50508153,-191.871,733.83093,8.331,0.00021,-0.00040999998,2.30721
99.083336,2000,0,91.24,0.000002697398,0.000002697398,0.000002697398,0.99999994,0,0,0,0,0,0,0,1,0,0,0,false,false,true,-34.63,-4386.64,17.01,-0.00415669,0.0024033815,0.867873,0.49676278,-194.97101,731.35095,8.331,0.00021,-0.00030999997,2.3129098
99.09167,2000,0,91.24,0.000002697398,0.000002697398,0.000002697398,0.99999994,0,0,0,0,0,0,0,1,0,0,0,false,false,true,-36.25,-4380.55,17.01,-0.0041782693,0.0023602233,0.87262124,0.48837388,-198.101,728.751,8.331,0.00021,-0.00021,2.31841
99.1,2000,0,91.24,0.000002697398,0.000002697398,0.000002697398,0.99999994,0,0,0,0,0,0,0,1,0,0,0,false,false,true,-37.899998,-4374.48,17.01,-0.0041998485,0.002317065,0.87729895,0.47992024,-201.241,726.04095,8.331,0.00010999999,-0.00021,2.32361
99.10833,2000,0,91.24,0.000002697398,0.000002697398,0.000002697398,0.99999994,0,0,0,0,0,0,0,1,0,0,0,false,false,true,-39.579998,-4368.4297,17.01,-0.004221428,0.0022739067,0.8819055,0.47140178,-204.391,723.22095,8.331,0.00010999999,-0.00021,2.32851
99.11667,2000,0,91.24,0.000002697398,0.000002697398,0.000002697398,0.99999994,0,0,0,0,0,0,0,1,0,0,0,false,false,true,-41.28,-4362.4,17.01,-0.004243007,0.002230748,0.8864372,0.46282402,-207.541,720.28094,8.331,0,-0.00021,2.3331099
99.125,2000,0,91.24,0.000002697398,0.000002697398,0.000002697398,0.99999994,0,0,0,0,0,0,0,1,0,0,0,false,false,true,-43.01,-4356.4,17.01,-0.004264586,0.0021875896,0.89089346,0.45418698,-210.69101,717.23096,8.331,0,-0.00021,2.33741
99.13333,2000,0,91.24,0.000002697398,0.000002697398,0.000002697398,0.99999994,0,0,0,0,0,0,0,1,0,0,0,false,false,true,-44.77,-4350.42,17.01,-0.004286166,0.0021444317,0.8952738,0.4454905,-213.83101,714.071,8.331,0,-0.00021,2.34141
99.14167,2000,0,91.24,0.000002697398,0.000002697398,0.000002697398,0.99999994,0,0,0,0,0,0,0,1,0,0,0,false,false,true,-46.55,-4344.4697,17.01,-0.0043077446,0.002101273,0.8995775,0.4367347,-216.961,710.80096,8.331,0,-0.00010999999,2.34511
99.15,2000,0,91.24,0.000002697398,0.000002697398,0.000002697398,0.99999994,0,0,0,0,0,0,0,1,0,0,0,false,false,true,-48.36,-4338.55,17.01,-0.004329324,0.0020581146,0.9038015,0.42792493,-220.071,707.43097,8.331,0,-0.00010999999,2.34851
99.15833,2000,0,91.24,0.000002697398,0.000002697398,0.000002697398,0.99999994,0,0,0,0,0,0,0,1,0,0,0,false,false,true,-50.19,-4332.65,17.01,-0.004350903,0.0020149562,0.9079452,0.41906127,-223.151,703.951,8.331,0,-0.00010999999,2.35151
99.166664,2000,0,91.24,0.000002697398,0.000002697398,0.000002697398,0.99999994,0,0,0,0,0,0,0,1,0,0,0,false,false,true,-52.05,-4326.78,17.01,-0.0043724827,0.001971798,0.9120083,0.4101437,-226.201,700.371,8.331,0,-0.00010999999,2.35421
99.175,2000,0,91.24,0.000002697398,0.000002697398,0.000002697398,0.99999994,0,0,0,0,0,0,0,1,0,0,0,false,false,true,-53.94,-4320.94,17.01,-0.0043940614,0.0019286396,0.91598773,0.40117744,-229.211,696.691,8.331,0,0,2.35661
99.183334,2000,0,91.24,0.000002697398,0.000002697398,0.000002697398,0.99999994,0,0,0,0,0,0,0,1,0,0,0,false,false,true,-55.85,-4315.13,17.01,-0.0044102455,0.0018854813,0.91988325,0.39216274,-232.181,692.91095,8.331,0,0,2.35871
99.191666,2000,0,91.24,0.000002697398,0.000002697398,0.000002697398,0.99999994,0,0,0,0,0,0,0,1,0,0,0,false,false,true,-57.78,-4309.36,17.01,-0.0044264304,0.001842323,0.9236924,0.3831048,-235.11101,689.04095,8.331,0,0,2.36041
99.2,2000,0,91.24,0.000002697398,0.000002697398,0.000002697398,0.99999994,0,0,0,0,0,0,0,1,0,0,0,false,false,true,-59.739998,-4303.62,17.01,-0.004442614,0.0017991643,0.92741466,0.37400374,-237.991,685.08093,8.331,0,0,2.36181
99.208336,2000,0,91.24,0.000002697398,0.000002697398,0.000002697398,0.99999994,0,0,0,0,0,0,0,1,0,0,0,false,false,true,-61.719997,-4297.9097,17.01,-0.0044587995,0.0017560063,0.9310502,0.3648596,-240.811,681.03094,8.331,0,0,2.36291
99.21667,2000,0,91.24,0.000002697398,0.000002697398,0.000002697398,0.99999994,0,0,0,0,0,0,0,1,0,0,0,false,false,true,-63.73,-4292.23,17.01,-0.0044749826,0.0017128475,0.9345963,0.35567752,-243.571,676.90094,8.331,0,0,2.36361
99.225,2000,0,91.24,0.000002697398,0.000002697398,0.000002697398,0.99999994,0,0,0,0,0,0,0,1,0,0,0,false,false,true,-65.76,-4286.59,17.01,-0.0044911676,0.0016696894,0.93805325,0.34645784,-246.271,672.691,8.331,0,0,2.3640099
99.23333,2000,0,91.24,0.000002697398,0.000002697398,0.000002697398,0.99999994,0,0,0,0,0,0,0,1,0,0,0,false,false,true,-67.81,-4280.98,17.01,-0.004507352,0.001626531,0.9414207,0.33720028,-248.901,668.40094,8.331,0,-0.00010999999,2.3640099
99.24167,2000,0,91.24,0.000002697398,0.000002697398,0.000002697398,0.99999994,0,0,0,0,0,0,0,1,0,0,0,false,false,true,-69.88,-4275.4097,17.01,-0.004523536,0.0015833727,0.9446966,0.32791045,-251.461,664.04095,8.331,0,-0.00010999999,2.36371
99.25,2000,0,91.24,0.000002697398,0.000002697398,0.000002697398,0.99999994,0,0,0,0,0,0,0,1,0,0,0,false,false,true,-71.979996,-4269.88,17.01,-0.0045397207,0.0015402143,0.94788104,0.31858817,-253.941,659.61096,8.331,0,-0.00010999999,2.36301
99.25833,2000,0,91.24,0.000002697398,0.000002697398,0.000002697398,0.99999994,0,0,0,0,0,0,0,1,0,0,0,false,false,true,-74.1,-4264.38,17.01,-0.0045559052,0.0014970559,0.9509722,0.30923897,-256.341,655.121,8.331,0,-0.00010999999,2.36201
99.26667,2000,0,91.24,0.000002697398,0.000002697398,0.000002697398,0.99999994,0,0,0,0,0,0,0,1,0,0,0,false,false,true,-76.24,-4258.92,17.01,-0.0045720898,0.0014538976,0.9539702,0.29986283,-258.661,650.571,8.331,0.00010999999,-0.00010999999,2.36061
99.275,2000,0,91.24,0.000002697398,0.000002697398,0.000002697398,0.99999994,0,0,0,0,0,0,0,1,0,0,0,false,false,true,-78.4,-4253.5,17.01,-0.0045882734,0.001410739,0.9568734,0.29046497,-260.901,645.97095,8.331,0.00010999999,-0.00010999999,2.3589098
99.28333,2000,0,91.24,0.000002697398,0.000002697398,0.000002697398,0.99999994,0,0,0,0,0,0,0,1,0,0,0,false,false,true,-80.57,-4248.12,17.01,-0.0046044583,0.0013675808,0.9596823,0.28104568,-263.051,641.311,8.331,0.00021,-0.00010999999,2.3568099
99.291664,2000,0,91.24,0.000002697398,0.000002697398,0.000002697398,0.99999994,0,0,0,0,0,0,0,1,0,0,0,false,false,true,-82.759995,-4242.78,17.01,-0.0046152477,0.0013190275,0.96239525,0.27161008,-265.111,636.61096,8.331,0.00030999997,-0.00010999999,2.35431
99.3,2000,0,91.24,0.000002697398,0.000002697398,0.000002697398,0.99999994,0,0,0,0,0,0,0,1,0,0,0,false,false,true,-84.97,-4237.4697,17.01,-0.0046260376,0.0012704745,0.96501285,0.26215842,-267.081,631.871,8.331,0.00030999997,-0.00010999999,2.35141
99.308334,2000,0,91.24,0.000002697398,0.000002697398,0.000002697398,0.99999994,0,0,0,0,0,0,0,1,0,0,0,false,false,true,-87.2,-4232.1997,17.01,-0.004636827,0.0012219213,0.9675352,0.25269046,-268.951,627.09094,8.331,0.00030999997,-0.00010999999,2.3482099
99.316666,2000,0,91.24,0.000002697398,0.000002697398,0.000002697398,0.99999994,0,0,0,0,0,0,0,1,0,0,0,false,false,true,-89.439995,-4226.9697,17.01,-0.004647617,0.0011733682,0.96996135,0.24321184,-270.731,622.28094,8.331,0.00021,-0.00010999999,2.34461
99.325,2000,0,91.24,0.000002697398,0.000002697398,0.000002697398,0.99999994,0,0,0,0,0,0,0,1,0,0,0,false,false,true,-91.7,-4221.78,17.01,-0.004658406,0.001124815,0.9722915,0.23372237,-272.411,617.441,8.331,0.00010999999,-0.00010999999,2.34061
99.333336,2000,0,91.24,0.000002697398,0.000002697398,0.000002697398,0.99999994,0,0,0,0,0,0,0,1,0,0,0,false,false,true,-93.97,-4216.63,17.01,-0.0046691955,0.0010762616,0.9745249,0.22422743,-274.001,612.58093,8.331,0.00010999999,-0.00010999999,2.33621
99.34167,2000,0,91.24,0.000002697398,0.000002697398,0.000002697398,0.99999994,0,0,0,0,0,0,0,1,0,0,0,false,false,true,-96.25,-4211.52,17.01,-0.004679985,0.0010277085,0.97666097,0.21473259,-275.491,607.71094,8.331,0,-0.00010999999,2.33141
99.35,2000,0,91.24,0.000002697398,0.000002697398,0.000002697398,0.99999994,0,0,0,0,0,0,0,1,0,0,0,false,false,true,-98.549995,-4206.46,17.01,-0.0046907756,0.0009845503,0.9787004,0.2052377,-276.881,602.821,8.331,0,-0.00010999999,2.32621
99.35833,2000,0,91.24,0.000002697398,0.000002697398,0.000002697398,0.99999994,0,0,0,0,0,0,0,1,0,0,0,false,false,true,-100.86,-4201.44,17.01,-0.0047015646,0.0009413919,0.98064345,0.19574285,-278.171,597.93097,8.331,0,-0.00010999999,2.32071
99.36667,2000,0,91.24,0.000002697398,0.000002697398,0.000002697398,0.99999994,0,0,0,0,0,0,0,1,0,0,0,false,false,true,-103.18,-4196.46,17.01,-0.004712355,0.0008982336,0.98249,0.18625332,-279.361,593.03094,8.331,0,-0.00010999999,2.31481
99.375,2000,0,91.24,0.000002697398,0.000002697398,0.000002697398,0.99999994,0,0,0,0,0,0,0,1,0,0,0,false,false,true,-105.509995,-4191.52,17.01,-0.0047231433,0.0008550751,0.9842405,0.17676924,-280.451,588.141,8.331,0,0,2.30851
99.38333,2000,0,91.24,0.000002697398,0.000002697398,0.000002697398,0.99999994,0,0,0,0,0,0,0,1,0,0,0,false,false,true,-107.85,-4186.62,17.01,-0.0047285384,0.00081191683,0.985895,0.16729599,-281.441,583.251,8.331,0.00010999999,0,2.30181
99.39167,2000,0,91.24,0.000002697398,0.000002697398,0.000002697398,0.99999994,0,0,0,0,0,0,0,1,0,0,0,false,false,true,-110.2,-4181.76,17.01,-0.0047339336,0.0007687585,0.98745406,0.15783344,-282.341,578.381,8.331,0.00021,0,2.29471
99.4,2000,0,91.24,0.000002697398,0.000002697398,0.000002697398,0.99999994,0,0,0,0,0,0,0,1,0,0,0,false,false,true,-112.549995,-4176.94,17.01,-0.0047393283,0.00072020525,0.98891765,0.14838715,-283.141,573.52094,8.331,0.00021,0,2.28721
99.40833,2000,0,91.24,0.000002697398,0.000002697398,0.000002697398,0.99999994,0,0,0,0,0,0,0,1,0,0,0,false,false,true,-114.909996,-4172.1597,17.01,-0.004744723,0.0006716521,0.99028677,0.13895696,-283.841,568.68097,8.331,0.00021,0,2.27931
99.416664,2000,0,91.24,0.000002697398,0.000002697398,0.000002697398,0.99999994,0,0,0,0,0,0,0,1,0,0,0,false,false,true,-117.28,-4167.42,17.01,-0.004750118,0.000623099,0.9915615,0.12954845,-284.451,563.871,8.331,0.00021,0,2.27091
99.425,2000,0,91.24,0.000002697398,0.000002697398,0.000002697398,0.99999994,0,0,0,0,0,0,0,1,0,0,0,false,false,true,-119.649994,-4162.7197,17.01,-0.0047555123,0.0005799405,0.99274266,0.1201614,-284.961,559.09094,8.331,0.00021,-0.00010999999,2.26211
99.433334,2000,0,91.24,0.000002697398,0.000002697398,0.000002697398,0.99999994,0,0,0,0,0,0,0,1,0,0,0,false,false,true,-122.02,-4158.06,17.01,-0.0047609075,0.0005367822,0.993831,0.11080144,-285.381,554.34094,8.331,0.00021,-0.00010999999,2.25291
99.441666,2000,0,91.24,0.000002697398,0.000002697398,0.000002697398,0.99999994,0,0,0,0,0,0,0,1,0,0,0,false,false,true,-124.399994,-4153.44,17.01,-0.004766302,0.00049362384,0.99482715,0.101468444,-285.711,549.631,8.331,0.00021,-0.00010999999,2.24331
99.45,2000,0,91.24,0.000002697398,0.000002697398,0.000002697398,0.99999994,0,0,0,0,0,0,0,1,0,0,0,false,false,true,-126.78,-4148.86,17.01,-0.004771697,0.00045046548,0.9957319,0.09216773,-285.951,544.97095,8.331,0.00021,-0.00010999999,2.23331
99.458336,2000,0,91.24,0.000002697398,0.000002697398,0.000002697398,0.99999994,0,0,0,0,0,0,0,1,0,0,0,false,false,true,-129.16,-4144.32,17.01,-0.004777092,0.00040730712,0.9965463,0.08289947,-286.101,540.35095,8.331,0.00021,-0.00010999999,2.22291
99.46667,2000,0,91.24,0.000002697398,0.000002697398,0.000002697398,0.99999994,0,0,0,0,0,0,0,1,0,0,0,false,false,true,-131.54,-4139.82,17.01,-0.0047824862,0.0003641487,0.9972715,0.07366349,-286.171,535.78094,8.331,0.00030999997,-0.00010999999,2.21201
99.475,2000,0,91.24,0.000002697398,0.000002697398,0.000002697398,0.99999994,0,0,0,0,0,0,0,1,0,0,0,false,false,true,-133.92,-4135.35,17.01,-0.004787882,0.0003209904,0.99790806,0.06447077,-286.161,531.27094,8.331,0.00030999997,-0.00010999999,2.20071
99.48333,2000,0,91.24,0.000002697398,0.000002697398,0.000002697398,0.99999994,0,0,0,0,0,0,0,1,0,0,0,false,false,true,-136.3,-4130.92,17.01,-0.004793276,0.000277832,0.9984573,0.055315796,-286.071,526.821,8.331,0.00040999998,0,2.18901
99.49167,2000,0,91.24,0.000002697398,0.000002697398,0.000002697398,0.99999994,0,0,0,0,0,0,0,1,0,0,0,false,false,true,-138.68,-4126.53,17.01,-0.004793276,0.00023467363,0.9989202,0.046209294,-285.901,522.43097,8.331,0.00040999998,0,2.17681
99.5,2000,0,91.24,0.000002697398,0.000002697398,0.000002697398,0.99999994,0,0,0,0,0,0,0,1,0,0,0,false,false,true,-141.06,-4122.1797,17.01,-0.004793276,0.00019151527,0.9992983,0.037146036,-285.661,518.11096,8.331,0.00040999998,0,2.1642098
99.50833,2000,0,91.24,0.000002697398,0.000002697398,0.000002697398,0.99999994,0,0,0,0,0,0,0,1,0,0,0,false,false,true,-143.44,-4117.86,17.01,-0.0047932756,0.00014835688,0.9995926,0.028131245,-285.351,513.85095,8.331,0.00040999998,0,2.15121
99.51667,2000,0,91.24,0.000002697398,0.000002697398,0.000002697398,0.99999994,0,0,0,0,0,0,0,1,0,0,0,false,false,true,-145.81999,-4113.58,17.01,-0.004793276,0.000105198524,0.9998047,0.019170491,-284.971,509.671,8.331,0.00040999998,0,2.1377099
99.525,2000,0,91.24,0.000002697398,0.000002697398,0.000002697398,0.99999994,0,0,0,0,0,0,0,1,0,0,0,false,false,true,-148.19,-4109.33,17.01,-0.0047932756,0.00006204015,0.9999357,0.0102635985,-284.531,505.561,8.331,0.00040999998,0,2.12381
99.53333,2000,0,91.24,0.000002697398,0.000002697398,0.000002697398,0.99999994,0,0,0,0,0,0,0,1,0,0,0,false,false,true,-150.56,-4105.12,17.01,-0.0047932765,0.000018881788,0.9999875,0.0014161341,-284.031,501.531,8.331,0.00040999998,0,2.10941
99.541664,2000,0,91.24,0.000002697398,0.000002697398,0.000002697398,0.99999994,0,0,0,0,0,0,0,1,0,0,0,false,false,true,-152.93,-4100.94,17.01,-0.0047932765,-0.000024276584,0.9999613,-0.0073720315,-283.471,497.581,8.331,0.00040999998,0,2.09451
99.55,2000,0,91.24,0.000002697398,0.000002697398,0.000002697398,0.99999994,0,0,0,0,0,0,0,1,0,0,0,false,false,true,-155.29,-4096.79,17.01,-0.0047932756,-0.00006743494,0.99985874,-0.016100809,-282.861,493.711,8.331,0.00040999998,0,2.07911
99.558334,2000,0,91.24,0.000002697398,0.000002697398,0.000002697398,0.99999994,0,0,0,0,0,0,0,1,0,0,0,false,false,true,-157.65,-4092.68,17.01,-0.004793276,-0.00011059332,0.9996819,-0.024759501,-282.201,489.921,8.331,0.00040999998,0,2.06331
99.566666,2000,0,91.24,0.000002697398,0.000002697398,0.000002697398,0.99999994,0,0,0,0,0,0,0,1,0,0,0,false,false,true,-160,-4088.5999,17.01,-0.004793276,-0.00015375168,0.9994321,-0.03335345,-281.501,486.221,8.331,0.00040999998,0,2.04701
99.575,2000,0,91.24,0.000002697398,0.000002697398,0.000002697398,0.99999994,0,0,0,0,0,0,0,1,0,0,0,false,false,true,-162.34999,-4084.5498,17.01,-0.0047932765,-0.00019691007,0.99911124,-0.041877277,-280.751,482.611,8.331,0.00040999998,0,2.03021
99.583336,2000,0,91.24,0.000002697398,0.000002697398,0.000002697398,0.99999994,0,0,0,0,0,0,0,1,0,0,0,false,false,true,-164.69,-4080.53,17.01,-0.004793276,-0.00024006843,0.9987213,-0.050325565,-279.971,479.091,8.331,0.00040999998,0,2.01291
99.59167,2000,0,91.24,0.000002697398,0.000002697398,0.000002697398,0.99999994,0,0,0,0,0,0,0,1,0,0,0,false,false,true,-167.01999,-4076.5398,17.01,-0.0047932756,-0.00028322675,0.9982641,-0.05869828,-279.151,475.661,8.331,0.00040999998,0,1.99501
99.6,2000,0,91.24,0.000002697398,0.000002697398,0.000002697398,0.99999994,0,0,0,0,0,0,0,1,0,0,0,false,false,true,-169.34999,-4072.5798,17.01,-0.004793276,-0.00032638517,0.99774164,-0.066995524,-278.301,472.331,8.331,0.00040999998,0,1.97661
99.60833,2000,0,91.24,0.000002697398,0.000002697398,0.000002697398,0.99999994,0,0,0,0,0,0,0,1,0,0,0,false,false,true,-171.67,-4068.64,17.01,-0.0047878814,-0.00036954353,0.99715596,-0.075211845,-277.431,469.091,8.331,0.00030999997,0,1.9577099
99.61667,2000,0,91.24,0.000002697398,0.000002697398,0.000002697398,0.99999994,0,0,0,0,0,0,0,1,0,0,0,false,false,true,-173.98,-4064.73,17.01,-0.004782487,-0.00040730715,0.99650943,-0.08334185,-276.521,465.931,8.331,0.00021,0,1.9391099
99.625,2000,0,91.24,0.000002697398,0.000002697398,0.000002697398,0.99999994,0,0,0,0,0,0,0,1,0,0,0,false,false,true,-176.28,-4060.8499,17.01,-0.0047770925,-0.0004450707,0.99580353,-0.091390885,-275.571,462.831,8.331,0.00021,0,1.92131
99.63333,2000,0,91.24,0.000002697398,0.000002697398,0.000002697398,0.99999994,0,0,0,0,0,0,0,1,0,0,0,false,false,true,-178.58,-4056.99,17.01,-0.0047716964,-0.0004828342,0.99503994,-0.09935903,-274.581,459.791,8.331,0.00021,0,1.90421
99.64167,2000,0,91.24,0.000002697398,0.000002697398,0.000002697398,0.99999994,0,0,0,0,0,0,0,1,0,0,0,false,false,true,-180.87,-4053.16,17.01,-0.0047663026,-0.00052059785,0.9942203,-0.107251674,-273.561,456.82098,8.331,0.00021,0,1.88781
99.65,2000,0,91.24,0.000002697398,0.000002697398,0.000002697398,0.99999994,0,0,0,0,0,0,0,1,0,0,0,false,false,true,-183.15,-4049.3499,17.01,-0.0047609075,-0.00055836135,0.9933459,-0.115068726,-272.511,453.921,8.331,0.00021,0,1.87201
99.65833,2000,0,91.24,0.000002697398,0.000002697398,0.000002697398,0.99999994,0,0,0,0,0,0,0,1,0,0,0,false,false,true,-185.42,-4045.5698,17.01,-0.0047555133,-0.000596125,0.99241793,-0.122815706,-271.431,451.091,8.331,0.00021,0,1.85691
99.675,2000,0,91.24,0.000002697398,0.000002697398,0.000002697398,0.99999994,0,0,0,0,0,0,0,1,0,0,0,false,false,true,-189.93,-4038.0698,17.01,-0.0047447234,-0.00067165215,0.99040675,-0.13809921,-269.211,445.641,8.331,0.00021,0,1.8285099
99.683334,2000,0,91.24,0.000002697398,0.000002697398,0.000002697398,0.99999994,0,0,0,0,0,0,0,1,0,0,0,false,false,true,-192.17,-4034.3599,17.01,-0.0047393283,-0.0007094157,0.9893258,-0.14564116,-268.071,443.031,8.331,0.00010999999,0,1.81511
99.691666,2000,0,91.24,0.000002697398,0.000002697398,0.000002697398,0.99999994,0,0,0,0,0,0,0,1,0,0,0,false,false,true,-194.4,-4030.67,17.01,-0.0047339336,-0.00074717926,0.9881962,-0.15311839,-266.921,440.501,8.331,0.00010999999,0,1.80231
99.7,2000,0,91.24,0.000002697398,0.000002697398,0.000002697398,0.99999994,0,0,0,0,0,0,0,1,0,0,0,false,false,true,-196.62,-4027,17.01,-0.004728539,-0.0007849429,0.9870183,-0.16053629,-265.761,438.041,8.331,0,0,1.79001
99.708336,2000,0,91.24,0.000002697398,0.000002697398,0.000002697398,0.99999994,0,0,0,0,0,0,0,1,0,0,0,false,false,true,-198.83,-4023.3499,17.01,-0.0047231433,-0.0008227063,0.9857931,-0.16789477,-264.571,435.641,8.331,0,0,1.77881
99.71667,2000,0,91.24,0.000002697398,0.000002697398,0.000002697398,0.99999994,0,0,0,0,0,0,0,1,0,0,0,false,false,true,-201.03,-4019.72,17.01,-0.0047177486,-0.0008550751,0.9845221,-0.17519397,-263.341,433.281,8.331,0,0,1.76931
99.725,2000,0,91.24,0.000002697398,0.000002697398,0.000002697398,0.99999994,0,0,0,0,0,0,0,1,0,0,0,false,false,true,-203.22,-4016.1099,17.01,-0.0047123544,-0.00088744395,0.98320436,-0.18244463,-262.071,430.961,8.331,0,0,1.76141
99.73333,2000,0,91.24,0.000002697398,0.000002697398,0.000002697398,0.99999994,0,0,0,0,0,0,0,1,0,0,0,false,false,true,-205.4,-4012.52,17.01,-0.0047069597,-0.00091981277,0.9818385,-0.18965746,-260.761,428.681,8.331,0,0,1.75511
99.74167,2000,0,91.24,0.000002697398,0.000002697398,0.000002697398,0.99999994,0,0,0,0,0,0,0,1,0,0,0,false,false,true,-207.56999,-4008.95,17.01,-0.004701565,-0.0009521816,0.98042536,-0.19683261,-259.421,426.451,8.331,0,0,1.75031
99.75,2000,0,91.24,0.000002697398,0.000002697398,0.000002697398,0.99999994,0,0,0,0,0,0,0,1,0,0,0,false,false,true,-209.73,-4005.4,17.01,-0.00469617,-0.0009845502,0.9789642,-0.2039753,-258.051,424.261,8.331,0,0,1.74711
99.75833,2000,0,91.24,0.000002697398,0.000002697398,0.000002697398,0.99999994,0,0,0,0,0,0,0,1,0,0,0,false,false,true,-211.87999,-4001.8599,17.01,-0.0046907747,-0.0010169189,0.9774533,-0.21109645,-256.651,422.131,8.331,0,0,1.74541
99.76667,2000,0,91.24,0.000002697398,0.000002697398,0.000002697398,0.99999994,0,0,0,0,0,0,0,1,0,0,0,false,false,true,-214.01999,-3998.3398,17.01,-0.0046853805,-0.0010492879,0.9758919,-0.21820146,-255.22101,420.051,8.331,0,0,1.7451099
99.775,2000,0,91.24,0.000002697398,0.000002697398,0.000002697398,0.99999994,0,0,0,0,0,0,0,1,0,0,0,false,false,true,-216.15,-3994.8398,17.01,-0.004679985,-0.0010816564,0.9742797,-0.2252902,-253.771,418.031,8.331,0,0,1.74631
99.78333,2000,0,91.24,0.000002697398,0.000002697398,0.000002697398,0.99999994,0,0,0,0,0,0,0,1,0,0,0,false,false,true,-218.26,-3991.3599,17.01,-0.004674591,-0.0011140255,0.9726147,-0.23237365,-252.281,416.021,8.331,0,0,1.7480099
99.791664,2000,0,91.24,0.000002697398,0.000002697398,0.000002697398,0.99999994,0,0,0,0,0,0,0,1,0,0,0,false,false,true,-220.36,-3987.89,17.01,-0.0046638013,-0.0011463942,0.97089636,-0.23945165,-250.751,414.021,8.331,0,0,1.75001
99.8,2000,0,91.24,0.000002697398,0.000002697398,0.000002697398,0.99999994,0,0,0,0,0,0,0,1,0,0,0,false,false,true,-222.45,-3984.44,17.01,-0.0046530114,-0.0011787629,0.9691247,-0.24652423,-249.171,412.031,8.331,0,0,1.7524099
99.808334,2000,0,91.24,0.000002697398,0.000002697398,0.000002697398,0.99999994,0,0,0,0,0,0,0,1,0,0,0,false,false,true,-224.53,-3981.01,17.01,-0.0046422225,-0.0012111318,0.96729946,-0.25359148,-247.551,410.061,8.331,0,0,1.75501
99.816666,2000,0,91.24,0.000002697398,0.000002697398,0.000002697398,0.99999994,0,0,0,0,0,0,0,1,0,0,0,false,false,true,-226.59,-3977.5898,17.01,-0.0046314322,-0.0012435005,0.96541905,-0.26065868,-245.901,408.111,8.331,0,0,1.75791
99.825,2000,0,91.24,0.000002697398,0.000002697398,0.000002697398,0.99999994,0,0,0,0,0,0,0,1,0,0,0,false,false,true,-228.64,-3974.19,17.01,-0.004620643,-0.0012758692,0.96348464,-0.26772046,-244.211,406.181,8.331,0,0,1.76111
99.833336,2000,0,91.24,0.000002697398,0.000002697398,0.000002697398,0.99999994,0,0,0,0,0,0,0,1,0,0,0,false,false,true,-230.68,-3970.7998,17.01,-0.0046098535,-0.0013082381,0.9614945,-0.27478233,-242.491,404.271,8.331,0,0,1.7646099
99.84167,2000,0,91.24,0.000002697398,0.000002697398,0.000002697398,0.99999994,0,0,0,0,0,0,0,1,0,0,0,false,false,true,-232.7,-3967.43,17.01,-0.004599064,-0.001340607,0.9594482,-0.28184414,-240.741,402.381,8.331,0,0,1.76831
99.85,2000,0,91.24,0.000002697398,0.000002697398,0.000002697398,0.99999994,0,0,0,0,0,0,0,1,0,0,0,false,false,true,-234.70999,-3964.0798,17.01,-0.004588274,-0.0013729756,0.9573454,-0.28890592,-238.961,400.521,8.331,0,0,1.77231
99.85833,2000,0,91.24,0.000002697398,0.000002697398,0.000002697398,0.99999994,0,0,0,0,0,0,0,1,0,0,0,false,false,true,-236.7,-3960.74,17.01,-0.004577484,-0.0014053442,0.9551858,-0.2959677,-237.151,398.691,8.331,0,0,1.77651
99.86667,2000,0,91.24,0.000002697398,0.000002697398,0.000002697398,0.99999994,0,0,0,0,0,0,0,1,0,0,0,false,false,true,-238.68,-3957.42,17.01,-0.0045666946,-0.0014377132,0.9529691,-0.30302954,-235.321,396.901,8.331,0.00010999999,0,1.78091
99.875,2000,0,91.24,0.000002697398,0.000002697398,0.000002697398,0.99999994,0,0,0,0,0,0,0,1,0,0,0,false,false,true,-240.64,-3954.1099,17.01,-0.004555905,-0.0014700819,0.95069456,-0.31009132,-233.47101,395.141,8.331,0.00010999999,0,1.78551
99.88333,2000,0,91.24,0.000002697398,0.000002697398,0.000002697398,0.99999994,0,0,0,0,0,0,0,1,0,0,0,false,false,true,-242.59,-3950.8198,17.01,-0.0045451154,-0.0015024507,0.9483622,-0.3171532,-231.601,393.421,8.331,0.00010999999,0,1.7904099
99.89167,2000,0,91.24,0.000002697398,0.000002697398,0.000002697398,0.99999994,0,0,0,0,0,0,0,1,0,0,0,false,false,true,-244.51999,-3947.5398,17.01,-0.004534326,-0.0015348195,0.9459694,-0.32422036,-229.72101,391.731,8.331,0.00021,0,1.7955099
99.9,2000,0,91.24,0.000002697398,0.000002697398,0.000002697398,0.99999994,0,0,0,0,0,0,0,1,0,0,0,false,false,true,-246.43,-3944.28,17.01,-0.0045235357,-0.0015671882,0.9435175,-0.33128756,-227.801,390.051,8.331,0.00021,0,1.80011
99.90833,2000,0,91.24,0.000002697398,0.000002697398,0.000002697398,0.99999994,0,0,0,0,0,0,0,1,0,0,0,false,false,true,-248.33,-3941.03,17.01,-0.004512747,-0.001599557,0.94100636,-0.33835483,-225.83101,388.371,8.331,0.00021,0,1.80391
99.916664,2000,0,91.24,0.000002697398,0.000002697398,0.000002697398,0.99999994,0,0,0,0,0,0,0,1,0,0,0,false,false,true,-250.20999,-3937.7898,17.01,-0.0045019574,-0.0016319258,0.93843716,-0.3454166,-223.821,386.701,8.331,0.00030999997,0,1.8069099
99.925,2000,0,91.24,0.000002697398,0.000002697398,0.000002697398,0.99999994,0,0,0,0,0,0,0,1,0,0,0,false,false,true,-252.08,-3934.5698,17.01,-0.004491167,-0.0016642944,0.93580955,-0.35247302,-221.761,385.031,8.331,0.00030999997,0,1.8091099
99.933334,2000,0,91.24,0.000002697398,0.000002697398,0.000002697398,0.99999994,0,0,0,0,0,0,0,1,0,0,0,false,false,true,-253.93,-3931.3599,17.01,-0.0044803782,-0.0016966634,0.93312556,-0.35951865,-219.661,383.371,8.331,0.00030999997,0,1.8105099
99.941666,2000,0,91.24,0.000002697398,0.000002697398,0.000002697398,0.99999994,0,0,0,0,0,0,0,1,0,0,0,false,false,true,-255.76,-3928.16,17.01,-0.0044695884,-0.0017290321,0.9303867,-0.36654812,-217.521,381.721,8.331,0.00030999997,0.00010999999,1.8112099
99.95,2000,0,91.24,0.000002697398,0.000002697398,0.000002697398,0.99999994,0,0,0,0,0,0,0,1,0,0,0,false,false,true,-257.57,-3924.98,17.01,-0.004458799,-0.001761401,0.927593,-0.37356138,-215.351,380.081,8.331,0.00040999998,0.00021,1.81111
99.958336,2000,0,91.24,0.000002697398,0.000002697398,0.000002697398,0.99999994,0,0,0,0,0,0,0,1,0,0,0,false,false,true,-259.36,-3921.8098,17.01,-0.0044426145,-0.0017991646,0.92474663,-0.38055304,-213.141,378.461,8.331,0.00040999998,0.00030999997,1.81021
99.96667,2000,0,91.24,0.000002697398,0.000002697398,0.000002697398,0.99999994,0,0,0,0,0,0,0,1,0,0,0,false,false,true,-261.13998,-3918.66,17.01,-0.0044264304,-0.0018369282,0.9218497,-0.3875178,-210.901,376.861,8.331,0.00040999998,0.00030999997,1.80861
99.975,2000,0,91.24,0.000002697398,0.000002697398,0.000002697398,0.99999994,0,0,0,0,0,0,0,1,0,0,0,false,false,true,-262.9,-3915.52,17.01,-0.004410246,-0.0018746918,0.9189025,-0.39445555,-208.631,375.281,8.331,0.00040999998,0.00030999997,1.8063099
99.98333,2000,0,91.24,0.000002697398,0.000002697398,0.000002697398,0.99999994,0,0,0,0,0,0,0,1,0,0,0,false,false,true,-264.63998,-3912.39,17.01,-0.004394061,-0.001912455,0.9159073,-0.40136084,-206.33101,373.721,8.331,0.00040999998,0.00021,1.80321
99.99167,2000,0,91.24,0.000002697398,0.000002697398,0.000002697398,0.99999994,0,0,0,0,0,0,0,1,0,0,0,false,false,true,-266.36,-3909.28,17.01,-0.004377877,-0.001944824,0.9128671,-0.4082285,-204.001,372.191,8.331,0.00030999997,0.00021,1.79941
100,2000,0,91.24,0.000002697398,0.000002697398,0.000002697398,0.99999994,0,0,0,0,0,0,0,1,0,0,0,false,false,true,-268.06,-3906.18,17.01,-0.0043616924,-0.0019771927,0.90977967,-0.41506374,-201.651,370.681,8.331,0.00030999997,0.00010999999,1.79491
100.00833,2000,0,91.24,0.000002697398,0.000002697398,0.000002697398,0.99999994,0,0,0,0,0,0,0,1,0,0,0,false,false,true,-269.74,-3903.0898,17.01,-0.0043455083,-0.0020095615,0.90665025,-0.42185578,-199.281,369.201,8.331,0.00030999997,0.00010999999,1.7897099
100.01667,2000,0,91.24,0.000002697398,0.000002697398,0.000002697398,0.99999994,0,0,0,0,0,0,0,1,0,0,0,false,false,true,-271.4,-3900.01,17.01,-0.0043293242,-0.0020419306,0.9034794,-0.42860475,-196.891,367.751,8.331,0.00030999997,0.00010999999,1.78381
100.025,2000,0,91.24,0.000002697398,0.000002697398,0.000002697398,0.99999994,0,0,0,0,0,0,0,1,0,0,0,false,false,true,-273.04,-3896.95,17.01,-0.0043131392,-0.002074299,0.9002676,-0.43531048,-194.491,366.331,8.331,0.00030999997,0.00010999999,1.77721
100.03333,2000,0,91.24,0.000002697398,0.000002697398,0.000002697398,0.99999994,0,0,0,0,0,0,0,1,0,0,0,false,false,true,-274.66,-3893.9,17.01,-0.004296955,-0.0021066677,0.89701813,-0.44196767,-192.071,364.951,8.331,0.00030999997,0.00010999999,1.76991
100.041664,2000,0,91.24,0.000002697398,0.000002697398,0.000002697398,0.99999994,0,0,0,0,0,0,0,1,0,0,0,false,false,true,-276.25998,-3890.8599,17.01,-0.0042807707,-0.0021390365,0.8937344,-0.4485709,-189.641,363.601,8.331,0.00030999997,0.00010999999,1.76191
100.05,2000,0,91.24,0.000002697398,0.000002697398,0.000002697398,0.99999994,0,0,0,0,0,0,0,1,0,0,0,false,false,true,-277.84,-3887.8298,17.01,-0.004264586,-0.0021714054,0.8904171,-0.4551202,-187.211,362.281,8.331,0.00030999997,0.00010999999,1.75321
100.058334,2000,0,91.24,0.000002697398,0.000002697398,0.000002697398,0.99999994,0,0,0,0,0,0,0,1,0,0,0,false,false,true,-279.4,-3884.8098,17.01,-0.004248402,-0.0022037744,0.88706994,-0.46161023,-184.771,361.001,8.331,0.00030999997,0.00010999999,1.74391
100.066666,2000,0,91.24,0.000002697398,0.000002697398,0.000002697398,0.99999994,0,0,0,0,0,0,0,1,0,0,0,false,false,true,-280.94,-3881.7998,17.01,-0.004232218,-0.0022361432,0.883691,-0.46804622,-182.33101,359.761,8.331,0.00030999997,0.00010999999,1.73391
100.075,2000,0,91.24,0.000002697398,0.000002697398,0.000002697398,0.99999994,0,0,0,0,0,0,0,1,0,0,0,false,false,true,-282.46,-3878.7998,17.01,-0.0042160326,-0.0022685116,0.8802868,-0.47441742,-179.891,358.551,8.331,0.00030999997,0.00010999999,1.72331
100.083336,2000,0,91.24,0.000002697398,0.000002697398,0.000002697398,0.99999994,0,0,0,0,0,0,0,1,0,0,0,false,false,true,-283.96,-3875.8098,17.01,-0.004199849,-0.0023008806,0.87685883,-0.48072407,-177.451,357.381,8.331,0.00030999997,0.00010999999,1.71201
100.09167,2000,0,91.24,0.000002697398,0.000002697398,0.000002697398,0.99999994,0,0,0,0,0,0,0,1,0,0,0,false,false,true,-285.44,-3872.8298,17.01,-0.0041836645,-0.0023332492,0.8734078,-0.48696584,-175.021,356.251,8.331,0.00030999997,0.00010999999,1.70011
100.1,2000,0,91.24,0.000002697398,0.000002697398,0.000002697398,0.99999994,0,0,0,0,0,0,0,1,0,0,0,false,false,true,-286.9,-3869.8599,17.01,-0.0041674804,-0.0023656182,0.8699351,-0.4931429,-172.591,355.161,8.331,0.00021,0.00010999999,1.68761
100.10833,2000,0,91.24,0.000002697398,0.000002697398,0.000002697398,0.99999994,0,0,0,0,0,0,0,1,0,0,0,false,false,true,-288.34,-3866.9,17.01,-0.0041512954,-0.0023979868,0.86644477,-0.49924982,-170.181,354.111,8.321,0.00021,0.00010999999,1.67451
100.11667,2000,0,91.24,0.000002697398,0.000002697398,0.000002697398,0.99999994,0,0,0,0,0,0,0,1,0,0,0,false,false,true,-289.75998,-3863.95,17.01,-0.004135111,-0.0024303556,0.8629413,-0.5052812,-167.781,353.091,8.321,0.00010999999,0.00010999999,1.66081
100.125,2000,0,91.24,0.000002697398,0.000002697398,0.000002697398,0.99999994,0,0,0,0,0,0,0,1,0,0,0,false,false,true,-291.16,-3861.01,17.01,-0.0041189264,-0.0024573293,0.859423,-0.5112424,-165.391,352.111,8.321,0.00010999999,0.00010999999,1.64651
100.13333,2000,0,91.24,0.000002697398,0.000002697398,0.000002697398,0.99999994,0,0,0,0,0,0,0,1,0,0,0,false,false,true,-292.54,-3858.0798,17.01,-0.0041027423,-0.0024843037,0.8558944,-0.5171282,-163.021,351.171,8.321,0.00010999999,0.00010999999,1.6316099
100.14167,2000,0,91.24,0.000002697398,0.000002697398,0.000002697398,0.99999994,0,0,0,0,0,0,0,1,0,0,0,false,false,true,-293.9,-3855.15,17.01,-0.004086558,-0.0025112776,0.8523601,-0.52293307,-160.671,350.271,8.321,0.00010999999,0.00010999999,1.61621
100.15,2000,0,91.24,0.000002697398,0.000002697398,0.000002697398,0.99999994,0,0,0,0,0,0,0,1,0,0,0,false,false,true,-295.24,-3852.23,17.01,-0.0040703737,-0.0025382515,0.8488186,-0.5286623,-158.341,349.401,8.321,0.00010999999,0.00010999999,1.60021
100.15833,2000,0,91.24,0.000002697398,0.000002697398,0.000002697398,0.99999994,0,0,0,0,0,0,0,1,0,0,0,false,false,true,-296.56,-3849.3198,17.01,-0.004054189,-0.0025652256,0.84527445,-0.5343107,-156.041,348.571,8.321,0.00010999999,0.00010999999,1.5836099
100.166664,2000,0,91.24,0.000002697398,0.000002697398,0.000002697398,0.99999994,0,0,0,0,0,0,0,1,0,0,0,false,false,true,-297.86,-3846.41,17.01,-0.004038005,-0.0025921997,0.8417294,-0.53987825,-153.761,347.781,8.321,0.00010999999,0.00021,1.56651
100.175,2000,0,91.24,0.000002697398,0.000002697398,0.000002697398,0.99999994,0,0,0,0,0,0,0,1,0,0,0,false,false,true,-299.13998,-3843.51,17.01,-0.00402182,-0.0026191734,0.8381886,-0.5453593,-151.511,347.021,8.321,0.00010999999,0.00021,1.54891
100.183334,2000,0,91.24,0.000002697398,0.000002697398,0.000002697398,0.99999994,0,0,0,0,0,0,0,1,0,0,0,false,false,true,-300.4,-3840.6199,17.01,-0.004005636,-0.0026461475,0.8346501,-0.5507595,-149.291,346.301,8.321,0.00010999999,0.00021,1.53071
100.191666,2000,0,91.24,0.000002697398,0.000002697398,0.000002697398,0.99999994,0,0,0,0,0,0,0,1,0,0,0,false,false,true,-301.63998,-3837.73,17.01,-0.0039894516,-0.0026731214,0.83111924,-0.55607337,-147.101,345.611,8.321,0,0.00021,1.51201
100.2,2000,0,91.24,0.000002697398,0.000002697398,0.000002697398,0.99999994,0,0,0,0,0,0,0,1,0,0,0,false,false,true,-302.87,-3834.8499,17.01,-0.0039732675,-0.0027000958,0.82759774,-0.56130105,-144.94101,344.951,8.321,0,0.00021,1.49281
100.208336,2000,0,91.24,0.000002697398,0.000002697398,0.000002697398,0.99999994,0,0,0,0,0,0,0,1,0,0,0,false,false,true,-304.08,-3831.97,17.01,-0.0039570834,-0.0027270697,0.8240911,-0.5664369,-142.821,344.321,8.321,0,0.00021,1.47321
100.21667,2000,0,91.24,0.000002697398,0.000002697398,0.000002697398,0.99999994,0,0,0,0,0,0,0,1,0,0,0,false,false,true,-305.27,-3829.0999,17.01,-0.0039408985,-0.0027540433,0.82059735,-0.5714864,-140.731,343.721,8.321,0,0.00021,1.45311
100.225,2000,0,91.24,0.000002697398,0.000002697398,0.000002697398,0.99999994,0,0,0,0,0,0,0,1,0,0,0,false,false,true,-306.44,-3826.23,17.01,-0.003924714,-0.0027810175,0.8171222,-0.5764442,-138.681,343.151,8.321,0,0.00021,1.43251
100.23333,2000,0,91.24,0.000002697398,0.000002697398,0.000002697398,0.99999994,0,0,0,0,0,0,0,1,0,0,0,false,false,true,-307.6,-3823.3699,17.01,-0.0039085294,-0.0028025967,0.81366765,-0.58131033,-136.671,342.611,8.321,0,0.00021,1.41151
100.24167,2000,0,91.24,0.000002697398,0.000002697398,0.000002697398,0.99999994,0,0,0,0,0,0,0,1,0,0,0,false,false,true,-308.74,-3820.51,17.01,-0.0038923454,-0.0028241756,0.8102354,-0.5860848,-134.701,342.101,8.321,0,0.00021,1.39001
100.25,2000,0,91.24,0.000002697398,0.000002697398,0.000002697398,0.99999994,0,0,0,0,0,0,0,1,0,0,0,false,false,true,-309.86,-3817.66,17.01,-0.003876161,-0.0028457548,0.8068274,-0.5907675,-132.77101,341.621,8.321,0,0.00030999997,1.36811
100.25833,2000,0,91.24,0.000002697398,0.000002697398,0.000002697398,0.99999994,0,0,0,0,0,0,0,1,0,0,0,false,false,true,-310.97,-3814.8098,17.01,-0.0038599768,-0.002867334,0.8034457,-0.5953585,-130.881,341.161,8.321,0,0.00030999997,1.3458099
100.26667,2000,0,91.24,0.000002697398,0.000002697398,0.000002697398,0.99999994,0,0,0,0,0,0,0,1,0,0,0,false,false,true,-312.06,-3811.97,17.01,-0.0038437922,-0.0028889133,0.8000962,-0.5998523,-129.031,340.731,8.321,0,0.00030999997,1.32311
100.275,2000,0,91.24,0.000002697398,0.000002697398,0.000002697398,0.99999994,0,0,0,0,0,0,0,1,0,0,0,false,false,true,-313.13998,-3809.13,17.01,-0.003827608,-0.0029104925,0.7967767,-0.60425454,-127.230995,340.321,8.321,0,0.00030999997,1.30001
100.28333,2000,0,91.24,0.000002697398,0.000002697398,0.000002697398,0.99999994,0,0,0,0,0,0,0,1,0,0,0,false,false,true,-314.19998,-3806.2898,17.01,-0.0038114237,-0.002932072,0.7934935,-0.60855967,-125.47099,339.931,8.321,0,0.00030999997,1.27661
100.291664,2000,0,91.24,0.000002697398,0.000002697398,0.000002697398,0.99999994,0,0,0,0,0,0,0,1,0,0,0,false,false,true,-315.25,-3803.46,17.01,-0.0037952391,-0.002953651,0.7902443,-0.61277294,-123.751,339.561,8.321,0,0.00030999997,1.25281
100.3,2000,0,91.24,0.000002697398,0.000002697398,0.000002697398,0.99999994,0,0,0,0,0,0,0,1,0,0,0,false,false,true,-316.28,-3800.63,17.01,-0.0037790549,-0.0029752303,0.7870352,-0.61688924,-122.08099,339.211,8.321,0,0.00030999997,1.2287099
100.308334,2000,0,91.24,0.000002697398,0.000002697398,0.000002697398,0.99999994,0,0,0,0,0,0,0,1,0,0,0,false,false,true,-317.3,-3797.7998,17.01,-0.0037628703,-0.0029968093,0.7838683,-0.6209083,-120.451,338.881,8.321,0,0.00030999997,1.2043099
100.316666,2000,0,91.24,0.000002697398,0.000002697398,0.000002697398,0.99999994,0,0,0,0,0,0,0,1,0,0,0,false,false,true,-318.3,-3794.98,17.01,-0.0037466863,-0.0030183888,0.78074133,-0.6248358,-118.870995,338.571,8.321,0,0.00030999997,1.17951
100.325,2000,0,91.24,0.000002697398,0.000002697398,0.000002697398,0.99999994,0,0,0,0,0,0,0,1,0,0,0,false,false,true,-319.28998,-3792.16,17.01,-0.003730501,-0.0030399673,0.7776603,-0.62866604,-117.33099,338.271,8.321,-0.00010999999,0.00030999997,1.15451
100.333336,2000,0,91.24,0.000002697398,0.000002697398,0.000002697398,0.99999994,0,0,0,0,0,0,0,1,0,0,0,false,false,true,-320.27,-3789.3398,17.01,-0.0037143172,-0.003056152,0.77462757,-0.63239926,-115.840996,337.991,8.321,-0.00010999999,0.00030999997,1.12921
100.34167,2000,0,91.24,0.000002697398,0.000002697398,0.000002697398,0.99999994,0,0,0,0,0,0,0,1,0,0,0,false,false,true,-321.24,-3786.52,17.01,-0.0036981327,-0.0030723363,0.77164483,-0.6360354,-114.391,337.721,8.321,-0.00010999999,0.00030999997,1.10361
100.35,2000,0,91.24,0.000002697398,0.000002697398,0.000002697398,0.99999994,0,0,0,0,0,0,0,1,0,0,0,false,false,true,-322.19,-3783.71,17.01,-0.0036819484,-0.0030885208,0.7687141,-0.6395744,-112.991,337.461,8.321,-0.00010999999,0.00021,1.0778099
100.35833,2000,0,91.24,0.000002697398,0.000002697398,0.000002697398,0.99999994,0,0,0,0,0,0,0,1,0,0,0,false,false,true,-323.13,-3780.9,17.01,-0.003665764,-0.0031047051,0.76583284,-0.64302164,-111.631,337.221,8.321,-0.00010999999,0.00021,1.05181
100.36667,2000,0,91.24,0.000002697398,0.000002697398,0.000002697398,0.99999994,0,0,0,0,0,0,0,1,0,0,0,false,false,true,-324.06,-3778.0898,17.01,-0.0036495791,-0.0031208894,0.76300734,-0.6463718,-110.311,336.991,8.321,-0.00010999999,0.00021,1.02561
100.375,2000,0,91.24,0.000002697398,0.000002697398,0.000002697398,0.99999994,0,0,0,0,0,0,0,1,0,0,0,false,false,true,-324.97998,-3775.28,17.01,-0.0036333948,-0.0031370737,0.76023954,-0.6496249,-109.041,336.771,8.321,0,0.00010999999,0.99931
100.38333,2000,0,91.24,0.000002697398,0.000002697398,0.000002697398,0.99999994,0,0,0,0,0,0,0,1,0,0,0,false,false,true,-325.88998,-3772.47,17.01,-0.0036226057,-0.0031532582,0.75752676,-0.6527863,-107.811,336.561,8.321,0,0.00010999999,0.97291
100.39167,2000,0,91.24,0.000002697398,0.000002697398,0.000002697398,0.99999994,0,0,0,0,0,0,0,1,0,0,0,false,false,true,-326.78998,-3769.66,17.01,-0.0036118163,-0.003169443,0.75487536,-0.6558506,-106.620995,336.351,8.321,0,0.00010999999,0.94641
100.4,2000,0,91.24,0.000002697398,0.000002697398,0.000002697398,0.99999994,0,0,0,0,0,0,0,1,0,0,0,false,false,true,-327.68,-3766.8599,17.01,-0.0036010265,-0.003185627,0.7522824,-0.65882313,-105.471,336.151,8.321,0,0.00010999999,0.91981
100.40833,2000,0,91.24,0.000002697398,0.000002697398,0.000002697398,0.99999994,0,0,0,0,0,0,0,1,0,0,0,false,false,true,-328.56,-3764.0598,17.01,-0.003590237,-0.0032018116,0.7497545,-0.6616985,-104.361,335.961,8.321,0,0.00010999999,0.89311
100.416664,2000,0,91.24,0.000002697398,0.000002697398,0.000002697398,0.99999994,0,0,0,0,0,0,0,1,0,0,0,false,false,true,-329.43,-3761.26,17.01,-0.0035794475,-0.003217996,0.74728847,-0.6644823,-103.281,335.781,8.321,-0.00010999999,0.00010999999,0.86641
100.425,2000,0,91.24,0.000002697398,0.000002697398,0.000002697398,0.99999994,0,0,0,0,0,0,0,1,0,0,0,false,false,true,-330.28998,-3758.46,17.01,-0.0035686577,-0.0032287855,0.744886,-0.6671743,-102.241,335.601,8.321,-0.00021,0.00010999999,0.83971
100.433334,2000,0,91.24,0.000002697398,0.000002697398,0.000002697398,0.99999994,0,0,0,0,0,0,0,1,0,0,0,false,false,true,-331.13998,-3755.66,17.01,-0.0035578683,-0.0032395753,0.7425488,-0.66977465,-101.230995,335.431,8.321,-0.00021,0.00010999999,0.81311
100.441666,2000,0,91.24,0.000002697398,0.000002697398,0.000002697398,0.99999994,0,0,0,0,0,0,0,1,0,0,0,false,false,true,-331.97998,-3752.8599,17.01,-0.0035470785,-0.0032503647,0.7402735,-0.67228854,-100.260994,335.261,8.321,-0.00021,0.00010999999,0.78651
100.45,2000,0,91.24,0.000002697398,0.000002697398,0.000002697398,0.99999994,0,0,0,0,0,0,0,1,0,0,0,false,false,true,-332.82,-3750.0698,17.01,-0.0035362889,-0.0032611543,0.73806643,-0.6747108,-99.321,335.101,8.321,-0.00021,0.00010999999,0.76001
100.458336,2000,0,91.24,0.000002697398,0.000002697398,0.000002697398,0.99999994,0,0,0,0,0,0,0,1,0,0,0,false,false,true,-333.65,-3747.28,17.01,-0.0035254993,-0.003271944,0.7359241,-0.6770468,-98.410995,334.941,8.311,-0.00021,0.00010999999,0.73351
100.46667,2000,0,91.24,0.000002697398,0.000002697398,0.000002697398,0.99999994,0,0,0,0,0,0,0,1,0,0,0,false,false,true,-334.47,-3744.49,17.01,-0.0035147096,-0.0032827335,0.7338531,-0.67929107,-97.531,334.791,8.311,-0.00021,0.00010999999,0.70711
100.475,2000,0,91.24,0.000002697398,0.000002697398,0.000002697398,0.99999994,0,0,0,0,0,0,0,1,0,0,0,false,false,true,-335.28,-3741.7,17.01,-0.0035039203,-0.0032935233,0.73184973,-0.68144906,-96.681,334.641,8.311,-0.00021,0.00010999999,0.68081
100.48333,2000,0,91.24,0.000002697398,0.000002697398,0.000002697398,0.99999994,0,0,0,0,0,0,0,1,0,0,0,false,false,true,-336.09,-3738.91,17.01,-0.0034931304,-0.0033043127,0.7299153,-0.68352056,-95.861,334.491,8.311,-0.00021,0.00010999999,0.65471
100.49167,2000,0,91.24,0.000002697398,0.000002697398,0.000002697398,0.99999994,0,0,0,0,0,0,0,1,0,0,0,false,false,true,-336.88998,-3736.1199,17.01,-0.0034823404,-0.0033151018,0.72804606,-0.6855112,-95.071,334.351,8.311,-0.00021,0.00010999999,0.62871
100.5,2000,0,91.24,0.000002697398,0.000002697398,0.000002697398,0.99999994,0,0,0,0,0,0,0,1,0,0,0,false,false,true,-337.68,-3733.3298,17.01,-0.0034715512,-0.003325892,0.72624826,-0.6874156,-94.311,334.211,8.311,-0.00021,0,0.60291
100.50833,2000,0,91.24,0.000002697398,0.000002697398,0.000002697398,0.99999994,0,0,0,0,0,0,0,1,0,0,0,false,false,true,-338.47,-3730.5398,17.01,-0.0034607616,-0.0033312866,0.72451794,-0.6892391,-93.571,334.071,8.311,-0.00021,0,0.57721
100.51667,2000,0,91.24,0.000002697398,0.000002697398,0.000002697398,0.99999994,0,0,0,0,0,0,0,1,0,0,0,false,false,true,-339.25,-3727.76,17.01,-0.0034499723,-0.0033366815,0.7228563,-0.6909816,-92.861,333.931,8.311,-0.00010999999,0,0.55171
100.525,2000,0,91.24,0.000002697398,0.000002697398,0.000002697398,0.99999994,0,0,0,0,0,0,0,1,0,0,0,false,false,true,-340.02,-3724.98,17.01,-0.0034445773,-0.0033420762,0.7212643,-0.6926432,-92.171,333.801,8.311,0,0,0.52641
100.53333,2000,0,91.24,0.000002697398,0.000002697398,0.000002697398,0.99999994,0,0,0,0,0,0,0,1,0,0,0,false,false,true,-340.78998,-3722.2,17.01,-0.0034391826,-0.003347471,0.719743,-0.6942239,-91.510994,333.671,8.311,0,0,0.50121
100.541664,2000,0,91.24,0.000002697398,0.000002697398,0.000002697398,0.99999994,0,0,0,0,0,0,0,1,0,0,0,false,false,true,-341.55,-3719.42,17.01,-0.003433788,-0.003352866,0.7182934,-0.6957237,-90.870995,333.541,8.311,0,0,0.47621
100.55,2000,0,91.24,0.000002697398,0.000002697398,0.000002697398,0.99999994,0,0,0,0,0,0,0,1,0,0,0,false,false,true,-342.31,-3716.64,17.01,-0.0034283933,-0.0033582607,0.71691126,-0.6971479,-90.251,333.411,8.311,0,0,0.45141
100.558334,2000,0,91.24,0.000002697398,0.000002697398,0.000002697398,0.99999994,0,0,0,0,0,0,0,1,0,0,0,false,false,true,-343.06,-3713.8599,17.01,-0.0034229984,-0.0033636556,0.7155972,-0.69849664,-89.651,333.281,8.311,0,0,0.42681
100.566666,2000,0,91.24,0.000002697398,0.000002697398,0.000002697398,0.99999994,0,0,0,0,0,0,0,1,0,0,0,false,false,true,-343.81,-3711.0798,17.01,-0.0034176034,-0.00336905,0.71435225,-0.69976974,-89.071,333.151,8.311,0,0,0.40251002
100.575,2000,0,91.24,0.000002697398,0.000002697398,0.000002697398,0.99999994,0,0,0,0,0,0,0,1,0,0,0,false,false,true,-344.55,-3708.2998,17.01,-0.003412208,-0.0033744446,0.7131771,-0.7009673,-88.510994,333.021,8.311,0,0.00010999999,0.37841
100.583336,2000,0,91.24,0.000002697398,0.000002697398,0.000002697398,0.99999994,0,0,0,0,0,0,0,1,0,0,0,false,false,true,-345.28998,-3705.52,17.01,-0.0034068138,-0.0033798397,0.7120724,-0.70208955,-87.971,332.891,8.311,0,0.00010999999,0.35451
100.59167,2000,0,91.24,0.000002697398,0.000002697398,0.000002697398,0.99999994,0,0,0,0,0,0,0,1,0,0,0,false,false,true,-346.02,-3702.75,17.01,-0.003401419,-0.0033852346,0.71103364,-0.7031415,-87.451,332.771,8.311,0,0.00010999999,0.33081
100.6,2000,0,91.24,0.000002697398,0.000002697398,0.000002697398,0.99999994,0,0,0,0,0,0,0,1,0,0,0,false,false,true,-346.75,-3699.98,17.01,-0.0033960242,-0.0033906293,0.7100613,-0.7041234,-86.940994,332.651,8.311,0,0.00010999999,0.30731001
100.60833,2000,0,91.24,0.000002697398,0.000002697398,0.000002697398,0.99999994,0,0,0,0,0,0,0,1,0,0,0,false,false,true,-347.47,-3697.21,17.01,-0.0033906293,-0.0033960242,0.7091614,-0.7050297,-86.451,332.531,8.311,0,0.00010999999,0.28411
100.61667,2000,0,91.24,0.000002697398,0.000002697398,0.000002697398,0.99999994,0,0,0,0,0,0,0,1,0,0,0,false,false,true,-348.19,-3694.44,17.01,-0.0033852346,-0.003401419,0.7083238,-0.7058713,-85.971,332.411,8.311,0,0.00010999999,0.26111
100.625,2000,0,91.24,0.000002697398,0.000002697398,0.000002697398,0.99999994,0,0,0,0,0,0,0,1,0,0,0,false,false,true,-348.91,-3691.67,17.01,-0.00337984,-0.003406814,0.70755416,-0.7066428,-85.501,332.291,8.311,0,0.00010999999,0.23831
100.63333,2000,0,91.24,0.000002697398,0.000002697398,0.000002697398,0.99999994,0,0,0,0,0,0,0,1,0,0,0,false,false,true,-349.62,-3688.9,17.01,0.0033744446,0.003412208,-0.7068531,0.70734394,-85.050995,332.171,8.311,0,0,0.21580999
100.64167,2000,0,91.24,0.000002697398,0.000002697398,0.000002697398,0.99999994,0,0,0,0,0,0,0,1,0,0,0,false,false,true,-350.33,-3686.13,17.01,0.00336905,0.0034176034,-0.7062166,0.7079795,-84.611,332.051,8.311,0,0,0.19351
100.65,2000,0,91.24,0.000002697398,0.000002697398,0.000002697398,0.99999994,0,0,0,0,0,0,0,1,0,0,0,false,false,true,-351.03998,-3683.3599,17.01,0.0033636554,0.0034229981,-0.7056447,0.70854944,-84.181,331.931,8.311,0,0,0.17151
100.65833,2000,0,91.24,0.000002697398,0.000002697398,0.000002697398,0.99999994,0,0,0,0,0,0,0,1,0,0,0,false,false,true,-351.74,-3680.5898,17.01,0.0033636554,0.0034229981,-0.7051376,0.7090541,-83.760994,331.811,8.311,0,0,0.14971
100.666664,2000,0,91.24,0.000002697398,0.000002697398,0.000002697398,0.99999994,0,0,0,0,0,0,0,1,0,0,0,false,false,true,-352.44,-3677.8198,17.01,0.0033636554,0.0034229981,-0.7046952,0.70949376,-83.351,331.691,8.311,0,0,0.12821
100.675,2000,0,91.24,0.000002697398,0.000002697398,0.000002697398,0.99999994,0,0,0,0,0,0,0,1,0,0,0,false,false,true,-353.13,-3675.0598,17.01,0.0033636554,0.0034229981,-0.7043176,0.7098686,-82.951,331.571,8.311,0,0,0.10691
100.683334,2000,0,91.24,0.000002697398,0.000002697398,0.000002697398,0.99999994,0,0,0,0,0,0,0,1,0,0,0,false,false,true,-353.82,-3672.2998,17.01,0.0033636554,0.0034229981,-0.7039993,0.71018434,-82.561,331.461,8.311,0,0,0.08581
100.691666,2000,0,91.24,0.000002697398,0.000002697398,0.000002697398,0.99999994,0,0,0,0,0,0,0,1,0,0,0,false,false,true,-354.50998,-3669.54,17.01,0.0033636556,0.0034229984,-0.7037458,0.7104356,-82.171,331.351,8.311,0,0,0.06501
100.7,2000,0,91.24,0.000002697398,0.000002697398,0.000002697398,0.99999994,0,0,0,0,0,0,0,1,0,0,0,false,false,true,-355.19,-3666.78,17.01,0.0033636554,0.0034229981,-0.70355153,0.7106279,-81.791,331.241,8.311,0,0,0.044409998
100.708336,2000,0,91.24,0.000002697398,0.000002697398,0.000002697398,0.99999994,0,0,0,0,0,0,0,1,0,0,0,false,false,true,-355.87,-3664.02,17.01,0.0033636554,0.0034229981,-0.70342207,0.71075606,-81.410995,331.131,8.311,0,0,0.02411
100.71667,2000,0,91.24,0.000002697398,0.000002697398,0.000002697398,0.99999994,0,0,0,0,0,0,0,1,0,0,0,false,false,true,-356.55,-3661.26,17.01,0.0033636554,0.0034229981,-0.7033519,0.71082544,-81.041,331.021,8.311,0,0,0.00401
100.725,2000,0,91.24,0.000002697398,0.000002697398,0.000002697398,0.99999994,0,0,0,0,0,0,0,1,0,0,0,false,false,true,-357.22998,-3658.5,17.01,0.0033636554,0.0034229981,-0.7033411,0.7108362,-80.671,330.911,8.311,0,0,-0.01571
100.73333,2000,0,91.24,0.000002697398,0.000002697398,0.000002697398,0.99999994,0,0,0,0,0,0,0,1,0,0,0,false,false,true,-357.9,-3655.74,17.01,0.0033636554,0.0034229981,-0.7033897,0.71078813,-80.311,330.801,8.311,0,0,-0.03521
100.74167,2000,0,91.24,0.000002697398,0.000002697398,0.000002697398,0.99999994,0,0,0,0,0,0,0,1,0,0,0,false,false,true,-358.56998,-3652.98,17.01,0.0033636554,0.0034229981,-0.7034922,0.7106866,-79.951,330.691,8.311,0,0,-0.054509997
100.75,2000,0,91.24,0.000002697398,0.000002697398,0.000002697398,0.99999994,0,0,0,0,0,0,0,1,0,0,0,false,false,true,-359.24,-3650.22,17.01,0.0033636554,0.0034229981,-0.70365405,0.7105264,-79.590996,330.591,8.311,0,0,-0.07351
100.75833,2000,0,91.24,0.000002697398,0.000002697398,0.000002697398,0.99999994,0,0,0,0,0,0,0,1,0,0,0,false,false,true,-359.9,-3647.46,17.01,0.0033636554,0.0034229981,-0.7038698,0.71031266,-79.230995,330.491,8.311,0,0,-0.09231
100.76667,2000,0,91.24,0.000002697398,0.000002697398,0.000002697398,0.99999994,0,0,0,0,0,0,0,1,0,0,0,false,false,true,-360.56,-3644.71,17.01,0.0033636556,0.0034229984,-0.704145,0.7100399,-78.870995,330.391,8.311,0,0,-0.11081
100.775,2000,0,91.24,0.000002697398,0.000002697398,0.000002697398,0.99999994,0,0,0,0,0,0,0,1,0,0,0,false,false,true,-361.22,-3641.96,17.01,0.0033636554,0.0034229981,-0.70447403,0.7097134,-78.510994,330.291,8.311,0,0,-0.12911
100.78333,2000,0,91.24,0.000002697398,0.000002697398,0.000002697398,0.99999994,0,0,0,0,0,0,0,1,0,0,0,false,false,true,-361.87,-3639.21,17.01,0.0033636554,0.0034229981,-0.70485705,0.709333,-78.151,330.191,8.311,0,0,-0.14721
100.791664,2000,0,91.24,0.000002697398,0.000002697398,0.000002697398,0.99999994,0,0,0,0,0,0,0,1,0,0,0,false,false,true,-362.52,-3636.46,17.01,0.0033636554,0.0034229981,-0.7052941,0.7088985,-77.791,330.091,8.311,0,0,-0.16500999
100.8,2000,0,91.24,0.000002697398,0.000002697398,0.000002697398,0.99999994,0,0,0,0,0,0,0,1,0,0,0,false,false,true,-363.16998,-3633.71,17.01,0.0033636556,0.0034229984,-0.7057797,0.7084151,-77.431,330.001,8.311,0,0,-0.18260999
100.808334,2000,0,91.24,0.000002697398,0.000002697398,0.000002697398,0.99999994,0,0,0,0,0,0,0,1,0,0,0,false,false,true,-363.81998,-3630.96,17.01,0.0033636556,0.0034229984,-0.70631915,0.7078772,-77.061,329.911,8.311,0,-0.00010999999,-0.19991
100.816666,2000,0,91.24,0.000002697398,0.000002697398,0.000002697398,0.99999994,0,0,0,0,0,0,0,1,0,0,0,false,false,true,-364.46,-3628.21,17.01,0.00336905,0.0034176034,-0.7069071,0.70729005,-76.690994,329.821,8.311,0,-0.00021,-0.21700999
100.825,2000,0,91.24,0.000002697398,0.000002697398,0.000002697398,0.99999994,0,0,0,0,0,0,0,1,0,0,0,false,false,true,-365.1,-3625.46,17.01,-0.0033744453,-0.0034122088,0.70754874,-0.70664823,-76.321,329.731,8.311,0,-0.00021,-0.23391
100.833336,2000,0,91.24,0.000002697398,0.000002697398,0.000002697398,0.99999994,0,0,0,0,0,0,0,1,0,0,0,false,false,true,-365.74,-3622.71,17.01,-0.00337984,-0.003406814,0.70823777,-0.70595765,-75.940994,329.641,8.311,0,-0.00021,-0.25051
100.84167,2000,0,91.24,0.000002697398,0.000002697398,0.000002697398,0.99999994,0,0,0,0,0,0,0,1,0,0,0,false,false,true,-366.37,-3619.96,17.01,-0.0033852346,-0.003401419,0.70897365,-0.70521855,-75.561,329.561,8.311,0,-0.00010999999,-0.26691002
100.85,2000,0,91.24,0.000002697398,0.000002697398,0.000002697398,0.99999994,0,0,0,0,0,0,0,1,0,0,0,false,false,true,-367,-3617.21,17.01,-0.0033906293,-0.0033960242,0.70975626,-0.7044309,-75.171,329.481,8.311,0,-0.00010999999,-0.28311
100.85833,2000,0,91.24,0.000002697398,0.000002697398,0.000002697398,0.99999994,0,0,0,0,0,0,0,1,0,0,0,false,false,true,-367.63,-3614.46,17.01,-0.0033960242,-0.0033906293,0.71058524,-0.7035947,-74.770996,329.401,8.311,0,0,-0.29901
100.86667,2000,0,91.24,0.000002697398,0.000002697398,0.000002697398,0.99999994,0,0,0,0,0,0,0,1,0,0,0,false,false,true,-368.25,-3611.71,17.01,-0.003401419,-0.0033852346,0.7114602,-0.70271,-74.370995,329.321,8.311,0,0,-0.31471
100.875,2000,0,91.24,0.000002697398,0.000002697398,0.000002697398,0.99999994,0,0,0,0,0,0,0,1,0,0,0,false,false,true,-368.87,-3608.97,17.01,-0.0034068138,-0.0033798397,0.71238077,-0.7017766,-73.961,329.241,8.311,0,0,-0.33021
100.88333,2000,0,91.24,0.000002697398,0.000002697398,0.000002697398,0.99999994,0,0,0,0,0,0,0,1,0,0,0,false,false,true,-369.49,-3606.23,17.01,-0.0034122085,-0.003374445,0.7133467,-0.70079476,-73.541,329.161,8.311,0,0,-0.34541002
