time,ball_loc_x,ball_loc_y,ball_loc_z,ball_rot_x,ball_rot_y,ball_rot_z,ball_rot_w,ball_vel_x,ball_vel_y,ball_vel_z,ball_ang_x,ball_ang_y,ball_ang_z,player0_throttle,player0_steer,player0_pitch,player0_yaw,player0_roll,player0_jump,player0_boost,player0_handbrake,player0_loc_x,player0_loc_y,player0_loc_z,player0_rot_x,player0_rot_y,player0_rot_z,player0_rot_w,player0_vel_x,player0_vel_y,player0_vel_z,player0_ang_x,player0_ang_y,player0_ang_z
295.36667,2000,0,91.24,0.000002697398,0.000002697398,0.000002697398,0.99999994,0,0,0,0,0,0,1,0,0,0,0,false,true,false,0,-2682.6199,16.99,-0.00336905,0.003374445,0.70711225,0.70708513,-0.040999997,2299.981,8.401,-0.00061,0,0
295.375,2000,0,91.24,0.000002697398,0.000002697398,0.000002697398,0.99999994,0,0,0,0,0,0,1,1,0,0,0,false,false,true,0,-2663.45,16.99,-0.00336905,0.003374445,0.70711225,0.70708513,-10.561,2299.281,8.461,-0.00061,0.00271,0.29321
295.38333,2000,0,91.24,0.000002697398,0.000002697398,0.000002697398,0.99999994,0,0,0,0,0,0,1,1,0,0,0,false,false,true,-0.089999996,-2644.29,16.99,-0.00336905,0.0033798397,0.7079743,0.70622194,-19.960999,2298.6309,8.491,-0.00061,0.00391,0.53391
295.39166,2000,0,91.24,0.000002697398,0.000002697398,0.000002697398,0.99999994,0,0,0,0,0,0,1,1,0,0,0,false,false,true,-0.26,-2625.13,16.99,-0.00336905,0.0033852346,0.70954216,0.7046467,-29.591,2297.941,8.511001,-0.00051,0.0043099998,0.74531
295.4,2000,0,91.24,0.000002697398,0.000002697398,0.000002697398,0.99999994,0,0,0,0,0,0,1,1,0,0,0,false,false,true,-0.51,-2605.98,16.99,-0.00336905,0.0033906293,0.7117266,0.7024402,-39.911,2297.171,8.531,-0.00051,0.00421,0.93301
295.40833,2000,0,91.24,0.000002697398,0.000002697398,0.000002697398,0.99999994,0,0,0,0,0,0,1,1,0,0,0,false,false,true,-0.84,-2586.8398,16.99,-0.00336905,0.0033906293,0.71445274,0.6996673,-51.211,2296.271,8.541,-0.00040999998,0.00381,1.1015099
295.41666,2000,0,91.24,0.000002697398,0.000002697398,0.000002697398,0.99999994,0,0,0,0,0,0,1,1,0,0,0,false,false,true,-1.27,-2567.7,16.99,-0.003374445,0.0033852346,0.7176554,0.69638187,-63.621,2295.201,8.551001,-0.00040999998,0.00321,1.25421
295.425,2000,0,91.24,0.000002697398,0.000002697398,0.000002697398,0.99999994,0,0,0,0,0,0,1,1,0,0,0,false,false,true,-1.8,-2548.5698,16.99,-0.0033852346,0.0033798397,0.72128516,0.6926216,-77.181,2293.901,8.551001,-0.00040999998,0.00261,1.39381
295.43332,2000,0,91.24,0.000002697398,0.000002697398,0.000002697398,0.99999994,0,0,0,0,0,0,1,1,0,0,0,false,false,true,-2.44,-2529.45,16.99,-0.0033960242,0.00336905,0.72529733,0.68841904,-91.851,2292.3408,8.561,-0.00030999997,0.00201,1.5225099
295.44168,2000,0,91.24,0.000002697398,0.000002697398,0.000002697398,0.99999994,0,0,0,0,0,0,1,1,0,0,0,false,false,true,-3.21,-2510.3499,16.99,-0.0034122088,0.003352866,0.72964764,0.68380654,-107.561,2290.471,8.561,-0.00030999997,0.0014099999,1.6418099
295.45,2000,0,91.24,0.000002697398,0.000002697398,0.000002697398,0.99999994,0,0,0,0,0,0,1,1,0,0,0,false,false,true,-4.11,-2491.26,16.99,-0.0034337877,0.0033366815,0.73430735,0.6788001,-124.181,2288.261,8.561,-0.00030999997,0.00091,1.7530099
295.45834,2000,0,91.24,0.000002697398,0.000002697398,0.000002697398,0.99999994,0,0,0,0,0,0,1,1,0,0,0,false,false,true,-5.14,-2472.19,16.99,-0.0034553665,0.0033151018,0.7392481,0.67341596,-141.571,2285.681,8.561,-0.00021,0.00051,1.85711
295.46667,2000,0,91.24,0.000002697398,0.000002697398,0.000002697398,0.99999994,0,0,0,0,0,0,1,1,0,0,0,false,false,true,-6.3199997,-2453.14,16.99,-0.0034823404,0.0032881277,0.7444365,0.6676759,-159.571,2282.711,8.561,-0.00010999999,0.00010999999,1.95481
295.475,2000,0,91.24,0.000002697398,0.000002697398,0.000002697398,0.99999994,0,0,0,0,0,0,1,1,0,0,0,false,false,true,-7.6499996,-2434.1199,16.99,-0.003509315,0.0032611543,0.7498498,0.66159064,-177.991,2279.3408,8.571,-0.00010999999,0,2.04651
295.48334,2000,0,91.24,0.000002697398,0.000002697398,0.000002697398,0.99999994,0,0,0,0,0,0,1,1,0,0,0,false,false,true,-9.13,-2415.13,16.99,-0.0035362889,0.0032341804,0.75546545,0.65517086,-196.631,2275.5808,8.571,0,-0.00021,2.1326098
295.49167,2000,0,91.24,0.000002697398,0.000002697398,0.000002697398,0.99999994,0,0,0,0,0,0,1,1,0,0,0,false,false,true,-10.7699995,-2396.17,16.99,-0.0035632628,0.0032018116,0.7612568,0.6484327,-215.291,2271.451,8.571,0,-0.00040999998,2.2132099
295.5,2000,0,91.24,0.000002697398,0.000002697398,0.000002697398,0.99999994,0,0,0,0,0,0,1,1,0,0,0,false,false,true,-12.559999,-2377.24,16.99,-0.0035956318,0.003169443,0.76720244,0.6413871,-233.751,2266.981,8.571,0,-0.00061,2.2885098
295.50833,2000,0,91.24,0.000002697398,0.000002697398,0.000002697398,0.99999994,0,0,0,0,0,0,1,1,0,0,0,false,false,true,-14.509999,-2358.3499,16.99,-0.0036280006,0.0031316795,0.77328146,0.63404477,-251.771,2262.231,8.571,0,-0.00071,2.35841
295.51666,2000,0,91.24,0.000002697398,0.000002697398,0.000002697398,0.99999994,0,0,0,0,0,0,1,1,0,0,0,false,false,true,-16.609999,-2339.5,16.99,-0.0036603692,0.0030939155,0.7794738,0.6264164,-269.101,2257.261,8.571,0,-0.00081,2.42271
295.525,2000,0,91.24,0.000002697398,0.000002697398,0.000002697398,0.99999994,0,0,0,0,0,0,1,1,0,0,0,false,false,true,-18.85,-2320.69,16.99,-0.0036927382,0.0030561523,0.7857556,0.6185185,-285.501,2252.171,8.571,0,-0.00091,2.48131
295.53333,2000,0,91.24,0.000002697398,0.000002697398,0.000002697398,0.99999994,0,0,0,0,0,0,1,1,0,0,0,false,false,true,-21.23,-2301.92,16.99,-0.0037251068,0.0030129936,0.7921084,0.61036146,-300.701,2247.0808,8.571,0,-0.0010099999,2.53381
295.54166,2000,0,91.24,0.000002697398,0.000002697398,0.000002697398,0.99999994,0,0,0,0,0,0,1,1,0,0,0,false,false,true,-23.74,-2283.19,16.99,-0.0037574756,0.0029698352,0.79850644,0.6019671,-314.431,2242.1309,8.571,0,-0.00111,2.57991
295.55,2000,0,91.24,0.000002697398,0.000002697398,0.000002697398,0.99999994,0,0,0,0,0,0,1,1,0,0,0,false,false,true,-26.359999,-2264.51,16.99,-0.0037952394,0.002926677,0.804933,0.5933463,-326.421,2237.491,8.571,0.00010999999,-0.0012099999,2.61921
295.55832,2000,0,91.24,0.000002697398,0.000002697398,0.000002697398,0.99999994,0,0,0,0,0,0,1,1,0,0,0,false,false,true,-29.08,-2245.8599,16.99,-0.0038330026,0.0028835186,0.81136096,0.58452564,-336.371,2233.3608,8.571,0.00021,-0.0012099999,2.65111
295.56668,2000,0,91.24,0.000002697398,0.000002697398,0.000002697398,0.99999994,0,0,0,0,0,0,1,1,0,0,0,false,false,true,-31.88,-2227.25,16.99,-0.0038707664,0.0028349652,0.8177685,0.57552713,-344.001,2229.981,8.561,0.00030999997,-0.00131,2.6751099
295.575,2000,0,91.24,0.000002697398,0.000002697398,0.000002697398,0.99999994,0,0,0,0,0,0,1,1,0,0,0,false,false,true,-34.75,-2208.67,16.99,-0.0039031352,0.0027864124,0.8241319,0.5663776,-351.991,2226.221,8.561,0.00030999997,-0.0012099999,2.69871
295.58334,2000,0,91.24,0.000002697398,0.000002697398,0.000002697398,0.99999994,0,0,0,0,0,0,1,1,0,0,0,false,false,true,-37.68,-2190.1199,16.99,-0.003935504,0.002737859,0.830447,0.5570768,-360.311,2222.0808,8.561,0.00030999997,-0.0012099999,2.72211
295.59167,2000,0,91.24,0.000002697398,0.000002697398,0.000002697398,0.99999994,0,0,0,0,0,0,1,1,0,0,0,false,false,true,-40.68,-2171.5999,16.99,-0.0039678724,0.002689306,0.8367135,0.54761976,-368.931,2217.531,8.561,0.00030999997,-0.00111,2.7453098
295.6,2000,0,91.24,0.000002697398,0.000002697398,0.000002697398,0.99999994,0,0,0,0,0,0,1,1,0,0,0,false,false,true,-43.75,-2153.1199,16.99,-0.004000241,0.0026407526,0.84292376,0.53801155,-377.831,2212.571,8.561,0.00030999997,-0.0010099999,2.76821
295.60834,2000,0,91.24,0.000002697398,0.000002697398,0.000002697398,0.99999994,0,0,0,0,0,0,1,1,0,0,0,false,false,true,-46.899998,-2134.68,16.99,-0.00403261,0.0025921995,0.84907377,0.52825236,-386.981,2207.191,8.561,0.00030999997,-0.00091,2.79091
295.61667,2000,0,91.24,0.000002697398,0.000002697398,0.000002697398,0.99999994,0,0,0,0,0,0,1,1,0,0,0,false,false,true,-50.12,-2116.29,16.99,-0.0040649786,0.0025436464,0.8551598,0.518342,-396.341,2201.3809,8.561,0.00030999997,-0.00091,2.81341
295.625,2000,0,91.24,0.000002697398,0.000002697398,0.000002697398,0.99999994,0,0,0,0,0,0,1,1,0,0,0,false,false,true,-53.42,-2097.94,16.99,-0.0040973476,0.0024950933,0.861178,0.50828075,-405.891,2195.1409,8.561,0.00030999997,-0.00081,2.83561
295.63333,2000,0,91.24,0.000002697398,0.000002697398,0.000002697398,0.99999994,0,0,0,0,0,0,1,1,0,0,0,false,false,true,-56.8,-2079.65,16.99,-0.004129716,0.0024411452,0.86712444,0.4980684,-415.591,2188.461,8.561,0.00030999997,-0.00071,2.8575099
295.64166,2000,0,91.24,0.000002697398,0.000002697398,0.000002697398,0.99999994,0,0,0,0,0,0,1,1,0,0,0,false,false,true,-60.26,-2061.41,16.99,-0.0041620852,0.0023871972,0.8729923,0.4877103,-425.411,2181.3308,8.561,0.00030999997,-0.00061,2.8791099
295.65,2000,0,91.24,0.000002697398,0.000002697398,0.000002697398,0.99999994,0,0,0,0,0,0,1,1,0,0,0,false,false,true,-63.809998,-2043.23,16.99,-0.004194454,0.0023332492,0.87878084,0.47720125,-435.331,2173.751,8.561,0.00030999997,-0.00051,2.90031
295.65833,2000,0,91.24,0.000002697398,0.000002697398,0.000002697398,0.99999994,0,0,0,0,0,0,1,1,0,0,0,false,false,true,-67.439995,-2025.12,16.99,-0.0042214277,0.0022793014,0.88448364,0.46654645,-445.311,2165.731,8.561,0.00030999997,-0.00040999998,2.92111
295.66666,2000,0,91.24,0.000002697398,0.000002697398,0.000002697398,0.99999994,0,0,0,0,0,0,1,1,0,0,0,false,false,true,-71.15,-2007.07,16.99,-0.0042484016,0.0022253534,0.89009684,0.45574605,-455.32098,2157.261,8.561,0.00030999997,-0.00040999998,2.94151
295.675,2000,0,91.24,0.000002697398,0.000002697398,0.000002697398,0.99999994,0,0,0,0,0,0,1,1,0,0,0,false,false,true,-74.939995,-1989.09,16.99,-0.004275376,0.0021714054,0.8956144,0.44480532,-465.331,2148.3508,8.561,0.00021,-0.00040999998,2.96141
295.68332,2000,0,91.24,0.000002697398,0.000002697398,0.000002697398,0.99999994,0,0,0,0,0,0,1,1,0,0,0,false,false,true,-78.82,-1971.19,16.99,-0.00430235,0.0021174573,0.90103537,0.433719,-475.301,2139.001,8.561,0.00021,-0.00040999998,2.98081
295.69168,2000,0,91.24,0.000002697398,0.000002697398,0.000002697398,0.99999994,0,0,0,0,0,0,1,1,0,0,0,false,false,true,-82.78,-1953.36,16.99,-0.0043293233,0.0020635093,0.90635365,0.4224923,-485.211,2129.211,8.561,0.00021,-0.00030999997,2.99961
295.7,2000,0,91.24,0.000002697398,0.000002697398,0.000002697398,0.99999994,0,0,0,0,0,0,1,1,0,0,0,false,false,true,-86.82,-1935.62,16.99,-0.0043562977,0.0020095615,0.91156363,0.41113093,-495.031,2119.001,8.561,0.00021,-0.00030999997,3.0178099
295.70834,2000,0,91.24,0.000002697398,0.000002697398,0.000002697398,0.99999994,0,0,0,0,0,0,1,1,0,0,0,false,false,true,-90.95,-1917.96,16.99,-0.0043832716,0.0019556135,0.9166619,0.39963454,-504.731,2108.3708,8.561,0.00021,-0.00030999997,3.03531
295.71667,2000,0,91.24,0.000002697398,0.000002697398,0.000002697398,0.99999994,0,0,0,0,0,0,1,1,0,0,0,false,false,true,-95.159996,-1900.39,16.99,-0.004410245,0.0018962707,0.921643,0.3880087,-514.27094,2097.3408,8.561,0.00021,-0.00030999997,3.0520098
295.725,2000,0,91.24,0.000002697398,0.000002697398,0.000002697398,0.99999994,0,0,0,0,0,0,1,1,0,0,0,false,false,true,-99.45,-1882.9099,16.99,-0.00443722,0.0018369281,0.9265021,0.3762588,-523.631,2085.921,8.561,0.00021,-0.00021,3.06791
295.73334,2000,0,91.24,0.000002697398,0.000002697398,0.000002697398,0.99999994,0,0,0,0,0,0,1,1,0,0,0,false,false,true,-103.81,-1865.5299,16.99,-0.004458799,0.0017775854,0.931236,0.36438477,-532.79095,2074.1208,8.561,0.00021,-0.00010999999,3.08301
295.74167,2000,0,91.24,0.000002697398,0.000002697398,0.000002697398,0.99999994,0,0,0,0,0,0,1,1,0,0,0,false,false,true,-108.25,-1848.25,16.99,-0.0044803787,0.0017182427,0.9358401,0.35239217,-541.71094,2061.961,8.561,0.00021,-0.00010999999,3.09711
295.75,2000,0,91.24,0.000002697398,0.000002697398,0.000002697398,0.99999994,0,0,0,0,0,0,1,1,0,0,0,false,false,true,-112.759995,-1831.07,16.99,-0.0045019574,0.0016588998,0.94030964,0.3402861,-550.371,2049.461,8.561,0.00021,-0.00010999999,3.11021
295.75833,2000,0,91.24,0.000002697398,0.000002697398,0.000002697398,0.99999994,0,0,0,0,0,0,1,1,0,0,0,false,false,true,-117.35,-1813.99,16.99,-0.0045235357,0.0015995569,0.9446403,0.32807228,-558.751,2036.641,8.561,0.00021,-0.00010999999,3.12221
295.76666,2000,0,91.24,0.000002697398,0.000002697398,0.000002697398,0.99999994,0,0,0,0,0,0,1,1,0,0,0,false,false,true,-122.009995,-1797.02,16.99,-0.004545116,0.0015402144,0.9488283,0.31575593,-566.821,2023.5309,8.561,0.00021,-0.00010999999,3.13311
295.775,2000,0,91.24,0.000002697398,0.000002697398,0.000002697398,0.99999994,0,0,0,0,0,0,1,1,0,0,0,false,false,true,-126.729996,-1780.1599,16.99,-0.004566694,0.0014808715,0.95286936,0.30334243,-574.561,2010.141,8.571,0.00021,-0.00010999999,3.14271
295.78333,2000,0,91.24,0.000002697398,0.000002697398,0.000002697398,0.99999994,0,0,0,0,0,0,1,1,0,0,0,false,false,true,-131.52,-1763.4099,16.99,-0.004588274,0.0014215288,0.9567604,0.29083726,-581.951,1996.511,8.571,0.00021,-0.00010999999,3.15101
295.79166,2000,0,91.24,0.000002697398,0.000002697398,0.000002697398,0.99999994,0,0,0,0,0,0,1,1,0,0,0,false,false,true,-136.37,-1746.77,16.99,-0.0046044583,0.001362186,0.96049625,0.27825117,-588.98096,1982.6509,8.571,0.00021,0,3.1579099
295.8,2000,0,91.24,0.000002697398,0.000002697398,0.000002697398,0.99999994,0,0,0,0,0,0,1,1,0,0,0,false,false,true,-141.28,-1730.25,16.99,-0.004620643,0.0013028432,0.9640742,0.2655895,-595.621,1968.601,8.571,0.00021,0,3.16331
295.80832,2000,0,91.24,0.000002697398,0.000002697398,0.000002697398,0.99999994,0,0,0,0,0,0,1,1,0,0,0,false,false,true,-146.23999,-1713.85,16.99,-0.004636827,0.0012435005,0.9674915,0.2528577,-601.871,1954.391,8.571,0.00030999997,0,3.16711
295.81668,2000,0,91.24,0.000002697398,0.000002697398,0.000002697398,0.99999994,0,0,0,0,0,0,1,1,0,0,0,false,false,true,-151.26,-1697.5599,16.99,-0.0046530114,0.0011787629,0.9707445,0.24006666,-607.71094,1940.0509,8.571,0.00040999998,0,3.1693099
295.825,2000,0,91.24,0.000002697398,0.000002697398,0.000002697398,0.99999994,0,0,0,0,0,0,1,1,0,0,0,false,false,true,-156.31999,-1681.39,16.99,-0.004669196,0.0011140254,0.9738299,0.22722696,-613.71094,1925.8109,8.571,0.00040999998,0,3.17181
295.83334,2000,0,91.24,0.000002697398,0.000002697398,0.000002697398,0.99999994,0,0,0,0,0,0,1,1,0,0,0,false,false,true,-161.43,-1665.34,16.99,-0.0046853805,0.0010492879,0.9767475,0.2143388,-619.83093,1911.6509,8.571,0.00040999998,0,3.1744099
295.84167,2000,0,91.24,0.000002697398,0.000002697398,0.000002697398,0.99999994,0,0,0,0,0,0,1,1,0,0,0,false,false,true,-166.59999,-1649.4099,16.99,-0.0046961694,0.0009845501,0.9794968,0.20140196,-625.78094,1897.481,8.571,0.00040999998,0,3.17601
295.85,2000,0,91.24,0.000002697398,0.000002697398,0.000002697398,0.99999994,0,0,0,0,0,0,1,1,0,0,0,false,false,true,-171.81,-1633.6,16.99,-0.0047069597,0.00091981277,0.98207635,0.1884221,-631.561,1883.3309,8.571,0.00040999998,0,3.17661
295.85834,2000,0,91.24,0.000002697398,0.000002697398,0.000002697398,0.99999994,0,0,0,0,0,0,1,1,0,0,0,false,false,true,-177.06999,-1617.9099,16.99,-0.004717749,0.0008550752,0.9844838,0.17540976,-637.17096,1869.2109,8.571,0.00040999998,0,3.17611
295.86667,2000,0,91.24,0.000002697398,0.000002697398,0.000002697398,0.99999994,0,0,0,0,0,0,1,1,0,0,0,false,false,true,-182.37999,-1602.33,16.99,-0.0047285384,0.0007903376,0.9867191,0.16236506,-642.631,1855.131,8.571,0.00040999998,0,3.17461
295.875,2000,0,91.24,0.000002697398,0.000002697398,0.000002697398,0.99999994,0,0,0,0,0,0,1,1,0,0,0,false,false,true,-187.73999,-1586.87,16.99,-0.0047393283,0.00072560005,0.98878044,0.14929888,-647.941,1841.121,8.571,0.00030999997,0,3.17191
295.88333,2000,0,91.24,0.000002697398,0.000002697398,0.000002697398,0.99999994,0,0,0,0,0,0,1,1,0,0,0,false,false,true,-193.14,-1571.5299,16.99,-0.004750118,0.0006608626,0.99066746,0.13621642,-653.11096,1827.1909,8.571,0.00030999997,0.00010999999,3.16811
295.89166,2000,0,91.24,0.000002697398,0.000002697398,0.000002697398,0.99999994,0,0,0,0,0,0,1,1,0,0,0,false,false,true,-198.58,-1556.2999,16.99,-0.0047555133,0.000596125,0.9923791,0.123128645,-658.16095,1813.351,8.571,0.00030999997,0.00021,3.16311
295.9,2000,0,91.24,0.000002697398,0.000002697398,0.000002697398,0.99999994,0,0,0,0,0,0,1,1,0,0,0,false,false,true,-204.06,-1541.19,16.99,-0.004760908,0.00053138746,0.9939155,0.110040784,-663.09094,1799.611,8.571,0.00030999997,0.00021,3.15691
295.90833,2000,0,91.24,0.000002697398,0.000002697398,0.000002697398,0.99999994,0,0,0,0,0,0,1,1,0,0,0,false,false,true,-209.59,-1526.19,16.99,-0.004766302,0.00046664986,0.99527687,0.09695831,-667.92096,1785.991,8.571,0.00030999997,0.00021,3.14941
295.91666,2000,0,91.24,0.000002697398,0.000002697398,0.000002697398,0.99999994,0,0,0,0,0,0,1,1,0,0,0,false,false,true,-215.15999,-1511.3099,16.99,-0.0047716964,0.0004019123,0.9964632,0.08389211,-672.67096,1772.501,8.571,0.00021,0.00021,3.14061
295.925,2000,0,91.24,0.000002697398,0.000002697398,0.000002697398,0.99999994,0,0,0,0,0,0,1,1,0,0,0,false,false,true,-220.76999,-1496.5399,16.99,-0.004777092,0.00033717474,0.9974756,0.07084741,-677.35095,1759.1509,8.571,0.00021,0.00021,3.1305099
295.93332,2000,0,91.24,0.000002697398,0.000002697398,0.000002697398,0.99999994,0,0,0,0,0,0,1,1,0,0,0,false,false,true,-226.40999,-1481.88,16.99,-0.0047824867,0.0002724372,0.9983149,0.05782977,-681.98096,1745.9509,8.571,0.00021,0.00030999997,3.11901
295.94168,2000,0,91.24,0.000002697398,0.000002697398,0.000002697398,0.99999994,0,0,0,0,0,0,1,1,0,0,0,false,false,true,-232.09,-1467.33,16.99,-0.004782487,0.00020769966,0.99898225,0.04484981,-686.58093,1732.9109,8.571,0.00021,0.00030999997,3.1061099
295.95,2000,0,91.24,0.000002697398,0.000002697398,0.000002697398,0.99999994,0,0,0,0,0,0,1,1,0,0,0,false,false,true,-237.81,-1452.89,16.99,-0.0047824862,0.00014296208,0.9994789,0.03191839,-691.17096,1720.0409,8.571,0.00010999999,0.00030999997,3.09181
295.95834,2000,0,91.24,0.000002697398,0.000002697398,0.000002697398,0.99999994,0,0,0,0,0,0,1,1,0,0,0,false,false,true,-243.56999,-1438.5599,16.99,-0.0047824867,0.000083619336,0.9998072,0.019041017,-695.761,1707.3309,8.571,0.00010999999,0.00030999997,3.07601
295.96667,2000,0,91.24,0.000002697398,0.000002697398,0.000002697398,0.99999994,0,0,0,0,0,0,1,1,0,0,0,false,false,true,-249.37,-1424.33,16.99,-0.004782487,0.000024276584,0.9999691,0.0062282924,-700.371,1694.8009,8.571,0.00010999999,0.00030999997,3.0587099
295.975,2000,0,91.24,0.000002697398,0.000002697398,0.000002697398,0.99999994,0,0,0,0,0,0,1,1,0,0,0,false,false,true,-255.20999,-1410.21,16.99,-0.0047824867,-0.000035066172,0.9999673,-0.0065142587,-705.03094,1682.4409,8.571,0.00010999999,0.00040999998,3.03981
295.98334,2000,0,91.24,0.000002697398,0.000002697398,0.000002697398,0.99999994,0,0,0,0,0,0,1,1,0,0,0,false,false,true,-261.09,-1396.19,16.99,-0.0047824867,-0.00009440893,0.9998045,-0.019181281,-709.751,1670.261,8.571,0.00010999999,0.00040999998,3.0192099
295.99167,2000,0,91.24,0.000002697398,0.000002697398,0.000002697398,0.99999994,0,0,0,0,0,0,1,1,0,0,0,false,false,true,-267,-1382.27,16.99,-0.0047770925,-0.0001537517,0.9994842,-0.031756595,-714.561,1658.261,8.571,0.00021,0.00051,2.9969099
296,2000,0,91.24,0.000002697398,0.000002697398,0.000002697398,0.99999994,0,0,0,0,0,0,1,1,0,0,0,false,false,true,-272.94998,-1368.45,16.99,-0.0047716973,-0.00021309446,0.9990097,-0.0442348,-719.47095,1646.4309,8.571,0.00021,0.00051,2.9730098
296.00833,2000,0,91.24,0.000002697398,0.000002697398,0.000002697398,0.99999994,0,0,0,0,0,0,1,1,0,0,0,false,false,true,-278.94998,-1354.73,16.99,-0.004766302,-0.0002724372,0.9983852,-0.056605108,-724.371,1634.601,8.571,0.00021,0.00051,2.95411
296.01666,2000,0,91.24,0.000002697398,0.000002697398,0.000002697398,0.99999994,0,0,0,0,0,0,1,1,0,0,0,false,false,true,-284.99,-1341.11,16.99,-0.0047609075,-0.00033177997,0.99761283,-0.0688891,-729.27094,1622.771,8.571,0.00010999999,0.00051,2.94011
296.025,2000,0,91.24,0.000002697398,0.000002697398,0.000002697398,0.99999994,0,0,0,0,0,0,1,1,0,0,0,false,false,true,-291.07,-1327.59,16.99,-0.004755513,-0.0003911227,0.99669427,-0.08110296,-734.18097,1610.9509,8.571,0,0.00051,2.93081
296.03333,2000,0,91.24,0.000002697398,0.000002697398,0.000002697398,0.99999994,0,0,0,0,0,0,1,1,0,0,0,false,false,true,-297.19,-1314.1699,16.99,-0.004750118,-0.0004504655,0.99562955,-0.093268275,-739.03094,1599.0409,8.571,0,0.00040999998,2.92851
296.04166,2000,0,91.24,0.000002697398,0.000002697398,0.000002697398,0.99999994,0,0,0,0,0,0,1,1,0,0,0,false,false,true,-303.35,-1300.84,16.99,-0.004744723,-0.0005098082,0.99441713,-0.10541204,-743.72095,1586.9409,8.571,-0.00010999999,0.00040999998,2.93561
296.05,2000,0,91.24,0.000002697398,0.000002697398,0.000002697398,0.99999994,0,0,0,0,0,0,1,1,0,0,0,false,false,true,-309.55,-1287.62,16.99,-0.0047339336,-0.00056915096,0.9930535,-0.117566556,-748.251,1574.6709,8.571,-0.00030999997,0.00030999997,2.95171
296.05832,2000,0,91.24,0.000002697398,0.000002697398,0.000002697398,0.99999994,0,0,0,0,0,0,1,1,0,0,0,false,false,true,-315.78998,-1274.5,16.99,-0.0047231438,-0.0006284937,0.9915327,-0.12976962,-752.631,1562.251,8.571,-0.00051,0.00021,2.97661
296.06668,2000,0,91.24,0.000002697398,0.000002697398,0.000002697398,0.99999994,0,0,0,0,0,0,1,1,0,0,0,false,false,true,-322.06,-1261.48,16.99,-0.004712355,-0.00068244175,0.9898467,-0.14205903,-756.86096,1549.6909,8.571,-0.00071,0.00010999999,3.01011
296.075,2000,0,91.24,0.000002697398,0.000002697398,0.000002697398,0.99999994,0,0,0,0,0,0,1,1,0,0,0,false,false,true,-328.37,-1248.57,16.99,-0.004701565,-0.0007363897,0.9879873,-0.15446171,-760.941,1537.011,8.571,-0.00081,0,3.05211
296.08334,2000,0,91.24,0.000002697398,0.000002697398,0.000002697398,0.99999994,0,0,0,0,0,0,1,1,0,0,0,false,false,true,-334.71,-1235.76,16.99,-0.0046907747,-0.00079033757,0.98594266,-0.1670154,-764.881,1524.231,8.571,-0.00091,-0.00010999999,3.1024098
296.09167,2000,0,91.24,0.000002697398,0.000002697398,0.000002697398,0.99999994,0,0,0,0,0,0,1,1,0,0,0,false,false,true,-341.08,-1223.0599,16.99,-0.004679985,-0.0008496803,0.98370117,-0.17974718,-768.68097,1511.351,8.571,-0.0010099999,-0.00021,3.16091
296.1,2000,0,91.24,0.000002697398,0.000002697398,0.000002697398,0.99999994,0,0,0,0,0,0,1,1,0,0,0,false,false,true,-347.49,-1210.47,16.99,-0.0046691964,-0.0009090232,0.98124826,-0.19268936,-772.35095,1498.391,8.571,-0.00111,-0.00030999997,3.22751
296.10834,2000,0,91.24,0.000002697398,0.000002697398,0.000002697398,0.99999994,0,0,0,0,0,0,1,1,0,0,0,false,false,true,-353.93,-1197.98,16.99,-0.004658406,-0.00096836593,0.97856796,-0.20586891,-775.90094,1485.371,8.571,-0.0012099999,-0.00040999998,3.3022099
296.11667,2000,0,91.24,0.000002697398,0.000002697398,0.000002697398,0.99999994,0,0,0,0,0,0,1,1,0,0,0,false,false,true,-360.4,-1185.6,16.99,-0.004647617,-0.0010277088,0.975643,-0.2193128,-779.34094,1472.2909,8.571,-0.00131,-0.00051,3.3849099
296.125,2000,0,91.24,0.000002697398,0.000002697398,0.000002697398,0.99999994,0,0,0,0,0,0,1,1,0,0,0,false,false,true,-366.88998,-1173.33,16.99,-0.0046314322,-0.0010870514,0.9724522,-0.23305339,-782.571,1459.021,8.571,-0.0014099999,-0.00061,3.4730098
296.13333,2000,0,91.24,0.000002697398,0.000002697398,0.000002697398,0.99999994,0,0,0,0,0,0,1,1,0,0,0,false,false,true,-373.41,-1161.1699,16.99,-0.0046152477,-0.0011463941,0.9689778,-0.24710144,-785.3909,1445.5809,8.571,-0.0014099999,-0.00071,3.56331
296.14166,2000,0,91.24,0.000002697398,0.000002697398,0.000002697398,0.99999994,0,0,0,0,0,0,1,1,0,0,0,false,false,true,-379.94998,-1149.12,16.99,-0.0045990637,-0.0012057369,0.96520185,-0.26146248,-787.561,1432.251,8.571,-0.00131,-0.00081,3.65311
296.15,2000,0,91.24,0.000002697398,0.000002697398,0.000002697398,0.99999994,0,0,0,0,0,0,1,1,0,0,0,false,false,true,-386.50998,-1137.1799,16.99,-0.004582879,-0.0012704745,0.96110976,-0.27612558,-789.121,1419.0809,8.571,-0.00111,-0.00081,3.74191
296.15833,2000,0,91.24,0.000002697398,0.000002697398,0.000002697398,0.99999994,0,0,0,0,0,0,1,1,0,0,0,false,false,true,-393.09,-1125.35,16.99,-0.0045666946,-0.001335212,0.95668846,-0.2910746,-790.071,1406.111,8.571,-0.00091,-0.00081,3.82981
296.16666,2000,0,91.24,0.000002697398,0.000002697398,0.000002697398,0.99999994,0,0,0,0,0,0,1,1,0,0,0,false,false,true,-399.66998,-1113.63,16.99,-0.0045451154,-0.0014053443,0.9519217,-0.30630422,-790.381,1393.341,8.571,-0.00071,-0.00071,3.91531
296.175,2000,0,91.24,0.000002697398,0.000002697398,0.000002697398,0.99999994,0,0,0,0,0,0,1,1,0,0,0,false,false,true,-406.25998,-1102.02,16.99,-0.0045235357,-0.0014754767,0.946798,-0.3217927,-789.8909,1380.641,8.571,-0.00051,-0.00061,3.9934099
296.18332,2000,0,91.24,0.000002697398,0.000002697398,0.000002697398,0.99999994,0,0,0,0,0,0,1,1,0,0,0,false,false,true,-412.84,-1090.51,16.99,-0.0045019574,-0.0015456091,0.94131255,-0.33750245,-788.61096,1368.0609,8.571,-0.00030999997,-0.00051,4.06421
296.19168,2000,0,91.24,0.000002697398,0.000002697398,0.000002697398,0.99999994,0,0,0,0,0,0,1,1,0,0,0,false,false,true,-419.41,-1079.11,16.99,-0.004474983,-0.0016211362,0.9354618,-0.35339555,-786.55096,1355.651,8.571,-0.00010999999,-0.00030999997,4.12781
296.2,2000,0,91.24,0.000002697398,0.000002697398,0.000002697398,0.99999994,0,0,0,0,0,0,1,1,0,0,0,false,false,true,-425.96,-1067.8099,16.99,-0.004448009,-0.0016966634,0.9292446,-0.36943436,-783.74097,1343.471,8.571,0,-0.00021,4.18421
296.20834,2000,0,91.24,0.000002697398,0.000002697398,0.000002697398,0.99999994,0,0,0,0,0,0,1,1,0,0,0,false,false,true,-432.49,-1056.61,16.99,-0.0044210353,-0.0017721906,0.92266387,-0.38557565,-780.21094,1331.5709,8.571,0.00010999999,-0.00010999999,4.23351
296.21667,2000,0,91.24,0.000002697398,0.000002697398,0.000002697398,0.99999994,0,0,0,0,0,0,1,1,0,0,0,false,false,true,-438.99,-1045.51,16.99,-0.0043886667,-0.0018477177,0.9157183,-0.40179244,-775.99097,1320.001,8.571,0.00030999997,0,4.27591
296.225,2000,0,91.24,0.000002697398,0.000002697398,0.000002697398,0.99999994,0,0,0,0,0,0,1,1,0,0,0,false,false,true,-445.46,-1034.51,16.99,-0.0043562977,-0.0019286396,0.9084153,-0.41804165,-771.121,1308.8009,8.571,0.00040999998,0.00010999999,4.3116097
296.23334,2000,0,91.24,0.000002697398,0.000002697398,0.000002697398,0.99999994,0,0,0,0,0,0,1,1,0,0,0,false,false,true,-451.88998,-1023.6,16.99,-0.004318534,-0.0020095615,0.90076,-0.43429086,-765.65094,1298.021,8.571,0.00051,0.00021,4.34061
296.24167,2000,0,91.24,0.000002697398,0.000002697398,0.000002697398,0.99999994,0,0,0,0,0,0,1,1,0,0,0,false,false,true,-458.27,-1012.77997,16.99,-0.0042807707,-0.0020904834,0.8927598,-0.45050767,-759.621,1287.6909,8.571,0.00061,0.00030999997,4.3632097
296.25,2000,0,91.24,0.000002697398,0.000002697398,0.000002697398,0.99999994,0,0,0,0,0,0,1,1,0,0,0,false,false,true,-464.59998,-1002.05,16.99,-0.004243007,-0.0021714054,0.88442117,-0.46666512,-753.10095,1277.851,8.571,0.00071,0.00040999998,4.37951
296.25833,2000,0,91.24,0.000002697398,0.000002697398,0.000002697398,0.99999994,0,0,0,0,0,0,1,1,0,0,0,false,false,true,-470.87997,-991.39996,16.99,-0.0041998485,-0.0022523273,0.87575865,-0.48272553,-746.1409,1268.531,8.571,0.00071,0.00051,4.38961
296.26666,2000,0,91.24,0.000002697398,0.000002697398,0.000002697398,0.99999994,0,0,0,0,0,0,1,1,0,0,0,false,false,true,-477.09998,-980.82996,16.99,-0.0041566906,-0.0023332494,0.8667835,-0.49866182,-738.79095,1259.751,8.571,0.00071,0.00061,4.39381
296.275,2000,0,91.24,0.000002697398,0.000002697398,0.000002697398,0.99999994,0,0,0,0,0,0,1,1,0,0,0,false,false,true,-483.25998,-970.32996,16.99,-0.0041135317,-0.0024141711,0.85750884,-0.514447,-731.131,1251.521,8.571,0.00071,0.00071,4.39221
296.28333,2000,0,91.24,0.000002697398,0.000002697398,0.000002697398,0.99999994,0,0,0,0,0,0,1,1,0,0,0,false,false,true,-489.34998,-959.89996,16.99,-0.0040649786,-0.0024950933,0.8479503,-0.5300542,-723.21094,1243.861,8.571,0.00071,0.00081,4.38491
296.29166,2000,0,91.24,0.000002697398,0.000002697398,0.000002697398,0.99999994,0,0,0,0,0,0,1,1,0,0,0,false,false,true,-495.37997,-949.52997,16.99,-0.004016426,-0.0025706205,0.8381255,-0.54545647,-715.10095,1236.771,8.571,0.00071,0.00081,4.37211
296.3,2000,0,91.24,0.000002697398,0.000002697398,0.000002697398,0.99999994,0,0,0,0,0,0,1,1,0,0,0,false,false,true,-501.34,-939.22,16.99,-0.0039678724,-0.0026461475,0.8280512,-0.56063205,-706.86096,1230.261,8.571,0.00071,0.00091,4.35401
296.30832,2000,0,91.24,0.000002697398,0.000002697398,0.000002697398,0.99999994,0,0,0,0,0,0,1,1,0,0,0,false,false,true,-507.22998,-928.97,16.99,-0.0039193192,-0.0027216745,0.81774586,-0.5755595,-698.561,1224.3109,8.571,0.00071,0.0010099999,4.33071
296.31668,2000,0,91.24,0.000002697398,0.000002697398,0.000002697398,0.99999994,0,0,0,0,0,0,1,1,0,0,0,false,false,true,-513.05,-918.76996,16.99,-0.0038653717,-0.002797202,0.80722636,-0.59022266,-690.251,1218.9209,8.571,0.00071,0.00111,4.30241
296.325,2000,0,91.24,0.000002697398,0.000002697398,0.000002697398,0.99999994,0,0,0,0,0,0,1,1,0,0,0,false,false,true,-518.8,-908.61,16.99,-0.0038114234,-0.002872729,0.796515,-0.6045998,-682.001,1214.0709,8.561,0.00071,0.00111,4.26921
296.33334,2000,0,91.24,0.000002697398,0.000002697398,0.000002697398,0.99999994,0,0,0,0,0,0,1,1,0,0,0,false,false,true,-524.48,-898.49,16.99,-0.0037574756,-0.0029428613,0.7856368,-0.61866945,-673.871,1209.741,8.561,0.00061,0.00111,4.2312098
296.34167,2000,0,91.24,0.000002697398,0.000002697398,0.000002697398,0.99999994,0,0,0,0,0,0,1,1,0,0,0,false,false,true,-530.1,-888.41,16.99,-0.0037035276,-0.0030129936,0.77461016,-0.63242084,-665.91095,1205.901,8.561,0.00061,0.00111,4.18861
296.35,2000,0,91.24,0.000002697398,0.000002697398,0.000002697398,0.99999994,0,0,0,0,0,0,1,1,0,0,0,false,false,true,-535.64996,-878.36,16.99,-0.0036495796,-0.003083126,0.7634551,-0.64584315,-658.17096,1202.521,8.561,0.00051,0.00111,4.14141
296.35834,2000,0,91.24,0.000002697398,0.000002697398,0.000002697398,0.99999994,0,0,0,0,0,0,1,1,0,0,0,false,false,true,-541.13,-868.33997,16.99,-0.0035956316,-0.0031478636,0.75219756,-0.6589202,-650.701,1199.5709,8.561,0.00040999998,0.00111,4.08981
296.36667,2000,0,91.24,0.000002697398,0.000002697398,0.000002697398,0.99999994,0,0,0,0,0,0,1,1,0,0,0,false,false,true,-546.55,-858.33997,16.99,-0.0035416838,-0.0032126012,0.74086106,-0.6716412,-643.54095,1197.011,8.551001,0.00040999998,0.0012099999,4.03391
296.375,2000,0,91.24,0.000002697398,0.000002697398,0.000002697398,0.99999994,0,0,0,0,0,0,1,1,0,0,0,false,false,true,-551.91,-848.36,16.99,-0.0034823408,-0.0032773386,0.72946554,-0.68400073,-636.73096,1194.8009,8.551001,0.00030999997,0.00131,3.9737098
296.38333,2000,0,91.24,0.000002697398,0.000002697398,0.000002697398,0.99999994,0,0,0,0,0,0,1,1,0,0,0,false,false,true,-557.22,-838.39996,16.99,-0.0034229981,-0.0033366815,0.7180426,-0.6959826,-630.311,1192.891,8.551001,0.00021,0.00131,3.9093099
296.39166,2000,0,91.24,0.000002697398,0.000002697398,0.000002697398,0.99999994,0,0,0,0,0,0,1,1,0,0,0,false,false,true,-562.47,-828.45996,16.99,0.0033636554,0.0033960242,-0.7066104,0.7075866,-624.311,1191.251,8.551001,0.00021,0.00131,3.8408098
296.4,2000,0,91.24,0.000002697398,0.000002697398,0.000002697398,0.99999994,0,0,0,0,0,0,1,1,0,0,0,false,false,true,-567.67,-818.52997,16.99,0.0033043127,0.003455367,-0.69519496,0.71880525,-618.751,1189.8309,8.551001,0.00021,0.00131,3.76821
296.40833,2000,0,91.24,0.000002697398,0.000002697398,0.000002697398,0.99999994,0,0,0,0,0,0,1,1,0,0,0,false,false,true,-572.83,-808.61,16.99,0.00324497,0.0035093152,-0.68382275,0.72963244,-613.66095,1188.5809,8.541,0.00021,0.00131,3.6916099
296.41666,2000,0,91.24,0.000002697398,0.000002697398,0.000002697398,0.99999994,0,0,0,0,0,0,1,1,0,0,0,false,false,true,-577.94,-798.70996,16.99,0.003185627,0.0035632628,-0.6725205,0.74006295,-609.05096,1187.4609,8.541,0.00021,0.00131,3.61111
296.425,2000,0,91.24,0.000002697398,0.000002697398,0.000002697398,0.99999994,0,0,0,0,0,0,1,1,0,0,0,false,false,true,-583.01996,-788.81,16.99,0.0031262846,0.003617211,-0.6613102,0.7500973,-604.92096,1186.411,8.541,0.00010999999,0.0012099999,3.5271099
296.43332,2000,0,91.24,0.000002697398,0.000002697398,0.000002697398,0.99999994,0,0,0,0,0,0,1,1,0,0,0,false,false,true,-588.06,-778.92,16.99,0.003072336,0.0036657634,-0.65021294,0.7597368,-601.24097,1185.391,8.541,0.00010999999,0.00111,3.44061
296.44168,2000,0,91.24,0.000002697398,0.000002697398,0.000002697398,0.99999994,0,0,0,0,0,0,1,1,0,0,0,false,false,true,-593.07,-769.04,16.99,0.0030183885,0.0037143172,-0.6392561,0.7689789,-598.001,1184.371,8.541,0,0.00111,3.35221
296.45,2000,0,91.24,0.000002697398,0.000002697398,0.000002697398,0.99999994,0,0,0,0,0,0,1,1,0,0,0,false,false,true,-598.05,-759.17,16.99,0.0029644405,0.0037574756,-0.6284557,0.77783054,-595.18097,1183.3309,8.541,0,0.0010099999,3.2625098
296.45834,2000,0,91.24,0.000002697398,0.000002697398,0.000002697398,0.99999994,0,0,0,0,0,0,1,1,0,0,0,false,false,true,-603.01,-749.31,16.99,0.0029104925,0.0038006338,-0.61782247,0.7863029,-592.77094,1182.241,8.531,0,0.0010099999,3.17201
296.46667,2000,0,91.24,0.000002697398,0.000002697398,0.000002697398,0.99999994,0,0,0,0,0,0,1,1,0,0,0,false,false,true,-607.95,-739.45996,16.99,0.0028565442,0.0038437918,-0.60737807,0.7943983,-590.751,1181.091,8.531,0,0.00091,3.08121
296.475,2000,0,91.24,0.000002697398,0.000002697398,0.000002697398,0.99999994,0,0,0,0,0,0,1,1,0,0,0,false,false,true,-612.87,-729.62,16.99,0.0028025967,0.0038815557,-0.597128,0.8021316,-589.10095,1179.851,8.531,0,0.00081,2.99051
296.48334,2000,0,91.24,0.000002697398,0.000002697398,0.000002697398,0.99999994,0,0,0,0,0,0,1,1,0,0,0,false,false,true,-617.77997,-719.79,16.99,0.0027540433,0.0039193192,-0.5870882,0.8095087,-587.80096,1178.501,8.531,0,0.00071,2.90021
296.49167,2000,0,91.24,0.000002697398,0.000002697398,0.000002697398,0.99999994,0,0,0,0,0,0,1,1,0,0,0,false,false,true,-622.68,-709.97,16.99,0.0027054902,0.003957083,-0.57726425,0.8165432,-586.84094,1177.031,8.531,-0.00010999999,0.00061,2.81071
296.5,2000,0,91.24,0.000002697398,0.000002697398,0.000002697398,0.99999994,0,0,0,0,0,0,1,1,0,0,0,false,false,true,-627.57,-700.16,16.99,0.0026569373,0.003989452,-0.5676616,0.823248,-586.201,1175.4209,8.531,-0.00010999999,0.00051,2.7223098
296.50833,2000,0,91.24,0.000002697398,0.000002697398,0.000002697398,0.99999994,0,0,0,0,0,0,1,1,0,0,0,false,false,true,-632.45,-690.36,16.99,0.0026083838,0.00402182,-0.55828524,0.82963514,-585.86096,1173.661,8.531,-0.00010999999,0.00040999998,2.63521
296.51666,2000,0,91.24,0.000002697398,0.000002697398,0.000002697398,0.99999994,0,0,0,0,0,0,1,1,0,0,0,false,false,true,-637.32996,-680.57996,16.99,0.0025652256,0.0040487945,-0.5491411,0.83571583,-585.80096,1171.751,8.531,-0.00010999999,0.00030999997,2.54971
296.525,2000,0,91.24,0.000002697398,0.000002697398,0.000002697398,0.99999994,0,0,0,0,0,0,1,1,0,0,0,false,false,true,-642.20996,-670.82,16.99,0.0025220672,0.0040757684,-0.5402342,0.84150094,-586.011,1169.6709,8.531,-0.00010999999,0.00021,2.4660099
296.53333,2000,0,91.24,0.000002697398,0.000002697398,0.000002697398,0.99999994,0,0,0,0,0,0,1,1,0,0,0,false,false,true,-647.08997,-661.07,16.99,0.0024789087,0.0041027423,-0.53155935,0.8470074,-586.47095,1167.411,8.531,-0.00010999999,0.00021,2.3842099
296.54166,2000,0,91.24,0.000002697398,0.000002697398,0.000002697398,0.99999994,0,0,0,0,0,0,1,1,0,0,0,false,false,true,-651.98,-651.33997,16.99,0.0024357506,0.0041297167,-0.5231166,0.8522476,-587.16095,1164.971,8.531,-0.00010999999,0.00010999999,2.3045099
296.55,2000,0,91.24,0.000002697398,0.000002697398,0.000002697398,0.99999994,0,0,0,0,0,0,1,1,0,0,0,false,false,true,-656.87,-641.63,16.99,0.0023979868,0.0041512954,-0.51491094,0.8572302,-588.071,1162.351,8.531,-0.00010999999,0,2.22701
296.55832,2000,0,91.24,0.000002697398,0.000002697398,0.000002697398,0.99999994,0,0,0,0,0,0,1,1,0,0,0,false,false,true,-661.76996,-631.94,16.99,0.0023602233,0.0041728746,-0.506932,0.86197263,-589.18097,1159.5409,8.531,-0.00010999999,0,2.15181
296.56668,2000,0,91.24,0.000002697398,0.000002697398,0.000002697398,0.99999994,0,0,0,0,0,0,1,1,0,0,0,false,false,true,-666.68,-622.27997,16.99,0.0023224594,0.0041944534,-0.49918503,0.86648196,-590.48096,1156.5409,8.531,-0.00010999999,0,2.07901
296.575,2000,0,91.24,0.000002697398,0.000002697398,0.000002697398,0.99999994,0,0,0,0,0,0,1,1,0,0,0,false,false,true,-671.6,-612.64,16.99,0.002284696,0.004216033,-0.4916593,0.8707744,-591.951,1153.351,8.531,-0.00010999999,0,2.00871
296.58334,2000,0,91.24,0.000002697398,0.000002697398,0.000002697398,0.99999994,0,0,0,0,0,0,1,1,0,0,0,false,false,true,-676.52997,-603.02997,16.99,0.0022469326,0.0042322176,-0.48435473,0.8748585,-593.561,1149.9609,8.531,-0.00010999999,0,1.94071
296.59167,2000,0,91.24,0.000002697398,0.000002697398,0.000002697398,0.99999994,0,0,0,0,0,0,1,1,0,0,0,false,false,true,-681.48,-593.45,16.99,0.0022145638,0.0042484016,-0.47726595,0.8787458,-595.29095,1146.381,8.531,0,0,1.87491
296.6,2000,0,91.24,0.000002697398,0.000002697398,0.000002697398,0.99999994,0,0,0,0,0,0,1,1,0,0,0,false,false,true,-686.44,-583.89996,16.99,0.002182195,0.004264586,-0.47038755,0.8824469,-597.121,1142.621,8.521,0,0,1.81111
296.60834,2000,0,91.24,0.000002697398,0.000002697398,0.000002697398,0.99999994,0,0,0,0,0,0,1,1,0,0,0,false,false,true,-691.42,-574.38,16.99,0.0021498261,0.0042807707,-0.46371418,0.88597184,-599.03094,1138.6809,8.521,0,0,1.74921
296.61667,2000,0,91.24,0.000002697398,0.000002697398,0.000002697398,0.99999994,0,0,0,0,0,0,1,1,0,0,0,false,false,true,-696.41,-564.89,16.99,0.0021174573,0.004296955,-0.4572458,0.8893274,-601.001,1134.5809,8.521,0,-0.00010999999,1.6891099
296.625,2000,0,91.24,0.000002697398,0.000002697398,0.000002697398,0.99999994,0,0,0,0,0,0,1,1,0,0,0,false,false,true,-701.42,-555.44,16.99,0.0020850885,0.0043131392,-0.45097703,0.89252263,-603.03094,1130.3209,8.521,0,-0.00010999999,1.63071
296.63333,2000,0,91.24,0.000002697398,0.000002697398,0.000002697398,0.99999994,0,0,0,0,0,0,1,1,0,0,0,false,false,true,-706.45,-546.01996,16.99,0.0020581146,0.004329324,-0.44490242,0.89556617,-605.09094,1125.901,8.521,0,-0.00021,1.57391
296.64166,2000,0,91.24,0.000002697398,0.000002697398,0.000002697398,0.99999994,0,0,0,0,0,0,1,1,0,0,0,false,false,true,-711.49,-536.64,16.99,0.0020311407,0.004340113,-0.4390221,0.8984634,-607.18097,1121.341,8.521,0,-0.00030999997,1.51871
296.65,2000,0,91.24,0.000002697398,0.000002697398,0.000002697398,0.99999994,0,0,0,0,0,0,1,1,0,0,0,false,false,true,-716.55,-527.3,16.99,0.0020041666,0.004350903,-0.43333057,0.9012222,-609.29095,1116.641,8.521,0,-0.00030999997,1.46491
296.65833,2000,0,91.24,0.000002697398,0.000002697398,0.000002697398,0.99999994,0,0,0,0,0,0,1,1,0,0,0,false,false,true,-721.63,-517.99,16.99,0.001977193,0.004361693,-0.42782244,0.9038501,-611.41095,1111.8109,8.521,0,-0.00030999997,1.41251
296.66666,2000,0,91.24,0.000002697398,0.000002697398,0.000002697398,0.99999994,0,0,0,0,0,0,1,1,0,0,0,false,false,true,-726.73,-508.72,16.99,0.0019502189,0.0043724827,-0.42249778,0.90635127,-613.53094,1106.861,8.521,0,-0.00030999997,1.36151
296.675,2000,0,91.24,0.000002697398,0.000002697398,0.000002697398,0.99999994,0,0,0,0,0,0,1,1,0,0,0,false,false,true,-731.83997,-499.5,16.99,0.0019286396,0.0043832716,-0.41735113,0.90873265,-615.641,1101.7909,8.521,0.00010999999,-0.00030999997,1.31171
296.68332,2000,0,91.24,0.000002697398,0.000002697398,0.000002697398,0.99999994,0,0,0,0,0,0,1,1,0,0,0,false,false,true,-736.97,-490.31998,16.99,0.0019070605,0.0043940614,-0.41237712,0.91100055,-617.73096,1096.611,8.521,0.00010999999,-0.00030999997,1.2631099
296.69168,2000,0,91.24,0.000002697398,0.000002697398,0.000002697398,0.99999994,0,0,0,0,0,0,1,1,0,0,0,false,false,true,-742.12,-481.18,16.99,0.0018854814,0.0044048512,-0.40757573,0.91315883,-619.80096,1091.3309,8.521,0.00010999999,-0.00030999997,1.2157099
296.7,2000,0,91.24,0.000002697398,0.000002697398,0.000002697398,0.99999994,0,0,0,0,0,0,1,1,0,0,0,false,false,true,-747.27997,-472.09,16.99,0.0018639019,0.00441564,-0.4029469,0.91521066,-621.85095,1085.9509,8.521,0.00010999999,-0.00030999997,1.16941
296.70834,2000,0,91.24,0.000002697398,0.000002697398,0.000002697398,0.99999994,0,0,0,0,0,0,1,1,0,0,0,false,false,true,-752.45996,-463.03998,16.99,0.0018423229,0.0044210353,-0.39848003,0.91716444,-623.871,1080.481,8.521,0.00010999999,-0.00030999997,1.12421
296.71667,2000,0,91.24,0.000002697398,0.000002697398,0.000002697398,0.99999994,0,0,0,0,0,0,1,1,0,0,0,false,false,true,-757.66,-454.03998,16.99,0.0018207438,0.0044264304,-0.39418042,0.9190206,-625.85095,1074.9309,8.521,0.00010999999,-0.00030999997,1.0800099
296.725,2000,0,91.24,0.000002697398,0.000002697398,0.000002697398,0.99999994,0,0,0,0,0,0,1,1,0,0,0,false,false,true,-762.88,-445.08,16.99,0.0017991646,0.0044318247,-0.39004257,0.92078435,-627.79095,1069.3009,8.521,0.00010999999,-0.00030999997,1.03681
296.73334,2000,0,91.24,0.000002697398,0.000002697398,0.000002697398,0.99999994,0,0,0,0,0,0,1,1,0,0,0,false,false,true,-768.11,-436.16998,16.99,0.0017829802,0.00443722,-0.38606116,0.92246073,-629.691,1063.601,8.521,0.00021,-0.00030999997,0.99451
296.74167,2000,0,91.24,0.000002697398,0.000002697398,0.000002697398,0.99999994,0,0,0,0,0,0,1,1,0,0,0,false,false,true,-773.36,-427.31,16.99,0.0017667958,0.0044426145,-0.3822362,0.92405224,-631.55096,1057.841,8.521,0.00021,-0.00021,0.95311
296.75,2000,0,91.24,0.000002697398,0.000002697398,0.000002697398,0.99999994,0,0,0,0,0,0,1,1,0,0,0,false,false,true,-778.62,-418.49,16.99,0.0017506114,0.004448009,-0.37856236,0.9255634,-633.36096,1052.021,8.521,0.00021,-0.00021,0.91261
296.75833,2000,0,91.24,0.000002697398,0.000002697398,0.000002697398,0.99999994,0,0,0,0,0,0,1,1,0,0,0,false,false,true,-783.89996,-409.72,16.99,0.001734427,0.004453404,-0.37503958,0.9269964,-635.121,1046.141,8.521,0.00021,-0.00021,0.87290996
296.76666,2000,0,91.24,0.000002697398,0.000002697398,0.000002697398,0.99999994,0,0,0,0,0,0,1,1,0,0,0,false,false,true,-789.19,-401,16.99,0.0017182427,0.0044587995,-0.37166783,0.9283534,-636.83093,1040.221,8.521,0.00021,-0.00010999999,0.83401
296.775,2000,0,91.24,0.000002697398,0.000002697398,0.000002697398,0.99999994,0,0,0,0,0,0,1,1,0,0,0,false,false,true,-794.5,-392.33,16.99,0.0017020581,0.0044641937,-0.36844173,0.9296385,-638.49097,1034.251,8.521,0.00021,-0.00010999999,0.79591
296.78333,2000,0,91.24,0.000002697398,0.000002697398,0.000002697398,0.99999994,0,0,0,0,0,0,1,1,0,0,0,false,false,true,-799.82,-383.71,16.99,0.0016858738,0.0044695884,-0.36535585,0.93085563,-640.10095,1028.241,8.521,0.00021,-0.00010999999,0.75861
296.79166,2000,0,91.24,0.000002697398,0.000002697398,0.000002697398,0.99999994,0,0,0,0,0,0,1,1,0,0,0,false,false,true,-805.14996,-375.13998,16.99,0.0016750843,0.0044749836,-0.36241034,0.93200636,-641.66095,1022.2009,8.521,0.00030999997,-0.00010999999,0.72201
296.8,2000,0,91.24,0.000002697398,0.000002697398,0.000002697398,0.99999994,0,0,0,0,0,0,1,1,0,0,0,false,false,true,-810.5,-366.62,16.99,0.0016642946,0.0044803782,-0.35960495,0.93309236,-643.16095,1016.131,8.521,0.00030999997,-0.00010999999,0.68611
296.80832,2000,0,91.24,0.000002697398,0.000002697398,0.000002697398,0.99999994,0,0,0,0,0,0,1,1,0,0,0,false,false,true,-815.86,-358.15,16.99,0.0016535051,0.0044857734,-0.35693458,0.93411714,-644.61096,1010.03094,8.521,0.00030999997,-0.00010999999,0.65081
296.81668,2000,0,91.24,0.000002697398,0.000002697398,0.000002697398,0.99999994,0,0,0,0,0,0,1,1,0,0,0,false,false,true,-821.23,-349.72998,16.99,0.0016427154,0.0044911676,-0.354399,0.935082,-646.011,1003.91095,8.521,0.00030999997,-0.00010999999,0.61611
296.825,2000,0,91.24,0.000002697398,0.000002697398,0.000002697398,0.99999994,0,0,0,0,0,0,1,1,0,0,0,false,false,true,-826.61,-341.36,16.99,0.0016319258,0.0044965623,-0.3519983,0.93598837,-647.35095,997.77094,8.521,0.00021,-0.00010999999,0.58201
296.83334,2000,0,91.24,0.000002697398,0.000002697398,0.000002697398,0.99999994,0,0,0,0,0,0,1,1,0,0,0,false,false,true,-832,-333.05,16.99,0.0016211362,0.0045019574,-0.3497271,0.93683934,-648.641,991.621,8.521,0.00021,-0.00010999999,0.54851
296.84167,2000,0,91.24,0.000002697398,0.000002697398,0.000002697398,0.99999994,0,0,0,0,0,0,1,1,0,0,0,false,false,true,-837.41,-324.78998,16.99,0.0016103466,0.004507352,-0.34758532,0.9376361,-649.871,985.46094,8.521,0.00021,-0.00010999999,0.51561
296.85,2000,0,91.24,0.000002697398,0.000002697398,0.000002697398,0.99999994,0,0,0,0,0,0,1,1,0,0,0,false,false,true,-842.82996,-316.58,16.99,0.001599557,0.004512747,-0.34556767,0.93838155,-651.05096,979.29095,8.521,0.00021,-0.00021,0.48321
296.85834,2000,0,91.24,0.000002697398,0.000002697398,0.000002697398,0.99999994,0,0,0,0,0,0,1,1,0,0,0,false,false,true,-848.26,-308.41998,16.99,0.0015941623,0.004518142,-0.34367952,0.93907475,-652.18097,973.121,8.521,0.00021,-0.00021,0.45131
296.86667,2000,0,91.24,0.000002697398,0.000002697398,0.000002697398,0.99999994,0,0,0,0,0,0,1,1,0,0,0,false,false,true,-853.69,-300.31,16.99,0.0015887675,0.0045181415,-0.3419154,0.9397185,-653.251,966.9509,8.521,0.00010999999,-0.00030999997,0.41991
296.875,2000,0,91.24,0.000002697398,0.000002697398,0.000002697398,0.99999994,0,0,0,0,0,0,1,1,0,0,0,false,false,true,-859.13,-292.25,16.99,0.0015833727,0.0045181415,-0.34026998,0.94031554,-654.27094,960.78094,8.521,0.00010999999,-0.00030999997,0.38901
296.88333,2000,0,91.24,0.000002697398,0.000002697398,0.000002697398,0.99999994,0,0,0,0,0,0,1,1,0,0,0,false,false,true,-864.57996,-284.24,16.99,0.0015779778,0.004518141,-0.3387432,0.94086653,-655.24097,954.621,8.521,0.00010999999,-0.00030999997,0.35861
296.89166,2000,0,91.24,0.000002697398,0.000002697398,0.000002697398,0.99999994,0,0,0,0,0,0,1,1,0,0,0,false,false,true,-870.04,-276.28,16.99,0.0015725831,0.0045181415,-0.3373352,0.9413724,-656.16095,948.47095,8.521,0.00010999999,-0.00021,0.32861
296.9,2000,0,91.24,0.000002697398,0.000002697398,0.000002697398,0.99999994,0,0,0,0,0,0,1,1,0,0,0,false,false,true,-875.51,-268.38,16.99,0.0015671883,0.0045181415,-0.3360458,0.94183344,-657.03094,942.33093,8.521,0.00010999999,-0.00010999999,0.29901
296.90833,2000,0,91.24,0.000002697398,0.000002697398,0.000002697398,0.99999994,0,0,0,0,0,0,1,1,0,0,0,false,false,true,-880.99,-260.53,16.99,0.0015617934,0.004518141,-0.3348697,0.94225216,-657.85095,936.21094,8.521,0.00010999999,-0.00010999999,0.26981002
296.91666,2000,0,91.24,0.000002697398,0.000002697398,0.000002697398,0.99999994,0,0,0,0,0,0,1,1,0,0,0,false,false,true,-886.47,-252.73,16.99,0.0015563987,0.0045181415,-0.33381236,0.9426274,-658.621,930.10095,8.521,0.00010999999,-0.00010999999,0.24101
296.925,2000,0,91.24,0.000002697398,0.000002697398,0.000002697398,0.99999994,0,0,0,0,0,0,1,1,0,0,0,false,false,true,-891.95996,-244.98,16.99,0.0015510038,0.004518141,-0.33286285,0.942963,-659.34094,924.011,8.521,0.00010999999,0,0.21260999
296.93332,2000,0,91.24,0.000002697398,0.000002697398,0.000002697398,0.99999994,0,0,0,0,0,0,1,1,0,0,0,false,false,true,-897.44995,-237.28,16.99,0.0015456092,0.004518142,-0.33202672,0.94325787,-660.011,917.9509,8.521,0.00010999999,0,0.18461
296.94168,2000,0,91.24,0.000002697398,0.000002697398,0.000002697398,0.99999994,0,0,0,0,0,0,1,1,0,0,0,false,false,true,-902.94995,-229.62999,16.99,0.0015402142,0.004518141,-0.33129835,0.9435138,-660.631,911.91095,8.521,0.00010999999,0,0.15690999
296.95,2000,0,91.24,0.000002697398,0.000002697398,0.000002697398,0.99999994,0,0,0,0,0,0,1,1,0,0,0,false,false,true,-908.45996,-222.03,16.99,0.0015402143,0.0045181415,-0.33068338,0.94372964,-661.21094,905.90094,8.521,0.00010999999,0,0.12951
296.95834,2000,0,91.24,0.000002697398,0.000002697398,0.000002697398,0.99999994,0,0,0,0,0,0,1,1,0,0,0,false,false,true,-913.97,-214.48,16.99,0.0015402143,0.0045181415,-0.33017626,0.94390714,-661.74097,899.92096,8.521,0.00010999999,0,0.102409996
296.96667,2000,0,91.24,0.000002697398,0.000002697398,0.000002697398,0.99999994,0,0,0,0,0,0,1,1,0,0,0,false,false,true,-919.48,-206.98,16.99,0.0015402143,0.0045181415,-0.32977167,0.9440486,-662.23096,893.97095,8.521,0.00010999999,0,0.07561
296.975,2000,0,91.24,0.000002697398,0.000002697398,0.000002697398,0.99999994,0,0,0,0,0,0,1,1,0,0,0,false,false,true,-925,-199.53,16.99,0.0015402143,0.0045181415,-0.32947496,0.9441522,-662.68097,888.05096,8.521,0.00010999999,0,0.04911
296.98334,2000,0,91.24,0.000002697398,0.000002697398,0.000002697398,0.99999994,0,0,0,0,0,0,1,1,0,0,0,false,false,true,-930.51996,-192.12999,16.99,0.0015402143,0.0045181415,-0.32928073,0.94421995,-663.08093,882.17096,8.521,0.00010999999,0,0.02291
296.99167,2000,0,91.24,0.000002697398,0.000002697398,0.000002697398,0.99999994,0,0,0,0,0,0,1,1,0,0,0,false,false,true,-936.05,-184.78,16.99,0.0015402142,0.004518141,-0.329189,0.94425184,-663.441,876.33093,8.521,0.00010999999,0,-0.00291
297,2000,0,91.24,0.000002697398,0.000002697398,0.000002697398,0.99999994,0,0,0,0,0,0,1,1,0,0,0,false,false,true,-941.57996,-177.48,16.99,0.0015402143,0.0045181415,-0.32919982,0.94424814,-663.761,870.53094,8.521,0.00010999999,0,-0.02851
297.00833,2000,0,91.24,0.000002697398,0.000002697398,0.000002697398,0.99999994,0,0,0,0,0,0,1,1,0,0,0,false,false,true,-947.11,-170.23,16.99,0.0015402142,0.004518141,-0.32931307,0.94420856,-664.04095,864.77094,8.521,0.00010999999,0,-0.05391
297.01666,2000,0,91.24,0.000002697398,0.000002697398,0.000002697398,0.99999994,0,0,0,0,0,0,1,1,0,0,0,false,false,true,-952.63995,-163.01999,16.99,0.0015402143,0.0045181415,-0.3295235,0.94413525,-664.28094,859.061,8.521,0.00010999999,0,-0.079009995
297.025,2000,0,91.24,0.000002697398,0.000002697398,0.000002697398,0.99999994,0,0,0,0,0,0,1,1,0,0,0,false,false,true,-958.18,-155.86,16.99,0.0015402143,0.0045181415,-0.3298364,0.944026,-664.48096,853.3909,8.521,0.00010999999,0,-0.10391
297.03333,2000,0,91.24,0.000002697398,0.000002697398,0.000002697398,0.99999994,0,0,0,0,0,0,1,1,0,0,0,false,false,true,-963.72,-148.75,16.99,0.0015402143,0.0045181415,-0.3302464,0.94388264,-664.641,847.77094,8.521,0.00010999999,0,-0.12861
297.04166,2000,0,91.24,0.000002697398,0.000002697398,0.000002697398,0.99999994,0,0,0,0,0,0,1,1,0,0,0,false,false,true,-969.25995,-141.69,16.99,0.001545609,0.004518141,-0.33075348,0.94370496,-664.761,842.2009,8.521,0.00010999999,0,-0.15311
297.05,2000,0,91.24,0.000002697398,0.000002697398,0.000002697398,0.99999994,0,0,0,0,0,0,1,1,0,0,0,false,false,true,-974.8,-134.67,16.99,0.0015510039,0.0045181415,-0.33135772,0.94349307,-664.84094,836.68097,8.521,0.00010999999,0,-0.17740999
297.05832,2000,0,91.24,0.000002697398,0.000002697398,0.000002697398,0.99999994,0,0,0,0,0,0,1,1,0,0,0,false,false,true,-980.33997,-127.7,16.99,0.0015563987,0.0045181415,-0.33205366,0.94324833,-664.881,831.21094,8.521,0.00010999999,0,-0.20151
297.06668,2000,0,91.24,0.000002697398,0.000002697398,0.000002697398,0.99999994,0,0,0,0,0,0,1,1,0,0,0,false,false,true,-985.88,-120.77,16.99,0.0015617935,0.0045181415,-0.3328467,0.9429688,-664.891,825.79095,8.521,0.00010999999,0,-0.22550999
297.075,2000,0,91.24,0.000002697398,0.000002697398,0.000002697398,0.99999994,0,0,0,0,0,0,1,1,0,0,0,false,false,true,-991.42,-113.89,16.99,0.0015671882,0.004518141,-0.3337314,0.9426559,-664.86096,820.43097,8.521,0,0,-0.24930999
297.08334,2000,0,91.24,0.000002697398,0.000002697398,0.000002697398,0.99999994,0,0,0,0,0,0,1,1,0,0,0,false,false,true,-996.95996,-107.049995,16.99,0.0015725831,0.0045181415,-0.3347079,0.94230974,-664.79095,815.131,8.521,0,0,-0.27291
297.09167,2000,0,91.24,0.000002697398,0.000002697398,0.000002697398,0.99999994,0,0,0,0,0,0,1,1,0,0,0,false,false,true,-1002.5,-100.259995,16.99,0.001577978,0.004518142,-0.33578148,0.94192773,-664.691,809.881,8.521,0,0,-0.29641
297.1,2000,0,91.24,0.000002697398,0.000002697398,0.000002697398,0.99999994,0,0,0,0,0,0,1,1,0,0,0,false,false,true,-1008.04,-93.509995,16.99,0.0015833728,0.004518142,-0.33694676,0.9415115,-664.55096,804.691,8.521,0,0,-0.31971002
297.10834,2000,0,91.24,0.000002697398,0.000002697398,0.000002697398,0.99999994,0,0,0,0,0,0,1,1,0,0,0,false,false,true,-1013.57996,-86.799995,16.99,0.0015887675,0.0045181415,-0.33819836,0.9410626,-664.381,799.571,8.521,0,0,-0.34291
297.11667,2000,0,91.24,0.000002697398,0.000002697398,0.000002697398,0.99999994,0,0,0,0,0,0,1,1,0,0,0,false,false,true,-1019.12,-80.14,16.99,0.0015941622,0.0045181415,-0.33954167,0.94057876,-664.17096,794.511,8.521,0,-0.00010999999,-0.36601
297.125,2000,0,91.24,0.000002697398,0.000002697398,0.000002697398,0.99999994,0,0,0,0,0,0,1,1,0,0,0,false,false,true,-1024.65,-73.52,16.99,0.001599557,0.004512747,-0.3409767,0.9400595,-663.92096,789.511,8.521,0,-0.00021,-0.38891
297.13333,2000,0,91.24,0.000002697398,0.000002697398,0.000002697398,0.99999994,0,0,0,0,0,0,1,1,0,0,0,false,false,true,-1030.1799,-66.939995,16.99,0.0016049518,0.004507352,-0.34249803,0.9395063,-663.641,784.58093,8.521,0,-0.00021,-0.41171
297.14166,2000,0,91.24,0.000002697398,0.000002697398,0.000002697398,0.99999994,0,0,0,0,0,0,1,1,0,0,0,false,false,true,-1035.71,-60.399998,16.99,0.0016103466,0.0045019574,-0.34411106,0.9389167,-663.321,779.71094,8.521,0,-0.00021,-0.43441
297.15,2000,0,91.24,0.000002697398,0.000002697398,0.000002697398,0.99999994,0,0,0,0,0,0,1,1,0,0,0,false,false,true,-1041.24,-53.899998,16.99,0.0016211362,0.0044965623,-0.34581044,0.93829215,-662.96094,774.91095,8.521,0,-0.00010999999,-0.45701
297.15833,2000,0,91.24,0.000002697398,0.000002697398,0.000002697398,0.99999994,0,0,0,0,0,0,1,1,0,0,0,false,false,true,-1046.76,-47.44,16.99,0.0016319259,0.004491168,-0.34759614,0.93763214,-662.571,770.18097,8.521,0,-0.00010999999,-0.47951
297.16666,2000,0,91.24,0.000002697398,0.000002697398,0.000002697398,0.99999994,0,0,0,0,0,0,1,1,0,0,0,false,false,true,-1052.28,-41.02,16.99,0.0016427155,0.0044857734,-0.34946817,0.936936,-662.141,765.52094,8.521,0,0,-0.50181
297.175,2000,0,91.24,0.000002697398,0.000002697398,0.000002697398,0.99999994,0,0,0,0,0,0,1,1,0,0,0,false,false,true,-1057.7999,-34.64,16.99,0.001653505,0.0044803782,-0.35142645,0.93620324,-661.67096,760.93097,8.521,0,0,-0.52401
297.18332,2000,0,91.24,0.000002697398,0.000002697398,0.000002697398,0.99999994,0,0,0,0,0,0,1,1,0,0,0,false,false,true,-1063.3099,-28.3,16.99,0.0016642946,0.004474983,-0.35347107,0.9354332,-661.17096,756.41095,8.521,0,0,-0.54611
297.19168,2000,0,91.24,0.000002697398,0.000002697398,0.000002697398,0.99999994,0,0,0,0,0,0,1,1,0,0,0,false,false,true,-1068.82,-22,16.99,0.001675084,0.004469588,-0.3555966,0.9346272,-660.631,751.96094,8.521,0,0,-0.56821
297.2,2000,0,91.24,0.000002697398,0.000002697398,0.000002697398,0.99999994,0,0,0,0,0,0,1,1,0,0,0,false,false,true,-1074.33,-15.73,16.99,0.001685874,0.004464194,-0.35780853,0.93378276,-660.05096,747.59094,8.521,0,0,-0.59021
297.20834,2000,0,91.24,0.000002697398,0.000002697398,0.000002697398,0.99999994,0,0,0,0,0,0,1,1,0,0,0,false,false,true,-1079.83,-9.5,16.99,0.0016966634,0.004458799,-0.36010128,0.93290097,-659.43097,743.29095,8.521,0,0,-0.61211
297.21667,2000,0,91.24,0.000002697398,0.000002697398,0.000002697398,0.99999994,0,0,0,0,0,0,1,1,0,0,0,false,false,true,-1085.33,-3.31,16.99,0.001707453,0.0044534043,-0.36248046,0.9319791,-658.77094,739.071,8.521,0,0,-0.63391
297.225,2000,0,91.24,0.000002697398,0.000002697398,0.000002697398,0.99999994,0,0,0,0,0,0,1,1,0,0,0,false,false,true,-1090.82,2.85,16.99,0.0017182427,0.0044480097,-0.3649405,0.9310186,-658.071,734.93097,8.521,0,0,-0.65561
297.23334,2000,0,91.24,0.000002697398,0.000002697398,0.000002697398,0.99999994,0,0,0,0,0,0,1,1,0,0,0,false,false,true,-1096.2999,8.97,16.99,0.0017290319,0.004442614,-0.3674814,0.9300185,-657.33093,730.86096,8.521,0,0,-0.67721
297.24167,2000,0,91.24,0.000002697398,0.000002697398,0.000002697398,0.99999994,0,0,0,0,0,0,1,1,0,0,0,false,false,true,-1101.78,15.059999,16.99,0.0017398217,0.00443722,-0.37010333,0.9289783,-656.54095,726.871,8.521,0,0,-0.69871
297.25,2000,0,91.24,0.000002697398,0.000002697398,0.000002697398,0.99999994,0,0,0,0,0,0,1,1,0,0,0,false,false,true,-1107.25,21.119999,16.99,0.0017506115,0.004431825,-0.37280616,0.927897,-655.71094,722.96094,8.521,0.00010999999,0,-0.72021
297.25833,2000,0,91.24,0.000002697398,0.000002697398,0.000002697398,0.99999994,0,0,0,0,0,0,1,1,0,0,0,false,false,true,-1112.71,27.14,16.99,0.0017667958,0.00442643,-0.37558985,0.92677367,-654.83093,719.131,8.521,0.00010999999,0,-0.74161
297.26666,2000,0,91.24,0.000002697398,0.000002697398,0.000002697398,0.99999994,0,0,0,0,0,0,1,1,0,0,0,false,false,true,-1118.1699,33.13,16.99,0.0017829802,0.0044210353,-0.37844908,0.92560977,-653.91095,715.381,8.521,0.00010999999,0,-0.76291
297.275,2000,0,91.24,0.000002697398,0.000002697398,0.000002697398,0.99999994,0,0,0,0,0,0,1,1,0,0,0,false,false,true,-1123.62,39.09,16.99,0.0017991646,0.0044156406,-0.38138923,0.9244022,-652.941,711.71094,8.521,0.00010999999,0,-0.78411
297.28333,2000,0,91.24,0.000002697398,0.000002697398,0.000002697398,0.99999994,0,0,0,0,0,0,1,1,0,0,0,false,false,true,-1129.0599,45.02,16.99,0.001815349,0.004410246,-0.38440502,0.9231522,-651.92096,708.131,8.521,0.00010999999,0,-0.80521
297.29166,2000,0,91.24,0.000002697398,0.000002697398,0.000002697398,0.99999994,0,0,0,0,0,0,1,1,0,0,0,false,false,true,-1134.49,50.92,16.99,0.0018315334,0.0044048512,-0.38750163,0.92185664,-650.85095,704.631,8.521,0.00010999999,0,-0.82631
297.3,2000,0,91.24,0.000002697398,0.000002697398,0.000002697398,0.99999994,0,0,0,0,0,0,1,1,0,0,0,false,false,true,-1139.91,56.789997,16.99,0.0018477178,0.0043994565,-0.3906738,0.9205168,-649.73096,701.21094,8.521,0,0,-0.84731
297.30832,2000,0,91.24,0.000002697398,0.000002697398,0.000002697398,0.99999994,0,0,0,0,0,0,1,1,0,0,0,false,false,true,-1145.32,62.629997,16.99,0.0018639021,0.0043940614,-0.39392143,0.91913164,-648.561,697.871,8.521,0,0,-0.86821
297.31668,2000,0,91.24,0.000002697398,0.000002697398,0.000002697398,0.99999994,0,0,0,0,0,0,1,1,0,0,0,false,false,true,-1150.72,68.45,16.99,0.0018800865,0.0043886667,-0.39724463,0.9177003,-647.33093,694.621,8.521,0,0,-0.88901
297.325,2000,0,91.24,0.000002697398,0.000002697398,0.000002697398,0.99999994,0,0,0,0,0,0,1,1,0,0,0,false,false,true,-1156.11,74.24,16.99,0.0018962709,0.0043832716,-0.40064335,0.91622156,-646.04095,691.451,8.521,0,0,-0.90981
297.33334,2000,0,91.24,0.000002697398,0.000002697398,0.000002697398,0.99999994,0,0,0,0,0,0,1,1,0,0,0,false,false,true,-1161.49,80,16.99,0.0019124552,0.004377877,-0.40411222,0.9146969,-644.701,688.371,8.521,0,0,-0.93051
297.34167,2000,0,91.24,0.000002697398,0.000002697398,0.000002697398,0.99999994,0,0,0,0,0,0,1,1,0,0,0,false,false,true,-1166.86,85.74,16.99,0.0019286396,0.004372482,-0.40765664,0.9131227,-643.30096,685.371,8.521,0,0,-0.95111
297.35,2000,0,91.24,0.000002697398,0.000002697398,0.000002697398,0.99999994,0,0,0,0,0,0,1,1,0,0,0,false,false,true,-1172.22,91.45,16.99,0.001944824,0.0043670875,-0.41127115,0.91150045,-641.83093,682.46094,8.521,0,0,-0.97161
297.35834,2000,0,91.24,0.000002697398,0.000002697398,0.000002697398,0.99999994,0,0,0,0,0,0,1,1,0,0,0,false,false,true,-1177.57,97.14,16.99,0.0019610086,0.004361693,-0.41495585,0.90982896,-640.30096,679.631,8.521,0,0,-0.99211
297.36667,2000,0,91.24,0.000002697398,0.000002697398,0.000002697398,0.99999994,0,0,0,0,0,0,1,1,0,0,0,false,false,true,-1182.91,102.799995,16.99,0.0019771927,0.004350903,-0.41871062,0.90810704,-638.701,676.881,8.521,0,0,-1.01251
297.375,2000,0,91.24,0.000002697398,0.000002697398,0.000002697398,0.99999994,0,0,0,0,0,0,1,1,0,0,0,false,false,true,-1188.23,108.439995,16.99,0.001993377,0.004340113,-0.4225355,0.9063337,-637.02094,674.201,8.521,0,0,-1.03271
297.38333,2000,0,91.24,0.000002697398,0.000002697398,0.000002697398,0.99999994,0,0,0,0,0,0,1,1,0,0,0,false,false,true,-1193.5399,114.06,16.99,0.0020095615,0.004329324,-0.42643055,0.90450764,-635.261,671.58093,8.521,0,0,-1.05281
297.39166,2000,0,91.24,0.000002697398,0.000002697398,0.000002697398,0.99999994,0,0,0,0,0,0,1,1,0,0,0,false,false,true,-1198.83,119.659996,16.99,0.0020311407,0.004318534,-0.43039578,0.9026276,-633.43097,669.03094,8.521,0,0,-1.07271
297.4,2000,0,91.24,0.000002697398,0.000002697398,0.000002697398,0.99999994,0,0,0,0,0,0,1,1,0,0,0,false,false,true,-1204.11,125.24,16.99,0.0020527202,0.004307745,-0.43442577,0.90069497,-631.52094,666.54095,8.521,0,0,-1.09231
297.40833,2000,0,91.24,0.000002697398,0.000002697398,0.000002697398,0.99999994,0,0,0,0,0,0,1,1,0,0,0,false,false,true,-1209.37,130.79,16.99,0.002074299,0.004296955,-0.4385204,0.89870846,-629.53094,664.11096,8.521,0,0,-1.11171
297.41666,2000,0,91.24,0.000002697398,0.000002697398,0.000002697398,0.99999994,0,0,0,0,0,0,1,1,0,0,0,false,false,true,-1214.62,136.31999,16.99,0.0020958781,0.0042861653,-0.44267976,0.896667,-627.46094,661.74097,8.521,0,0,-1.13071
