time,ball_loc_x,ball_loc_y,ball_loc_z,ball_rot_x,ball_rot_y,ball_rot_z,ball_rot_w,ball_vel_x,ball_vel_y,ball_vel_z,ball_ang_x,ball_ang_y,ball_ang_z,player0_throttle,player0_steer,player0_pitch,player0_yaw,player0_roll,player0_jump,player0_boost,player0_handbrake,player0_loc_x,player0_loc_y,player0_loc_z,player0_rot_x,player0_rot_y,player0_rot_z,player0_rot_w,player0_vel_x,player0_vel_y,player0_vel_z,player0_ang_x,player0_ang_y,player0_ang_z
46.641666,2000,0,91.24,0.000002697398,0.000002697398,0.000002697398,0.99999994,0,0,0,0,0,0,0.2992126,0,0,0,0,false,false,false,0,-4891.84,17.01,-0.0033582605,0.0033582605,0.707107,0.7070905,0,301.641,8.321,-0.00061,0,0
46.65,2000,0,91.24,0.000002697398,0.000002697398,0.000002697398,0.99999994,0,0,0,0,0,0,1,1,0,0,0,false,false,true,0,-4889.33,17.01,-0.0033582605,0.0033582605,0.707107,0.7070905,-10.4210005,308.181,8.351,-0.00030999997,0.00261,0.28071
46.658333,2000,0,91.24,0.000002697398,0.000002697398,0.000002697398,0.99999994,0,0,0,0,0,0,1,1,0,0,0,false,false,true,-0.089999996,-4886.76,17.01,-0.003352866,0.0033636556,0.70793146,0.70626515,-17.741,315.811,8.361,-0.00010999999,0.00341,0.47821
46.666668,2000,0,91.24,0.000002697398,0.000002697398,0.000002697398,0.99999994,0,0,0,0,0,0,1,1,0,0,0,false,false,true,-0.24,-4884.13,17.01,-0.003347471,0.00336905,0.7093387,0.7048517,-24.331,323.501,8.361,0,0.00361,0.65241
46.675,2000,0,91.24,0.000002697398,0.000002697398,0.000002697398,0.99999994,0,0,0,0,0,0,1,1,0,0,0,false,false,true,-0.44,-4881.4297,17.01,-0.003347471,0.00336905,0.7112526,0.7029203,-30.341,331.191,8.361,0,0.00341,0.80540997
46.683334,2000,0,91.24,0.000002697398,0.000002697398,0.000002697398,0.99999994,0,0,0,0,0,0,1,1,0,0,0,false,false,true,-0.69,-4878.67,17.01,-0.003347471,0.00336905,0.7136066,0.70053047,-35.900997,338.831,8.351,0,0.00301,0.93951
46.691666,2000,0,91.24,0.000002697398,0.000002697398,0.000002697398,0.99999994,0,0,0,0,0,0,1,1,0,0,0,false,false,true,-0.98999995,-4875.85,17.01,-0.003352866,0.0033636556,0.7163445,0.6977306,-41.121,346.381,8.351,0,0.00241,1.05691
46.7,2000,0,91.24,0.000002697398,0.000002697398,0.000002697398,0.99999994,0,0,0,0,0,0,1,1,0,0,0,false,false,true,-1.3299999,-4872.96,17.01,-0.0033582605,0.0033582605,0.7194102,0.6945691,-46.080997,353.801,8.341001,0,0.0018099999,1.15981
46.708332,2000,0,91.24,0.000002697398,0.000002697398,0.000002697398,0.99999994,0,0,0,0,0,0,1,1,0,0,0,false,false,true,-1.7099999,-4870.01,17.01,-0.00336905,0.003347471,0.72275865,0.6910841,-50.861,361.061,8.341001,0,0.0012099999,1.2502099
46.716667,2000,0,91.24,0.000002697398,0.000002697398,0.000002697398,0.99999994,0,0,0,0,0,0,1,1,0,0,0,false,false,true,-2.1299999,-4867,17.01,-0.0033852346,0.0033312866,0.7263508,0.6873077,-55.521,368.151,8.341001,0,0.00071,1.33021
46.725,2000,0,91.24,0.000002697398,0.000002697398,0.000002697398,0.99999994,0,0,0,0,0,0,1,1,0,0,0,false,false,true,-2.59,-4863.9297,17.01,-0.003401419,0.0033151023,0.730148,0.6832724,-60.091,375.031,8.341001,0,0.00030999997,1.4011099
46.733334,2000,0,91.24,0.000002697398,0.000002697398,0.000002697398,0.99999994,0,0,0,0,0,0,1,1,0,0,0,false,false,true,-3.09,-4860.8,17.01,-0.0034176034,0.003293523,0.73412305,0.6789997,-64.611,381.701,8.331,0,0,1.46441
46.741665,2000,0,91.24,0.000002697398,0.000002697398,0.000002697398,0.99999994,0,0,0,0,0,0,1,1,0,0,0,false,false,true,-3.6299999,-4857.62,17.01,-0.0034391826,0.003271944,0.7382541,0.6745059,-69.101,388.141,8.331,-0.00010999999,-0.00021,1.52121
46.75,2000,0,91.24,0.000002697398,0.000002697398,0.000002697398,0.99999994,0,0,0,0,0,0,1,1,0,0,0,false,false,true,-4.21,-4854.3896,17.01,-0.0034607616,0.0032503647,0.74251515,0.6698123,-73.571,394.341,8.331,-0.00010999999,-0.00040999998,1.57251
46.758335,2000,0,91.24,0.000002697398,0.000002697398,0.000002697398,0.99999994,0,0,0,0,0,0,1,1,0,0,0,false,false,true,-4.8199997,-4851.1,17.01,-0.0034823408,0.0032287855,0.7468904,0.66493005,-78.020996,400.301,8.331,-0.00010999999,-0.00061,1.61921
46.766666,2000,0,91.24,0.000002697398,0.000002697398,0.000002697398,0.99999994,0,0,0,0,0,0,1,1,0,0,0,false,false,true,-5.47,-4847.76,17.01,-0.00350392,0.0032018116,0.75136024,0.6598751,-82.440994,406.031,8.331,-0.00010999999,-0.00071,1.6619099
46.775,2000,0,91.24,0.000002697398,0.000002697398,0.000002697398,0.99999994,0,0,0,0,0,0,1,1,0,0,0,false,false,true,-6.16,-4844.38,17.01,-0.0035308942,0.0031748374,0.7559099,0.6546583,-86.831,411.521,8.331,-0.00010999999,-0.00081,1.7013099
46.783333,2000,0,91.24,0.000002697398,0.000002697398,0.000002697398,0.99999994,0,0,0,0,0,0,1,1,0,0,0,false,false,true,-6.8799996,-4840.9497,17.01,-0.003557868,0.0031478636,0.76053023,0.649285,-91.160995,416.781,8.331,-0.00010999999,-0.00091,1.73781
46.791668,2000,0,91.24,0.000002697398,0.000002697398,0.000002697398,0.99999994,0,0,0,0,0,0,1,1,0,0,0,false,false,true,-7.64,-4837.48,17.01,-0.003584842,0.0031208897,0.765212,0.64376074,-95.421,421.831,8.331,-0.00010999999,-0.00091,1.7718099
46.8,2000,0,91.24,0.000002697398,0.000002697398,0.000002697398,0.99999994,0,0,0,0,0,0,1,1,0,0,0,false,false,true,-8.44,-4833.96,17.01,-0.0036118163,0.0030939158,0.76994187,0.6380963,-99.58099,426.671,8.331,-0.00010999999,-0.00091,1.80371
46.808334,2000,0,91.24,0.000002697398,0.000002697398,0.000002697398,0.99999994,0,0,0,0,0,0,1,1,0,0,0,false,false,true,-9.2699995,-4830.4,17.01,-0.00363879,0.0030669416,0.7747159,0.63229144,-103.611,431.32098,8.331,-0.00010999999,-0.00091,1.83371
46.816666,2000,0,91.24,0.000002697398,0.000002697398,0.000002697398,0.99999994,0,0,0,0,0,0,1,1,0,0,0,false,false,true,-10.13,-4826.81,17.01,-0.003665764,0.0030345728,0.77952605,0.62635165,-107.480995,435.801,8.331,0,-0.00091,1.86211
46.825,2000,0,91.24,0.000002697398,0.000002697398,0.000002697398,0.99999994,0,0,0,0,0,0,1,1,0,0,0,false,false,true,-11.03,-4823.1797,17.01,-0.003692738,0.003002204,0.7843639,0.62028253,-111.15099,440.141,8.321,0,-0.00091,1.88911
46.833332,2000,0,91.24,0.000002697398,0.000002697398,0.000002697398,0.99999994,0,0,0,0,0,0,1,1,0,0,0,false,false,true,-11.96,-4819.51,17.01,-0.003719712,0.0029698352,0.7892221,0.6140893,-114.58099,444.361,8.321,0,-0.00081,1.91481
46.841667,2000,0,91.24,0.000002697398,0.000002697398,0.000002697398,0.99999994,0,0,0,0,0,0,1,1,0,0,0,false,false,true,-12.91,-4815.81,17.01,-0.003746686,0.0029374664,0.7940972,0.607772,-117.730995,448.501,8.321,0,-0.00071,1.93931
46.85,2000,0,91.24,0.000002697398,0.000002697398,0.000002697398,0.99999994,0,0,0,0,0,0,1,1,0,0,0,false,false,true,-13.889999,-4812.07,17.01,-0.00377366,0.0029050978,0.798982,0.6013359,-121.020996,452.561,8.321,0,-0.00061,1.96371
46.858334,2000,0,91.24,0.000002697398,0.000002697398,0.000002697398,0.99999994,0,0,0,0,0,0,1,1,0,0,0,false,false,true,-14.9,-4808.3,17.01,-0.0038006334,0.0028727287,0.80387735,0.5947758,-124.461,456.541,8.321,0,-0.00051,1.9880099
46.866665,2000,0,91.24,0.000002697398,0.000002697398,0.000002697398,0.99999994,0,0,0,0,0,0,1,1,0,0,0,false,false,true,-15.94,-4804.4897,17.01,-0.003827608,0.0028403602,0.8087762,0.5880971,-128.041,460.441,8.321,0,-0.00051,2.01221
46.875,2000,0,91.24,0.000002697398,0.000002697398,0.000002697398,0.99999994,0,0,0,0,0,0,1,1,0,0,0,false,false,true,-17.01,-4800.65,17.01,-0.0038545814,0.002807991,0.8136794,0.5812941,-131.77101,464.251,8.321,0,-0.00040999998,2.03631
46.883335,2000,0,91.24,0.000002697398,0.000002697398,0.000002697398,0.99999994,0,0,0,0,0,0,1,1,0,0,0,false,false,true,-18.109999,-4796.78,17.01,-0.0038815553,0.0027756223,0.8185837,0.57436717,-135.641,467.971,8.321,0,-0.00030999997,2.06031
46.891666,2000,0,91.24,0.000002697398,0.000002697398,0.000002697398,0.99999994,0,0,0,0,0,0,1,1,0,0,0,false,false,true,-19.24,-4792.88,17.01,-0.0039085294,0.0027432537,0.8234861,0.56731623,-139.651,471.591,8.321,0,-0.00030999997,2.08411
46.9,2000,0,91.24,0.000002697398,0.000002697398,0.000002697398,0.99999994,0,0,0,0,0,0,1,1,0,0,0,false,false,true,-20.4,-4788.9497,17.01,-0.003935504,0.002710885,0.8283797,0.56014645,-143.80101,475.10098,8.321,0,-0.00021,2.10781
46.908333,2000,0,91.24,0.000002697398,0.000002697398,0.000002697398,0.99999994,0,0,0,0,0,0,1,1,0,0,0,false,false,true,-21.6,-4784.9897,17.01,-0.0039624777,0.0026731214,0.83326876,0.5528473,-148.08101,478.511,8.321,0.00010999999,-0.00021,2.13141
46.916668,2000,0,91.24,0.000002697398,0.000002697398,0.000002697398,0.99999994,0,0,0,0,0,0,1,1,0,0,0,false,false,true,-22.83,-4781,17.01,-0.0039840564,0.0026353577,0.83814645,0.545424,-152.501,481.801,8.321,0.00010999999,-0.00010999999,2.1549098
46.925,2000,0,91.24,0.000002697398,0.000002697398,0.000002697398,0.99999994,0,0,0,0,0,0,1,1,0,0,0,false,false,true,-24.1,-4776.98,17.01,-0.0040056366,0.0025975946,0.84300995,0.5378767,-157.05101,484.981,8.321,0.00010999999,-0.00010999999,2.17831
46.933334,2000,0,91.24,0.000002697398,0.000002697398,0.000002697398,0.99999994,0,0,0,0,0,0,1,1,0,0,0,false,false,true,-25.41,-4772.94,17.01,-0.0040272153,0.0025598307,0.8478558,0.53020525,-161.731,488.041,8.321,0.00010999999,-0.00010999999,2.2016098
46.941666,2000,0,91.24,0.000002697398,0.000002697398,0.000002697398,0.99999994,0,0,0,0,0,0,1,1,0,0,0,false,false,true,-26.76,-4768.87,17.01,-0.0040487945,0.0025220672,0.85268444,0.5224044,-166.541,490.971,8.321,0,-0.00010999999,2.22481
46.95,2000,0,91.24,0.000002697398,0.000002697398,0.000002697398,0.99999994,0,0,0,0,0,0,1,1,0,0,0,false,false,true,-28.15,-4764.78,17.01,-0.0040703737,0.0024843037,0.8574894,0.51447934,-171.481,493.771,8.321,0,-0.00010999999,2.24791
46.958332,2000,0,91.24,0.000002697398,0.000002697398,0.000002697398,0.99999994,0,0,0,0,0,0,1,1,0,0,0,false,false,true,-29.58,-4760.6597,17.01,-0.0040919525,0.00244654,0.86227083,0.5064249,-176.541,496.441,8.321,0,-0.00010999999,2.27091
46.966667,2000,0,91.24,0.000002697398,0.000002697398,0.000002697398,0.99999994,0,0,0,0,0,0,1,1,0,0,0,false,false,true,-31.05,-4756.52,17.01,-0.0041135317,0.0024087764,0.8670254,0.49824104,-181.72101,498.971,8.321,0,-0.00010999999,2.29371
46.975,2000,0,91.24,0.000002697398,0.000002697398,0.000002697398,0.99999994,0,0,0,0,0,0,1,1,0,0,0,false,false,true,-32.559998,-4752.36,17.01,-0.004135111,0.002371013,0.871747,0.48993295,-187.011,501.361,8.321,0,-0.00010999999,2.31641
46.983334,2000,0,91.24,0.000002697398,0.000002697398,0.000002697398,0.99999994,0,0,0,0,0,0,1,1,0,0,0,false,false,true,-34.12,-4748.1797,17.01,-0.0041566906,0.0023332494,0.8764356,0.48149553,-192.421,503.60098,8.321,0,-0.00010999999,2.33901
46.991665,2000,0,91.24,0.000002697398,0.000002697398,0.000002697398,0.99999994,0,0,0,0,0,0,1,1,0,0,0,false,false,true,-35.719997,-4743.98,17.01,-0.0041782693,0.0022900908,0.88108784,0.4729285,-197.94101,505.691,8.321,0,-0.00021,2.36151
47,2000,0,91.24,0.000002697398,0.000002697398,0.000002697398,0.99999994,0,0,0,0,0,0,1,1,0,0,0,false,false,true,-37.37,-4739.77,17.01,-0.004199848,0.0022469324,0.8856978,0.46423742,-203.571,507.63098,8.321,0,-0.00021,2.38391
47.008335,2000,0,91.24,0.000002697398,0.000002697398,0.000002697398,0.99999994,0,0,0,0,0,0,1,1,0,0,0,false,false,true,-39.07,-4735.54,17.01,-0.0042214277,0.0022037742,0.89026546,0.45541698,-209.301,509.411,8.321,0,-0.00021,2.40621
47.016666,2000,0,91.24,0.000002697398,0.000002697398,0.000002697398,0.99999994,0,0,0,0,0,0,1,1,0,0,0,false,false,true,-40.809998,-4731.29,17.01,-0.004243007,0.0021606158,0.89478743,0.44646692,-215.131,511.031,8.321,0,-0.00021,2.42841
47.025,2000,0,91.24,0.000002697398,0.000002697398,0.000002697398,0.99999994,0,0,0,0,0,0,1,1,0,0,0,false,false,true,-42.6,-4727.03,17.01,-0.0042645866,0.0021174576,0.8992579,0.43739292,-221.051,512.48096,8.321,0,-0.00021,2.45051
47.033333,2000,0,91.24,0.000002697398,0.000002697398,0.000002697398,0.99999994,0,0,0,0,0,0,1,1,0,0,0,false,false,true,-44.44,-4722.76,17.01,-0.0042861653,0.002074299,0.90367645,0.42818928,-227.071,513.77094,8.321,0,-0.00021,2.4725099
47.041668,2000,0,91.24,0.000002697398,0.000002697398,0.000002697398,0.99999994,0,0,0,0,0,0,1,1,0,0,0,false,false,true,-46.329998,-4718.48,17.01,-0.0043077446,0.0020311407,0.90804,0.41885626,-233.171,514.891,8.321,0,-0.00021,2.49431
47.05,2000,0,91.24,0.000002697398,0.000002697398,0.000002697398,0.99999994,0,0,0,0,0,0,1,1,0,0,0,false,false,true,-48.27,-4714.19,17.01,-0.004329324,0.0019879823,0.91234285,0.40939918,-239.36101,515.831,8.321,0,-0.00021,2.51601
47.058334,2000,0,91.24,0.000002697398,0.000002697398,0.000002697398,0.99999994,0,0,0,0,0,0,1,1,0,0,0,false,false,true,-50.26,-4709.89,17.01,-0.0043509034,0.0019448241,0.9165845,0.39981258,-245.621,516.59094,8.321,0,-0.00021,2.53761
47.066666,2000,0,91.24,0.000002697398,0.000002697398,0.000002697398,0.99999994,0,0,0,0,0,0,1,1,0,0,0,false,false,true,-52.309998,-4705.58,17.01,-0.004372482,0.0018962709,0.9207616,0.39009652,-251.961,517.17096,8.321,0,-0.00021,2.55911
47.075,2000,0,91.24,0.000002697398,0.000002697398,0.000002697398,0.99999994,0,0,0,0,0,0,1,1,0,0,0,false,false,true,-54.41,-4701.27,17.01,-0.004394062,0.0018477178,0.9248688,0.38025635,-258.371,517.571,8.321,0,-0.00021,2.58051
47.083332,2000,0,91.24,0.000002697398,0.000002697398,0.000002697398,0.99999994,0,0,0,0,0,0,1,1,0,0,0,false,false,true,-56.559998,-4696.96,17.01,-0.0044156406,0.0017991646,0.92890304,0.37029216,-264.841,517.79095,8.321,0,-0.00021,2.60181
47.091667,2000,0,91.24,0.000002697398,0.000002697398,0.000002697398,0.99999994,0,0,0,0,0,0,1,1,0,0,0,false,false,true,-58.77,-4692.64,17.01,-0.00443722,0.0017506114,0.9328635,0.3601984,-271.371,517.821,8.321,0,-0.00010999999,2.62301
47.1,2000,0,91.24,0.000002697398,0.000002697398,0.000002697398,0.99999994,0,0,0,0,0,0,1,1,0,0,0,false,false,true,-61.03,-4688.32,17.01,-0.0044587995,0.0017020582,0.93674475,0.34998068,-277.961,517.66095,8.321,0,-0.00010999999,2.64411
47.108334,2000,0,91.24,0.000002697398,0.000002697398,0.000002697398,0.99999994,0,0,0,0,0,0,1,1,0,0,0,false,false,true,-63.35,-4684.01,17.01,-0.0044803782,0.001653505,0.9405438,0.33963874,-284.601,517.30096,8.321,0,0,2.6651099
47.116665,2000,0,91.24,0.000002697398,0.000002697398,0.000002697398,0.99999994,0,0,0,0,0,0,1,1,0,0,0,false,false,true,-65.72,-4679.6997,17.01,-0.0044965623,0.0016049518,0.94425756,0.32917285,-291.281,516.751,8.321,0,0,2.68601
47.125,2000,0,91.24,0.000002697398,0.000002697398,0.000002697398,0.99999994,0,0,0,0,0,0,1,1,0,0,0,false,false,true,-68.15,-4675.39,17.01,-0.0045127473,0.0015563988,0.94788295,0.3185828,-298.001,516.001,8.321,0,0,2.70681
47.133335,2000,0,91.24,0.000002697398,0.000002697398,0.000002697398,0.99999994,0,0,0,0,0,0,1,1,0,0,0,false,false,true,-70.63,-4671.09,17.01,-0.004528932,0.0015078456,0.9514151,0.3078741,-304.761,515.061,8.321,0,0,2.72751
47.141666,2000,0,91.24,0.000002697398,0.000002697398,0.000002697398,0.99999994,0,0,0,0,0,0,1,1,0,0,0,false,false,true,-73.17,-4666.8,17.01,-0.0045451154,0.0014538976,0.95485264,0.29704127,-311.551,513.92096,8.321,0.00010999999,0,2.74811
47.15,2000,0,91.24,0.000002697398,0.000002697398,0.000002697398,0.99999994,0,0,0,0,0,0,1,1,0,0,0,false,false,true,-75.77,-4662.52,17.01,-0.0045613,0.0013999495,0.95819086,0.28608984,-318.361,512.581,8.321,0.00010999999,0,2.76861
47.158333,2000,0,91.24,0.000002697398,0.000002697398,0.000002697398,0.99999994,0,0,0,0,0,0,1,1,0,0,0,false,false,true,-78.42,-4658.25,17.01,-0.004577484,0.0013460015,0.9614266,0.2750196,-325.191,511.031,8.321,0.00010999999,0,2.78901
47.166668,2000,0,91.24,0.000002697398,0.000002697398,0.000002697398,0.99999994,0,0,0,0,0,0,1,1,0,0,0,false,false,true,-81.13,-4653.9897,17.01,-0.004593669,0.0012920536,0.9645571,0.2638308,-332.031,509.281,8.321,0.00010999999,0,2.80931
47.175,2000,0,91.24,0.000002697398,0.000002697398,0.000002697398,0.99999994,0,0,0,0,0,0,1,1,0,0,0,false,false,true,-83.9,-4649.75,17.01,-0.0046098535,0.0012381058,0.967579,0.25252327,-338.881,507.331,8.321,0.00010999999,0,2.82951
47.183334,2000,0,91.24,0.000002697398,0.000002697398,0.000002697398,0.99999994,0,0,0,0,0,0,1,1,0,0,0,false,false,true,-86.72,-4645.52,17.01,-0.004626038,0.0011841578,0.9704892,0.24109708,-345.731,505.171,8.321,0.00010999999,0,2.8496099
47.191666,2000,0,91.24,0.000002697398,0.000002697398,0.000002697398,0.99999994,0,0,0,0,0,0,1,1,0,0,0,false,false,true,-89.6,-4641.31,17.01,-0.0046422225,0.0011302099,0.97328335,0.22955753,-352.581,502.811,8.321,0.00010999999,0,2.8696098
47.2,2000,0,91.24,0.000002697398,0.000002697398,0.000002697398,0.99999994,0,0,0,0,0,0,1,1,0,0,0,false,false,true,-92.54,-4637.12,17.01,-0.0046530114,0.0010762617,0.9759583,0.21790475,-359.421,500.251,8.321,0.00010999999,0,2.88951
47.208332,2000,0,91.24,0.000002697398,0.000002697398,0.000002697398,0.99999994,0,0,0,0,0,0,1,1,0,0,0,false,false,true,-95.54,-4632.9497,17.01,-0.0046638018,0.001022314,0.9785111,0.20613863,-366.251,497.481,8.321,0.00010999999,0,2.9093099
47.216667,2000,0,91.24,0.000002697398,0.000002697398,0.000002697398,0.99999994,0,0,0,0,0,0,1,1,0,0,0,false,false,true,-98.59,-4628.8,17.01,-0.004674591,0.0009629712,0.98093754,0.19426468,-373.061,494.511,8.321,0.00010999999,0,2.92901
47.225,2000,0,91.24,0.000002697398,0.000002697398,0.000002697398,0.99999994,0,0,0,0,0,0,1,1,0,0,0,false,false,true,-101.7,-4624.6797,17.01,-0.004685381,0.0009036284,0.98323554,0.18227737,-379.841,491.331,8.321,0.00010999999,0,2.9486098
47.233334,2000,0,91.24,0.000002697398,0.000002697398,0.000002697398,0.99999994,0,0,0,0,0,0,1,1,0,0,0,false,false,true,-104.869995,-4620.59,17.01,-0.00469617,0.0008442856,0.985401,0.17018221,-386.591,487.951,8.321,0.00010999999,0,2.9681098
47.241665,2000,0,91.24,0.000002697398,0.000002697398,0.000002697398,0.99999994,0,0,0,0,0,0,1,1,0,0,0,false,false,true,-108.09,-4616.52,17.01,-0.0047069592,0.00078494276,0.9874299,0.15798448,-393.301,484.371,8.321,0.00010999999,0,2.98751
47.25,2000,0,91.24,0.000002697398,0.000002697398,0.000002697398,0.99999994,0,0,0,0,0,0,1,1,0,0,0,false,false,true,-111.369995,-4612.48,17.01,-0.004717749,0.00072560005,0.98932034,0.14567897,-399.971,480.581,8.321,0.00010999999,0,3.0069098
47.258335,2000,0,91.24,0.000002697398,0.000002697398,0.000002697398,0.99999994,0,0,0,0,0,0,1,1,0,0,0,false,false,true,-114.7,-4608.4697,17.01,-0.004728538,0.0006662572,0.991068,0.13327083,-406.591,476.591,8.321,0.00010999999,0,3.0262098
47.266666,2000,0,91.24,0.000002697398,0.000002697398,0.000002697398,0.99999994,0,0,0,0,0,0,1,1,0,0,0,false,false,true,-118.09,-4604.5,17.01,-0.0047339336,0.0006069146,0.9926695,0.120765634,-413.161,472.401,8.321,0.00010999999,0,3.04541
47.275,2000,0,91.24,0.000002697398,0.000002697398,0.000002697398,0.99999994,0,0,0,0,0,0,1,1,0,0,0,false,false,true,-121.53,-4600.56,17.01,-0.0047393283,0.0005475718,0.9941222,0.10815799,-419.671,468.011,8.321,0.00010999999,0,3.0645099
47.283333,2000,0,91.24,0.000002697398,0.000002697398,0.000002697398,0.99999994,0,0,0,0,0,0,1,1,0,0,0,false,false,true,-125.03,-4596.6597,17.01,-0.004744723,0.00048822907,0.9954224,0.095453165,-426.111,463.431,8.321,0.00010999999,0,3.08351
47.291668,2000,0,91.24,0.000002697398,0.000002697398,0.000002697398,0.99999994,0,0,0,0,0,0,1,1,0,0,0,false,false,true,-128.58,-4592.8,17.01,-0.0047501177,0.0004288863,0.9965666,0.082656704,-432.491,458.651,8.321,0.00010999999,0,3.10251
47.3,2000,0,91.24,0.000002697398,0.000002697398,0.000002697398,0.99999994,0,0,0,0,0,0,1,1,0,0,0,false,false,true,-132.18,-4588.98,17.01,-0.0047555123,0.0003695435,0.9975517,0.06976844,-438.791,453.681,8.321,0.00010999999,0,3.12141
47.308334,2000,0,91.24,0.000002697398,0.000002697398,0.000002697398,0.99999994,0,0,0,0,0,0,1,1,0,0,0,false,false,true,-135.84,-4585.1997,17.01,-0.0047609075,0.000304806,0.99837476,0.056788575,-445.011,448.521,8.321,0.00010999999,0,3.14021
47.316666,2000,0,91.24,0.000002697398,0.000002697398,0.000002697398,0.99999994,0,0,0,0,0,0,1,1,0,0,0,false,false,true,-139.55,-4581.46,17.01,-0.004766302,0.00024006843,0.99903226,0.043722294,-451.151,443.171,8.321,0.00010999999,0,3.15901
47.325,2000,0,91.24,0.000002697398,0.000002697398,0.000002697398,0.99999994,0,0,0,0,0,0,1,1,0,0,0,false,false,true,-143.31,-4577.77,17.01,-0.0047716964,0.00017533086,0.9995211,0.030569693,-457.201,437.631,8.321,0.00010999999,0,3.1777098
47.333332,2000,0,91.24,0.000002697398,0.000002697398,0.000002697398,0.99999994,0,0,0,0,0,0,1,1,0,0,0,false,false,true,-147.12,-4574.12,17.01,-0.0047716973,0.000110593326,0.9998384,0.017330868,-463.151,431.901,8.321,0,0,3.19631
47.341667,2000,0,91.24,0.000002697398,0.000002697398,0.000002697398,0.99999994,0,0,0,0,0,0,1,1,0,0,0,false,false,true,-150.98,-4570.52,17.01,-0.0047716973,0.00004585577,0.9999805,0.004016426,-469.011,425.991,8.321,0,0,3.21491
47.35,2000,0,91.24,0.000002697398,0.000002697398,0.000002697398,0.99999994,0,0,0,0,0,0,1,1,0,0,0,false,false,true,-154.89,-4566.9697,17.01,-0.004771697,-0.000018881787,0.99994457,-0.009378895,-474.761,419.901,8.321,0,0,3.23341
47.358334,2000,0,91.24,0.000002697398,0.000002697398,0.000002697398,0.99999994,0,0,0,0,0,0,1,1,0,0,0,false,false,true,-158.84999,-4563.4697,17.01,-0.0047716973,-0.00008361934,0.9997275,-0.022849744,-480.411,413.631,8.321,0,0,3.2518098
47.366665,2000,0,91.24,0.000002697398,0.000002697398,0.000002697398,0.99999994,0,0,0,0,0,0,1,1,0,0,0,false,false,true,-162.84999,-4560.02,17.01,-0.004771697,-0.00014835689,0.99932617,-0.03639072,-485.941,407.191,8.321,0,0,3.27021
47.375,2000,0,91.24,0.000002697398,0.000002697398,0.000002697398,0.99999994,0,0,0,0,0,0,1,1,0,0,0,false,false,true,-166.9,-4556.63,17.01,-0.004771697,-0.00021309445,0.99873763,-0.05000188,-491.361,400.581,8.321,0,0.00010999999,3.2885098
47.383335,2000,0,91.24,0.000002697398,0.000002697398,0.000002697398,0.99999994,0,0,0,0,0,0,1,1,0,0,0,false,false,true,-170.98999,-4553.29,17.01,-0.004766302,-0.000277832,0.9979587,-0.06368312,-496.661,393.801,8.321,0,0.00010999999,3.30681
47.391666,2000,0,91.24,0.000002697398,0.000002697398,0.000002697398,0.99999994,0,0,0,0,0,0,1,1,0,0,0,false,false,true,-175.12999,-4550.01,17.01,-0.0047609075,-0.00034256955,0.9969864,-0.0774291,-501.841,386.851,8.321,0,0.00010999999,3.3250098
47.4,2000,0,91.24,0.000002697398,0.000002697398,0.000002697398,0.99999994,0,0,0,0,0,0,1,1,0,0,0,false,false,true,-179.31,-4546.79,17.01,-0.004755513,-0.00040730712,0.99581796,-0.09123443,-506.891,379.741,8.321,0,0.00010999999,3.34321
47.408333,2000,0,91.24,0.000002697398,0.000002697398,0.000002697398,0.99999994,0,0,0,0,0,0,1,1,0,0,0,false,false,true,-183.53,-4543.63,17.01,-0.004750118,-0.0004720447,0.9944503,-0.10509915,-511.811,372.471,8.321,0,0.00010999999,3.36131
47.416668,2000,0,91.24,0.000002697398,0.000002697398,0.000002697398,0.99999994,0,0,0,0,0,0,1,1,0,0,0,false,false,true,-187.8,-4540.53,17.01,-0.004744723,-0.0005367822,0.9928806,-0.11901776,-516.59094,365.041,8.321,0,0.00010999999,3.37941
47.425,2000,0,91.24,0.000002697398,0.000002697398,0.000002697398,0.99999994,0,0,0,0,0,0,1,1,0,0,0,false,false,true,-192.09999,-4537.4897,17.01,-0.0047339336,-0.0006015198,0.9911065,-0.13298492,-521.23096,357.451,8.321,0,0.00021,3.39741
47.433334,2000,0,91.24,0.000002697398,0.000002697398,0.000002697398,0.99999994,0,0,0,0,0,0,1,1,0,0,0,false,false,true,-196.44,-4534.51,17.01,-0.0047231438,-0.0006662573,0.98912483,-0.14700064,-525.73096,349.711,8.321,0,0.00021,3.41541
47.441666,2000,0,91.24,0.000002697398,0.000002697398,0.000002697398,0.99999994,0,0,0,0,0,0,1,1,0,0,0,false,false,true,-200.81999,-4531.6,17.01,-0.004712354,-0.0007309948,0.986933,-0.16105956,-530.09094,341.821,8.321,0,0.00021,3.43331
47.45,2000,0,91.24,0.000002697398,0.000002697398,0.000002697398,0.99999994,0,0,0,0,0,0,1,1,0,0,0,false,false,true,-205.23999,-4528.75,17.01,-0.0047015646,-0.00080112723,0.98452806,-0.17516162,-534.30096,333.791,8.321,0,0.00021,3.45121
47.458332,2000,0,91.24,0.000002697398,0.000002697398,0.000002697398,0.99999994,0,0,0,0,0,0,1,1,0,0,0,false,false,true,-209.69,-4525.9697,17.01,-0.004690775,-0.0008712596,0.98190737,-0.18930142,-538.36096,325.611,8.321,0,0.00021,3.46911
47.466667,2000,0,91.24,0.000002697398,0.000002697398,0.000002697398,0.99999994,0,0,0,0,0,0,1,1,0,0,0,false,false,true,-214.18,-4523.26,17.01,-0.004674591,-0.000941392,0.9790688,-0.2034736,-542.261,317.291,8.321,0,0.00021,3.4869099
47.475,2000,0,91.24,0.000002697398,0.000002697398,0.000002697398,0.99999994,0,0,0,0,0,0,1,1,0,0,0,false,false,true,-218.7,-4520.62,17.01,-0.0046584066,-0.0010115243,0.97600895,-0.21767819,-546.001,308.841,8.321,0,0.00021,3.50471
47.483334,2000,0,91.24,0.000002697398,0.000002697398,0.000002697398,0.99999994,0,0,0,0,0,0,1,1,0,0,0,false,false,true,-223.25,-4518.05,17.01,-0.0046422225,-0.0010816567,0.97272563,-0.2319097,-549.581,300.251,8.321,0,0.00010999999,3.5225098
47.491665,2000,0,91.24,0.000002697398,0.000002697398,0.000002697398,0.99999994,0,0,0,0,0,0,1,1,0,0,0,false,false,true,-227.83,-4515.55,17.01,-0.004626038,-0.0011517891,0.96921676,-0.2461628,-553.001,291.531,8.321,-0.00010999999,0.00010999999,3.54021
47.5,2000,0,91.24,0.000002697398,0.000002697398,0.000002697398,0.99999994,0,0,0,0,0,0,1,1,0,0,0,false,false,true,-232.43999,-4513.12,17.01,-0.004609853,-0.0012219213,0.9654803,-0.2604321,-556.251,282.681,8.321,-0.00010999999,0.00010999999,3.55791
47.508335,2000,0,91.24,0.000002697398,0.000002697398,0.000002697398,0.99999994,0,0,0,0,0,0,1,1,0,0,0,false,false,true,-237.08,-4510.76,17.01,-0.004588274,-0.0012920536,0.9615131,-0.27471754,-559.331,273.711,8.321,-0.00021,0.00010999999,3.57551
47.516666,2000,0,91.24,0.000002697398,0.000002697398,0.000002697398,0.99999994,0,0,0,0,0,0,1,1,0,0,0,false,false,true,-241.73999,-4508.48,17.01,-0.0045666946,-0.001362186,0.9573146,-0.2890084,-562.24097,264.611,8.321,-0.00021,0,3.5931098
47.525,2000,0,91.24,0.000002697398,0.000002697398,0.000002697398,0.99999994,0,0,0,0,0,0,1,1,0,0,0,false,false,true,-246.43,-4506.27,17.01,-0.004545116,-0.0014269237,0.95287997,-0.3033101,-564.98096,255.391,8.321,-0.00030999997,0,3.61071
47.533333,2000,0,91.24,0.000002697398,0.000002697398,0.000002697398,0.99999994,0,0,0,0,0,0,1,1,0,0,0,false,false,true,-251.14,-4504.14,17.01,-0.0045235357,-0.001491661,0.94820875,-0.31761172,-567.54095,246.051,8.321,-0.00030999997,0,3.6282098
47.541668,2000,0,91.24,0.000002697398,0.000002697398,0.000002697398,0.99999994,0,0,0,0,0,0,1,1,0,0,0,false,false,true,-255.87,-4502.09,17.01,-0.004501958,-0.0015563988,0.9432997,-0.33190802,-569.92096,236.601,8.321,-0.00030999997,0,3.64571
47.55,2000,0,91.24,0.000002697398,0.000002697398,0.000002697398,0.99999994,0,0,0,0,0,0,1,1,0,0,0,false,false,true,-260.62,-4500.12,17.01,-0.004474983,-0.0016211362,0.93814903,-0.34619886,-572.121,227.031,8.321,-0.00030999997,0,3.66311
47.558334,2000,0,91.24,0.000002697398,0.000002697398,0.000002697398,0.99999994,0,0,0,0,0,0,1,1,0,0,0,false,false,true,-265.38998,-4498.23,17.01,-0.0044480097,-0.001685874,0.9327552,-0.36047897,-574.131,217.351,8.321,-0.00021,0,3.6805098
47.566666,2000,0,91.24,0.000002697398,0.000002697398,0.000002697398,0.99999994,0,0,0,0,0,0,1,1,0,0,0,false,false,true,-270.16998,-4496.42,17.01,-0.0044210358,-0.0017506115,0.9271166,-0.3747429,-575.96094,207.561,8.321,-0.00021,0,3.69781
47.575,2000,0,91.24,0.000002697398,0.000002697398,0.000002697398,0.99999994,0,0,0,0,0,0,1,1,0,0,0,false,false,true,-274.97,-4494.69,17.01,-0.004394062,-0.001815349,0.921234,-0.3889798,-577.59094,197.661,8.321,-0.00010999999,0,3.71501
47.583332,2000,0,91.24,0.000002697398,0.000002697398,0.000002697398,0.99999994,0,0,0,0,0,0,1,1,0,0,0,false,false,true,-279.78,-4493.04,17.01,-0.0043670875,-0.0018800865,0.91510165,-0.40319508,-579.03094,187.661,8.321,-0.00010999999,0,3.73221
47.591667,2000,0,91.24,0.000002697398,0.000002697398,0.000002697398,0.99999994,0,0,0,0,0,0,1,1,0,0,0,false,false,true,-284.61,-4491.48,17.01,-0.004334718,-0.0019448238,0.9087204,-0.41737804,-580.27094,177.55101,8.321,-0.00010999999,0,3.74931
47.6,2000,0,91.24,0.000002697398,0.000002697398,0.000002697398,0.99999994,0,0,0,0,0,0,1,1,0,0,0,false,false,true,-289.44998,-4490,17.01,-0.00430235,-0.0020095615,0.90208924,-0.4315233,-581.311,167.341,8.321,0,0,3.76631
47.608334,2000,0,91.24,0.000002697398,0.000002697398,0.000002697398,0.99999994,0,0,0,0,0,0,1,1,0,0,0,false,false,true,-294.29,-4488.6,17.01,-0.004269981,-0.002074299,0.8952069,-0.44562533,-582.081,157.071,8.321,0,0,3.78491
47.616665,2000,0,91.24,0.000002697398,0.000002697398,0.000002697398,0.99999994,0,0,0,0,0,0,1,1,0,0,0,false,false,true,-299.13998,-4487.29,17.01,-0.0042376122,-0.0021390365,0.8880669,-0.45968965,-582.59094,146.741,8.321,0,0,3.8050098
47.625,2000,0,91.24,0.000002697398,0.000002697398,0.000002697398,0.99999994,0,0,0,0,0,0,1,1,0,0,0,false,false,true,-303.99,-4486.07,17.01,-0.0042052437,-0.0022037744,0.8806676,-0.4737108,-582.831,136.371,8.321,0,0,3.82671
47.633335,2000,0,91.24,0.000002697398,0.000002697398,0.000002697398,0.99999994,0,0,0,0,0,0,1,1,0,0,0,false,false,true,-308.85,-4484.9297,17.01,-0.00416748,-0.0022685118,0.87300164,-0.4876941,-582.80096,125.951,8.321,0,0,3.84991
47.641666,2000,0,91.24,0.000002697398,0.000002697398,0.000002697398,0.99999994,0,0,0,0,0,0,1,1,0,0,0,false,false,true,-313.71,-4483.88,17.01,-0.004129716,-0.0023332492,0.86506665,-0.50163436,-582.511,115.501,8.321,0,0,3.87461
47.65,2000,0,91.24,0.000002697398,0.000002697398,0.000002697398,0.99999994,0,0,0,0,0,0,1,1,0,0,0,false,false,true,-318.56,-4482.92,17.01,-0.004091953,-0.002397987,0.85685754,-0.5155314,-581.951,105.020996,8.321,0.00010999999,0,3.9007099
47.658333,2000,0,91.24,0.000002697398,0.000002697398,0.000002697398,0.99999994,0,0,0,0,0,0,1,1,0,0,0,false,false,true,-323.41,-4482.04,17.01,-0.004054189,-0.0024627245,0.84836483,-0.52939063,-581.121,94.510994,8.321,0.00010999999,0,3.92831
47.666668,2000,0,91.24,0.000002697398,0.000002697398,0.000002697398,0.99999994,0,0,0,0,0,0,1,1,0,0,0,false,false,true,-328.25,-4481.25,17.01,-0.004011031,-0.0025274619,0.8395855,-0.54320675,-580.02094,83.980995,8.321,0.00010999999,0,3.9574099
47.675,2000,0,91.24,0.000002697398,0.000002697398,0.000002697398,0.99999994,0,0,0,0,0,0,1,1,0,0,0,false,false,true,-333.08,-4480.55,17.01,-0.0039678724,-0.0025921995,0.8305161,-0.55697435,-578.65094,73.440994,8.321,0.00021,0,3.9879098
47.683334,2000,0,91.24,0.000002697398,0.000002697398,0.000002697398,0.99999994,0,0,0,0,0,0,1,1,0,0,0,false,false,true,-337.9,-4479.94,17.01,-0.003924714,-0.002656937,0.8211457,-0.5706988,-577.011,62.900997,8.321,0.00021,0,4.01991
47.691666,2000,0,91.24,0.000002697398,0.000002697398,0.000002697398,0.99999994,0,0,0,0,0,0,1,1,0,0,0,false,false,true,-342.71,-4479.42,17.01,-0.003881556,-0.0027216747,0.8114701,-0.58437467,-575.09094,52.361,8.321,0.00021,0,4.05331
47.7,2000,0,91.24,0.000002697398,0.000002697398,0.000002697398,0.99999994,0,0,0,0,0,0,1,1,0,0,0,false,false,true,-347.5,-4478.98,17.01,-0.0038330026,-0.0027864121,0.8014846,-0.59799653,-572.90094,41.821,8.321,0.00021,0,4.08821
47.708332,2000,0,91.24,0.000002697398,0.000002697398,0.000002697398,0.99999994,0,0,0,0,0,0,1,1,0,0,0,false,false,true,-352.27,-4478.63,17.01,-0.003784449,-0.0028511495,0.7911803,-0.6115644,-570.441,31.290998,8.321,0.00030999997,0,4.12451
47.716667,2000,0,91.24,0.000002697398,0.000002697398,0.000002697398,0.99999994,0,0,0,0,0,0,1,1,0,0,0,false,false,true,-357.02,-4478.37,17.01,-0.0037358964,-0.0029158874,0.78055596,-0.6250678,-567.67096,20.790998,8.321,0.00030999997,0,4.1620097
47.725,2000,0,91.24,0.000002697398,0.000002697398,0.000002697398,0.99999994,0,0,0,0,0,0,1,1,0,0,0,false,false,true,-361.75,-4478.1997,17.01,-0.003687343,-0.0029806248,0.7695975,-0.6385116,-564.53094,10.331,8.321,0.00030999997,0,4.20001
47.733334,2000,0,91.24,0.000002697398,0.000002697398,0.000002697398,0.99999994,0,0,0,0,0,0,1,1,0,0,0,false,false,true,-366.44998,-4478.11,17.01,-0.0036333955,-0.0030453627,0.7583073,-0.65188,-561.03094,-0.060999997,8.321,0.00030999997,0.00010999999,4.23851
47.741665,2000,0,91.24,0.000002697398,0.000002697398,0.000002697398,0.99999994,0,0,0,0,0,0,1,1,0,0,0,false,false,true,-371.13,-4478.11,17.01,-0.0035794473,-0.0031101,0.7466791,-0.6651674,-557.16095,-10.3810005,8.321,0.00030999997,0.00010999999,4.2775097
47.75,2000,0,91.24,0.000002697398,0.000002697398,0.000002697398,0.99999994,0,0,0,0,0,0,1,1,0,0,0,false,false,true,-375.77,-4478.1997,17.01,-0.0035254993,-0.0031748374,0.7347064,-0.6783685,-552.93097,-20.610998,8.321,0.00030999997,0.00010999999,4.31711
47.758335,2000,0,91.24,0.000002697398,0.000002697398,0.000002697398,0.99999994,0,0,0,0,0,0,1,1,0,0,0,false,false,true,-380.38,-4478.37,17.01,-0.0034661565,-0.003239575,0.7223871,-0.69147253,-548.331,-30.751,8.321,0.00021,0.00021,4.3572097
47.766666,2000,0,91.24,0.000002697398,0.000002697398,0.000002697398,0.99999994,0,0,0,0,0,0,1,1,0,0,0,false,false,true,-384.94998,-4478.63,17.01,-0.0034068138,-0.0033043127,0.70971376,-0.70447403,-543.371,-40.781,8.321,0.00021,0.00021,4.39791
47.775,2000,0,91.24,0.000002697398,0.000002697398,0.000002697398,0.99999994,0,0,0,0,0,0,1,1,0,0,0,false,false,true,-389.47998,-4478.9697,17.01,0.003347471,0.00336905,-0.69668394,0.71736234,-538.05096,-50.681,8.321,0.00010999999,0.00021,4.43921
47.783333,2000,0,91.24,0.000002697398,0.000002697398,0.000002697398,0.99999994,0,0,0,0,0,0,1,1,0,0,0,false,false,true,-393.96,-4479.39,17.01,0.0032827337,0.003433788,-0.68329406,0.7301278,-532.381,-60.450996,8.321,0.00010999999,0.00030999997,4.48111
47.791668,2000,0,91.24,0.000002697398,0.000002697398,0.000002697398,0.99999994,0,0,0,0,0,0,1,1,0,0,0,false,false,true,-398.4,-4479.89,17.01,0.003217996,0.0034931307,-0.6695427,0.74275833,-526.35095,-70.071,8.321,0,0.00030999997,4.52361
47.8,2000,0,91.24,0.000002697398,0.000002697398,0.000002697398,0.99999994,0,0,0,0,0,0,1,1,0,0,0,false,false,true,-402.78998,-4480.4697,17.01,0.0031532582,0.0035524734,-0.65542436,0.75524575,-520.001,-79.461,8.321,0,0.00030999997,4.56631
47.808334,2000,0,91.24,0.000002697398,0.000002697398,0.000002697398,0.99999994,0,0,0,0,0,0,1,1,0,0,0,false,false,true,-407.12,-4481.13,17.01,0.0030831257,0.0036118156,-0.64093924,0.76757675,-513.35095,-88.520996,8.321,0,0.00040999998,4.60841
47.816666,2000,0,91.24,0.000002697398,0.000002697398,0.000002697398,0.99999994,0,0,0,0,0,0,1,1,0,0,0,false,false,true,-411.4,-4481.87,17.01,0.0030129936,0.0036711588,-0.62608194,0.7797427,-506.421,-97.211,8.321,0,0.00040999998,4.64981
47.825,2000,0,91.24,0.000002697398,0.000002697398,0.000002697398,0.99999994,0,0,0,0,0,0,1,1,0,0,0,false,false,true,-415.62,-4482.6797,17.01,0.0029428613,0.0037305015,-0.6108578,0.791726,-499.231,-105.531,8.321,0,0.00051,4.69051
47.833332,2000,0,91.24,0.000002697398,0.000002697398,0.000002697398,0.99999994,0,0,0,0,0,0,1,1,0,0,0,false,false,true,-419.78,-4483.56,17.01,0.002867334,0.0037898442,-0.59526676,0.803514,-491.801,-113.471,8.321,0,0.00051,4.73041
47.841667,2000,0,91.24,0.000002697398,0.000002697398,0.000002697398,0.99999994,0,0,0,0,0,0,1,1,0,0,0,false,false,true,-423.88,-4484.51,17.01,0.0027918073,0.0038491874,-0.57931435,0.8150903,-484.161,-121.020996,8.321,0,0.00051,4.76951
47.85,2000,0,91.24,0.000002697398,0.000002697398,0.000002697398,0.99999994,0,0,0,0,0,0,1,1,0,0,0,false,false,true,-427.91,-4485.52,17.01,0.002710885,0.003903135,-0.5630004,0.8264429,-476.32098,-128.181,8.321,0,0.00051,4.80781
47.858334,2000,0,91.24,0.000002697398,0.000002697398,0.000002697398,0.99999994,0,0,0,0,0,0,1,1,0,0,0,false,false,true,-431.88,-4486.59,17.01,0.002629963,0.003957083,-0.5463304,0.8375562,-468.301,-134.94101,8.321,0,0.00051,4.84521
47.866665,2000,0,91.24,0.000002697398,0.000002697398,0.000002697398,0.99999994,0,0,0,0,0,0,1,1,0,0,0,false,false,true,-435.78,-4487.71,17.01,0.002549041,0.004011031,-0.52930975,0.84841526,-460.131,-141.30101,8.321,0,0.00061,4.88171
47.875,2000,0,91.24,0.000002697398,0.000002697398,0.000002697398,0.99999994,0,0,0,0,0,0,1,1,0,0,0,false,false,true,-439.61,-4488.89,17.01,0.0024681191,0.0040649786,-0.5119438,0.8590057,-451.831,-147.27101,8.321,0,0.00061,4.91721
47.883335,2000,0,91.24,0.000002697398,0.000002697398,0.000002697398,0.99999994,0,0,0,0,0,0,1,1,0,0,0,false,false,true,-443.38,-4490.12,17.01,0.0023818028,0.0041189273,-0.49423805,0.86931354,-443.421,-152.841,8.321,0,0.00061,4.95161
47.891666,2000,0,91.24,0.000002697398,0.000002697398,0.000002697398,0.99999994,0,0,0,0,0,0,1,1,0,0,0,false,false,true,-447.08,-4491.39,17.01,0.0022954857,0.00416748,-0.47619778,0.8793253,-434.931,-158.011,8.321,0,0.00061,4.98491
47.9,2000,0,91.24,0.000002697398,0.000002697398,0.000002697398,0.99999994,0,0,0,0,0,0,1,1,0,0,0,false,false,true,-450.69998,-4492.71,17.01,0.0022091689,0.004216033,-0.45783386,0.889025,-426.371,-162.791,8.321,0,0.00061,5.0170097
47.908333,2000,0,91.24,0.000002697398,0.000002697398,0.000002697398,0.99999994,0,0,0,0,0,0,1,1,0,0,0,false,false,true,-454.25,-4494.07,17.01,0.0021174573,0.004264586,-0.4391516,0.8984003,-417.771,-167.19101,8.321,0,0.00071,5.04781
47.916668,2000,0,91.24,0.000002697398,0.000002697398,0.000002697398,0.99999994,0,0,0,0,0,0,1,1,0,0,0,false,false,true,-457.72998,-4495.46,17.01,0.0020257458,0.0043131392,-0.4201618,0.9074366,-409.151,-171.211,8.321,0,0.00071,5.07721
47.925,2000,0,91.24,0.000002697398,0.000002697398,0.000002697398,0.99999994,0,0,0,0,0,0,1,1,0,0,0,false,false,true,-461.13998,-4496.89,17.01,0.0019340344,0.0043562977,-0.40086994,0.9161225,-400.531,-174.871,8.321,0,0.00071,5.1051097
47.933334,2000,0,91.24,0.000002697398,0.000002697398,0.000002697398,0.99999994,0,0,0,0,0,0,1,1,0,0,0,false,false,true,-464.47998,-4498.35,17.01,0.0018423229,0.004399456,-0.38129213,0.92444223,-391.931,-178.171,8.321,0,0.00071,5.13131
47.941666,2000,0,91.24,0.000002697398,0.000002697398,0.000002697398,0.99999994,0,0,0,0,0,0,1,1,0,0,0,false,false,true,-467.75,-4499.83,17.01,0.0017452165,0.0044426145,-0.3614392,0.9323834,-383.371,-181.131,8.321,-0.00010999999,0.00071,5.15581
47.95,2000,0,91.24,0.000002697398,0.000002697398,0.000002697398,0.99999994,0,0,0,0,0,0,1,1,0,0,0,false,false,true,-470.94,-4501.34,17.01,0.0016481102,0.0044803782,-0.34132737,0.9399323,-374.861,-183.741,8.321,-0.00021,0.00071,5.17791
47.958332,2000,0,91.24,0.000002697398,0.000002697398,0.000002697398,0.99999994,0,0,0,0,0,0,1,1,0,0,0,false,false,true,-474.06,-4502.87,17.01,0.001551004,0.004518142,-0.32097274,0.9470764,-366.421,-185.97101,8.321,-0.00021,0.00071,5.19621
47.966667,2000,0,91.24,0.000002697398,0.000002697398,0.000002697398,0.99999994,0,0,0,0,0,0,1,1,0,0,0,false,false,true,-477.11,-4504.42,17.01,0.0014485028,0.0045559052,-0.30039147,0.95380396,-357.971,-187.851,8.321,-0.00030999997,0.00071,5.21041
47.975,2000,0,91.24,0.000002697398,0.000002697398,0.000002697398,0.99999994,0,0,0,0,0,0,1,1,0,0,0,false,false,true,-480.09,-4505.9897,17.01,0.0013460016,0.004588274,-0.27961603,0.96009994,-349.551,-189.381,8.321,-0.00030999997,0.00061,5.22041
47.983334,2000,0,91.24,0.000002697398,0.000002697398,0.000002697398,0.99999994,0,0,0,0,0,0,1,1,0,0,0,false,false,true,-483,-4507.57,17.01,0.0012435006,0.0046206433,-0.25866798,0.9659544,-341.181,-190.58101,8.321,-0.00030999997,0.00051,5.22601
47.991665,2000,0,91.24,0.000002697398,0.000002697398,0.000002697398,0.99999994,0,0,0,0,0,0,1,1,0,0,0,false,false,true,-485.84,-4509.1597,17.01,0.0011409994,0.0046476168,-0.23757426,0.9713575,-332.901,-191.461,8.321,-0.00030999997,0.00040999998,5.22711
48,2000,0,91.24,0.000002697398,0.000002697398,0.000002697398,0.99999994,0,0,0,0,0,0,1,1,0,0,0,false,false,true,-488.61,-4510.76,17.01,0.0010384984,0.004674591,-0.21636185,0.9763015,-324.731,-192.031,8.321,-0.00030999997,0.00040999998,5.22321
48.008335,2000,0,91.24,0.000002697398,0.000002697398,0.000002697398,0.99999994,0,0,0,0,0,0,1,1,0,0,0,false,false,true,-491.31998,-4512.36,17.01,0.0009359972,0.0046961703,-0.19506311,0.980779,-316.741,-192.321,8.311,-0.00030999997,0.00040999998,5.21321
48.016666,2000,0,91.24,0.000002697398,0.000002697398,0.000002697398,0.99999994,0,0,0,0,0,0,1,1,0,0,0,false,false,true,-493.96,-4513.96,17.01,0.000833496,0.004717749,-0.1737158,0.9847841,-308.661,-192.341,8.311,-0.00030999997,0.00030999997,5.20371
48.025,2000,0,91.24,0.000002697398,0.000002697398,0.000002697398,0.99999994,0,0,0,0,0,0,1,1,0,0,0,false,false,true,-496.53,-4515.56,17.01,0.00073099486,0.0047339336,-0.15232535,0.98831874,-300.501,-192.08101,8.311,-0.00030999997,0.00021,5.19481
48.033333,2000,0,91.24,0.000002697398,0.000002697398,0.000002697398,0.99999994,0,0,0,0,0,0,1,1,0,0,0,false,false,true,-499.03,-4517.1597,17.01,0.0006284938,0.004750118,-0.13089715,0.9913843,-292.29102,-191.531,8.311,-0.00040999998,0.00010999999,5.18641
48.041668,2000,0,91.24,0.000002697398,0.000002697398,0.000002697398,0.99999994,0,0,0,0,0,0,1,1,0,0,0,false,false,true,-501.47,-4518.76,17.01,0.0005259926,0.0047609075,-0.10944195,0.9939816,-284.061,-190.69101,8.311,-0.00051,0,5.17841
48.05,2000,0,91.24,0.000002697398,0.000002697398,0.000002697398,0.99999994,0,0,0,0,0,0,1,1,0,0,0,false,false,true,-503.84,-4520.35,17.01,0.0004234915,0.004771697,-0.08797058,0.9961115,-275.821,-189.55101,8.311,-0.00051,0,5.1708097
48.058334,2000,0,91.24,0.000002697398,0.000002697398,0.000002697398,0.99999994,0,0,0,0,0,0,1,1,0,0,0,false,false,true,-506.13998,-4521.9297,17.01,0.0003209904,0.0047770925,-0.06648842,0.9977757,-267.591,-188.121,8.311,-0.00051,0,5.16371
48.066666,2000,0,91.24,0.000002697398,0.000002697398,0.000002697398,0.99999994,0,0,0,0,0,0,1,1,0,0,0,false,false,true,-508.37,-4523.5,17.01,0.00021848925,0.0047824867,-0.045006257,0.99897516,-259.381,-186.391,8.311,-0.00051,-0.00010999999,5.1571097
48.075,2000,0,91.24,0.000002697398,0.000002697398,0.000002697398,0.99999994,0,0,0,0,0,0,1,1,0,0,0,false,false,true,-510.53,-4525.05,17.01,0.00011598812,0.0047878814,-0.023529487,0.99971163,-251.201,-184.36101,8.311,-0.00051,-0.00010999999,5.15121
48.083332,2000,0,91.24,0.000002697398,0.000002697398,0.000002697398,0.99999994,0,0,0,0,0,0,1,1,0,0,0,false,false,true,-512.62,-4526.59,17.01,0.0000134869915,0.004787882,-0.0020689045,0.99998635,-243.071,-182.031,8.311,-0.00051,-0.00021,5.14611
48.091667,2000,0,91.24,0.000002697398,0.000002697398,0.000002697398,0.99999994,0,0,0,0,0,0,1,1,0,0,0,false,false,true,-514.64996,-4528.11,17.01,-0.00008901414,0.0047878814,0.0193701,0.99980086,-234.991,-179.391,8.311,-0.00051,-0.00030999997,5.14191
48.1,2000,0,91.24,0.000002697398,0.000002697398,0.000002697398,0.99999994,0,0,0,0,0,0,1,1,0,0,0,false,false,true,-516.61,-4529.6,17.01,-0.00019151527,0.0047824867,0.040782128,0.99915653,-226.97101,-176.451,8.311,-0.00051,-0.00040999998,5.13891
48.108334,2000,0,91.24,0.000002697398,0.000002697398,0.000002697398,0.99999994,0,0,0,0,0,0,1,1,0,0,0,false,false,true,-518.5,-4531.07,17.01,-0.00029401638,0.004777092,0.062167186,0.9980542,-219.021,-173.201,8.311,-0.00051,-0.00040999998,5.13721
48.116665,2000,0,91.24,0.000002697398,0.000002697398,0.000002697398,0.99999994,0,0,0,0,0,0,1,1,0,0,0,false,false,true,-520.33,-4532.51,17.01,-0.00039651754,0.0047663026,0.08351448,0.99649507,-211.151,-169.641,8.311,-0.00051,-0.00051,5.13691
48.125,2000,0,91.24,0.000002697398,0.000002697398,0.000002697398,0.99999994,0,0,0,0,0,0,1,1,0,0,0,false,false,true,-522.08997,-4533.92,17.01,-0.00049901864,0.004755513,0.10482401,0.99447924,-203.371,-165.771,8.311,-0.00051,-0.00051,5.13831
48.133335,2000,0,91.24,0.000002697398,0.000002697398,0.000002697398,0.99999994,0,0,0,0,0,0,1,1,0,0,0,false,false,true,-523.77997,-4535.3,17.01,-0.0006015198,0.0047393283,0.12609038,0.9920072,-195.69101,-161.58101,8.311,-0.00040999998,-0.00051,5.14171
48.141666,2000,0,91.24,0.000002697398,0.000002697398,0.000002697398,0.99999994,0,0,0,0,0,0,1,1,0,0,0,false,false,true,-525.41,-4536.65,17.01,-0.0007040209,0.0047231438,0.14731358,0.9890783,-188.121,-157.071,8.311,-0.00040999998,-0.00051,5.14721
48.15,2000,0,91.24,0.000002697398,0.000002697398,0.000002697398,0.99999994,0,0,0,0,0,0,1,1,0,0,0,false,false,true,-526.98,-4537.96,17.01,-0.00080652203,0.0047069597,0.16848825,0.985692,-180.671,-152.231,8.311,-0.00030999997,-0.00051,5.15511
48.158333,2000,0,91.24,0.000002697398,0.000002697398,0.000002697398,0.99999994,0,0,0,0,0,0,1,1,0,0,0,false,false,true,-528.49,-4539.23,17.01,-0.0009090232,0.004685381,0.18961976,0.981846,-173.351,-147.061,8.311,-0.00021,-0.00051,5.16571
48.166668,2000,0,91.24,0.000002697398,0.000002697398,0.000002697398,0.99999994,0,0,0,0,0,0,1,1,0,0,0,false,false,true,-529.93,-4540.46,17.01,-0.0010115242,0.0046638013,0.2107081,0.97753733,-166.171,-141.55101,8.311,-0.00010999999,-0.00051,5.17931
48.175,2000,0,91.24,0.000002697398,0.000002697398,0.000002697398,0.99999994,0,0,0,0,0,0,1,1,0,0,0,false,false,true,-531.31,-4541.64,17.01,-0.0011140255,0.0046368274,0.23175322,0.9727629,-159.151,-135.69101,8.311,0,-0.00051,5.19621
48.183334,2000,0,91.24,0.000002697398,0.000002697398,0.000002697398,0.99999994,0,0,0,0,0,0,1,1,0,0,0,false,false,true,-532.64,-4542.77,17.01,-0.0012165266,0.0046098535,0.25276062,0.9675171,-152.30101,-129.541,8.311,0,-0.00051,5.21461
48.191666,2000,0,91.24,0.000002697398,0.000002697398,0.000002697398,0.99999994,0,0,0,0,0,0,1,1,0,0,0,false,false,true,-533.91,-4543.85,17.01,-0.0013190275,0.0045828787,0.27371943,0.9617976,-145.621,-123.15099,8.311,0,-0.00040999998,5.23301
48.2,2000,0,91.24,0.000002697398,0.000002697398,0.000002697398,0.99999994,0,0,0,0,0,0,1,1,0,0,0,false,false,true,-535.12,-4544.88,17.01,-0.0014215289,0.004550511,0.29462442,0.9556012,-139.121,-116.520996,8.311,0,-0.00040999998,5.25161
48.208332,2000,0,91.24,0.000002697398,0.000002697398,0.000002697398,0.99999994,0,0,0,0,0,0,1,1,0,0,0,false,false,true,-536.27997,-4545.85,17.01,-0.0015186351,0.0045181415,0.3154646,0.9489253,-132.80101,-109.641,8.311,0.00010999999,-0.00030999997,5.27091
48.216667,2000,0,91.24,0.000002697398,0.000002697398,0.000002697398,0.99999994,0,0,0,0,0,0,1,1,0,0,0,false,false,true,-537.39,-4546.76,17.01,-0.0016157414,0.0044803782,0.33622923,0.94176805,-126.65099,-102.491,8.311,0.00010999999,-0.00030999997,5.2912097
48.225,2000,0,91.24,0.000002697398,0.000002697398,0.000002697398,0.99999994,0,0,0,0,0,0,1,1,0,0,0,false,false,true,-538.45,-4547.61,17.01,-0.0017128477,0.0044426145,0.35690758,0.9341275,-120.690994,-95.071,8.311,0.00010999999,-0.00021,5.31281
48.233334,2000,0,91.24,0.000002697398,0.000002697398,0.000002697398,0.99999994,0,0,0,0,0,0,1,1,0,0,0,false,false,true,-539.45996,-4548.4,17.01,-0.0018099541,0.004404851,0.3774942,0.92599964,-115.071,-87.401,8.311,0.00010999999,-0.00010999999,5.33251
48.241665,2000,0,91.24,0.000002697398,0.000002697398,0.000002697398,0.99999994,0,0,0,0,0,0,1,1,0,0,0,false,false,true,-540.42,-4549.13,17.01,-0.0019070605,0.0043616924,0.39797294,0.91738474,-109.800995,-79.501,8.311,0.00010999999,-0.00010999999,5.3505096
48.25,2000,0,91.24,0.000002697398,0.000002697398,0.000002697398,0.99999994,0,0,0,0,0,0,1,1,0,0,0,false,false,true,-541.33,-4549.79,17.01,-0.0020041666,0.004318534,0.41832218,0.90828615,-104.891,-71.381,8.311,0.00021,-0.00010999999,5.3670096
48.258335,2000,0,91.24,0.000002697398,0.000002697398,0.000002697398,0.99999994,0,0,0,0,0,0,1,1,0,0,0,false,false,true,-542.2,-4550.38,17.01,-0.0021012733,0.0042699813,0.43852583,0.89870596,-100.361,-63.040997,8.311,0.00030999997,-0.00010999999,5.3821096
48.266666,2000,0,91.24,0.000002697398,0.000002697398,0.000002697398,0.99999994,0,0,0,0,0,0,1,1,0,0,0,false,false,true,-543.04,-4550.9097,17.01,-0.0021929848,0.004221428,0.45856756,0.8886468,-96.211,-54.501,8.311,0.00030999997,0,5.39611
48.275,2000,0,91.24,0.000002697398,0.000002697398,0.000002697398,0.99999994,0,0,0,0,0,0,1,1,0,0,0,false,false,true,-543.83997,-4551.36,17.01,-0.0022846963,0.004172875,0.47843128,0.8781121,-92.451,-45.771,8.311,0.00030999997,0,5.4092097
48.283333,2000,0,91.24,0.000002697398,0.000002697398,0.000002697398,0.99999994,0,0,0,0,0,0,1,1,0,0,0,false,false,true,-544.61,-4551.7397,17.01,-0.0023764079,0.0041189273,0.49810082,0.867106,-89.090996,-36.861,8.311,0.00040999998,0,5.4215097
48.291668,2000,0,91.24,0.000002697398,0.000002697398,0.000002697398,0.99999994,0,0,0,0,0,0,1,1,0,0,0,false,false,true,-545.35,-4552.05,17.01,-0.002468119,0.004064978,0.5175597,0.8556337,-86.141,-27.780998,8.311,0.00040999998,0,5.43321
48.3,2000,0,91.24,0.000002697398,0.000002697398,0.000002697398,0.99999994,0,0,0,0,0,0,1,1,0,0,0,false,false,true,-546.07,-4552.28,17.01,-0.0025598304,0.0040056356,0.53679764,0.8436974,-83.611,-18.530998,8.311,0.00051,0,5.44451
48.308334,2000,0,91.24,0.000002697398,0.000002697398,0.000002697398,0.99999994,0,0,0,0,0,0,1,1,0,0,0,false,false,true,-546.76996,-4552.4297,17.01,-0.0026461473,0.0039462927,0.5557982,0.83130354,-81.510994,-9.1310005,8.311,0.00051,0.00010999999,5.4555097
48.316666,2000,0,91.24,0.000002697398,0.000002697398,0.000002697398,0.99999994,0,0,0,0,0,0,1,1,0,0,0,false,false,true,-547.45,-4552.51,17.01,-0.002732464,0.0038869507,0.5745507,0.81845516,-79.851,0.40099996,8.311,0.00051,0.00021,5.46631
48.325,2000,0,91.24,0.000002697398,0.000002697398,0.000002697398,0.99999994,0,0,0,0,0,0,1,1,0,0,0,false,false,true,-548.12,-4552.51,17.01,-0.0028187807,0.0038222126,0.5930387,0.8051598,-78.651,10.061,8.311,0.00051,0.00030999997,5.47711
48.333332,2000,0,91.24,0.000002697398,0.000002697398,0.000002697398,0.99999994,0,0,0,0,0,0,1,1,0,0,0,false,false,true,-548.77997,-4552.4297,17.01,-0.002905098,0.0037574759,0.6112571,0.79141784,-77.921,19.841,8.311,0.00051,0.00040999998,5.48791
48.341667,2000,0,91.24,0.000002697398,0.000002697398,0.000002697398,0.99999994,0,0,0,0,0,0,1,1,0,0,0,false,false,true,-549.43,-4552.26,17.01,-0.0029860197,0.003692738,0.62919474,0.77723306,-77.671,29.690998,8.311,0.00051,0.00051,5.49861
48.35,2000,0,91.24,0.000002697398,0.000002697398,0.000002697398,0.99999994,0,0,0,0,0,0,1,1,0,0,0,false,false,true,-550.08,-4552.01,17.01,-0.0030669416,0.0036226057,0.6468358,0.7626144,-77.851,39.440998,8.311,0.00051,0.00051,5.50001
48.358334,2000,0,91.24,0.000002697398,0.000002697398,0.000002697398,0.99999994,0,0,0,0,0,0,1,1,0,0,0,false,false,true,-550.73,-4551.6797,17.01,-0.0031478636,0.0035524734,0.6641424,0.74759096,-78.421,49.051,8.311,0.00040999998,0.00051,5.50001
48.366665,2000,0,91.24,0.000002697398,0.000002697398,0.000002697398,0.99999994,0,0,0,0,0,0,1,1,0,0,0,false,false,true,-551.38,-4551.27,17.01,-0.0032233908,0.0034823408,0.6810983,0.73217654,-79.361,58.510998,8.311,0.00030999997,0.00051,5.50001
48.375,2000,0,91.24,0.000002697398,0.000002697398,0.000002697398,0.99999994,0,0,0,0,0,0,1,1,0,0,0,false,false,true,-552.04,-4550.78,17.01,-0.0032989178,0.0034068138,0.6976982,0.716376,-80.681,67.821,8.311,0.00021,0.00051,5.49991
48.383335,2000,0,91.24,0.000002697398,0.000002697398,0.000002697398,0.99999994,0,0,0,0,0,0,1,1,0,0,0,false,false,true,-552.70996,-4550.21,17.01,-0.003374445,0.0033312866,0.71392953,0.7002014,-82.370995,76.980995,8.311,0.00010999999,0.00040999998,5.49921
48.391666,2000,0,91.24,0.000002697398,0.000002697398,0.000002697398,0.99999994,0,0,0,0,0,0,1,1,0,0,0,false,false,true,-553.39996,-4549.57,17.01,-0.0034499723,0.0032557594,0.7297843,0.68366086,-84.421,85.991,8.311,0,0.00030999997,5.4963098
48.4,2000,0,91.24,0.000002697398,0.000002697398,0.000002697398,0.99999994,0,0,0,0,0,0,1,1,0,0,0,false,false,true,-554.1,-4548.85,17.01,-0.0035201046,0.0031748374,0.74524873,0.6667696,-86.831,94.840996,8.311,0,0.00030999997,5.4913096
48.408333,2000,0,91.24,0.000002697398,0.000002697398,0.000002697398,0.99999994,0,0,0,0,0,0,1,1,0,0,0,false,false,true,-554.82,-4548.06,17.01,-0.003590237,0.0030939155,0.7603091,0.649544,-89.590996,103.520996,8.311,-0.00010999999,0.00021,5.48421
48.416668,2000,0,91.24,0.000002697398,0.000002697398,0.000002697398,0.99999994,0,0,0,0,0,0,1,1,0,0,0,false,false,true,-555.57,-4547.1997,17.01,-0.0036603692,0.0030129936,0.7749537,0.6320001,-92.701,112.031,8.311,-0.00021,0.00021,5.4752097
48.425,2000,0,91.24,0.000002697398,0.000002697398,0.000002697398,0.99999994,0,0,0,0,0,0,1,1,0,0,0,false,false,true,-556.33997,-4546.27,17.01,-0.0037305015,0.0029320717,0.78916764,0.6141594,-96.160995,120.370995,8.311,-0.00021,0.00021,5.4643097
48.433334,2000,0,91.24,0.000002697398,0.000002697398,0.000002697398,0.99999994,0,0,0,0,0,0,1,1,0,0,0,false,false,true,-557.14,-4545.27,17.01,-0.0037952391,0.0028457548,0.802946,0.5960328,-99.951,128.541,8.311,-0.00021,0.00010999999,5.4517097
48.441666,2000,0,91.24,0.000002697398,0.000002697398,0.000002697398,0.99999994,0,0,0,0,0,0,1,1,0,0,0,false,false,true,-557.97,-4544.1997,17.01,-0.0038599768,0.0027594382,0.8162764,0.5776419,-104.071,136.531,8.311,-0.00030999997,0.00010999999,5.43741
48.45,2000,0,91.24,0.000002697398,0.000002697398,0.000002697398,0.99999994,0,0,0,0,0,0,1,1,0,0,0,false,false,true,-558.83997,-4543.06,17.01,-0.0039193192,0.0026731214,0.8291521,0.55900276,-108.531,144.121,8.311,-0.00030999997,0,5.42311
48.458332,2000,0,91.24,0.000002697398,0.000002697398,0.000002697398,0.99999994,0,0,0,0,0,0,1,1,0,0,0,false,false,true,-559.74,-4541.86,17.01,-0.003978662,0.0025868048,0.8415705,0.54012626,-113.300995,151.311,8.311,-0.00030999997,0,5.40871
48.466667,2000,0,91.24,0.000002697398,0.000002697398,0.000002697398,0.99999994,0,0,0,0,0,0,1,1,0,0,0,false,false,true,-560.68,-4540.6,17.01,-0.0040380047,0.0024950933,0.85352916,0.52102333,-118.370995,158.11101,8.311,-0.00030999997,0,5.3941097
48.475,2000,0,91.24,0.000002697398,0.000002697398,0.000002697398,0.99999994,0,0,0,0,0,0,1,1,0,0,0,false,false,true,-561.67,-4539.28,17.01,-0.0040919525,0.0024033815,0.86502284,0.5017099,-123.72099,164.531,8.311,-0.00030999997,0,5.37921
48.483334,2000,0,91.24,0.000002697398,0.000002697398,0.000002697398,0.99999994,0,0,0,0,0,0,1,1,0,0,0,false,false,true,-562.7,-4537.9097,17.01,-0.0041459007,0.00231167,0.87605,0.48219684,-129.341,170.561,8.311,-0.00030999997,-0.00010999999,5.36401
48.491665,2000,0,91.24,0.000002697398,0.000002697398,0.000002697398,0.99999994,0,0,0,0,0,0,1,1,0,0,0,false,false,true,-563.77997,-4536.4897,17.01,-0.0041998485,0.0022199585,0.8866063,0.46250033,-135.211,176.19101,8.311,-0.00021,-0.00021,5.34861
48.5,2000,0,91.24,0.000002697398,0.000002697398,0.000002697398,0.99999994,0,0,0,0,0,0,1,1,0,0,0,false,false,true,-564.91,-4535.02,17.01,-0.004248402,0.0021282472,0.89669377,0.44262585,-141.311,181.431,8.311,-0.00010999999,-0.00021,5.33291
48.508335,2000,0,91.24,0.000002697398,0.000002697398,0.000002697398,0.99999994,0,0,0,0,0,0,1,1,0,0,0,false,false,true,-566.08997,-4533.51,17.01,-0.004296955,0.0020311407,0.90630615,0.42259488,-147.621,186.261,8.311,-0.00010999999,-0.00030999997,5.31701
48.516666,2000,0,91.24,0.000002697398,0.000002697398,0.000002697398,0.99999994,0,0,0,0,0,0,1,1,0,0,0,false,false,true,-567.32,-4531.96,17.01,-0.004340113,0.0019340344,0.9154459,0.40241283,-154.121,190.69101,8.311,-0.00010999999,-0.00030999997,5.3010097
48.525,2000,0,91.24,0.000002697398,0.000002697398,0.000002697398,0.99999994,0,0,0,0,0,0,1,1,0,0,0,false,false,true,-568.6,-4530.37,17.01,-0.0043832716,0.0018369281,0.92411035,0.38209596,-160.80101,194.711,8.311,-0.00010999999,-0.00030999997,5.28481
48.533333,2000,0,91.24,0.000002697398,0.000002697398,0.000002697398,0.99999994,0,0,0,0,0,0,1,1,0,0,0,false,false,true,-569.94,-4528.75,17.01,-0.00442643,0.0017398217,0.9322998,0.361655,-167.631,198.311,8.311,-0.00010999999,-0.00030999997,5.26861
48.541668,2000,0,91.24,0.000002697398,0.000002697398,0.000002697398,0.99999994,0,0,0,0,0,0,1,1,0,0,0,false,false,true,-571.33997,-4527.1,17.01,-0.0044641937,0.0016427154,0.94001466,0.34110072,-174.601,201.491,8.311,-0.00010999999,-0.00030999997,5.25231
48.55,2000,0,91.24,0.000002697398,0.000002697398,0.000002697398,0.99999994,0,0,0,0,0,0,1,1,0,0,0,false,false,true,-572.79,-4525.42,17.01,-0.0045019574,0.0015456091,0.9472536,0.32044944,-181.681,204.251,8.311,0,-0.00030999997,5.23601
48.558334,2000,0,91.24,0.000002697398,0.000002697398,0.000002697398,0.99999994,0,0,0,0,0,0,1,1,0,0,0,false,false,true,-574.3,-4523.7197,17.01,-0.0045343265,0.0014485029,0.9540196,0.2997064,-188.86101,206.58101,8.311,0,-0.00030999997,5.21981
48.566666,2000,0,91.24,0.000002697398,0.000002697398,0.000002697398,0.99999994,0,0,0,0,0,0,1,1,0,0,0,false,false,true,-575.87,-4522,17.01,-0.004566694,0.0013513963,0.9603117,0.27888775,-196.11101,208.491,8.311,0,-0.00030999997,5.20371
48.575,2000,0,91.24,0.000002697398,0.000002697398,0.000002697398,0.99999994,0,0,0,0,0,0,1,1,0,0,0,false,false,true,-577.5,-4520.26,17.01,-0.0045936694,0.0012542902,0.966132,0.25800446,-203.411,209.97101,8.311,0,-0.00030999997,5.18781
48.583332,2000,0,91.24,0.000002697398,0.000002697398,0.000002697398,0.99999994,0,0,0,0,0,0,1,1,0,0,0,false,false,true,-579.2,-4518.51,17.01,-0.004620643,0.001151789,0.9714829,0.23706175,-210.741,211.031,8.311,0,-0.00040999998,5.1722097
48.591667,2000,0,91.24,0.000002697398,0.000002697398,0.000002697398,0.99999994,0,0,0,0,0,0,1,1,0,0,0,false,false,true,-580.95996,-4516.75,17.01,-0.0046476163,0.0010492877,0.976366,0.21607049,-218.08101,211.661,8.311,0,-0.00040999998,5.15691
48.6,2000,0,91.24,0.000002697398,0.000002697398,0.000002697398,0.99999994,0,0,0,0,0,0,1,1,0,0,0,false,false,true,-582.77997,-4514.9897,17.01,-0.0046691964,0.0009467868,0.9807834,0.19504154,-225.411,211.871,8.311,0,-0.00040999998,5.14191
48.608334,2000,0,91.24,0.000002697398,0.000002697398,0.000002697398,0.99999994,0,0,0,0,0,0,1,1,0,0,0,false,false,true,-584.66,-4513.2197,17.01,-0.004690775,0.0008442856,0.9847366,0.17398554,-232.691,211.661,8.311,0,-0.00040999998,5.12711
48.616665,2000,0,91.24,0.000002697398,0.000002697398,0.000002697398,0.99999994,0,0,0,0,0,0,1,1,0,0,0,false,false,true,-586.6,-4511.46,17.01,-0.0047069597,0.00074178446,0.98822886,0.152908,-239.961,211.041,8.311,0,-0.00040999998,5.11361
48.625,2000,0,91.24,0.000002697398,0.000002697398,0.000002697398,0.99999994,0,0,0,0,0,0,1,1,0,0,0,false,false,true,-588.6,-4509.6997,17.01,-0.0047231438,0.00063928333,0.9912622,0.13181965,-247.201,210.021,8.311,0,-0.00040999998,5.1016097
48.633335,2000,0,91.24,0.000002697398,0.000002697398,0.000002697398,0.99999994,0,0,0,0,0,0,1,1,0,0,0,false,false,true,-590.66,-4507.9497,17.01,-0.004739328,0.00053678214,0.99384,0.11072051,-254.391,208.601,8.311,0,-0.00040999998,5.09101
48.641666,2000,0,91.24,0.000002697398,0.000002697398,0.000002697398,0.99999994,0,0,0,0,0,0,1,1,0,0,0,false,false,true,-592.77997,-4506.21,17.01,-0.004750118,0.00043428113,0.99596494,0.089616,-261.511,206.791,8.311,0,-0.00040999998,5.08181
48.65,2000,0,91.24,0.000002697398,0.000002697398,0.000002697398,0.99999994,0,0,0,0,0,0,1,1,0,0,0,false,false,true,-594.95996,-4504.4897,17.01,-0.0047609075,0.00033177997,0.99763924,0.06850607,-268.54102,204.591,8.311,0,-0.00040999998,5.07401
48.658333,2000,0,91.24,0.000002697398,0.000002697398,0.000002697398,0.99999994,0,0,0,0,0,0,1,1,0,0,0,false,false,true,-597.2,-4502.78,17.01,-0.004766302,0.00022927884,0.9988645,0.047401544,-275.461,202.021,8.311,0,-0.00040999998,5.06761
48.666668,2000,0,91.24,0.000002697398,0.000002697398,0.000002697398,0.99999994,0,0,0,0,0,0,1,1,0,0,0,false,false,true,-599.5,-4501.1,17.01,-0.0047716973,0.00012677771,0.9996426,0.026302414,-282.251,199.08101,8.311,0,-0.00040999998,5.0626097
48.675,2000,0,91.24,0.000002697398,0.000002697398,0.000002697398,0.99999994,0,0,0,0,0,0,1,1,0,0,0,false,false,true,-601.85,-4499.44,17.01,-0.0047770925,0.000024276584,0.99997497,0.005214071,-288.891,195.791,8.311,0,-0.00040999998,5.05901
48.683334,2000,0,91.24,0.000002697398,0.000002697398,0.000002697398,0.99999994,0,0,0,0,0,0,1,1,0,0,0,false,false,true,-604.26,-4497.81,17.01,-0.0047770925,-0.00007822455,0.99986273,-0.01586344,-295.331,192.171,8.311,0,-0.00040999998,5.0570097
48.691666,2000,0,91.24,0.000002697398,0.000002697398,0.000002697398,0.99999994,0,0,0,0,0,0,1,1,0,0,0,false,false,true,-606.72,-4496.21,17.01,-0.0047770925,-0.00018072568,0.99930656,-0.036924813,-301.641,188.211,8.311,0,-0.00030999997,5.05621
48.7,2000,0,91.24,0.000002697398,0.000002697398,0.000002697398,0.99999994,0,0,0,0,0,0,1,1,0,0,0,false,false,true,-609.23,-4494.64,17.01,-0.0047716973,-0.0002832268,0.9983069,-0.05797,-307.851,183.881,8.311,0,-0.00021,5.0563097
48.708332,2000,0,91.24,0.000002697398,0.000002697398,0.000002697398,0.99999994,0,0,0,0,0,0,1,1,0,0,0,false,false,true,-611.8,-4493.11,17.01,-0.0047663017,-0.00038572788,0.99686396,-0.078988194,-313.931,179.201,8.311,-0.00010999999,-0.00021,5.05731
48.716667,2000,0,91.24,0.000002697398,0.000002697398,0.000002697398,0.99999994,0,0,0,0,0,0,1,1,0,0,0,false,false,true,-614.42,-4491.62,17.01,-0.0047555133,-0.0004828343,0.99497855,-0.09997405,-319.871,174.181,8.311,-0.00021,-0.00021,5.0591097
