time,ball_loc_x,ball_loc_y,ball_loc_z,ball_rot_x,ball_rot_y,ball_rot_z,ball_rot_w,ball_vel_x,ball_vel_y,ball_vel_z,ball_ang_x,ball_ang_y,ball_ang_z,player0_throttle,player0_steer,player0_pitch,player0_yaw,player0_roll,player0_jump,player0_boost,player0_handbrake,player0_loc_x,player0_loc_y,player0_loc_z,player0_rot_x,player0_rot_y,player0_rot_z,player0_rot_w,player0_vel_x,player0_vel_y,player0_vel_z,player0_ang_x,player0_ang_y,player0_ang_z
110.61667,2000,0,91.24,0.000002697398,0.000002697398,0.000002697398,0.99999994,0,0,0,0,0,0,0.8976378,0,0,0,0,false,false,false,0,-4523.65,17.01,-0.003347471,0.0033366815,0.70708513,0.7071125,0,900.40094,8.321,-0.00081,0,0
110.625,2000,0,91.24,0.000002697398,0.000002697398,0.000002697398,0.99999994,0,0,0,0,0,0,0,1,0,0,0,false,false,true,0,-4516.15,17.01,-0.003347471,0.0033366815,0.70708513,0.7071125,0,905.441,8.321,-0.00081,0,0
110.63333,2000,0,91.24,0.000002697398,0.000002697398,0.000002697398,0.99999994,0,0,0,0,0,0,0,1,0,0,0,false,false,true,0,-4508.6,17.01,-0.003347471,0.0033366815,0.70708513,0.7071125,-13.211,902.60095,8.341001,-0.00111,0.00351,0.36451
110.64167,2000,0,91.24,0.000002697398,0.000002697398,0.000002697398,0.99999994,0,0,0,0,0,0,0,1,0,0,0,false,false,true,-0.11,-4501.08,17.01,-0.003347471,0.003347471,0.7081575,0.70603853,-23.071,900.441,8.351,-0.00131,0.00471,0.62851
110.65,2000,0,91.24,0.000002697398,0.000002697398,0.000002697398,0.99999994,0,0,0,0,0,0,0,1,0,0,0,false,false,true,-0.29999998,-4493.58,17.01,-0.003347471,0.0033582605,0.71000284,0.70418274,-32.131,898.441,8.351,-0.00131,0.00491,0.85541
110.65833,2000,0,91.24,0.000002697398,0.000002697398,0.000002697398,0.99999994,0,0,0,0,0,0,0,1,0,0,0,false,false,true,-0.57,-4486.09,17.01,-0.003347471,0.0033636554,0.7125086,0.70164716,-40.720997,896.54095,8.351,-0.0012099999,0.00461,1.05081
110.666664,2000,0,91.24,0.000002697398,0.000002697398,0.000002697398,0.99999994,0,0,0,0,0,0,0,1,0,0,0,false,false,true,-0.90999997,-4478.62,17.01,-0.003352866,0.0033636556,0.7155764,0.6985183,-49.051,894.691,8.351,-0.0012099999,0.00401,1.21981
110.675,2000,0,91.24,0.000002697398,0.000002697398,0.000002697398,0.99999994,0,0,0,0,0,0,0,1,0,0,0,false,false,true,-1.3199999,-4471.1597,17.01,-0.0033636554,0.0033636554,0.7191183,0.69487125,-57.271,892.86096,8.351,-0.00111,0.00321,1.3666099
110.683334,2000,0,91.24,0.000002697398,0.000002697398,0.000002697398,0.99999994,0,0,0,0,0,0,0,1,0,0,0,false,false,true,-1.8,-4463.7197,17.01,-0.003374445,0.0033582605,0.7230628,0.6907658,-65.471,891.001,8.351,-0.0010099999,0.00241,1.49471
110.691666,2000,0,91.24,0.000002697398,0.000002697398,0.000002697398,0.99999994,0,0,0,0,0,0,0,1,0,0,0,false,false,true,-2.35,-4456.29,17.01,-0.0033906293,0.003347471,0.7273497,0.6862503,-73.701,889.09094,8.351,-0.00091,0.0017099999,1.60711
110.7,2000,0,91.24,0.000002697398,0.000002697398,0.000002697398,0.99999994,0,0,0,0,0,0,0,1,0,0,0,false,false,true,-2.96,-4448.88,17.01,-0.0034122085,0.0033312866,0.7319304,0.6813626,-81.971,887.11096,8.351,-0.00081,0.0010099999,1.70621
110.708336,2000,0,91.24,0.000002697398,0.000002697398,0.000002697398,0.99999994,0,0,0,0,0,0,0,1,0,0,0,false,false,true,-3.6399999,-4441.4897,17.01,-0.003433788,0.0033097076,0.73675716,0.67614055,-90.281,885.04095,8.351,-0.00071,0.00040999998,1.7940099
110.71667,2000,0,91.24,0.000002697398,0.000002697398,0.000002697398,0.99999994,0,0,0,0,0,0,0,1,0,0,0,false,false,true,-4.39,-4434.11,17.01,-0.0034607616,0.0032881282,0.7417891,0.67061615,-98.601,882.871,8.351,-0.00061,0,1.87211
110.725,2000,0,91.24,0.000002697398,0.000002697398,0.000002697398,0.99999994,0,0,0,0,0,0,0,1,0,0,0,false,false,true,-5.21,-4426.75,17.01,-0.0034877358,0.0032611543,0.746996,0.6648113,-106.891,880.59094,8.351,-0.00051,-0.00030999997,1.94181
110.73333,2000,0,91.24,0.000002697398,0.000002697398,0.000002697398,0.99999994,0,0,0,0,0,0,0,1,0,0,0,false,false,true,-6.1,-4419.4097,17.01,-0.0035147096,0.0032341804,0.7523487,0.6587476,-115.101,878.21094,8.351,-0.00040999998,-0.00061,2.00421
110.74167,2000,0,91.24,0.000002697398,0.000002697398,0.000002697398,0.99999994,0,0,0,0,0,0,0,1,0,0,0,false,false,true,-7.06,-4412.09,17.01,-0.0035470785,0.0032018116,0.7578243,0.6524411,-123.181,875.74097,8.351,-0.00030999997,-0.00081,2.06001
110.75,2000,0,91.24,0.000002697398,0.000002697398,0.000002697398,0.99999994,0,0,0,0,0,0,0,1,0,0,0,false,false,true,-8.09,-4404.79,17.01,-0.0035794475,0.003169443,0.7633957,0.64591336,-131.071,873.191,8.351,-0.00021,-0.00091,2.11001
110.75833,2000,0,91.24,0.000002697398,0.000002697398,0.000002697398,0.99999994,0,0,0,0,0,0,0,1,0,0,0,false,false,true,-9.179999,-4397.51,17.01,-0.003611816,0.003137074,0.7690462,0.6391752,-138.701,870.58093,8.351,-0.00010999999,-0.0010099999,2.15471
110.76667,2000,0,91.24,0.000002697398,0.000002697398,0.000002697398,0.99999994,0,0,0,0,0,0,0,1,0,0,0,false,false,true,-10.34,-4390.25,17.01,-0.003644185,0.0031047051,0.77475536,0.63224286,-146.001,867.941,8.351,0,-0.00111,2.19451
110.775,2000,0,91.24,0.000002697398,0.000002697398,0.000002697398,0.99999994,0,0,0,0,0,0,0,1,0,0,0,false,false,true,-11.559999,-4383.02,17.01,-0.0036765535,0.0030669416,0.78050387,0.62513244,-152.901,865.30096,8.351,0,-0.0012099999,2.2297099
110.78333,2000,0,91.24,0.000002697398,0.000002697398,0.000002697398,0.99999994,0,0,0,0,0,0,0,1,0,0,0,false,false,true,-12.83,-4375.81,17.01,-0.0037089223,0.003029178,0.7862775,0.61785483,-159.321,862.7009,8.351,0,-0.0012099999,2.26051
110.791664,2000,0,91.24,0.000002697398,0.000002697398,0.000002697398,0.99999994,0,0,0,0,0,0,0,1,0,0,0,false,false,true,-14.16,-4368.62,17.01,-0.0037412911,0.0029914144,0.7920627,0.6104208,-165.19101,860.191,8.341001,0,-0.0012099999,2.2871099
110.8,2000,0,91.24,0.000002697398,0.000002697398,0.000002697398,0.99999994,0,0,0,0,0,0,0,1,0,0,0,false,false,true,-15.54,-4361.4497,17.01,-0.00377366,0.002953651,0.79784274,0.60284644,-170.421,857.83093,8.341001,0,-0.0012099999,2.30961
110.808334,2000,0,91.24,0.000002697398,0.000002697398,0.000002697398,0.99999994,0,0,0,0,0,0,0,1,0,0,0,false,false,true,-16.96,-4354.3,17.01,-0.003806029,0.0029158876,0.8036057,0.5951427,-174.94101,855.691,8.341001,0.00010999999,-0.0012099999,2.32811
110.816666,2000,0,91.24,0.000002697398,0.000002697398,0.000002697398,0.99999994,0,0,0,0,0,0,0,1,0,0,0,false,false,true,-18.42,-4347.17,17.01,-0.0038383976,0.0028781237,0.80934036,0.5873202,-178.651,853.84094,8.331,0.00021,-0.0012099999,2.34261
110.825,2000,0,91.24,0.000002697398,0.000002697398,0.000002697398,0.99999994,0,0,0,0,0,0,0,1,0,0,0,false,false,true,-19.91,-4340.05,17.01,-0.0038707664,0.0028349652,0.81503636,0.5793898,-181.47101,852.36096,8.331,0.00030999997,-0.0012099999,2.35321
110.833336,2000,0,91.24,0.000002697398,0.000002697398,0.000002697398,0.99999994,0,0,0,0,0,0,0,1,0,0,0,false,false,true,-21.42,-4332.9497,17.01,-0.003903135,0.002791807,0.82067627,0.5713731,-184.401,850.751,8.331,0.00030999997,-0.00111,2.36341
110.84167,2000,0,91.24,0.000002697398,0.000002697398,0.000002697398,0.99999994,0,0,0,0,0,0,0,1,0,0,0,false,false,true,-22.96,-4325.86,17.01,-0.003935504,0.0027486486,0.8262625,0.56326467,-187.44101,849.011,8.331,0.00030999997,-0.0010099999,2.3733099
110.85,2000,0,91.24,0.000002697398,0.000002697398,0.000002697398,0.99999994,0,0,0,0,0,0,0,1,0,0,0,false,false,true,-24.519999,-4318.78,17.01,-0.0039678724,0.0027054902,0.8317933,0.55506456,-190.571,847.1409,8.331,0.00030999997,-0.00091,2.3828099
110.85833,2000,0,91.24,0.000002697398,0.000002697398,0.000002697398,0.99999994,0,0,0,0,0,0,0,1,0,0,0,false,false,true,-26.109999,-4311.7197,17.01,-0.0039948463,0.0026623318,0.83726364,0.54677814,-193.791,845.131,8.331,0.00030999997,-0.00081,2.39201
110.86667,2000,0,91.24,0.000002697398,0.000002697398,0.000002697398,0.99999994,0,0,0,0,0,0,0,1,0,0,0,false,false,true,-27.72,-4304.6797,17.01,-0.00402182,0.0026191734,0.8426722,0.53840536,-197.091,842.99097,8.331,0.00030999997,-0.00071,2.40091
110.875,2000,0,91.24,0.000002697398,0.000002697398,0.000002697398,0.99999994,0,0,0,0,0,0,0,1,0,0,0,false,false,true,-29.359999,-4297.65,17.01,-0.0040487945,0.0025760152,0.8480175,0.5299463,-200.461,840.71094,8.331,0.00030999997,-0.00061,2.40951
110.88333,2000,0,91.24,0.000002697398,0.000002697398,0.000002697398,0.99999994,0,0,0,0,0,0,0,1,0,0,0,false,false,true,-31.029999,-4290.64,17.01,-0.004075769,0.002532857,0.85329497,0.5214064,-203.891,838.29095,8.331,0.00030999997,-0.00051,2.41771
110.89167,2000,0,91.24,0.000002697398,0.000002697398,0.000002697398,0.99999994,0,0,0,0,0,0,0,1,0,0,0,false,false,true,-32.73,-4283.65,17.01,-0.0041027423,0.0024896984,0.85850334,0.5127854,-207.371,835.73096,8.331,0.00030999997,-0.00051,2.42561
110.9,2000,0,91.24,0.000002697398,0.000002697398,0.000002697398,0.99999994,0,0,0,0,0,0,0,1,0,0,0,false,false,true,-34.46,-4276.69,17.01,-0.004129716,0.00244654,0.86364144,0.5040836,-210.891,833.03094,8.331,0.00030999997,-0.00040999998,2.43311
110.90833,2000,0,91.24,0.000002697398,0.000002697398,0.000002697398,0.99999994,0,0,0,0,0,0,0,1,0,0,0,false,false,true,-36.219997,-4269.75,17.01,-0.00415669,0.0024033815,0.8687082,0.4953008,-214.451,830.191,8.331,0.00030999997,-0.00040999998,2.44031
110.916664,2000,0,91.24,0.000002697398,0.000002697398,0.000002697398,0.99999994,0,0,0,0,0,0,0,1,0,0,0,false,false,true,-38.01,-4262.83,17.01,-0.0041836645,0.0023602233,0.8736993,0.48644254,-218.031,827.21094,8.331,0.00030999997,-0.00030999997,2.4472098
110.925,2000,0,91.24,0.000002697398,0.000002697398,0.000002697398,0.99999994,0,0,0,0,0,0,0,1,0,0,0,false,false,true,-39.829998,-4255.94,17.01,-0.0042106383,0.002317065,0.87861377,0.47750875,-221.631,824.09094,8.331,0.00030999997,-0.00021,2.4537098
110.933334,2000,0,91.24,0.000002697398,0.000002697398,0.000002697398,0.99999994,0,0,0,0,0,0,0,1,0,0,0,false,false,true,-41.68,-4249.07,17.01,-0.004232218,0.0022739067,0.88345075,0.4684994,-225.241,820.84094,8.331,0.00030999997,-0.00021,2.45981
110.941666,2000,0,91.24,0.000002697398,0.000002697398,0.000002697398,0.99999994,0,0,0,0,0,0,0,1,0,0,0,false,false,true,-43.559998,-4242.23,17.01,-0.0042537972,0.0022307483,0.8882062,0.45941994,-228.851,817.451,8.331,0.00030999997,-0.00021,2.46561
110.95,2000,0,91.24,0.000002697398,0.000002697398,0.000002697398,0.99999994,0,0,0,0,0,0,0,1,0,0,0,false,false,true,-45.469997,-4235.42,17.01,-0.004275376,0.0021875896,0.8928793,0.45027027,-232.461,813.93097,8.331,0.00030999997,-0.00021,2.47101
110.958336,2000,0,91.24,0.000002697398,0.000002697398,0.000002697398,0.99999994,0,0,0,0,0,0,0,1,0,0,0,false,false,true,-47.41,-4228.64,17.01,-0.0042969557,0.0021444317,0.8974667,0.44105598,-236.061,810.27094,8.331,0.00030999997,-0.00021,2.47611
110.96667,2000,0,91.24,0.000002697398,0.000002697398,0.000002697398,0.99999994,0,0,0,0,0,0,0,1,0,0,0,false,false,true,-49.379997,-4221.89,17.01,-0.0043185344,0.0020958784,0.9019702,0.43177152,-239.631,806.48096,8.331,0.00030999997,-0.00021,2.48081
110.975,2000,0,91.24,0.000002697398,0.000002697398,0.000002697398,0.99999994,0,0,0,0,0,0,0,1,0,0,0,false,false,true,-51.379997,-4215.17,17.01,-0.0043401127,0.0020473248,0.9063838,0.42242756,-243.181,802.571,8.331,0.00030999997,-0.00021,2.48511
110.98333,2000,0,91.24,0.000002697398,0.000002697398,0.000002697398,0.99999994,0,0,0,0,0,0,0,1,0,0,0,false,false,true,-53.41,-4208.48,17.01,-0.0043616924,0.001998772,0.9107097,0.4130191,-246.691,798.53094,8.331,0.00021,-0.00021,2.4890099
110.99167,2000,0,91.24,0.000002697398,0.000002697398,0.000002697398,0.99999994,0,0,0,0,0,0,0,1,0,0,0,false,false,true,-55.469997,-4201.83,17.01,-0.0043832716,0.0019502188,0.9149444,0.40355116,-250.161,794.371,8.331,0.00021,-0.00021,2.4925098
111,2000,0,91.24,0.000002697398,0.000002697398,0.000002697398,0.99999994,0,0,0,0,0,0,0,1,0,0,0,false,false,true,-57.55,-4195.21,17.01,-0.004404851,0.0019016657,0.91908526,0.39402932,-253.58101,790.09094,8.331,0.00010999999,-0.00021,2.49561
111.00833,2000,0,91.24,0.000002697398,0.000002697398,0.000002697398,0.99999994,0,0,0,0,0,0,0,1,0,0,0,false,false,true,-59.66,-4188.63,17.01,-0.00442643,0.0018531125,0.9231318,0.38445348,-256.951,785.701,8.331,0.00010999999,-0.00010999999,2.4983099
111.01667,2000,0,91.24,0.000002697398,0.000002697398,0.000002697398,0.99999994,0,0,0,0,0,0,0,1,0,0,0,false,false,true,-61.8,-4182.08,17.01,-0.004448009,0.0018045594,0.92708355,0.37482378,-260.261,781.201,8.331,0.00010999999,0,2.5006099
111.025,2000,0,91.24,0.000002697398,0.000002697398,0.000002697398,0.99999994,0,0,0,0,0,0,0,1,0,0,0,false,false,true,-63.969997,-4175.57,17.01,-0.0044641932,0.0017560059,0.93093795,0.36514547,-263.501,776.59094,8.331,0.00010999999,0,2.5025098
111.03333,2000,0,91.24,0.000002697398,0.000002697398,0.000002697398,0.99999994,0,0,0,0,0,0,0,1,0,0,0,false,false,true,-66.17,-4169.1,17.01,-0.004480378,0.0017074527,0.93469477,0.35541856,-266.671,771.881,8.331,0,0,2.50401
111.041664,2000,0,91.24,0.000002697398,0.000002697398,0.000002697398,0.99999994,0,0,0,0,0,0,0,1,0,0,0,false,false,true,-68.39,-4162.67,17.01,-0.004496562,0.0016588996,0.93835163,0.3456486,-269.761,767.071,8.331,0,0,2.50501
111.05,2000,0,91.24,0.000002697398,0.000002697398,0.000002697398,0.99999994,0,0,0,0,0,0,0,1,0,0,0,false,false,true,-70.64,-4156.28,17.01,-0.004512747,0.0016103466,0.9419084,0.3358354,-272.771,762.17096,8.331,0,0,2.50561
111.058334,2000,0,91.24,0.000002697398,0.000002697398,0.000002697398,0.99999994,0,0,0,0,0,0,0,1,0,0,0,false,false,true,-72.909996,-4149.9297,17.01,-0.0045289313,0.0015617935,0.9453629,0.3259845,-275.691,757.18097,8.331,0,0,2.50581
111.066666,2000,0,91.24,0.000002697398,0.000002697398,0.000002697398,0.99999994,0,0,0,0,0,0,0,1,0,0,0,false,false,true,-75.21,-4143.62,17.01,-0.004545116,0.0015132404,0.94871515,0.3160958,-278.521,752.11096,8.331,0,0,2.5055099
111.075,2000,0,91.24,0.000002697398,0.000002697398,0.000002697398,0.99999994,0,0,0,0,0,0,0,1,0,0,0,false,false,true,-77.53,-4137.35,17.01,-0.0045612995,0.001464687,0.9519631,0.3061747,-281.251,746.97095,8.331,0,0,2.5048099
111.083336,2000,0,91.24,0.000002697398,0.000002697398,0.000002697398,0.99999994,0,0,0,0,0,0,0,1,0,0,0,false,false,true,-79.869995,-4131.13,17.01,-0.004577485,0.0014161341,0.9551073,0.2962213,-283.881,741.761,8.331,0,0,2.50361
111.09167,2000,0,91.24,0.000002697398,0.000002697398,0.000002697398,0.99999994,0,0,0,0,0,0,0,1,0,0,0,false,false,true,-82.24,-4124.9497,17.01,-0.0045936694,0.001367581,0.9581457,0.2862409,-286.401,736.48096,8.331,0,0,2.5020099
111.1,2000,0,91.24,0.000002697398,0.000002697398,0.000002697398,0.99999994,0,0,0,0,0,0,0,1,0,0,0,false,false,true,-84.63,-4118.81,17.01,-0.004609853,0.0013190276,0.961077,0.27623892,-288.821,731.1409,8.331,0,0,2.4999099
111.10833,2000,0,91.24,0.000002697398,0.000002697398,0.000002697398,0.99999994,0,0,0,0,0,0,0,1,0,0,0,false,false,true,-87.04,-4112.7197,17.01,-0.004620643,0.0012704745,0.96390164,0.2662153,-291.131,725.751,8.331,0,0,2.49731
111.11667,2000,0,91.24,0.000002697398,0.000002697398,0.000002697398,0.99999994,0,0,0,0,0,0,0,1,0,0,0,false,false,true,-89.47,-4106.67,17.01,-0.004631432,0.0012219212,0.9666197,0.25617015,-293.331,720.321,8.331,0,0,2.49431
111.125,2000,0,91.24,0.000002697398,0.000002697398,0.000002697398,0.99999994,0,0,0,0,0,0,0,1,0,0,0,false,false,true,-91.909996,-4100.67,17.01,-0.004642222,0.0011733681,0.9692303,0.24610883,-295.411,714.85095,8.331,0,0,2.49081
111.13333,2000,0,91.24,0.000002697398,0.000002697398,0.000002697398,0.99999994,0,0,0,0,0,0,0,1,0,0,0,false,false,true,-94.369995,-4094.71,17.01,-0.004653012,0.0011248151,0.9717323,0.23603676,-297.371,709.34094,8.331,0,0,2.48681
111.14167,2000,0,91.24,0.000002697398,0.000002697398,0.000002697398,0.99999994,0,0,0,0,0,0,0,1,0,0,0,false,false,true,-96.85,-4088.7998,17.01,-0.0046638013,0.0010762617,0.9741262,0.22595379,-299.221,703.811,8.331,0,-0.00010999999,2.48231
111.15,2000,0,91.24,0.000002697398,0.000002697398,0.000002697398,0.99999994,0,0,0,0,0,0,0,1,0,0,0,false,false,true,-99.34,-4082.93,17.01,-0.004674591,0.0010277088,0.97641134,0.21586554,-300.951,698.251,8.331,0,-0.00010999999,2.47731
111.15833,2000,0,91.24,0.000002697398,0.000002697398,0.000002697398,0.99999994,0,0,0,0,0,0,0,1,0,0,0,false,false,true,-101.85,-4077.1099,17.01,-0.0046853805,0.0009791554,0.9785871,0.20577717,-302.561,692.68097,8.331,0,-0.00010999999,2.4718099
111.166664,2000,0,91.24,0.000002697398,0.000002697398,0.000002697398,0.99999994,0,0,0,0,0,0,0,1,0,0,0,false,false,true,-104.369995,-4071.3398,17.01,-0.0046961694,0.0009306022,0.9806542,0.19568887,-304.051,687.10095,8.331,0,-0.00010999999,2.46581
111.175,2000,0,91.24,0.000002697398,0.000002697398,0.000002697398,0.99999994,0,0,0,0,0,0,0,1,0,0,0,false,false,true,-106.899994,-4065.6099,17.01,-0.00470696,0.0008820492,0.98261255,0.18560596,-305.411,681.52094,8.331,0,-0.00010999999,2.45931
111.183334,2000,0,91.24,0.000002697398,0.000002697398,0.000002697398,0.99999994,0,0,0,0,0,0,0,1,0,0,0,false,false,true,-109.45,-4059.93,17.01,-0.0047177495,0.00083349604,0.9844627,0.17552847,-306.651,675.951,8.331,0,-0.00010999999,2.4523098
111.191666,2000,0,91.24,0.000002697398,0.000002697398,0.000002697398,0.99999994,0,0,0,0,0,0,0,1,0,0,0,false,false,true,-112.009995,-4054.2998,17.01,-0.004728538,0.00078494276,0.98620445,0.16546166,-307.771,670.391,8.331,0,-0.00010999999,2.44481
111.2,2000,0,91.24,0.000002697398,0.000002697398,0.000002697398,0.99999994,0,0,0,0,0,0,0,1,0,0,0,false,false,true,-114.57,-4048.71,17.01,-0.0047393288,0.0007363897,0.98783904,0.15540579,-308.771,664.85095,8.331,0,-0.00010999999,2.43681
111.208336,2000,0,91.24,0.000002697398,0.000002697398,0.000002697398,0.99999994,0,0,0,0,0,0,0,1,0,0,0,false,false,true,-117.14,-4043.17,17.01,-0.0047447234,0.00068783655,0.9893663,0.14536607,-309.661,659.33093,8.331,0,0,2.42821
111.21667,2000,0,91.24,0.000002697398,0.000002697398,0.000002697398,0.99999994,0,0,0,0,0,0,0,1,0,0,0,false,false,true,-119.71999,-4037.68,17.01,-0.004750118,0.0006392834,0.9907865,0.13534786,-310.431,653.84094,8.331,0,0,2.41911
111.225,2000,0,91.24,0.000002697398,0.000002697398,0.000002697398,0.99999994,0,0,0,0,0,0,0,1,0,0,0,false,false,true,-122.31,-4032.23,17.01,-0.004755513,0.00059073017,0.9921001,0.12535667,-311.081,648.391,8.331,0,0,2.40951
111.23333,2000,0,91.24,0.000002697398,0.000002697398,0.000002697398,0.99999994,0,0,0,0,0,0,0,1,0,0,0,false,false,true,-124.899994,-4026.8298,17.01,-0.0047609075,0.000542177,0.99330837,0.11539242,-311.621,642.98096,8.331,0,0,2.3993099
111.24167,2000,0,91.24,0.000002697398,0.000002697398,0.000002697398,0.99999994,0,0,0,0,0,0,0,1,0,0,0,false,false,true,-127.5,-4021.47,17.01,-0.0047663017,0.0004936238,0.99441236,0.10545518,-312.051,637.621,8.331,0,0,2.38861
111.25,2000,0,91.24,0.000002697398,0.000002697398,0.000002697398,0.99999994,0,0,0,0,0,0,0,1,0,0,0,false,false,true,-130.09999,-4016.16,17.01,-0.0047716973,0.0004450707,0.9954125,0.09555567,-312.371,632.311,8.331,0,0,2.37731
111.25833,2000,0,91.24,0.000002697398,0.000002697398,0.000002697398,0.99999994,0,0,0,0,0,0,0,1,0,0,0,false,false,true,-132.7,-4010.89,17.01,-0.0047770925,0.00039651754,0.9963104,0.08568859,-312.591,627.061,8.331,0,0,2.36551
111.26667,2000,0,91.24,0.000002697398,0.000002697398,0.000002697398,0.99999994,0,0,0,0,0,0,0,1,0,0,0,false,false,true,-135.3,-4005.66,17.01,-0.0047824867,0.00034796435,0.99710655,0.07586457,-312.701,621.871,8.331,0,0,2.3531098
111.275,2000,0,91.24,0.000002697398,0.000002697398,0.000002697398,0.99999994,0,0,0,0,0,0,0,1,0,0,0,false,false,true,-137.91,-4000.48,17.01,-0.004787882,0.00029941121,0.9978025,0.06608381,-312.711,616.751,8.331,0,0,2.34011
111.28333,2000,0,91.24,0.000002697398,0.000002697398,0.000002697398,0.99999994,0,0,0,0,0,0,0,1,0,0,0,false,false,true,-140.52,-3995.3398,17.01,-0.004787881,0.000250858,0.9983993,0.056351587,-312.631,611.701,8.331,0,0,2.3266098
111.291664,2000,0,91.24,0.000002697398,0.000002697398,0.000002697398,0.99999994,0,0,0,0,0,0,0,1,0,0,0,false,false,true,-143.12999,-3990.24,17.01,-0.004787882,0.00020230487,0.9988989,0.046667855,-312.461,606.73096,8.331,0,0,2.31251
111.3,2000,0,91.24,0.000002697398,0.000002697398,0.000002697398,0.99999994,0,0,0,0,0,0,0,1,0,0,0,false,false,true,-145.73,-3985.18,17.01,-0.004787882,0.0001537517,0.99930215,0.037043538,-312.201,601.85095,8.331,0,0,2.2978098
111.308334,2000,0,91.24,0.000002697398,0.000002697398,0.000002697398,0.99999994,0,0,0,0,0,0,0,1,0,0,0,false,false,true,-148.33,-3980.16,17.01,-0.0047878814,0.00011059332,0.999611,0.027473083,-311.861,597.05096,8.331,0,0,2.28251
111.316666,2000,0,91.24,0.000002697398,0.000002697398,0.000002697398,0.99999994,0,0,0,0,0,0,0,1,0,0,0,false,false,true,-150.93,-3975.18,17.01,-0.0047878814,0.00006743495,0.999827,0.017967451,-311.441,592.34094,8.331,0,0,2.26661
111.325,2000,0,91.24,0.000002697398,0.000002697398,0.000002697398,0.99999994,0,0,0,0,0,0,0,1,0,0,0,false,false,true,-153.53,-3970.24,17.01,-0.004787882,0.000024276584,0.99995214,0.008526476,-310.941,587.73096,8.331,0,0,2.25011
111.333336,2000,0,91.24,0.000002697398,0.000002697398,0.000002697398,0.99999994,0,0,0,0,0,0,0,1,0,0,0,false,false,true,-156.12,-3965.3398,17.01,-0.004787882,-0.000018881788,0.99998814,-0.00084968045,-310.371,583.22095,8.331,0,-0.00010999999,2.23291
111.34167,2000,0,91.24,0.000002697398,0.000002697398,0.000002697398,0.99999994,0,0,0,0,0,0,0,1,0,0,0,false,false,true,-158.70999,-3960.48,17.01,-0.004787882,-0.00006204016,0.99993694,-0.010155747,-309.741,578.811,8.331,0,-0.00010999999,2.21511
111.35,2000,0,91.24,0.000002697398,0.000002697398,0.000002697398,0.99999994,0,0,0,0,0,0,0,1,0,0,0,false,false,true,-161.29,-3955.66,17.01,-0.004787881,-0.00010519851,0.99980044,-0.019386282,-309.051,574.511,8.331,0,-0.00010999999,2.19661
111.35833,2000,0,91.24,0.000002697398,0.000002697398,0.000002697398,0.99999994,0,0,0,0,0,0,0,1,0,0,0,false,false,true,-163.87,-3950.8699,17.01,-0.0047878814,-0.00014835689,0.9995812,-0.0285359,-308.301,570.321,8.331,0,-0.00010999999,2.17751
111.36667,2000,0,91.24,0.000002697398,0.000002697398,0.000002697398,0.99999994,0,0,0,0,0,0,0,1,0,0,0,false,false,true,-166.44,-3946.1199,17.01,-0.004787882,-0.00019151528,0.99928117,-0.037604555,-307.501,566.24097,8.331,0,-0.00010999999,2.15771
111.375,2000,0,91.24,0.000002697398,0.000002697398,0.000002697398,0.99999994,0,0,0,0,0,0,0,1,0,0,0,false,false,true,-169,-3941.4,17.01,-0.0047878814,-0.00023467363,0.9989027,-0.04658693,-306.661,562.27094,8.331,0.00010999999,-0.00010999999,2.13721
111.38333,2000,0,91.24,0.000002697398,0.000002697398,0.000002697398,0.99999994,0,0,0,0,0,0,0,1,0,0,0,false,false,true,-171.56,-3936.71,17.01,-0.0047878814,-0.000277832,0.9984484,-0.055477597,-305.781,558.42096,8.331,0.00010999999,0,2.11601
111.39167,2000,0,91.24,0.000002697398,0.000002697398,0.000002697398,0.99999994,0,0,0,0,0,0,0,1,0,0,0,false,false,true,-174.11,-3932.0598,17.01,-0.0047878814,-0.00032099037,0.9979205,-0.064276546,-304.871,554.691,8.331,0.00010999999,0,2.09411
111.4,2000,0,91.24,0.000002697398,0.000002697398,0.000002697398,0.99999994,0,0,0,0,0,0,0,1,0,0,0,false,false,true,-176.65,-3927.44,17.01,-0.0047824867,-0.00036414873,0.99732155,-0.072983794,-303.911,551.04095,8.331,0.00010999999,0,2.07301
111.40833,2000,0,91.24,0.000002697398,0.000002697398,0.000002697398,0.99999994,0,0,0,0,0,0,0,1,0,0,0,false,false,true,-179.18,-3922.8499,17.01,-0.0047770916,-0.00040730706,0.996654,-0.08159388,-302.891,547.46094,8.331,0.00010999999,0,2.05281
111.416664,2000,0,91.24,0.000002697398,0.000002697398,0.000002697398,0.99999994,0,0,0,0,0,0,0,1,0,0,0,false,false,true,-181.7,-3918.2898,17.01,-0.0047716973,-0.0004504655,0.9959196,-0.090117715,-301.831,543.96094,8.331,0.00010999999,0,2.03351
111.425,2000,0,91.24,0.000002697398,0.000002697398,0.000002697398,0.99999994,0,0,0,0,0,0,0,1,0,0,0,false,false,true,-184.22,-3913.76,17.01,-0.004766302,-0.00049362384,0.99512,-0.098555215,-300.731,540.54095,8.331,0,0,2.0150099
111.433334,2000,0,91.24,0.000002697398,0.000002697398,0.000002697398,0.99999994,0,0,0,0,0,0,0,1,0,0,0,false,false,true,-186.73,-3909.26,17.01,-0.0047609075,-0.0005313874,0.9942575,-0.1069064,-299.591,537.21094,8.331,0,0,1.9973099
111.441666,2000,0,91.24,0.000002697398,0.000002697398,0.000002697398,0.99999994,0,0,0,0,0,0,0,1,0,0,0,false,false,true,-189.23,-3904.78,17.01,-0.0047555123,-0.0005691509,0.99333334,-0.11517661,-298.421,533.97095,8.331,0,0,1.98041
111.45,2000,0,91.24,0.000002697398,0.000002697398,0.000002697398,0.99999994,0,0,0,0,0,0,0,1,0,0,0,false,false,true,-191.72,-3900.3298,17.01,-0.004750118,-0.00060691463,0.99234897,-0.12337137,-297.221,530.821,8.331,0,0,1.9642099
111.458336,2000,0,91.24,0.000002697398,0.000002697398,0.000002697398,0.99999994,0,0,0,0,0,0,0,1,0,0,0,false,false,true,-194.2,-3895.91,17.01,-0.0047447234,-0.0006446782,0.9913058,-0.13149057,-296.001,527.761,8.331,0,0,1.94861
111.46667,2000,0,91.24,0.000002697398,0.000002697398,0.000002697398,0.99999994,0,0,0,0,0,0,0,1,0,0,0,false,false,true,-196.67,-3891.51,17.01,-0.0047393288,-0.00068244175,0.99020565,-0.13953426,-294.761,524.80096,8.331,0,0,1.93371
111.475,2000,0,91.24,0.000002697398,0.000002697398,0.000002697398,0.99999994,0,0,0,0,0,0,0,1,0,0,0,false,false,true,-199.12999,-3887.14,17.01,-0.0047339336,-0.00072020525,0.98904926,-0.14750776,-293.481,521.90094,8.331,0,0,1.92031
111.48333,2000,0,91.24,0.000002697398,0.000002697398,0.000002697398,0.99999994,0,0,0,0,0,0,0,1,0,0,0,false,false,true,-201.58,-3882.7898,17.01,-0.004728538,-0.0007579688,0.98783726,-0.15541656,-292.141,519.05096,8.331,0,0,1.9090099
111.49167,2000,0,91.24,0.000002697398,0.000002697398,0.000002697398,0.99999994,0,0,0,0,0,0,0,1,0,0,0,false,false,true,-204.01,-3878.46,17.01,-0.004723144,-0.0007957325,0.9865695,-0.16327146,-290.741,516.24097,8.331,0,0,1.89981
111.5,2000,0,91.24,0.000002697398,0.000002697398,0.000002697398,0.99999994,0,0,0,0,0,0,0,1,0,0,0,false,false,true,-206.43,-3874.16,17.01,-0.004717749,-0.000833496,0.9852458,-0.17107771,-289.29102,513.48096,8.331,0,0,1.89261
111.50833,2000,0,91.24,0.000002697398,0.000002697398,0.000002697398,0.99999994,0,0,0,0,0,0,0,1,0,0,0,false,false,true,-208.84,-3869.88,17.01,-0.004712355,-0.00087125966,0.98386633,-0.17884088,-287.801,510.781,8.331,0,0,1.8873099
111.51667,2000,0,91.24,0.000002697398,0.000002697398,0.000002697398,0.99999994,0,0,0,0,0,0,0,1,0,0,0,false,false,true,-211.23999,-3865.6199,17.01,-0.00470696,-0.0009090232,0.9824296,-0.18657166,-286.261,508.141,8.331,0,0,1.88401
111.525,2000,0,91.24,0.000002697398,0.000002697398,0.000002697398,0.99999994,0,0,0,0,0,0,0,1,0,0,0,false,false,true,-213.62999,-3861.38,17.01,-0.0047015646,-0.0009467867,0.9809352,-0.19427545,-284.681,505.561,8.331,0,0,1.88261
111.53333,2000,0,91.24,0.000002697398,0.000002697398,0.000002697398,0.99999994,0,0,0,0,0,0,0,1,0,0,0,false,false,true,-216,-3857.17,17.01,-0.0046961703,-0.0009845503,0.9793814,-0.20196305,-283.071,503.051,8.331,-0.00010999999,0,1.8830099
111.541664,2000,0,91.24,0.000002697398,0.000002697398,0.000002697398,0.99999994,0,0,0,0,0,0,0,1,0,0,0,false,false,true,-218.36,-3852.98,17.01,-0.004690775,-0.0010223138,0.9777668,-0.20963988,-281.431,500.611,8.331,-0.00021,0,1.8853099
111.55,2000,0,91.24,0.000002697398,0.000002697398,0.000002697398,0.99999994,0,0,0,0,0,0,0,1,0,0,0,false,false,true,-220.70999,-3848.8098,17.01,-0.0046799853,-0.0010600775,0.9760893,-0.21731672,-279.751,498.221,8.331,-0.00021,0,1.8889099
111.558334,2000,0,91.24,0.000002697398,0.000002697398,0.000002697398,0.99999994,0,0,0,0,0,0,0,1,0,0,0,false,false,true,-223.04,-3844.66,17.01,-0.0046691964,-0.0010978411,0.9743484,-0.22499353,-278.011,495.841,8.331,-0.00021,0,1.89291
111.566666,2000,0,91.24,0.000002697398,0.000002697398,0.000002697398,0.99999994,0,0,0,0,0,0,0,1,0,0,0,false,false,true,-225.36,-3840.53,17.01,-0.004658406,-0.0011356046,0.9725438,-0.23267035,-276.221,493.471,8.331,-0.00021,-0.00010999999,1.89731
111.575,2000,0,91.24,0.000002697398,0.000002697398,0.000002697398,0.99999994,0,0,0,0,0,0,0,1,0,0,0,false,false,true,-227.65999,-3836.42,17.01,-0.0046476163,-0.001173368,0.9706737,-0.24035256,-274.381,491.121,8.331,-0.00030999997,-0.00010999999,1.90211
111.583336,2000,0,91.24,0.000002697398,0.000002697398,0.000002697398,0.99999994,0,0,0,0,0,0,0,1,0,0,0,false,false,true,-229.95,-3832.3298,17.01,-0.004636827,-0.0012111317,0.96873784,-0.24804017,-272.491,488.791,8.331,-0.00030999997,-0.00021,1.90721
111.59167,2000,0,91.24,0.000002697398,0.000002697398,0.000002697398,0.99999994,0,0,0,0,0,0,0,1,0,0,0,false,false,true,-232.22,-3828.26,17.01,-0.0046260376,-0.0012488953,0.9667369,-0.25572777,-270.551,486.481,8.331,-0.00030999997,-0.00021,1.91271
111.6,2000,0,91.24,0.000002697398,0.000002697398,0.000002697398,0.99999994,0,0,0,0,0,0,0,1,0,0,0,false,false,true,-234.47,-3824.21,17.01,-0.0046152486,-0.0012866589,0.9646676,-0.2634262,-268.571,484.201,8.331,-0.00030999997,-0.00030999997,1.91851
111.60833,2000,0,91.24,0.000002697398,0.000002697398,0.000002697398,0.99999994,0,0,0,0,0,0,0,1,0,0,0,false,false,true,-236.70999,-3820.17,17.01,-0.004604459,-0.0013244225,0.9625308,-0.27113003,-266.551,481.951,8.331,-0.00030999997,-0.00030999997,1.92461
111.61667,2000,0,91.24,0.000002697398,0.000002697398,0.000002697398,0.99999994,0,0,0,0,0,0,0,1,0,0,0,false,false,true,-238.93,-3816.15,17.01,-0.0045936685,-0.0013621859,0.9603257,-0.27883914,-264.501,479.741,8.331,-0.00030999997,-0.00030999997,1.93101
111.625,2000,0,91.24,0.000002697398,0.000002697398,0.000002697398,0.99999994,0,0,0,0,0,0,0,1,0,0,0,false,false,true,-241.12999,-3812.15,17.01,-0.004582879,-0.0013999495,0.9580505,-0.28655916,-262.421,477.57098,8.331,-0.00040999998,-0.00040999998,1.9377099
111.63333,2000,0,91.24,0.000002697398,0.000002697398,0.000002697398,0.99999994,0,0,0,0,0,0,0,1,0,0,0,false,false,true,-243.31999,-3808.17,17.01,-0.00457209,-0.0014323185,0.9557058,-0.29428458,-260.311,475.441,8.331,-0.00040999998,-0.00040999998,1.94471
111.64167,2000,0,91.24,0.000002697398,0.000002697398,0.000002697398,0.99999994,0,0,0,0,0,0,0,1,0,0,0,false,false,true,-245.48999,-3804.21,17.01,-0.0045613,-0.0014646872,0.9532893,-0.3020207,-258.171,473.361,8.331,-0.00040999998,-0.00040999998,1.9520099
111.65,2000,0,91.24,0.000002697398,0.000002697398,0.000002697398,0.99999994,0,0,0,0,0,0,0,1,0,0,0,false,false,true,-247.64,-3800.26,17.01,-0.0045505106,-0.0014970559,0.9508019,-0.30976227,-256.001,471.311,8.331,-0.00030999997,-0.00040999998,1.95911
111.65833,2000,0,91.24,0.000002697398,0.000002697398,0.000002697398,0.99999994,0,0,0,0,0,0,0,1,0,0,0,false,false,true,-249.76999,-3796.3298,17.01,-0.004539721,-0.0015348196,0.94824123,-0.31751466,-253.761,469.251,8.331,-0.00021,-0.00040999998,1.96521
111.666664,2000,0,91.24,0.000002697398,0.000002697398,0.000002697398,0.99999994,0,0,0,0,0,0,0,1,0,0,0,false,false,true,-251.87999,-3792.42,17.01,-0.004528931,-0.001572583,0.9456099,-0.32526693,-251.461,467.191,8.331,-0.00021,-0.00030999997,1.97031
111.675,2000,0,91.24,0.000002697398,0.000002697398,0.000002697398,0.99999994,0,0,0,0,0,0,0,1,0,0,0,false,false,true,-253.98,-3788.53,17.01,-0.0045181415,-0.0016103466,0.94290775,-0.33301932,-249.11101,465.13098,8.331,-0.00021,-0.00030999997,1.9744099
111.683334,2000,0,91.24,0.000002697398,0.000002697398,0.000002697398,0.99999994,0,0,0,0,0,0,0,1,0,0,0,false,false,true,-256.06,-3784.65,17.01,-0.004507352,-0.0016481102,0.9401357,-0.3407663,-246.701,463.081,8.331,-0.00021,-0.00021,1.97751
111.691666,2000,0,91.24,0.000002697398,0.000002697398,0.000002697398,0.99999994,0,0,0,0,0,0,0,1,0,0,0,false,false,true,-258.12,-3780.7898,17.01,-0.0044965623,-0.0016858738,0.9372955,-0.3485025,-244.241,461.041,8.331,-0.00021,-0.00021,1.97971
111.7,2000,0,91.24,0.000002697398,0.000002697398,0.000002697398,0.99999994,0,0,0,0,0,0,0,1,0,0,0,false,false,true,-260.16,-3776.95,17.01,-0.004480378,-0.0017236371,0.9343887,-0.3562224,-241.731,459.011,8.331,-0.00021,-0.00010999999,1.98091
111.708336,2000,0,91.24,0.000002697398,0.000002697398,0.000002697398,0.99999994,0,0,0,0,0,0,0,1,0,0,0,false,false,true,-262.16998,-3773.1199,17.01,-0.0044641937,-0.001761401,0.93141747,-0.36392084,-239.171,457.001,8.331,-0.00021,-0.00010999999,1.98111
111.71667,2000,0,91.24,0.000002697398,0.000002697398,0.000002697398,0.99999994,0,0,0,0,0,0,0,1,0,0,0,false,false,true,-264.16,-3769.3098,17.01,-0.004448009,-0.0017991646,0.9283814,-0.37159768,-236.561,455.011,8.331,-0.00021,-0.00010999999,1.98041
111.725,2000,0,91.24,0.000002697398,0.000002697398,0.000002697398,0.99999994,0,0,0,0,0,0,0,1,0,0,0,false,false,true,-266.13,-3765.52,17.01,-0.004431825,-0.0018369282,0.9252828,-0.37924755,-233.911,453.041,8.331,-0.00021,-0.00010999999,1.9787099
111.73333,2000,0,91.24,0.000002697398,0.000002697398,0.000002697398,0.99999994,0,0,0,0,0,0,0,1,0,0,0,false,false,true,-268.08,-3761.74,17.01,-0.00441564,-0.0018746915,0.92212373,-0.38686496,-231.22101,451.10098,8.331,-0.00021,-0.00010999999,1.97611
111.74167,2000,0,91.24,0.000002697398,0.000002697398,0.000002697398,0.99999994,0,0,0,0,0,0,0,1,0,0,0,false,false,true,-270.00998,-3757.98,17.01,-0.0043994556,-0.001912455,0.918907,-0.3944447,-228.501,449.191,8.331,-0.00021,-0.00010999999,1.97261
111.75,2000,0,91.24,0.000002697398,0.000002697398,0.000002697398,0.99999994,0,0,0,0,0,0,0,1,0,0,0,false,false,true,-271.91,-3754.24,17.01,-0.0043832716,-0.0019502188,0.9156329,-0.40198666,-225.741,447.32098,8.331,-0.00021,-0.00010999999,1.96821
111.75833,2000,0,91.24,0.000002697398,0.000002697398,0.000002697398,0.99999994,0,0,0,0,0,0,0,1,0,0,0,false,false,true,-273.79,-3750.51,17.01,-0.0043670875,-0.0019825874,0.91230637,-0.40948007,-222.961,445.481,8.331,-0.00021,-0.00010999999,1.9629099
111.76667,2000,0,91.24,0.000002697398,0.000002697398,0.000002697398,0.99999994,0,0,0,0,0,0,0,1,0,0,0,false,false,true,-275.65,-3746.7998,17.01,-0.004350903,-0.0020149562,0.9089257,-0.41693032,-220.151,443.681,8.331,-0.00010999999,-0.00010999999,1.95671
111.775,2000,0,91.24,0.000002697398,0.000002697398,0.000002697398,0.99999994,0,0,0,0,0,0,0,1,0,0,0,false,false,true,-277.47998,-3743.0999,17.01,-0.004334718,-0.0020473248,0.90549636,-0.42432654,-217.321,441.921,8.331,0,-0.00010999999,1.94971
111.78333,2000,0,91.24,0.000002697398,0.000002697398,0.000002697398,0.99999994,0,0,0,0,0,0,0,1,0,0,0,false,false,true,-279.29,-3739.42,17.01,-0.0043185344,-0.002079694,0.9020193,-0.431669,-214.47101,440.201,8.331,0,-0.00010999999,1.94181
111.791664,2000,0,91.24,0.000002697398,0.000002697398,0.000002697398,0.99999994,0,0,0,0,0,0,0,1,0,0,0,false,false,true,-281.08,-3735.75,17.01,-0.0043023503,-0.0021120629,0.8984977,-0.438952,-211.601,438.531,8.331,0,-0.00010999999,1.93301
111.8,2000,0,91.24,0.000002697398,0.000002697398,0.000002697398,0.99999994,0,0,0,0,0,0,0,1,0,0,0,false,false,true,-282.84,-3732.0999,17.01,-0.004286166,-0.0021444317,0.89493257,-0.44617563,-208.72101,436.901,8.331,0,0,1.9234099
111.808334,2000,0,91.24,0.000002697398,0.000002697398,0.000002697398,0.99999994,0,0,0,0,0,0,0,1,0,0,0,false,false,true,-284.58,-3728.46,17.01,-0.004269981,-0.0021768003,0.8913275,-0.45333454,-205.841,435.32098,8.331,0,0,1.91301
111.816666,2000,0,91.24,0.000002697398,0.000002697398,0.000002697398,0.99999994,0,0,0,0,0,0,0,1,0,0,0,false,false,true,-286.3,-3724.8298,17.01,-0.0042537972,-0.002209169,0.8876865,-0.46042338,-202.951,433.791,8.331,0,0,1.9018099
111.825,2000,0,91.24,0.000002697398,0.000002697398,0.000002697398,0.99999994,0,0,0,0,0,0,0,1,0,0,0,false,false,true,-287.99,-3721.21,17.01,-0.0042376122,-0.0022415377,0.8840107,-0.46744198,-200.061,432.311,8.331,0,0,1.88971
111.833336,2000,0,91.24,0.000002697398,0.000002697398,0.000002697398,0.99999994,0,0,0,0,0,0,0,1,0,0,0,false,false,true,-289.66,-3717.6099,17.01,-0.0042214277,-0.0022739065,0.88030136,-0.4743905,-197.171,430.871,8.331,0,0,1.87681
111.84167,2000,0,91.24,0.000002697398,0.000002697398,0.000002697398,0.99999994,0,0,0,0,0,0,0,1,0,0,0,false,false,true,-291.3,-3714.02,17.01,-0.004205243,-0.0023062753,0.87656575,-0.48125812,-194.291,429.481,8.331,0.00010999999,0.00010999999,1.86321
111.85,2000,0,91.24,0.000002697398,0.000002697398,0.000002697398,0.99999994,0,0,0,0,0,0,0,1,0,0,0,false,false,true,-292.91998,-3710.44,17.01,-0.004189059,-0.0023386441,0.8728023,-0.4880502,-191.421,428.151,8.331,0.00010999999,0.00010999999,1.84881
111.85833,2000,0,91.24,0.000002697398,0.000002697398,0.000002697398,0.99999994,0,0,0,0,0,0,0,1,0,0,0,false,false,true,-294.52,-3706.8699,17.01,-0.0041728746,-0.002371013,0.8690156,-0.49476135,-188.571,426.871,8.331,0.00010999999,0.00021,1.8336099
111.86667,2000,0,91.24,0.000002697398,0.000002697398,0.000002697398,0.99999994,0,0,0,0,0,0,0,1,0,0,0,false,false,true,-296.09,-3703.3098,17.01,-0.0041566906,-0.0024033817,0.86521024,-0.5013862,-185.731,425.641,8.331,0.00010999999,0.00021,1.8177099
111.875,2000,0,91.24,0.000002697398,0.000002697398,0.000002697398,0.99999994,0,0,0,0,0,0,0,1,0,0,0,false,false,true,-297.63998,-3699.76,17.01,-0.0041405065,-0.0024357506,0.861388,-0.50792474,-182.911,424.461,8.331,0.00010999999,0.00030999997,1.80101
111.88333,2000,0,91.24,0.000002697398,0.000002697398,0.000002697398,0.99999994,0,0,0,0,0,0,0,1,0,0,0,false,false,true,-299.16,-3696.22,17.01,-0.004118927,-0.0024681191,0.85755396,-0.51437145,-180.121,423.331,8.331,0.00010999999,0.00040999998,1.78361
111.89167,2000,0,91.24,0.000002697398,0.000002697398,0.000002697398,0.99999994,0,0,0,0,0,0,0,1,0,0,0,false,false,true,-300.66,-3692.69,17.01,-0.0040973476,-0.002500488,0.8537066,-0.520732,-177.351,422.251,8.331,0.00010999999,0.00040999998,1.76551
111.9,2000,0,91.24,0.000002697398,0.000002697398,0.000002697398,0.99999994,0,0,0,0,0,0,0,1,0,0,0,false,false,true,-302.13998,-3689.17,17.01,-0.004075769,-0.002532857,0.8498545,-0.5269954,-174.61101,421.211,8.321,0.00010999999,0.00040999998,1.74671
111.90833,2000,0,91.24,0.000002697398,0.000002697398,0.000002697398,0.99999994,0,0,0,0,0,0,0,1,0,0,0,false,false,true,-303.6,-3685.66,17.01,-0.004054189,-0.0025652256,0.8459963,-0.533167,-171.901,420.221,8.321,0.00010999999,0.00030999997,1.7272099
111.916664,2000,0,91.24,0.000002697398,0.000002697398,0.000002697398,0.99999994,0,0,0,0,0,0,0,1,0,0,0,false,false,true,-305.03,-3682.16,17.01,-0.00403261,-0.0025975944,0.84213734,-0.5392416,-169.231,419.281,8.321,0.00010999999,0.00021,1.7071099
111.925,2000,0,91.24,0.000002697398,0.000002697398,0.000002697398,0.99999994,0,0,0,0,0,0,0,1,0,0,0,false,false,true,-306.44,-3678.67,17.01,-0.0040110312,-0.0026245685,0.83827984,-0.54521906,-166.601,418.381,8.321,0.00010999999,0.00021,1.6863099
111.933334,2000,0,91.24,0.000002697398,0.000002697398,0.000002697398,0.99999994,0,0,0,0,0,0,0,1,0,0,0,false,false,true,-307.83,-3675.18,17.01,-0.0039894516,-0.0026515422,0.8344293,-0.551094,-164.011,417.531,8.321,0.00010999999,0.00010999999,1.66481
111.941666,2000,0,91.24,0.000002697398,0.000002697398,0.000002697398,0.99999994,0,0,0,0,0,0,0,1,0,0,0,false,false,true,-309.19998,-3671.7,17.01,-0.003973267,-0.0026785163,0.83058816,-0.5568664,-161.461,416.721,8.321,0.00010999999,0.00010999999,1.64271
111.95,2000,0,91.24,0.000002697398,0.000002697398,0.000002697398,0.99999994,0,0,0,0,0,0,0,1,0,0,0,false,false,true,-310.55,-3668.23,17.01,-0.003957083,-0.0027054902,0.8267585,-0.5625364,-158.951,415.961,8.321,0.00010999999,0.00010999999,1.62001
111.958336,2000,0,91.24,0.000002697398,0.000002697398,0.000002697398,0.99999994,0,0,0,0,0,0,0,1,0,0,0,false,false,true,-311.87,-3664.76,17.01,-0.0039408985,-0.002732464,0.8229428,-0.56810385,-156.491,415.241,8.321,0.00010999999,0.00010999999,1.59671
111.96667,2000,0,91.24,0.000002697398,0.000002697398,0.000002697398,0.99999994,0,0,0,0,0,0,0,1,0,0,0,false,false,true,-313.16998,-3661.2998,17.01,-0.003924714,-0.0027594382,0.819147,-0.5735634,-154.08101,414.561,8.321,0.00010999999,0.00010999999,1.5728099
111.975,2000,0,91.24,0.000002697398,0.000002697398,0.000002697398,0.99999994,0,0,0,0,0,0,0,1,0,0,0,false,false,true,-314.44998,-3657.8499,17.01,-0.0039085294,-0.0027864121,0.81536984,-0.5789204,-151.72101,413.911,8.321,0.00010999999,0.00021,1.5484099
111.98333,2000,0,91.24,0.000002697398,0.000002697398,0.000002697398,0.99999994,0,0,0,0,0,0,0,1,0,0,0,false,false,true,-315.71,-3654.4,17.01,-0.0038923456,-0.0028133865,0.8116173,-0.5841697,-149.41101,413.301,8.321,0,0.00021,1.52341
111.99167,2000,0,91.24,0.000002697398,0.000002697398,0.000002697398,0.99999994,0,0,0,0,0,0,0,1,0,0,0,false,false,true,-316.96,-3650.96,17.01,-0.0038761606,-0.00284036,0.80789196,-0.5893108,-147.151,412.721,8.321,0,0.00021,1.49791
112,2000,0,91.24,0.000002697398,0.000002697398,0.000002697398,0.99999994,0,0,0,0,0,0,0,1,0,0,0,false,false,true,-318.19,-3647.52,17.01,-0.0038599763,-0.0028673338,0.80420023,-0.5943388,-144.951,412.181,8.321,0,0.00030999997,1.47181
112.00833,2000,0,91.24,0.000002697398,0.000002697398,0.000002697398,0.99999994,0,0,0,0,0,0,0,1,0,0,0,false,false,true,-319.4,-3644.0898,17.01,-0.0038437925,-0.0028943084,0.80054075,-0.59925896,-142.80101,411.671,8.321,0,0.00030999997,1.44521
112.01667,2000,0,91.24,0.000002697398,0.000002697398,0.000002697398,0.99999994,0,0,0,0,0,0,0,1,0,0,0,false,false,true,-320.59,-3640.66,17.01,-0.003827608,-0.0029158874,0.7969199,-0.6040657,-140.711,411.191,8.321,0,0.00030999997,1.41821
112.025,2000,0,91.24,0.000002697398,0.000002697398,0.000002697398,0.99999994,0,0,0,0,0,0,0,1,0,0,0,false,false,true,-321.75998,-3637.23,17.01,-0.0038114237,-0.0029374666,0.7933363,-0.60876465,-138.681,410.741,8.321,0,0.00030999997,1.39071
112.03333,2000,0,91.24,0.000002697398,0.000002697398,0.000002697398,0.99999994,0,0,0,0,0,0,0,1,0,0,0,false,false,true,-322.91998,-3633.8098,17.01,-0.0037952394,-0.0029590458,0.7897963,-0.6133503,-136.701,410.311,8.321,0,0.00040999998,1.36271
112.041664,2000,0,91.24,0.000002697398,0.000002697398,0.000002697398,0.99999994,0,0,0,0,0,0,0,1,0,0,0,false,false,true,-324.06,-3630.39,17.01,-0.0037790546,-0.0029806248,0.78630275,-0.61782247,-134.781,409.911,8.321,0,0.00040999998,1.3343099
112.05,2000,0,91.24,0.000002697398,0.000002697398,0.000002697398,0.99999994,0,0,0,0,0,0,0,1,0,0,0,false,false,true,-325.18,-3626.97,17.01,-0.0037628703,-0.003002204,0.78285384,-0.6221869,-132.921,409.531,8.321,-0.00010999999,0.00040999998,1.3055099
112.058334,2000,0,91.24,0.000002697398,0.000002697398,0.000002697398,0.99999994,0,0,0,0,0,0,0,1,0,0,0,false,false,true,-326.28998,-3623.5598,17.01,-0.003746686,-0.0030237832,0.77945626,-0.626438,-131.121,409.171,8.321,-0.00010999999,0.00040999998,1.27631
112.066666,2000,0,91.24,0.000002697398,0.000002697398,0.000002697398,0.99999994,0,0,0,0,0,0,0,1,0,0,0,false,false,true,-327.38,-3620.15,17.01,-0.0037305017,-0.0030453627,0.7761126,-0.6305759,-129.381,408.831,8.321,-0.00010999999,0.00040999998,1.24681
112.075,2000,0,91.24,0.000002697398,0.000002697398,0.000002697398,0.99999994,0,0,0,0,0,0,0,1,0,0,0,false,false,true,-328.46,-3616.74,17.01,-0.0037143172,-0.0030669416,0.7728253,-0.6346004,-127.701,408.511,8.321,-0.00010999999,0.00040999998,1.21691
112.083336,2000,0,91.24,0.000002697398,0.000002697398,0.000002697398,0.99999994,0,0,0,0,0,0,0,1,0,0,0,false,false,true,-329.52,-3613.3398,17.01,-0.0036981327,-0.0030885208,0.76959705,-0.6385116,-126.071,408.211,8.321,-0.00021,0.00040999998,1.18671
112.09167,2000,0,91.24,0.000002697398,0.000002697398,0.000002697398,0.99999994,0,0,0,0,0,0,0,1,0,0,0,false,false,true,-330.57,-3609.94,17.01,-0.003681948,-0.003104705,0.7664301,-0.6423095,-124.501,407.921,8.321,-0.00021,0.00040999998,1.15631
112.1,2000,0,91.24,0.000002697398,0.000002697398,0.000002697398,0.99999994,0,0,0,0,0,0,0,1,0,0,0,false,false,true,-331.61,-3606.54,17.01,-0.003665764,-0.0031208897,0.76332706,-0.6459942,-122.991,407.651,8.321,-0.00021,0.00040999998,1.12561
112.10833,2000,0,91.24,0.000002697398,0.000002697398,0.000002697398,0.99999994,0,0,0,0,0,0,0,1,0,0,0,false,false,true,-332.63,-3603.14,17.01,-0.0036495796,-0.003137074,0.7602902,-0.6495656,-121.531,407.391,8.321,-0.00021,0.00040999998,1.09471
112.11667,2000,0,91.24,0.000002697398,0.000002697398,0.000002697398,0.99999994,0,0,0,0,0,0,0,1,0,0,0,false,false,true,-333.63998,-3599.74,17.01,-0.0036333953,-0.0031532582,0.7573175,-0.6530291,-120.131,407.141,8.321,-0.00021,0.00040999998,1.06371
112.125,2000,0,91.24,0.000002697398,0.000002697398,0.000002697398,0.99999994,0,0,0,0,0,0,0,1,0,0,0,false,false,true,-334.63998,-3596.3499,17.01,-0.003617211,-0.003169443,0.7544157,-0.6563793,-118.781,406.901,8.321,-0.00021,0.00040999998,1.03251
112.13333,2000,0,91.24,0.000002697398,0.000002697398,0.000002697398,0.99999994,0,0,0,0,0,0,0,1,0,0,0,false,false,true,-335.63,-3592.96,17.01,-0.0036010267,-0.0031856273,0.75158715,-0.65961623,-117.480995,406.671,8.321,-0.00021,0.00040999998,1.00131
112.14167,2000,0,91.24,0.000002697398,0.000002697398,0.000002697398,0.99999994,0,0,0,0,0,0,0,1,0,0,0,false,false,true,-336.61,-3589.5698,17.01,-0.0035848422,-0.0032018118,0.74882954,-0.6627452,-116.230995,406.451,8.321,-0.00010999999,0.00040999998,0.97001
112.15,2000,0,91.24,0.000002697398,0.000002697398,0.000002697398,0.99999994,0,0,0,0,0,0,0,1,0,0,0,false,false,true,-337.58,-3586.18,17.01,-0.003568658,-0.003217996,0.74614483,-0.6657663,-115.031,406.241,8.321,-0.00010999999,0.00030999997,0.93871
112.15833,2000,0,91.24,0.000002697398,0.000002697398,0.000002697398,0.99999994,0,0,0,0,0,0,0,1,0,0,0,false,false,true,-338.53998,-3582.79,17.01,-0.0035524734,-0.0032341804,0.7435352,-0.6686794,-113.870995,406.041,8.311,-0.00010999999,0.00021,0.90740997
112.166664,2000,0,91.24,0.000002697398,0.000002697398,0.000002697398,0.99999994,0,0,0,0,0,0,0,1,0,0,0,false,false,true,-339.49,-3579.41,17.01,-0.0035416833,-0.0032503644,0.7410026,-0.6714847,-112.760994,405.841,8.311,-0.00010999999,0.00010999999,0.87611
112.175,2000,0,91.24,0.000002697398,0.000002697398,0.000002697398,0.99999994,0,0,0,0,0,0,0,1,0,0,0,false,false,true,-340.43,-3576.03,17.01,-0.0035308942,-0.0032611543,0.73854446,-0.67418754,-111.690994,405.651,8.311,-0.00010999999,0.00010999999,0.84490997
112.183334,2000,0,91.24,0.000002697398,0.000002697398,0.000002697398,0.99999994,0,0,0,0,0,0,0,1,0,0,0,false,false,true,-341.36,-3572.65,17.01,-0.0035201046,-0.003271944,0.7361673,-0.6767824,-110.660995,405.461,8.311,-0.00010999999,0.00010999999,0.81381
112.191666,2000,0,91.24,0.000002697398,0.000002697398,0.000002697398,0.99999994,0,0,0,0,0,0,0,1,0,0,0,false,false,true,-342.28,-3569.27,17.01,-0.0035093152,-0.0032827337,0.7338681,-0.6792749,-109.671,405.281,8.311,-0.00010999999,0.00010999999,0.78281
112.2,2000,0,91.24,0.000002697398,0.000002697398,0.000002697398,0.99999994,0,0,0,0,0,0,0,1,0,0,0,false,false,true,-343.19,-3565.89,17.01,-0.0034985254,-0.003293523,0.7316488,-0.68166476,-108.721,405.101,8.311,-0.00010999999,0.00010999999,0.75191
112.208336,2000,0,91.24,0.000002697398,0.000002697398,0.000002697398,0.99999994,0,0,0,0,0,0,0,1,0,0,0,false,false,true,-344.1,-3562.51,17.01,-0.0034877358,-0.0033043127,0.7295109,-0.68395215,-107.811,404.931,8.311,-0.00010999999,0.00010999999,0.72121
112.21667,2000,0,91.24,0.000002697398,0.000002697398,0.000002697398,0.99999994,0,0,0,0,0,0,0,1,0,0,0,false,false,true,-345,-3559.14,17.01,-0.0034769461,-0.0033151023,0.72745126,-0.68614244,-106.940994,404.761,8.311,-0.00010999999,0.00010999999,0.69061
112.225,2000,0,91.24,0.000002697398,0.000002697398,0.000002697398,0.99999994,0,0,0,0,0,0,0,1,0,0,0,false,false,true,-345.88998,-3555.77,17.01,-0.0034661568,-0.0033258921,0.7254763,-0.6882303,-106.101,404.591,8.311,-0.00010999999,0.00010999999,0.66021
112.23333,2000,0,91.24,0.000002697398,0.000002697398,0.000002697398,0.99999994,0,0,0,0,0,0,0,1,0,0,0,false,false,true,-346.77,-3552.4,17.01,-0.003455367,-0.0033366815,0.7235827,-0.6902209,-105.300995,404.431,8.311,-0.00010999999,0.00010999999,0.63001
112.24167,2000,0,91.24,0.000002697398,0.000002697398,0.000002697398,0.99999994,0,0,0,0,0,0,0,1,0,0,0,false,false,true,-347.65,-3549.03,17.01,-0.0034445773,-0.003347471,0.7217664,-0.6921199,-104.531,404.271,8.311,-0.00010999999,0.00010999999,0.60001
112.25,2000,0,91.24,0.000002697398,0.000002697398,0.000002697398,0.99999994,0,0,0,0,0,0,0,1,0,0,0,false,false,true,-348.52,-3545.66,17.01,-0.0034337877,-0.0033582605,0.72003424,-0.6939218,-103.791,404.111,8.311,-0.00010999999,0,0.57021
112.25833,2000,0,91.24,0.000002697398,0.000002697398,0.000002697398,0.99999994,0,0,0,0,0,0,0,1,0,0,0,false,false,true,-349.38,-3542.29,17.01,-0.0034229981,-0.0033636554,0.71838224,-0.6956319,-103.08099,403.951,8.311,-0.00010999999,0,0.54061
112.26667,2000,0,91.24,0.000002697398,0.000002697398,0.000002697398,0.99999994,0,0,0,0,0,0,0,1,0,0,0,false,false,true,-350.24,-3538.92,17.01,-0.0034176034,-0.00336905,0.71681154,-0.69725037,-102.40099,403.791,8.311,0,0,0.51131
112.275,2000,0,91.24,0.000002697398,0.000002697398,0.000002697398,0.99999994,0,0,0,0,0,0,0,1,0,0,0,false,false,true,-351.09,-3535.5498,17.01,-0.0034122085,-0.003374445,0.7153233,-0.6987771,-101.741,403.641,8.311,0,0,0.48221
112.28333,2000,0,91.24,0.000002697398,0.000002697398,0.000002697398,0.99999994,0,0,0,0,0,0,0,1,0,0,0,false,false,true,-351.94,-3532.19,17.01,-0.003406814,-0.00337984,0.7139186,-0.7002122,-101.111,403.491,8.311,0,0,0.45341
112.291664,2000,0,91.24,0.000002697398,0.000002697398,0.000002697398,0.99999994,0,0,0,0,0,0,0,1,0,0,0,false,false,true,-352.78,-3528.8298,17.01,-0.003401419,-0.0033852346,0.71259326,-0.70156085,-100.501,403.341,8.311,0,0,0.42481
112.3,2000,0,91.24,0.000002697398,0.000002697398,0.000002697398,0.99999994,0,0,0,0,0,0,0,1,0,0,0,false,false,true,-353.62,-3525.47,17.01,-0.0033960245,-0.0033906295,0.7113483,-0.7028233,-99.921,403.191,8.311,0,0,0.39651
112.308334,2000,0,91.24,0.000002697398,0.000002697398,0.000002697398,0.99999994,0,0,0,0,0,0,0,1,0,0,0,false,false,true,-354.44998,-3522.1099,17.01,-0.0033906293,-0.0033960242,0.7101844,-0.7039993,-99.361,403.041,8.311,0,0,0.36851
112.316666,2000,0,91.24,0.000002697398,0.000002697398,0.000002697398,0.99999994,0,0,0,0,0,0,0,1,0,0,0,false,false,true,-355.28,-3518.75,17.01,-0.0033852346,-0.003401419,0.70910245,-0.70508903,-98.821,402.891,8.311,0,0,0.34071
112.325,2000,0,91.24,0.000002697398,0.000002697398,0.000002697398,0.99999994,0,0,0,0,0,0,0,1,0,0,0,false,false,true,-356.1,-3515.39,17.01,-0.0033798397,-0.0034068138,0.70810324,-0.7060925,-98.300995,402.741,8.311,0,0,0.31321
112.333336,2000,0,91.24,0.000002697398,0.000002697398,0.000002697398,0.99999994,0,0,0,0,0,0,0,1,0,0,0,false,false,true,-356.91998,-3512.03,17.01,-0.003374445,-0.0034122085,0.70718217,-0.707015,-97.800995,402.591,8.311,0,0,0.28601
112.34167,2000,0,91.24,0.000002697398,0.000002697398,0.000002697398,0.99999994,0,0,0,0,0,0,0,1,0,0,0,false,false,true,-357.72998,-3508.67,17.01,0.00336905,0.0034176034,-0.7063407,0.7078557,-97.311,402.441,8.311,0,0,0.25911
112.35,2000,0,91.24,0.000002697398,0.000002697398,0.000002697398,0.99999994,0,0,0,0,0,0,0,1,0,0,0,false,false,true,-358.53998,-3505.3198,17.01,0.0033636554,0.0034229981,-0.7055746,0.7086193,-96.840996,402.291,8.311,0,0,0.23250999
112.35833,2000,0,91.24,0.000002697398,0.000002697398,0.000002697398,0.99999994,0,0,0,0,0,0,0,1,0,0,0,false,false,true,-359.35,-3501.97,17.01,0.0033582605,0.003428393,-0.7048895,0.7093008,-96.381,402.141,8.311,0,0,0.20620999
112.36667,2000,0,91.24,0.000002697398,0.000002697398,0.000002697398,0.99999994,0,0,0,0,0,0,0,1,0,0,0,false,false,true,-360.15,-3498.6199,17.01,0.0033528658,0.0034337877,-0.70427984,0.7099061,-95.940994,402.001,8.311,0,0,0.18021
112.375,2000,0,91.24,0.000002697398,0.000002697398,0.000002697398,0.99999994,0,0,0,0,0,0,0,1,0,0,0,false,false,true,-360.94998,-3495.27,17.01,0.003352866,0.003433788,-0.7037458,0.7104356,-95.510994,401.861,8.311,0,0,0.15450999
112.38333,2000,0,91.24,0.000002697398,0.000002697398,0.000002697398,0.99999994,0,0,0,0,0,0,0,1,0,0,0,false,false,true,-361.75,-3491.92,17.01,0.003352866,0.003433788,-0.70328724,0.7108895,-95.090996,401.721,8.311,0,0,0.12900999
112.39167,2000,0,91.24,0.000002697398,0.000002697398,0.000002697398,0.99999994,0,0,0,0,0,0,0,1,0,0,0,false,false,true,-362.53998,-3488.5698,17.01,0.0033528658,0.0034337877,-0.70290416,0.71126825,-94.681,401.581,8.311,0,0,0.10381
112.4,2000,0,91.24,0.000002697398,0.000002697398,0.000002697398,0.99999994,0,0,0,0,0,0,0,1,0,0,0,false,false,true,-363.33,-3485.22,17.01,0.0033528658,0.0034337877,-0.70259666,0.711572,-94.281,401.441,8.311,0,0,0.07890999
112.40833,2000,0,91.24,0.000002697398,0.000002697398,0.000002697398,0.99999994,0,0,0,0,0,0,0,1,0,0,0,false,false,true,-364.12,-3481.8699,17.01,0.0033528658,0.0034337877,-0.7023647,0.711801,-93.881,401.301,8.311,0,0,0.054309998
112.416664,2000,0,91.24,0.000002697398,0.000002697398,0.000002697398,0.99999994,0,0,0,0,0,0,0,1,0,0,0,false,false,true,-364.9,-3478.53,17.01,0.003352866,0.003433788,-0.7022029,0.7119607,-93.491,401.161,8.311,0,0,0.03001
112.425,2000,0,91.24,0.000002697398,0.000002697398,0.000002697398,0.99999994,0,0,0,0,0,0,0,1,0,0,0,false,false,true,-365.68,-3475.19,17.01,0.0033528658,0.0034337877,-0.70211655,0.7120457,-93.111,401.021,8.311,0,0,0.00601
112.433334,2000,0,91.24,0.000002697398,0.000002697398,0.000002697398,0.99999994,0,0,0,0,0,0,0,1,0,0,0,false,false,true,-366.46,-3471.8499,17.01,0.0033528658,0.0034337877,-0.70210034,0.7120617,-92.730995,400.891,8.311,0,0,-0.01761
112.441666,2000,0,91.24,0.000002697398,0.000002697398,0.000002697398,0.99999994,0,0,0,0,0,0,0,1,0,0,0,false,false,true,-367.22998,-3468.51,17.01,0.0033528658,0.0034337877,-0.7021543,0.71200854,-92.351,400.761,8.311,0,0,-0.040909998
112.45,2000,0,91.24,0.000002697398,0.000002697398,0.000002697398,0.99999994,0,0,0,0,0,0,0,1,0,0,0,false,false,true,-368,-3465.17,17.01,0.0033528658,0.0034337877,-0.70227295,0.7118915,-91.980995,400.631,8.311,0,0,-0.06391
112.458336,2000,0,91.24,0.000002697398,0.000002697398,0.000002697398,0.99999994,0,0,0,0,0,0,0,1,0,0,0,false,false,true,-368.77,-3461.8298,17.01,0.0033528658,0.0034337877,-0.7024618,0.71170515,-91.611,400.501,8.311,0,0,-0.08661
112.46667,2000,0,91.24,0.000002697398,0.000002697398,0.000002697398,0.99999994,0,0,0,0,0,0,0,1,0,0,0,false,false,true,-369.53,-3458.49,17.01,0.0033528658,0.0034337877,-0.70272076,0.71144944,-91.241,400.371,8.311,0,0,-0.109009996
112.475,2000,0,91.24,0.000002697398,0.000002697398,0.000002697398,0.99999994,0,0,0,0,0,0,0,1,0,0,0,false,false,true,-370.28998,-3455.15,17.01,0.003352866,0.003433788,-0.7030445,0.7111296,-90.870995,400.251,8.311,0,0,-0.13111
112.48333,2000,0,91.24,0.000002697398,0.000002697398,0.000002697398,0.99999994,0,0,0,0,0,0,0,1,0,0,0,false,false,true,-371.05,-3451.8098,17.01,0.003352866,0.003433788,-0.7034329,0.7107454,-90.491,400.131,8.311,0,0,-0.15291
112.49167,2000,0,91.24,0.000002697398,0.000002697398,0.000002697398,0.99999994,0,0,0,0,0,0,0,1,0,0,0,false,false,true,-371.8,-3448.48,17.01,0.0033528658,0.0034337877,-0.70388603,0.7102966,-90.111,400.011,8.311,0,0,-0.17450999
112.5,2000,0,91.24,0.000002697398,0.000002697398,0.000002697398,0.99999994,0,0,0,0,0,0,0,1,0,0,0,false,false,true,-372.55,-3445.15,17.01,0.0033528658,0.0034337877,-0.70440394,0.70978296,-89.730995,399.891,8.311,0,0,-0.19580999
112.50833,2000,0,91.24,0.000002697398,0.000002697398,0.000002697398,0.99999994,0,0,0,0,0,0,0,1,0,0,0,false,false,true,-373.3,-3441.8198,17.01,0.0033582605,0.0034337877,-0.70498115,0.7092097,-89.340996,399.781,8.311,0,-0.00010999999,-0.21680999
112.51667,2000,0,91.24,0.000002697398,0.000002697398,0.000002697398,0.99999994,0,0,0,0,0,0,0,1,0,0,0,false,false,true,-374.03998,-3438.49,17.01,0.0033636554,0.003428393,-0.70562315,0.7085709,-88.951,399.671,8.311,0,-0.00010999999,-0.23751
112.525,2000,0,91.24,0.000002697398,0.000002697398,0.000002697398,0.99999994,0,0,0,0,0,0,0,1,0,0,0,false,false,true,-374.78,-3435.16,17.01,0.0033690503,0.0034229984,-0.7063245,0.70787185,-88.550995,399.561,8.311,0,-0.00010999999,-0.25791
112.53333,2000,0,91.24,0.000002697398,0.000002697398,0.000002697398,0.99999994,0,0,0,0,0,0,0,1,0,0,0,false,false,true,-375.52,-3431.8298,17.01,0.003374445,0.0034176034,-0.70708513,0.707112,-88.141,399.451,8.311,0,-0.00010999999,-0.27801
112.541664,2000,0,91.24,0.000002697398,0.000002697398,0.000002697398,0.99999994,0,0,0,0,0,0,0,1,0,0,0,false,false,true,-376.25,-3428.5,17.01,-0.0033798397,-0.0034122085,0.7079041,-0.7062921,-87.730995,399.351,8.311,0,-0.00010999999,-0.29781002
112.55,2000,0,91.24,0.000002697398,0.000002697398,0.000002697398,0.99999994,0,0,0,0,0,0,0,1,0,0,0,false,false,true,-376.97998,-3425.17,17.01,-0.0033852349,-0.003406814,0.7087804,-0.7054128,-87.311,399.251,8.311,0,-0.00010999999,-0.31731
112.558334,2000,0,91.24,0.000002697398,0.000002697398,0.000002697398,0.99999994,0,0,0,0,0,0,0,1,0,0,0,false,false,true,-377.71,-3421.8398,17.01,-0.0033906293,-0.003401419,0.7097134,-0.70447403,-86.881,399.151,8.311,0,-0.00010999999,-0.33661002
112.566666,2000,0,91.24,0.000002697398,0.000002697398,0.000002697398,0.99999994,0,0,0,0,0,0,0,1,0,0,0,false,false,true,-378.43,-3418.51,17.01,-0.0033960238,-0.0033960238,0.71070266,-0.70347595,-86.440994,399.051,8.311,0,0,-0.35561
112.575,2000,0,91.24,0.000002697398,0.000002697398,0.000002697398,0.99999994,0,0,0,0,0,0,0,1,0,0,0,false,false,true,-379.15,-3415.18,17.01,-0.003401419,-0.0033906293,0.7117424,-0.70242405,-85.980995,398.961,8.311,0,0,-0.37431002
112.583336,2000,0,91.24,0.000002697398,0.000002697398,0.000002697398,0.99999994,0,0,0,0,0,0,0,1,0,0,0,false,false,true,-379.87,-3411.8599,17.01,-0.0034068138,-0.0033852346,0.7128375,-0.70131266,-85.510994,398.871,8.311,0,0,-0.39271
112.59167,2000,0,91.24,0.000002697398,0.000002697398,0.000002697398,0.99999994,0,0,0,0,0,0,0,1,0,0,0,false,false,true,-380.58,-3408.54,17.01,-0.0034122085,-0.0033798397,0.7139821,-0.7001474,-85.031,398.781,8.311,0,0,-0.41081
112.6,2000,0,91.24,0.000002697398,0.000002697398,0.000002697398,0.99999994,0,0,0,0,0,0,0,1,0,0,0,false,false,true,-381.28998,-3405.22,17.01,-0.0034176034,-0.003374445,0.71518093,-0.69892275,-84.541,398.691,8.311,0,0,-0.42861
112.60833,2000,0,91.24,0.000002697398,0.000002697398,0.000002697398,0.99999994,0,0,0,0,0,0,0,1,0,0,0,false,false,true,-381.99,-3401.9,17.01,-0.0034229981,-0.00336905,0.71642816,-0.6976442,-84.031,398.601,8.311,0,0,-0.44611
112.61667,2000,0,91.24,0.000002697398,0.000002697398,0.000002697398,0.99999994,0,0,0,0,0,0,0,1,0,0,0,false,false,true,-382.69,-3398.5798,17.01,-0.003428393,-0.0033636554,0.71772337,-0.69631165,-83.510994,398.521,8.311,0,0,-0.46341
112.625,2000,0,91.24,0.000002697398,0.000002697398,0.000002697398,0.99999994,0,0,0,0,0,0,0,1,0,0,0,false,false,true,-383.38998,-3395.26,17.01,-0.0034337877,-0.0033582605,0.7190659,-0.6949252,-82.971,398.441,8.311,0,0,-0.48041
112.63333,2000,0,91.24,0.000002697398,0.000002697398,0.000002697398,0.99999994,0,0,0,0,0,0,0,1,0,0,0,false,false,true,-384.08,-3391.94,17.01,-0.0034391826,-0.0033528658,0.72045517,-0.6934848,-82.421,398.361,8.311,0,0,-0.49711
112.64167,2000,0,91.24,0.000002697398,0.000002697398,0.000002697398,0.99999994,0,0,0,0,0,0,0,1,0,0,0,false,false,true,-384.77,-3388.6199,17.01,-0.0034445773,-0.003347471,0.72189057,-0.69199044,-81.851,398.281,8.311,0,0,-0.51351
112.65,2000,0,91.24,0.000002697398,0.000002697398,0.000002697398,0.99999994,0,0,0,0,0,0,0,1,0,0,0,false,false,true,-385.44998,-3385.2998,17.01,-0.0034499723,-0.0033420762,0.7233716,-0.6904421,-81.260994,398.201,8.311,0,-0.00010999999,-0.52961
112.65833,2000,0,91.24,0.000002697398,0.000002697398,0.000002697398,0.99999994,0,0,0,0,0,0,0,1,0,0,0,false,false,true,-386.13,-3381.98,17.01,-0.003455367,-0.0033366815,0.72489244,-0.6888452,-80.651,398.131,8.311,0,-0.00021,-0.54541
112.666664,2000,0,91.24,0.000002697398,0.000002697398,0.000002697398,0.99999994,0,0,0,0,0,0,0,1,0,0,0,false,false,true,-386.8,-3378.66,17.01,-0.0034661565,-0.003325892,0.72645754,-0.6871944,-80.031,398.061,8.311,0,-0.00030999997,-0.56091
112.675,2000,0,91.24,0.000002697398,0.000002697398,0.000002697398,0.99999994,0,0,0,0,0,0,0,1,0,0,0,false,false,true,-387.47,-3375.3398,17.01,-0.0034769461,-0.0033151023,0.7280613,-0.6854951,-79.391,397.991,8.311,0,-0.00030999997,-0.57611
112.683334,2000,0,91.24,0.000002697398,0.000002697398,0.000002697398,0.99999994,0,0,0,0,0,0,0,1,0,0,0,false,false,true,-388.13,-3372.02,17.01,-0.0034877358,-0.0033043127,0.72970307,-0.6837472,-78.730995,397.921,8.311,0,-0.00021,-0.59101
112.691666,2000,0,91.24,0.000002697398,0.000002697398,0.000002697398,0.99999994,0,0,0,0,0,0,0,1,0,0,0,false,false,true,-388.78998,-3368.7,17.01,-0.0034985254,-0.003293523,0.73138225,-0.6819507,-78.050995,397.851,8.311,0,-0.00021,-0.60561
