time,ball_loc_x,ball_loc_y,ball_loc_z,ball_rot_x,ball_rot_y,ball_rot_z,ball_rot_w,ball_vel_x,ball_vel_y,ball_vel_z,ball_ang_x,ball_ang_y,ball_ang_z,player0_throttle,player0_steer,player0_pitch,player0_yaw,player0_roll,player0_jump,player0_boost,player0_handbrake,player0_loc_x,player0_loc_y,player0_loc_z,player0_rot_x,player0_rot_y,player0_rot_z,player0_rot_w,player0_vel_x,player0_vel_y,player0_vel_z,player0_ang_x,player0_ang_y,player0_ang_z
218.025,2000,0,91.24,0.000002697398,0.000002697398,0.000002697398,0.99999994,0,0,0,0,0,0,0,0,0,0,0,false,false,false,0,0.14,17.01,-0.00336905,0.0033798397,0.7071014,0.7070959,0,0.011,8.321,-0.00051,0,0
218.03334,2000,0,73,0.000002697398,0.000002697398,0.000002697398,0.99999994,0,0,0,0,0,0,0,0,0,0,0,false,false,false,0,0,16.94,0.0000026973983,0.0000026973983,0.70710677,0.70710677,0,0,2.041,-0.050809998,0,0
218.04167,2000,0,87.6,0.000002697398,0.000002697398,0.000002697398,0.99999994,0,0,0,0,0,0,1,0,0,0,0,false,true,false,0,0.07,16.89,-0.00014835689,0.00015375168,0.7071067,0.7071067,0,21.521,3.8809998,-0.085609995,0,0
218.05,2000,0,90.52,0.000002697398,0.000002697398,0.000002697398,0.99999994,0,0,0,0,0,0,1,0,0,0,0,false,true,false,0,0.32,16.85,-0.00040191234,0.00040730715,0.70710653,0.70710677,0,42.861,5.481,-0.107209995,0,0
218.05833,2000,0,91.1,0.000002697398,0.000002697398,0.000002697398,0.99999994,0,0,0,0,0,0,1,0,0,0,0,false,true,false,0,0.75,16.83,-0.00072020525,0.00072560005,0.7071067,0.707106,0,64.011,6.7809997,-0.11630999,0,0
218.06667,2000,0,91.22,0.000002697398,0.000002697398,0.000002697398,0.99999994,0,0,0,0,0,0,1,0,0,0,0,false,true,false,0,1.35,16.82,-0.0010654721,0.001070867,0.70710516,0.7071067,0,84.980995,7.7209997,-0.114609994,0,0
218.075,2000,0,91.24,0.000002697398,0.000002697398,0.000002697398,0.99999994,0,0,0,0,0,0,1,0,0,0,0,false,true,false,0,2.1299999,16.82,-0.0014053443,0.0014107391,0.7071067,0.70710397,0,105.770996,8.401,-0.10651,0,0
218.08333,2000,0,91.24,0.000002697398,0.000002697398,0.000002697398,0.99999994,0,0,0,0,0,0,1,0,0,0,0,false,true,false,0,3.08,16.82,-0.0017182427,0.0017236375,0.707108,0.70710135,0,126.391,8.8810005,-0.09501,0,0
218.09166,2000,0,91.24,0.000002697398,0.000002697398,0.000002697398,0.99999994,0,0,0,0,0,0,1,0,0,0,0,false,true,false,0,4.2,16.83,-0.001998772,0.0020041666,0.70710653,0.7071013,0,146.83101,9.231,-0.08221,0,0
218.1,2000,0,91.24,0.000002697398,0.000002697398,0.000002697398,0.99999994,0,0,0,0,0,0,1,0,0,0,0,false,true,false,0,5.49,16.84,-0.0022415377,0.0022469326,0.70710504,0.7071013,0,167.091,9.451,-0.069409996,0,0
218.11667,2000,0,91.24,0.000002697398,0.000002697398,0.000002697398,0.99999994,0,0,0,0,0,0,1,0,0,0,0,false,true,false,0,8.58,16.859999,-0.0026137787,0.0026191734,0.7071025,0.7071013,0,207.101,9.6710005,-0.046409998,0,0
218.125,2000,0,91.24,0.000002697398,0.000002697398,0.000002697398,0.99999994,0,0,0,0,0,0,1,0,0,0,0,false,true,false,0,10.37,16.869999,-0.0027486486,0.0027540433,0.70710146,0.7071013,0,226.851,9.711,-0.03701,0,0
218.13333,2000,0,91.24,0.000002697398,0.000002697398,0.000002697398,0.99999994,0,0,0,0,0,0,1,0,0,0,0,false,true,false,0,12.33,16.88,-0.0028565445,0.0028619394,0.70710063,0.7071013,0,246.431,9.721,-0.02911,0,0
218.14166,2000,0,91.24,0.000002697398,0.000002697398,0.000002697398,0.99999994,0,0,0,0,0,0,1,0,0,0,0,false,true,false,0,14.45,16.89,-0.0029428613,0.002948256,0.7071013,0.7070999,0,265.841,9.701,-0.02261,0,0
218.15,2000,0,91.24,0.000002697398,0.000002697398,0.000002697398,0.99999994,0,0,0,0,0,0,1,0,0,0,0,false,true,false,0,16.73,16.9,-0.003007599,0.0030129936,0.7070993,0.7071013,0,285.081,9.641,-0.01791,0,0
218.15834,2000,0,91.24,0.000002697398,0.000002697398,0.000002697398,0.99999994,0,0,0,0,0,0,1,0,0,0,0,false,true,false,0,19.17,16.91,-0.0030615467,0.0030669416,0.7071013,0.7070989,0,304.161,9.561,-0.014409999,0,0
218.16667,2000,0,91.24,0.000002697398,0.000002697398,0.000002697398,0.99999994,0,0,0,0,0,0,1,0,0,0,0,false,true,false,0,21.77,16.92,-0.0031047051,0.0031101,0.7070985,0.7071013,0,323.081,9.471,-0.011809999,0,0
218.175,2000,0,91.24,0.000002697398,0.000002697398,0.000002697398,0.99999994,0,0,0,0,0,0,1,0,0,0,0,false,true,false,0,24.529999,16.93,-0.003137074,0.0031424686,0.7070959,0.7071036,0,341.831,9.371,-0.00981,0,0
218.18333,2000,0,91.24,0.000002697398,0.000002697398,0.000002697398,0.99999994,0,0,0,0,0,0,1,0,0,0,0,false,true,false,0,27.449999,16.94,-0.003164048,0.003169443,0.707096,0.7071034,0,360.421,9.271,-0.0083099995,0,0
218.19167,2000,0,91.24,0.000002697398,0.000002697398,0.000002697398,0.99999994,0,0,0,0,0,0,1,0,0,0,0,false,true,false,0,30.519999,16.949999,-0.003191022,0.0031964167,0.7070959,0.70710313,0,378.851,9.161,-0.00711,0,0
218.2,2000,0,91.24,0.000002697398,0.000002697398,0.000002697398,0.99999994,0,0,0,0,0,0,1,0,0,0,0,false,true,false,0,33.75,16.96,-0.0032126014,0.003217996,0.707096,0.70710295,0,397.131,9.051001,-0.00601,0,0
218.20833,2000,0,91.24,0.000002697398,0.000002697398,0.000002697398,0.99999994,0,0,0,0,0,0,1,0,0,0,0,false,true,false,0,37.13,16.97,-0.0032287855,0.0032341804,0.7070959,0.7071028,0,415.251,8.941,-0.00521,0,0
218.21666,2000,0,91.24,0.000002697398,0.000002697398,0.000002697398,0.99999994,0,0,0,0,0,0,1,0,0,0,0,false,true,false,0,40.66,16.98,-0.00324497,0.003250365,0.707096,0.70710266,0,433.211,8.831,-0.00451,0,0
218.225,2000,0,91.24,0.000002697398,0.000002697398,0.000002697398,0.99999994,0,0,0,0,0,0,1,0,0,0,0,false,true,false,0,44.34,16.99,-0.0032557594,0.0032611543,0.7070959,0.70710254,0,451.021,8.721001,-0.00391,0,0
218.23334,2000,0,91.24,0.000002697398,0.000002697398,0.000002697398,0.99999994,0,0,0,0,0,0,1,0,0,0,0,false,true,false,0,48.17,16.99,-0.003266549,0.003271944,0.7070959,0.7071024,0,468.681,8.601,-0.00341,0,0
218.24167,2000,0,91.24,0.000002697398,0.000002697398,0.000002697398,0.99999994,0,0,0,0,0,0,1,0,0,0,0,false,true,false,0,52.14,16.99,-0.0032773386,0.0032827335,0.7070959,0.7071023,0,486.191,8.531,-0.00301,0,0
218.25,2000,0,91.24,0.000002697398,0.000002697398,0.000002697398,0.99999994,0,0,0,0,0,0,1,0,0,0,0,false,true,false,0,56.26,16.99,-0.0032881282,0.003293523,0.7070959,0.70710224,0,503.541,8.481,-0.00271,0,0
218.25833,2000,0,91.24,0.000002697398,0.000002697398,0.000002697398,0.99999994,0,0,0,0,0,0,1,0,0,0,0,false,true,false,0,60.53,16.99,-0.0032935233,0.003298918,0.707096,0.7071022,0,520.751,8.451,-0.00241,0,0
218.26666,2000,0,91.24,0.000002697398,0.000002697398,0.000002697398,0.99999994,0,0,0,0,0,0,1,0,0,0,0,false,true,false,0,64.939995,16.99,-0.0032989178,0.0033043127,0.7070959,0.7071021,0,537.811,8.431,-0.00211,0,0
218.275,2000,0,91.24,0.000002697398,0.000002697398,0.000002697398,0.99999994,0,0,0,0,0,0,1,0,0,0,0,false,true,false,0,69.49,16.99,-0.0033043127,0.0033097074,0.7070959,0.70710206,0,554.72095,8.4210005,-0.0019099999,0,0
218.28334,2000,0,91.24,0.000002697398,0.000002697398,0.000002697398,0.99999994,0,0,0,0,0,0,1,0,0,0,0,false,true,false,0,74.18,16.99,-0.0033097074,0.0033151023,0.7070959,0.707102,0,571.49097,8.411,-0.0017099999,0,0
218.29167,2000,0,91.24,0.000002697398,0.000002697398,0.000002697398,0.99999994,0,0,0,0,0,0,1,0,0,0,0,false,true,false,0,79.009995,16.99,-0.0033151023,0.003320497,0.7070959,0.707102,0,588.11096,8.411,-0.00151,0,0
218.3,2000,0,91.24,0.000002697398,0.000002697398,0.000002697398,0.99999994,0,0,0,0,0,0,1,0,0,0,0,false,true,false,0,83.979996,16.99,-0.0033204972,0.0033258921,0.707096,0.70710194,0,604.59094,8.411,-0.0014099999,0,0
218.30833,2000,0,91.24,0.000002697398,0.000002697398,0.000002697398,0.99999994,0,0,0,0,0,0,1,0,0,0,0,false,true,false,0,89.09,16.99,-0.003325892,0.0033312866,0.7070959,0.7071019,0,620.93097,8.411,-0.0012099999,0,0
218.31667,2000,0,91.24,0.000002697398,0.000002697398,0.000002697398,0.99999994,0,0,0,0,0,0,1,0,0,0,0,false,true,false,0,94.329994,16.99,-0.0033312866,0.0033366815,0.7070959,0.7071018,0,637.131,8.411,-0.00111,0,0
218.325,2000,0,91.24,0.000002697398,0.000002697398,0.000002697398,0.99999994,0,0,0,0,0,0,1,0,0,0,0,false,true,false,0,99.71,16.99,-0.0033366815,0.0033420762,0.7070959,0.70710176,0,653.191,8.411,-0.00091,0,0
218.33333,2000,0,91.24,0.000002697398,0.000002697398,0.000002697398,0.99999994,0,0,0,0,0,0,1,0,0,0,0,false,true,false,0,105.22,16.99,-0.0033366818,0.0033474711,0.707096,0.70710176,0,669.11096,8.411,-0.00081,0,0
218.34166,2000,0,91.24,0.000002697398,0.000002697398,0.000002697398,0.99999994,0,0,0,0,0,0,1,0,0,0,0,false,true,false,0,110.86,16.99,-0.0033366818,0.0033474711,0.707096,0.70710176,0,684.90094,8.411,-0.00071,0,0
218.35,2000,0,91.24,0.000002697398,0.000002697398,0.000002697398,0.99999994,0,0,0,0,0,0,1,0,0,0,0,false,true,false,0,116.64,16.99,-0.0033366818,0.0033474711,0.707096,0.70710176,0,700.55096,8.411,-0.00061,0,0
218.35834,2000,0,91.24,0.000002697398,0.000002697398,0.000002697398,0.99999994,0,0,0,0,0,0,1,0,0,0,0,false,true,false,0,122.549995,16.99,-0.0033366818,0.0033474711,0.707096,0.70710176,0,716.071,8.411,-0.00061,0,0
218.36667,2000,0,91.24,0.000002697398,0.000002697398,0.000002697398,0.99999994,0,0,0,0,0,0,1,0,0,0,0,false,true,false,0,128.59,16.99,-0.0033366818,0.0033474711,0.707096,0.70710176,0,731.451,8.411,-0.00061,0,0
218.375,2000,0,91.24,0.000002697398,0.000002697398,0.000002697398,0.99999994,0,0,0,0,0,0,1,0,0,0,0,false,true,false,0,134.75,16.99,-0.0033366818,0.0033474711,0.707096,0.70710176,0,746.701,8.411,-0.00061,0,0
218.38333,2000,0,91.24,0.000002697398,0.000002697398,0.000002697398,0.99999994,0,0,0,0,0,0,1,0,0,0,0,false,true,false,0,141.04,16.99,-0.0033366818,0.0033474711,0.707096,0.70710176,0,761.821,8.411,-0.00061,0,0
218.39166,2000,0,91.24,0.000002697398,0.000002697398,0.000002697398,0.99999994,0,0,0,0,0,0,1,0,0,0,0,false,true,false,0,147.45999,16.99,-0.0033366818,0.0033474711,0.707096,0.70710176,0,776.811,8.411,-0.00061,0,0
218.4,2000,0,91.24,0.000002697398,0.000002697398,0.000002697398,0.99999994,0,0,0,0,0,0,1,0,0,0,0,false,true,false,0,154,16.99,-0.0033366818,0.0033474711,0.707096,0.70710176,0,791.67096,8.411,-0.00061,0,0
218.40834,2000,0,91.24,0.000002697398,0.000002697398,0.000002697398,0.99999994,0,0,0,0,0,0,1,0,0,0,0,false,true,false,0,160.67,16.99,-0.0033366818,0.0033474711,0.707096,0.70710176,0,806.41095,8.411,-0.00061,0,0
218.41667,2000,0,91.24,0.000002697398,0.000002697398,0.000002697398,0.99999994,0,0,0,0,0,0,1,0,0,0,0,false,true,false,0,167.45999,16.99,-0.0033366818,0.0033474711,0.707096,0.70710176,0,821.02094,8.411,-0.00061,0,0
218.425,2000,0,91.24,0.000002697398,0.000002697398,0.000002697398,0.99999994,0,0,0,0,0,0,1,0,0,0,0,false,true,false,0,174.37,16.99,-0.0033366818,0.0033474711,0.707096,0.70710176,0,835.501,8.411,-0.00061,0,0
218.43333,2000,0,91.24,0.000002697398,0.000002697398,0.000002697398,0.99999994,0,0,0,0,0,0,1,0,0,0,0,false,true,false,0,181.4,16.99,-0.0033366818,0.0033474711,0.707096,0.70710176,0,849.86096,8.411,-0.00071,0,0
218.44167,2000,0,91.24,0.000002697398,0.000002697398,0.000002697398,0.99999994,0,0,0,0,0,0,1,0,0,0,0,false,true,false,0,188.55,16.99,-0.0033366818,0.0033474711,0.707096,0.70710176,0,864.10095,8.411,-0.00071,0,0
218.45,2000,0,91.24,0.000002697398,0.000002697398,0.000002697398,0.99999994,0,0,0,0,0,0,1,0,0,0,0,false,true,false,0,195.81999,16.99,-0.0033366818,0.0033474711,0.707096,0.70710176,0,878.22095,8.411,-0.00071,0,0
218.45833,2000,0,91.24,0.000002697398,0.000002697398,0.000002697398,0.99999994,0,0,0,0,0,0,1,0,0,0,0,false,true,false,0,203.20999,16.99,-0.0033366818,0.0033474711,0.707096,0.70710176,0,892.21094,8.411,-0.00071,0,0
218.46666,2000,0,91.24,0.000002697398,0.000002697398,0.000002697398,0.99999994,0,0,0,0,0,0,1,0,0,0,0,false,true,false,0,210.70999,16.99,-0.0033366818,0.0033474711,0.707096,0.70710176,0,906.08093,8.411,-0.00071,0,0
218.475,2000,0,91.24,0.000002697398,0.000002697398,0.000002697398,0.99999994,0,0,0,0,0,0,1,0,0,0,0,false,true,false,0,218.33,16.99,-0.0033366818,0.0033474711,0.707096,0.70710176,0,919.84094,8.411,-0.00071,0,0
218.48334,2000,0,91.24,0.000002697398,0.000002697398,0.000002697398,0.99999994,0,0,0,0,0,0,1,0,0,0,0,false,true,false,0,226.06,16.99,-0.0033366818,0.0033474711,0.707096,0.70710176,0,933.48096,8.411,-0.00081,0,0
218.49167,2000,0,91.24,0.000002697398,0.000002697398,0.000002697398,0.99999994,0,0,0,0,0,0,1,0,0,0,0,false,true,false,0,233.90999,16.99,-0.0033366818,0.0033474711,0.707096,0.70710176,0,947.001,8.411,-0.00081,0,0
218.5,2000,0,91.24,0.000002697398,0.000002697398,0.000002697398,0.99999994,0,0,0,0,0,0,1,0,0,0,0,false,true,false,0,241.87,16.99,-0.0033366818,0.0033474711,0.707096,0.70710176,0,960.41095,8.411,-0.00081,0,0
218.50833,2000,0,91.24,0.000002697398,0.000002697398,0.000002697398,0.99999994,0,0,0,0,0,0,1,0,0,0,0,false,true,false,0,249.93999,16.99,-0.0033366818,0.0033474711,0.707096,0.70710176,0,973.7009,8.411,-0.00081,0,0
218.51666,2000,0,91.24,0.000002697398,0.000002697398,0.000002697398,0.99999994,0,0,0,0,0,0,1,0,0,0,0,false,true,false,0,258.12,16.99,-0.0033366818,0.0033474711,0.707096,0.70710176,0,986.881,8.411,-0.00081,0,0
218.525,2000,0,91.24,0.000002697398,0.000002697398,0.000002697398,0.99999994,0,0,0,0,0,0,1,0,0,0,0,false,true,false,0,266.41,16.99,-0.0033366818,0.0033474711,0.707096,0.70710176,0,999.941,8.411,-0.00081,0,0
218.53334,2000,0,91.24,0.000002697398,0.000002697398,0.000002697398,0.99999994,0,0,0,0,0,0,1,0,0,0,0,false,true,false,0,274.81,16.99,-0.0033366818,0.0033474711,0.707096,0.70710176,0,1012.8909,8.411,-0.00081,0,0
218.54167,2000,0,91.24,0.000002697398,0.000002697398,0.000002697398,0.99999994,0,0,0,0,0,0,1,0,0,0,0,false,true,false,0,283.32,16.99,-0.0033366818,0.0033474711,0.707096,0.70710176,0,1025.731,8.411,-0.00091,0,0
218.55,2000,0,91.24,0.000002697398,0.000002697398,0.000002697398,0.99999994,0,0,0,0,0,0,1,0,0,0,0,false,true,false,0,291.94,16.99,-0.0033366815,0.0033528658,0.7070959,0.7071017,0,1038.4609,8.411,-0.00091,0,0
218.55833,2000,0,91.24,0.000002697398,0.000002697398,0.000002697398,0.99999994,0,0,0,0,0,0,1,0,0,0,0,false,true,false,0,300.66,16.99,-0.0033366815,0.0033582605,0.7070959,0.7071017,0,1051.0809,8.411,-0.00091,0,0
218.56667,2000,0,91.24,0.000002697398,0.000002697398,0.000002697398,0.99999994,0,0,0,0,0,0,1,0,0,0,0,false,true,false,0,309.49,16.99,-0.0033366815,0.0033636554,0.7070959,0.70710164,0,1063.591,8.411,-0.00081,-0.00010999999,0
218.575,2000,0,91.24,0.000002697398,0.000002697398,0.000002697398,0.99999994,0,0,0,0,0,0,1,0,0,0,0,false,true,false,0,318.41998,16.99,-0.0033366815,0.0033636554,0.7070959,0.70710164,0,1076.001,8.411,-0.00081,-0.00021,0
218.58333,2000,0,91.24,0.000002697398,0.000002697398,0.000002697398,0.99999994,0,0,0,0,0,0,1,0,0,0,0,false,true,false,0,327.46,16.99,-0.0033420762,0.0033636554,0.7070959,0.70710164,0,1088.3009,8.411,-0.00081,-0.00021,0
218.59166,2000,0,91.24,0.000002697398,0.000002697398,0.000002697398,0.99999994,0,0,0,0,0,0,1,0,0,0,0,false,true,false,0,336.6,16.99,-0.0033474711,0.0033636556,0.707096,0.70710164,0,1100.491,8.411,-0.00071,-0.00021,0
218.6,2000,0,91.24,0.000002697398,0.000002697398,0.000002697398,0.99999994,0,0,0,0,0,0,1,0,0,0,0,false,true,false,0,345.84,16.99,-0.0033474711,0.0033636556,0.707096,0.70710164,0,1112.5809,8.411,-0.00061,-0.00021,0
218.60834,2000,0,91.24,0.000002697398,0.000002697398,0.000002697398,0.99999994,0,0,0,0,0,0,1,0,0,0,0,false,true,false,0,355.18,16.99,-0.0033474711,0.0033636556,0.707096,0.70710164,0,1124.5709,8.411,-0.00061,-0.00021,0
218.61667,2000,0,91.24,0.000002697398,0.000002697398,0.000002697398,0.99999994,0,0,0,0,0,0,1,0,0,0,0,false,true,false,0,364.62,16.99,-0.0033474711,0.0033636556,0.707096,0.70710164,0,1136.4509,8.411,-0.00061,-0.00021,0
218.625,2000,0,91.24,0.000002697398,0.000002697398,0.000002697398,0.99999994,0,0,0,0,0,0,1,0,0,0,0,false,true,false,0,374.16,16.99,-0.0033474711,0.0033636556,0.707096,0.70710164,0,1148.231,8.411,-0.00061,-0.00021,0
218.63333,2000,0,91.24,0.000002697398,0.000002697398,0.000002697398,0.99999994,0,0,0,0,0,0,1,0,0,0,0,false,true,false,0,383.8,16.99,-0.0033474711,0.0033636556,0.707096,0.70710164,0,1159.911,8.411,-0.00061,-0.00021,0
218.64166,2000,0,91.24,0.000002697398,0.000002697398,0.000002697398,0.99999994,0,0,0,0,0,0,1,0,0,0,0,false,true,false,0,393.53,16.99,-0.0033474711,0.0033636556,0.707096,0.70710164,0,1171.491,8.411,-0.00061,-0.00021,0
218.65,2000,0,91.24,0.000002697398,0.000002697398,0.000002697398,0.99999994,0,0,0,0,0,0,1,0,0,0,0,false,true,false,0,403.36,16.99,-0.0033474711,0.0033636556,0.707096,0.70710164,0,1182.971,8.411,-0.00061,-0.00021,0
218.65834,2000,0,91.24,0.000002697398,0.000002697398,0.000002697398,0.99999994,0,0,0,0,0,0,1,0,0,0,0,false,true,false,0,413.28998,16.99,-0.0033474711,0.0033636556,0.707096,0.70710164,0,1194.351,8.411,-0.00061,-0.00021,0
218.66667,2000,0,91.24,0.000002697398,0.000002697398,0.000002697398,0.99999994,0,0,0,0,0,0,1,0,0,0,0,false,true,false,0,423.31,16.99,-0.0033474711,0.0033636556,0.707096,0.70710164,0,1205.641,8.411,-0.00061,-0.00021,0
218.675,2000,0,91.24,0.000002697398,0.000002697398,0.000002697398,0.99999994,0,0,0,0,0,0,1,0,0,0,0,false,true,false,0,433.43,16.99,-0.0033474711,0.0033636556,0.707096,0.70710164,0,1216.8309,8.411,-0.00061,-0.00021,0
218.68333,2000,0,91.24,0.000002697398,0.000002697398,0.000002697398,0.99999994,0,0,0,0,0,0,1,0,0,0,0,false,true,false,0,443.63998,16.99,-0.0033474711,0.0033636556,0.707096,0.70710164,0,1227.9209,8.411,-0.00071,-0.00021,0
218.69167,2000,0,91.24,0.000002697398,0.000002697398,0.000002697398,0.99999994,0,0,0,0,0,0,1,0,0,0,0,false,true,false,0,453.94,16.99,-0.0033474711,0.0033636556,0.707096,0.70710164,0,1238.9209,8.411,-0.00071,-0.00021,0
218.7,2000,0,91.24,0.000002697398,0.000002697398,0.000002697398,0.99999994,0,0,0,0,0,0,1,0,0,0,0,false,true,false,0,464.33,16.99,-0.0033474711,0.0033636556,0.707096,0.70710164,0,1249.8209,8.411,-0.00071,-0.00021,0
218.70833,2000,0,91.24,0.000002697398,0.000002697398,0.000002697398,0.99999994,0,0,0,0,0,0,1,0,0,0,0,false,true,false,0,474.81,16.99,-0.0033474711,0.0033636556,0.707096,0.70710164,0,1260.631,8.411,-0.00071,-0.00021,0
218.71666,2000,0,91.24,0.000002697398,0.000002697398,0.000002697398,0.99999994,0,0,0,0,0,0,1,0,0,0,0,false,true,false,0,485.37997,16.99,-0.0033474711,0.0033636556,0.707096,0.70710164,0,1271.351,8.411,-0.00071,-0.00021,0
218.725,2000,0,91.24,0.000002697398,0.000002697398,0.000002697398,0.99999994,0,0,0,0,0,0,1,0,0,0,0,false,true,false,0,496.03998,16.99,-0.0033474711,0.0033636556,0.707096,0.70710164,0,1281.981,8.411,-0.00071,-0.00021,0
218.73334,2000,0,91.24,0.000002697398,0.000002697398,0.000002697398,0.99999994,0,0,0,0,0,0,1,0,0,0,0,false,true,false,0,506.78998,16.99,-0.0033474711,0.0033636556,0.707096,0.70710164,0,1292.511,8.411,-0.00071,-0.00021,0
218.74167,2000,0,91.24,0.000002697398,0.000002697398,0.000002697398,0.99999994,0,0,0,0,0,0,1,0,0,0,0,false,true,false,0,517.63,16.99,-0.0033474711,0.0033636556,0.707096,0.70710164,0,1302.9509,8.411,-0.00071,-0.00021,0
218.75,2000,0,91.24,0.000002697398,0.000002697398,0.000002697398,0.99999994,0,0,0,0,0,0,1,0,0,0,0,false,true,false,0,528.56,16.99,-0.0033474711,0.0033636556,0.707096,0.70710164,0,1313.3009,8.411,-0.00081,-0.00021,0
218.75833,2000,0,91.24,0.000002697398,0.000002697398,0.000002697398,0.99999994,0,0,0,0,0,0,1,0,0,0,0,false,true,false,0,539.57,16.99,-0.0033528658,0.0033636554,0.7070959,0.7071016,0,1323.5709,8.411,-0.00081,-0.00021,0
218.76666,2000,0,91.24,0.000002697398,0.000002697398,0.000002697398,0.99999994,0,0,0,0,0,0,1,0,0,0,0,false,true,false,0,550.67,16.99,-0.0033582605,0.0033636554,0.7070959,0.7071016,0,1333.751,8.411,-0.00081,-0.00010999999,0
218.775,2000,0,91.24,0.000002697398,0.000002697398,0.000002697398,0.99999994,0,0,0,0,0,0,1,0,0,0,0,false,true,false,0,561.85,16.99,-0.0033582605,0.0033636554,0.7070959,0.7071016,0,1343.841,8.411,-0.00071,0,0
218.78334,2000,0,91.24,0.000002697398,0.000002697398,0.000002697398,0.99999994,0,0,0,0,0,0,1,0,0,0,0,false,true,false,0,573.12,16.99,-0.0033582605,0.0033636554,0.7070959,0.7071016,0,1353.841,8.411,-0.00071,0,0
218.79167,2000,0,91.24,0.000002697398,0.000002697398,0.000002697398,0.99999994,0,0,0,0,0,0,1,0,0,0,0,false,true,false,0,584.47,16.99,-0.0033582605,0.0033636554,0.7070959,0.7071016,0,1363.761,8.411,-0.00071,0,0
218.8,2000,0,91.24,0.000002697398,0.000002697398,0.000002697398,0.99999994,0,0,0,0,0,0,1,0,0,0,0,false,true,false,0,595.89996,16.99,-0.0033582605,0.0033636554,0.7070959,0.7071016,0,1373.591,8.411,-0.00071,0,0
218.80833,2000,0,91.24,0.000002697398,0.000002697398,0.000002697398,0.99999994,0,0,0,0,0,0,1,0,0,0,0,false,true,false,0,607.42,16.99,-0.0033582605,0.0033636554,0.7070959,0.7071016,0,1383.341,8.411,-0.00071,0,0
218.81667,2000,0,91.24,0.000002697398,0.000002697398,0.000002697398,0.99999994,0,0,0,0,0,0,1,0,0,0,0,false,true,false,0,619.01996,16.99,-0.0033582605,0.0033636554,0.7070959,0.7071016,0,1393.011,8.411,-0.00071,0,0
218.825,2000,0,91.24,0.000002697398,0.000002697398,0.000002697398,0.99999994,0,0,0,0,0,0,1,0,0,0,0,false,true,false,0,630.7,16.99,-0.0033582605,0.0033636554,0.7070959,0.7071016,0,1402.4409,8.411,-0.00071,0,0
218.83333,2000,0,91.24,0.000002697398,0.000002697398,0.000002697398,0.99999994,0,0,0,0,0,0,1,0,0,0,0,false,true,false,0,642.45996,16.99,-0.0033582605,0.0033636554,0.7070959,0.7071016,0,1410.7009,8.411,-0.00081,0,0
218.84166,2000,0,91.24,0.000002697398,0.000002697398,0.000002697398,0.99999994,0,0,0,0,0,0,1,0,0,0,0,false,true,false,0,654.27997,16.99,-0.0033582605,0.0033636554,0.7070959,0.7071016,0,1418.9609,8.411,-0.00091,0,0
218.85,2000,0,91.24,0.000002697398,0.000002697398,0.000002697398,0.99999994,0,0,0,0,0,0,1,0,0,0,0,false,true,false,0,666.17,16.99,-0.0033582605,0.00336905,0.7070959,0.7071016,0,1427.221,8.411,-0.00091,0,0
218.85834,2000,0,91.24,0.000002697398,0.000002697398,0.000002697398,0.99999994,0,0,0,0,0,0,1,0,0,0,0,false,true,false,0,678.13,16.99,-0.0033582605,0.003374445,0.7070959,0.7071015,0,1435.481,8.411,-0.00091,0,0
218.86667,2000,0,91.24,0.000002697398,0.000002697398,0.000002697398,0.99999994,0,0,0,0,0,0,1,0,0,0,0,false,true,false,0,690.16,16.99,-0.0033582605,0.0033798397,0.7070959,0.70710146,0,1443.741,8.411,-0.00081,0,0
218.875,2000,0,91.24,0.000002697398,0.000002697398,0.000002697398,0.99999994,0,0,0,0,0,0,1,0,0,0,0,false,true,false,0,702.26,16.99,-0.0033582605,0.0033798397,0.7070959,0.70710146,0,1452.001,8.411,-0.00071,-0.00010999999,0
218.88333,2000,0,91.24,0.000002697398,0.000002697398,0.000002697398,0.99999994,0,0,0,0,0,0,1,0,0,0,0,false,true,false,0,714.43,16.99,-0.0033582605,0.0033798397,0.7070959,0.70710146,0,1460.261,8.411,-0.00071,-0.00010999999,0
218.89166,2000,0,91.24,0.000002697398,0.000002697398,0.000002697398,0.99999994,0,0,0,0,0,0,1,0,0,0,0,false,true,false,0,726.67,16.99,-0.0033582605,0.0033798397,0.7070959,0.70710146,0,1468.521,8.411,-0.00071,-0.00010999999,0
218.9,2000,0,91.24,0.000002697398,0.000002697398,0.000002697398,0.99999994,0,0,0,0,0,0,1,0,0,0,0,false,true,false,0,738.98,16.99,-0.0033582605,0.0033798397,0.7070959,0.70710146,0,1476.7809,8.411,-0.00071,-0.00010999999,0
218.90834,2000,0,91.24,0.000002697398,0.000002697398,0.000002697398,0.99999994,0,0,0,0,0,0,1,0,0,0,0,false,true,false,0,751.36,16.99,-0.0033582605,0.0033798397,0.7070959,0.70710146,0,1485.0409,8.411,-0.00071,-0.00010999999,0
218.91667,2000,0,91.24,0.000002697398,0.000002697398,0.000002697398,0.99999994,0,0,0,0,0,0,1,0,0,0,0,false,true,false,0,763.8,16.99,-0.0033582605,0.0033798397,0.7070959,0.70710146,0,1493.3009,8.411,-0.00071,-0.00010999999,0
218.925,2000,0,91.24,0.000002697398,0.000002697398,0.000002697398,0.99999994,0,0,0,0,0,0,1,0,0,0,0,false,true,false,0,776.31,16.99,-0.0033582605,0.0033798397,0.7070959,0.70710146,0,1501.5609,8.411,-0.00071,-0.00010999999,0
218.93333,2000,0,91.24,0.000002697398,0.000002697398,0.000002697398,0.99999994,0,0,0,0,0,0,1,0,0,0,0,false,true,false,0,788.88995,16.99,-0.0033582605,0.0033798397,0.7070959,0.70710146,0,1509.8209,8.411,-0.00071,-0.00010999999,0
218.94167,2000,0,91.24,0.000002697398,0.000002697398,0.000002697398,0.99999994,0,0,0,0,0,0,1,0,0,0,0,false,true,false,0,801.54,16.99,-0.0033582605,0.0033798397,0.7070959,0.70710146,0,1518.0809,8.411,-0.00071,-0.00010999999,0
218.95,2000,0,91.24,0.000002697398,0.000002697398,0.000002697398,0.99999994,0,0,0,0,0,0,1,0,0,0,0,false,true,false,0,814.26,16.99,-0.0033582605,0.0033798397,0.7070959,0.70710146,0,1526.341,8.411,-0.00071,-0.00010999999,0
218.95833,2000,0,91.24,0.000002697398,0.000002697398,0.000002697398,0.99999994,0,0,0,0,0,0,1,0,0,0,0,false,true,false,0,827.05,16.99,-0.0033582605,0.0033798397,0.7070959,0.70710146,0,1534.601,8.411,-0.00071,-0.00010999999,0
218.96666,2000,0,91.24,0.000002697398,0.000002697398,0.000002697398,0.99999994,0,0,0,0,0,0,1,0,0,0,0,false,true,false,0,839.91,16.99,-0.0033582605,0.0033798397,0.7070959,0.70710146,0,1542.861,8.411,-0.00071,-0.00010999999,0
218.975,2000,0,91.24,0.000002697398,0.000002697398,0.000002697398,0.99999994,0,0,0,0,0,0,1,0,0,0,0,false,true,false,0,852.83997,16.99,-0.0033582605,0.0033798397,0.7070959,0.70710146,0,1551.121,8.411,-0.00071,-0.00010999999,0
218.98334,2000,0,91.24,0.000002697398,0.000002697398,0.000002697398,0.99999994,0,0,0,0,0,0,1,0,0,0,0,false,true,false,0,865.82996,16.99,-0.0033582605,0.0033798397,0.7070959,0.70710146,0,1559.381,8.411,-0.00071,-0.00010999999,0
218.99167,2000,0,91.24,0.000002697398,0.000002697398,0.000002697398,0.99999994,0,0,0,0,0,0,1,0,0,0,0,false,true,false,0,878.88995,16.99,-0.0033582605,0.0033798397,0.7070959,0.70710146,0,1567.641,8.411,-0.00071,-0.00010999999,0
219,2000,0,91.24,0.000002697398,0.000002697398,0.000002697398,0.99999994,0,0,0,0,0,0,1,0,0,0,0,false,true,false,0,892.01996,16.99,-0.0033582605,0.0033798397,0.7070959,0.70710146,0,1575.901,8.411,-0.00071,-0.00010999999,0
219.00833,2000,0,91.24,0.000002697398,0.000002697398,0.000002697398,0.99999994,0,0,0,0,0,0,1,0,0,0,0,false,true,false,0,905.22,16.99,-0.0033582605,0.0033798397,0.7070959,0.70710146,0,1584.1609,8.411,-0.00071,-0.00010999999,0
219.01666,2000,0,91.24,0.000002697398,0.000002697398,0.000002697398,0.99999994,0,0,0,0,0,0,1,0,0,0,0,false,true,false,0,918.49,16.99,-0.0033582605,0.0033798397,0.7070959,0.70710146,0,1592.4209,8.411,-0.00071,-0.00010999999,0
219.025,2000,0,91.24,0.000002697398,0.000002697398,0.000002697398,0.99999994,0,0,0,0,0,0,1,0,0,0,0,false,true,false,0,931.82996,16.99,-0.0033582605,0.0033798397,0.7070959,0.70710146,0,1600.6809,8.411,-0.00071,-0.00010999999,0
219.03334,2000,0,91.24,0.000002697398,0.000002697398,0.000002697398,0.99999994,0,0,0,0,0,0,1,0,0,0,0,false,true,false,0,945.24,16.99,-0.0033582605,0.0033798397,0.7070959,0.70710146,0,1608.9409,8.411,-0.00071,-0.00010999999,0
219.04167,2000,0,91.24,0.000002697398,0.000002697398,0.000002697398,0.99999994,0,0,0,0,0,0,1,0,0,0,0,false,true,false,0,958.72,16.99,-0.0033582605,0.0033798397,0.7070959,0.70710146,0,1617.2009,8.411,-0.00071,-0.00010999999,0
219.05,2000,0,91.24,0.000002697398,0.000002697398,0.000002697398,0.99999994,0,0,0,0,0,0,1,0,0,0,0,false,true,false,0,972.26996,16.99,-0.0033582605,0.0033798397,0.7070959,0.70710146,0,1625.4609,8.411,-0.00071,-0.00010999999,0
219.05833,2000,0,91.24,0.000002697398,0.000002697398,0.000002697398,0.99999994,0,0,0,0,0,0,1,0,0,0,0,false,true,false,0,985.88,16.99,-0.0033582605,0.0033798397,0.7070959,0.70710146,0,1633.721,8.411,-0.00071,-0.00010999999,0
219.06667,2000,0,91.24,0.000002697398,0.000002697398,0.000002697398,0.99999994,0,0,0,0,0,0,1,0,0,0,0,false,true,false,0,999.56,16.99,-0.0033582605,0.0033798397,0.7070959,0.70710146,0,1641.981,8.411,-0.00071,-0.00010999999,0
219.075,2000,0,91.24,0.000002697398,0.000002697398,0.000002697398,0.99999994,0,0,0,0,0,0,1,0,0,0,0,false,true,false,0,1013.31,16.99,-0.0033582605,0.0033798397,0.7070959,0.70710146,0,1650.241,8.411,-0.00071,-0.00010999999,0
219.08333,2000,0,91.24,0.000002697398,0.000002697398,0.000002697398,0.99999994,0,0,0,0,0,0,1,0,0,0,0,false,true,false,0,1027.13,16.99,-0.0033582605,0.0033798397,0.7070959,0.70710146,0,1658.501,8.411,-0.00071,-0.00010999999,0
219.09166,2000,0,91.24,0.000002697398,0.000002697398,0.000002697398,0.99999994,0,0,0,0,0,0,1,0,0,0,0,false,true,false,0,1041.02,16.99,-0.0033582605,0.0033798397,0.7070959,0.70710146,0,1666.761,8.411,-0.00071,-0.00010999999,0
219.1,2000,0,91.24,0.000002697398,0.000002697398,0.000002697398,0.99999994,0,0,0,0,0,0,1,0,0,0,0,false,true,false,0,1054.98,16.99,-0.0033582605,0.0033798397,0.7070959,0.70710146,0,1675.021,8.411,-0.00071,-0.00010999999,0
219.10834,2000,0,91.24,0.000002697398,0.000002697398,0.000002697398,0.99999994,0,0,0,0,0,0,1,0,0,0,0,false,true,false,0,1069.01,16.99,-0.0033582605,0.0033798397,0.7070959,0.70710146,0,1683.2809,8.411,-0.00071,-0.00010999999,0
219.11667,2000,0,91.24,0.000002697398,0.000002697398,0.000002697398,0.99999994,0,0,0,0,0,0,1,0,0,0,0,false,true,false,0,1083.11,16.99,-0.0033582605,0.0033798397,0.7070959,0.70710146,0,1691.5409,8.411,-0.00071,-0.00010999999,0
219.125,2000,0,91.24,0.000002697398,0.000002697398,0.000002697398,0.99999994,0,0,0,0,0,0,1,0,0,0,0,false,true,false,0,1097.28,16.99,-0.0033582605,0.0033798397,0.7070959,0.70710146,0,1699.8009,8.411,-0.00071,-0.00010999999,0
219.13333,2000,0,91.24,0.000002697398,0.000002697398,0.000002697398,0.99999994,0,0,0,0,0,0,1,0,0,0,0,false,true,false,0,1111.51,16.99,-0.0033582605,0.0033798397,0.7070959,0.70710146,0,1708.0609,8.411,-0.00071,-0.00010999999,0
219.14166,2000,0,91.24,0.000002697398,0.000002697398,0.000002697398,0.99999994,0,0,0,0,0,0,1,1,0,0,0,false,false,true,0,1125.74,16.99,-0.0033582605,0.0033798397,0.7070959,0.70710146,-11.021,1707.021,8.471001,-0.00071,0.00271,0.30681
219.15,2000,0,91.24,0.000002697398,0.000002697398,0.000002697398,0.99999994,0,0,0,0,0,0,1,1,0,0,0,false,false,true,-0.089999996,1139.97,16.99,-0.0033582605,0.0033852346,0.70800126,0.706195,-20.491,1706.091,8.501,-0.00071,0.00381,0.55471
219.15834,2000,0,91.24,0.000002697398,0.000002697398,0.000002697398,0.99999994,0,0,0,0,0,0,1,1,0,0,0,false,false,true,-0.26,1154.19,16.99,-0.0033582607,0.0033906295,0.7096333,0.70455503,-29.880999,1705.141,8.521,-0.00061,0.00421,0.77331
219.16667,2000,0,91.24,0.000002697398,0.000002697398,0.000002697398,0.99999994,0,0,0,0,0,0,1,1,0,0,0,false,false,true,-0.51,1168.4,16.99,-0.0033582605,0.0033960242,0.7119023,0.70226216,-39.580997,1704.121,8.541,-0.00051,0.00411,0.96781
219.175,2000,0,91.24,0.000002697398,0.000002697398,0.000002697398,0.99999994,0,0,0,0,0,0,1,1,0,0,0,false,false,true,-0.84,1182.6,16.99,-0.0033636554,0.0033960242,0.71472734,0.6993868,-49.850998,1702.991,8.551001,-0.00051,0.00361,1.1425099
219.18333,2000,0,91.24,0.000002697398,0.000002697398,0.000002697398,0.99999994,0,0,0,0,0,0,1,1,0,0,0,false,false,true,-1.26,1196.7899,16.99,-0.00336905,0.0033906293,0.7180479,0.69597715,-60.821,1701.7109,8.561,-0.00040999998,0.00301,1.30081
219.19167,2000,0,91.24,0.000002697398,0.000002697398,0.000002697398,0.99999994,0,0,0,0,0,0,1,1,0,0,0,false,false,true,-1.77,1210.97,16.99,-0.00337984,0.00337984,0.721808,0.6920768,-72.531,1700.231,8.561,-0.00040999998,0.00241,1.44541
219.2,2000,0,91.24,0.000002697398,0.000002697398,0.000002697398,0.99999994,0,0,0,0,0,0,1,1,0,0,0,false,false,true,-2.37,1225.14,16.99,-0.0033960242,0.00336905,0.72596234,0.68771774,-84.980995,1698.521,8.561,-0.00040999998,0.0018099999,1.5785099
219.20833,2000,0,91.24,0.000002697398,0.000002697398,0.000002697398,0.99999994,0,0,0,0,0,0,1,1,0,0,0,false,false,true,-3.08,1239.2899,16.99,-0.0034122085,0.0033528658,0.7304707,0.68292713,-98.111,1696.5509,8.561,-0.00030999997,0.00131,1.70161
219.21666,2000,0,91.24,0.000002697398,0.000002697398,0.000002697398,0.99999994,0,0,0,0,0,0,1,1,0,0,0,false,false,true,-3.8999999,1253.4299,16.99,-0.0034337877,0.0033312866,0.7352934,0.67773193,-111.851,1694.2909,8.571,-0.00030999997,0.00081,1.81601
219.225,2000,0,91.24,0.000002697398,0.000002697398,0.000002697398,0.99999994,0,0,0,0,0,0,1,1,0,0,0,false,false,true,-4.83,1267.5499,16.99,-0.003455367,0.0033097074,0.74040097,0.6721483,-126.08099,1691.721,8.571,-0.00021,0.00040999998,1.9226099
219.23334,2000,0,91.24,0.000002697398,0.000002697398,0.000002697398,0.99999994,0,0,0,0,0,0,1,1,0,0,0,false,false,true,-5.8799996,1281.65,16.99,-0.0034823408,0.0032827335,0.74575967,0.6661978,-140.69101,1688.8309,8.571,-0.00021,0.00010999999,2.02221
219.24167,2000,0,91.24,0.000002697398,0.000002697398,0.000002697398,0.99999994,0,0,0,0,0,0,1,1,0,0,0,false,false,true,-7.0499997,1295.72,16.99,-0.0035093152,0.0032557596,0.75134575,0.65989137,-155.541,1685.611,8.571,-0.00021,-0.00010999999,2.11521
219.25,2000,0,91.24,0.000002697398,0.000002697398,0.000002697398,0.99999994,0,0,0,0,0,0,1,1,0,0,0,false,false,true,-8.349999,1309.77,16.99,-0.0035362889,0.0032233908,0.75713146,0.6532449,-170.47101,1682.0809,8.571,-0.00010999999,-0.00030999997,2.20201
219.25833,2000,0,91.24,0.000002697398,0.000002697398,0.000002697398,0.99999994,0,0,0,0,0,0,1,1,0,0,0,false,false,true,-9.7699995,1323.7899,16.99,-0.003568658,0.0031910222,0.7630943,0.6462694,-185.33101,1678.251,8.571,-0.00010999999,-0.00051,2.28281
219.26666,2000,0,91.24,0.000002697398,0.000002697398,0.000002697398,0.99999994,0,0,0,0,0,0,1,1,0,0,0,false,false,true,-11.309999,1337.78,16.99,-0.0036010265,0.0031532582,0.76920754,0.638981,-199.951,1674.1609,8.571,0,-0.00061,2.35771
219.275,2000,0,91.24,0.000002697398,0.000002697398,0.000002697398,0.99999994,0,0,0,0,0,0,1,1,0,0,0,false,false,true,-12.98,1351.73,16.99,-0.0036333953,0.0031154947,0.7754458,0.6313959,-214.151,1669.861,8.571,0,-0.00071,2.42671
219.28334,2000,0,91.24,0.000002697398,0.000002697398,0.000002697398,0.99999994,0,0,0,0,0,0,1,1,0,0,0,false,false,true,-14.759999,1365.65,16.99,-0.003665764,0.0030777312,0.7817888,0.6235248,-227.751,1665.4109,8.571,0,-0.00081,2.48981
219.29167,2000,0,91.24,0.000002697398,0.000002697398,0.000002697398,0.99999994,0,0,0,0,0,0,1,1,0,0,0,false,false,true,-16.66,1379.53,16.99,-0.0036981327,0.0030399675,0.788217,0.6153786,-240.561,1660.891,8.571,0,-0.00091,2.54671
219.3,2000,0,91.24,0.000002697398,0.000002697398,0.000002697398,0.99999994,0,0,0,0,0,0,1,1,0,0,0,false,false,true,-18.66,1393.37,16.99,-0.0037305015,0.0029968093,0.7947034,0.6069789,-252.381,1656.4109,8.571,0,-0.0010099999,2.59731
219.30833,2000,0,91.24,0.000002697398,0.000002697398,0.000002697398,0.99999994,0,0,0,0,0,0,1,1,0,0,0,false,false,true,-20.76,1407.1699,16.99,-0.0037682652,0.002953651,0.80122656,0.5983418,-263.011,1652.091,8.571,0,-0.00111,2.6412098
219.31667,2000,0,91.24,0.000002697398,0.000002697398,0.000002697398,0.99999994,0,0,0,0,0,0,1,1,0,0,0,false,false,true,-22.949999,1420.94,16.99,-0.0038060287,0.0029104925,0.80776215,0.5894889,-272.251,1648.0709,8.571,0.00010999999,-0.0012099999,2.67821
219.325,2000,0,91.24,0.000002697398,0.000002697398,0.000002697398,0.99999994,0,0,0,0,0,0,1,1,0,0,0,false,false,true,-25.22,1434.6699,16.99,-0.0038437925,0.0028619396,0.8142914,0.58043647,-279.891,1644.521,8.571,0.00021,-0.00131,2.70791
219.33333,2000,0,91.24,0.000002697398,0.000002697398,0.000002697398,0.99999994,0,0,0,0,0,0,1,1,0,0,0,false,false,true,-27.55,1448.37,16.99,-0.0038815557,0.0028133863,0.820789,0.5712113,-285.721,1641.631,8.561,0.00030999997,-0.0014099999,2.73001
219.35,2000,0,91.24,0.000002697398,0.000002697398,0.000002697398,0.99999994,0,0,0,0,0,0,1,1,0,0,0,false,false,true,-32.36,1475.7,16.99,-0.003957083,0.0027162798,0.8336192,0.55231863,-298.081,1634.981,8.561,0.00030999997,-0.00131,2.77211
219.35834,2000,0,91.24,0.000002697398,0.000002697398,0.000002697398,0.99999994,0,0,0,0,0,0,1,1,0,0,0,false,false,true,-34.84,1489.32,16.99,-0.003989452,0.002667727,0.8399444,0.5426512,-304.571,1631.2009,8.561,0.00040999998,-0.0012099999,2.79241
219.36667,2000,0,91.24,0.000002697398,0.000002697398,0.000002697398,0.99999994,0,0,0,0,0,0,1,1,0,0,0,false,false,true,-37.38,1502.9099,16.99,-0.00402182,0.0026191734,0.8462002,0.5328433,-311.241,1627.111,8.561,0.00040999998,-0.00111,2.8122098
219.375,2000,0,91.24,0.000002697398,0.000002697398,0.000002697398,0.99999994,0,0,0,0,0,0,1,1,0,0,0,false,false,true,-39.969997,1516.47,16.99,-0.004054189,0.0025706203,0.8523866,0.5228899,-318.071,1622.7009,8.561,0.00040999998,-0.0010099999,2.83141
219.38333,2000,0,91.24,0.000002697398,0.000002697398,0.000002697398,0.99999994,0,0,0,0,0,0,1,1,0,0,0,false,false,true,-42.62,1529.99,16.99,-0.004086558,0.0025166722,0.8584969,0.51279616,-325.031,1617.971,8.561,0.00040999998,-0.00091,2.85011
219.39166,2000,0,91.24,0.000002697398,0.000002697398,0.000002697398,0.99999994,0,0,0,0,0,0,1,1,0,0,0,false,false,true,-45.329998,1543.47,16.99,-0.0041189273,0.0024627247,0.86452764,0.5025623,-332.111,1612.9109,8.561,0.00040999998,-0.00081,2.8682098
219.4,2000,0,91.24,0.000002697398,0.000002697398,0.000002697398,0.99999994,0,0,0,0,0,0,1,1,0,0,0,false,false,true,-48.1,1556.9099,16.99,-0.004151296,0.0024087767,0.8704726,0.49219343,-339.271,1607.5309,8.561,0.00040999998,-0.00071,2.88581
219.40834,2000,0,91.24,0.000002697398,0.000002697398,0.000002697398,0.99999994,0,0,0,0,0,0,1,1,0,0,0,false,false,true,-50.93,1570.3099,16.99,-0.0041836645,0.0023548284,0.8763286,0.48168972,-346.501,1601.8209,8.561,0.00040999998,-0.00061,2.9028099
219.41667,2000,0,91.24,0.000002697398,0.000002697398,0.000002697398,0.99999994,0,0,0,0,0,0,1,1,0,0,0,false,false,true,-53.82,1583.6599,16.99,-0.0042106383,0.0023008804,0.8820899,0.4710565,-353.771,1595.7809,8.561,0.00040999998,-0.00051,2.91921
219.425,2000,0,91.24,0.000002697398,0.000002697398,0.000002697398,0.99999994,0,0,0,0,0,0,1,1,0,0,0,false,false,true,-56.77,1596.96,16.99,-0.0042376122,0.0022469326,0.8877536,0.46029386,-361.061,1589.4209,8.561,0.00030999997,-0.00051,2.9349098
219.43333,2000,0,91.24,0.000002697398,0.000002697398,0.000002697398,0.99999994,0,0,0,0,0,0,1,1,0,0,0,false,false,true,-59.78,1610.21,16.99,-0.0042645866,0.0021929848,0.89331686,0.44940174,-368.351,1582.741,8.561,0.00030999997,-0.00040999998,2.9500098
219.44167,2000,0,91.24,0.000002697398,0.000002697398,0.000002697398,0.99999994,0,0,0,0,0,0,1,1,0,0,0,false,false,true,-62.85,1623.4,16.99,-0.0042915605,0.0021390368,0.8987742,0.43838555,-375.611,1575.741,8.561,0.00030999997,-0.00040999998,2.9644098
219.45,2000,0,91.24,0.000002697398,0.000002697398,0.000002697398,0.99999994,0,0,0,0,0,0,1,1,0,0,0,false,false,true,-65.979996,1636.5299,16.99,-0.0043185335,0.0020850883,0.9041204,0.4272505,-382.831,1568.4209,8.561,0.00030999997,-0.00040999998,2.9781098
219.45833,2000,0,91.24,0.000002697398,0.000002697398,0.000002697398,0.99999994,0,0,0,0,0,0,1,1,0,0,0,false,false,true,-69.17,1649.6,16.99,-0.0043455083,0.0020311407,0.90935326,0.41599703,-389.981,1560.8009,8.561,0.00030999997,-0.00040999998,2.9911098
219.46666,2000,0,91.24,0.000002697398,0.000002697398,0.000002697398,0.99999994,0,0,0,0,0,0,1,1,0,0,0,false,false,true,-72.42,1662.61,16.99,-0.0043724827,0.001977193,0.9144678,0.40463012,-397.041,1552.881,8.561,0.00030999997,-0.00040999998,3.00331
219.48334,2000,0,91.24,0.000002697398,0.000002697398,0.000002697398,0.99999994,0,0,0,0,0,0,1,1,0,0,0,false,false,true,-79.1,1688.4299,16.99,-0.00442643,0.0018585073,0.9243308,0.38156188,-412.301,1537.361,8.561,0.00030999997,-0.00021,3.03171
219.49167,2000,0,91.24,0.000002697398,0.000002697398,0.000002697398,0.99999994,0,0,0,0,0,0,1,1,0,0,0,false,false,true,-82.54,1701.24,16.99,-0.004448009,0.0017991646,0.92907697,0.36985517,-419.891,1529.271,8.561,0.00030999997,-0.00010999999,3.04531
219.5,2000,0,91.24,0.000002697398,0.000002697398,0.000002697398,0.99999994,0,0,0,0,0,0,1,1,0,0,0,false,false,true,-86.04,1713.98,16.99,-0.0044695884,0.0017398217,0.93369573,0.3580351,-427.441,1520.971,8.561,0.00030999997,0,3.05841
219.50833,2000,0,91.24,0.000002697398,0.000002697398,0.000002697398,0.99999994,0,0,0,0,0,0,1,1,0,0,0,false,false,true,-89.6,1726.6499,16.99,-0.0044911676,0.001680479,0.93818265,0.34610718,-434.941,1512.4609,8.561,0.00021,0,3.07111
219.51666,2000,0,91.24,0.000002697398,0.000002697398,0.000002697398,0.99999994,0,0,0,0,0,0,1,1,0,0,0,false,false,true,-93.22,1739.25,16.99,-0.004512747,0.0016211362,0.9425355,0.3340713,-442.381,1503.761,8.561,0.00021,0,3.08341
219.525,2000,0,91.24,0.000002697398,0.000002697398,0.000002697398,0.99999994,0,0,0,0,0,0,1,1,0,0,0,false,false,true,-96.909996,1751.7799,16.99,-0.004534326,0.0015617935,0.9467502,0.32193303,-449.751,1494.881,8.561,0.00021,0,3.0952098
219.53334,2000,0,91.24,0.000002697398,0.000002697398,0.000002697398,0.99999994,0,0,0,0,0,0,1,1,0,0,0,false,false,true,-100.659996,1764.24,16.99,-0.0045559052,0.0015024507,0.95082295,0.30969754,-457.041,1485.8209,8.561,0.00021,0,3.1066098
219.54167,2000,0,91.24,0.000002697398,0.000002697398,0.000002697398,0.99999994,0,0,0,0,0,0,1,1,0,0,0,false,false,true,-104.47,1776.62,16.99,-0.0045720898,0.001443108,0.9547518,0.29736495,-464.251,1476.601,8.561,0.00021,0,3.1175098
219.55,2000,0,91.24,0.000002697398,0.000002697398,0.000002697398,0.99999994,0,0,0,0,0,0,1,1,0,0,0,false,false,true,-108.34,1788.9299,16.99,-0.004588274,0.0013837651,0.9585331,0.28494072,-471.371,1467.221,8.561,0.00021,0,3.12791
219.55833,2000,0,91.24,0.000002697398,0.000002697398,0.000002697398,0.99999994,0,0,0,0,0,0,1,1,0,0,0,false,false,true,-112.27,1801.1599,16.99,-0.0046044583,0.0013244224,0.9621651,0.27242473,-478.401,1457.7009,8.561,0.00021,0,3.13781
219.56667,2000,0,91.24,0.000002697398,0.000002697398,0.000002697398,0.99999994,0,0,0,0,0,0,1,1,0,0,0,false,false,true,-116.259995,1813.3099,16.99,-0.0046206433,0.0012650798,0.9656445,0.25982252,-485.331,1448.0509,8.561,0.00021,0,3.14721
219.575,2000,0,91.24,0.000002697398,0.000002697398,0.000002697398,0.99999994,0,0,0,0,0,0,1,1,0,0,0,false,false,true,-120.299995,1825.38,16.99,-0.0046368274,0.001205737,0.9689681,0.24713926,-492.151,1438.2809,8.561,0.00021,0,3.15611
219.58333,2000,0,91.24,0.000002697398,0.000002697398,0.000002697398,0.99999994,0,0,0,0,0,0,1,1,0,0,0,false,false,true,-124.399994,1837.37,16.99,-0.004653012,0.0011463943,0.9721344,0.23437516,-498.871,1428.401,8.561,0.00021,0,3.16451
219.59166,2000,0,91.24,0.000002697398,0.000002697398,0.000002697398,0.99999994,0,0,0,0,0,0,1,1,0,0,0,false,false,true,-128.56,1849.27,16.99,-0.0046691964,0.0010816567,0.9751405,0.22153546,-505.481,1418.4209,8.561,0.00021,0,3.1723099
219.6,2000,0,91.24,0.000002697398,0.000002697398,0.000002697398,0.99999994,0,0,0,0,0,0,1,1,0,0,0,false,false,true,-132.77,1861.09,16.99,-0.0046853805,0.001016919,0.9779838,0.20862561,-511.991,1408.351,8.561,0.00021,0,3.17961
219.60834,2000,0,91.24,0.000002697398,0.000002697398,0.000002697398,0.99999994,0,0,0,0,0,0,1,1,0,0,0,false,false,true,-137.04,1872.83,16.99,-0.00469617,0.0009521815,0.9806618,0.19565113,-518.391,1398.2009,8.561,0.00021,0.00010999999,3.1863098
219.61667,2000,0,91.24,0.000002697398,0.000002697398,0.000002697398,0.99999994,0,0,0,0,0,0,1,1,0,0,0,false,false,true,-141.36,1884.48,16.99,-0.0047069597,0.00088744395,0.98317236,0.18261722,-524.68097,1387.981,8.561,0.00021,0.00010999999,3.19251
219.63333,2000,0,91.24,0.000002697398,0.000002697398,0.000002697398,0.99999994,0,0,0,0,0,0,1,1,0,0,0,false,false,true,-150.15,1907.5299,16.99,-0.0047285384,0.00075796887,0.9876858,0.15637684,-536.96094,1367.391,8.561,0.00010999999,0.00010999999,3.20311
219.64166,2000,0,91.24,0.000002697398,0.000002697398,0.000002697398,0.99999994,0,0,0,0,0,0,1,1,0,0,0,false,false,true,-154.62,1918.9199,16.99,-0.0047393288,0.00069323136,0.9896849,0.1431811,-542.951,1357.031,8.561,0.00010999999,0.00021,3.20751
219.65,2000,0,91.24,0.000002697398,0.000002697398,0.000002697398,0.99999994,0,0,0,0,0,0,1,1,0,0,0,false,false,true,-159.14,1930.23,16.99,-0.0047447234,0.0006284938,0.99151,0.12994227,-548.84094,1346.641,8.561,0.00010999999,0.00021,3.21131
219.65834,2000,0,91.24,0.000002697398,0.000002697398,0.000002697398,0.99999994,0,0,0,0,0,0,1,1,0,0,0,false,false,true,-163.70999,1941.45,16.99,-0.004750117,0.0005637561,0.9931596,0.11666557,-554.65094,1336.231,8.561,0.00010999999,0.00021,3.21451
219.66667,2000,0,91.24,0.000002697398,0.000002697398,0.000002697398,0.99999994,0,0,0,0,0,0,1,1,0,0,0,false,false,true,-168.33,1952.59,16.99,-0.004755513,0.00049901864,0.9946334,0.10335123,-560.371,1325.8109,8.561,0,0.00021,3.21701
219.675,2000,0,91.24,0.000002697398,0.000002697398,0.000002697398,0.99999994,0,0,0,0,0,0,1,1,0,0,0,false,false,true,-173,1963.64,16.99,-0.0047609075,0.0004342811,0.99592936,0.09000981,-566.02094,1315.381,8.561,0,0.00021,3.21891
219.68333,2000,0,91.24,0.000002697398,0.000002697398,0.000002697398,0.99999994,0,0,0,0,0,0,1,1,0,0,0,false,false,true,-177.72,1974.6,16.99,-0.0047663026,0.00036954356,0.9970468,0.07664683,-571.60095,1304.9609,8.561,0,0.00021,3.22011
219.69167,2000,0,91.24,0.000002697398,0.000002697398,0.000002697398,0.99999994,0,0,0,0,0,0,1,1,0,0,0,false,false,true,-182.48,1985.47,16.99,-0.004771697,0.000304806,0.9979854,0.06326233,-577.121,1294.5509,8.561,0,0.00021,3.22061
219.7,2000,0,91.24,0.000002697398,0.000002697398,0.000002697398,0.99999994,0,0,0,0,0,0,1,1,0,0,0,false,false,true,-187.29,1996.26,16.99,-0.004777092,0.00024006843,0.99874437,0.049866967,-582.59094,1284.151,8.561,0,0.00021,3.22051
219.70833,2000,0,91.24,0.000002697398,0.000002697398,0.000002697398,0.99999994,0,0,0,0,0,0,1,1,0,0,0,false,false,true,-192.14,2006.96,16.99,-0.0047770925,0.00017533089,0.9993236,0.036460903,-588.02094,1273.771,8.561,0,0.00030999997,3.2197099
219.71666,2000,0,91.24,0.000002697398,0.000002697398,0.000002697398,0.99999994,0,0,0,0,0,0,1,1,0,0,0,false,false,true,-197.04,2017.57,16.99,-0.0047770925,0.000110593326,0.9997229,0.023049353,-593.42096,1263.4109,8.561,0,0.00030999997,3.2181098
219.725,2000,0,91.24,0.000002697398,0.000002697398,0.000002697398,0.99999994,0,0,0,0,0,0,1,1,0,0,0,false,false,true,-201.98999,2028.1,16.99,-0.0047770925,0.00004585577,0.99994206,0.009643199,-598.79095,1253.0809,8.561,0,0.00030999997,3.2158098
219.73334,2000,0,91.24,0.000002697398,0.000002697398,0.000002697398,0.99999994,0,0,0,0,0,0,1,1,0,0,0,false,false,true,-206.98,2038.5399,16.99,-0.004777092,-0.000018881787,0.99998146,-0.0037574756,-604.15094,1242.781,8.561,0,0.00030999997,3.21271
219.74167,2000,0,91.24,0.000002697398,0.000002697398,0.000002697398,0.99999994,0,0,0,0,0,0,1,1,0,0,0,false,false,true,-212.01,2048.9,16.99,-0.0047770925,-0.00008361934,0.99984163,-0.01714205,-609.511,1232.511,8.561,0,0.00030999997,3.2088099
219.75,2000,0,91.24,0.000002697398,0.000002697398,0.000002697398,0.99999994,0,0,0,0,0,0,1,1,0,0,0,false,false,true,-217.09,2059.17,16.99,-0.004771697,-0.00014835689,0.999523,-0.030510396,-614.891,1222.271,8.561,0,0.00040999998,3.20411
219.75833,2000,0,91.24,0.000002697398,0.000002697398,0.000002697398,0.99999994,0,0,0,0,0,0,1,1,0,0,0,false,false,true,-222.20999,2069.3599,16.99,-0.004766302,-0.00021309445,0.9990266,-0.043851767,-620.29095,1212.0609,8.561,0,0.00040999998,3.1986098
219.76666,2000,0,91.24,0.000002697398,0.000002697398,0.000002697398,0.99999994,0,0,0,0,0,0,1,1,0,0,0,false,false,true,-227.37999,2079.46,16.99,-0.0047609075,-0.000277832,0.99835354,-0.057160772,-625.73096,1201.881,8.561,0,0.00040999998,3.19221
219.775,2000,0,91.24,0.000002697398,0.000002697398,0.000002697398,0.99999994,0,0,0,0,0,0,1,1,0,0,0,false,false,true,-232.59,2089.48,16.99,-0.0047555133,-0.00034256958,0.9975052,-0.07043202,-631.21094,1191.731,8.561,0,0.00040999998,3.1849098
219.78334,2000,0,91.24,0.000002697398,0.000002697398,0.000002697398,0.99999994,0,0,0,0,0,0,1,1,0,0,0,false,false,true,-237.84999,2099.41,16.99,-0.004750118,-0.00040730715,0.9964829,-0.08366014,-636.66095,1181.521,8.561,0,0.00040999998,3.1807098
219.79167,2000,0,91.24,0.000002697398,0.000002697398,0.000002697398,0.99999994,0,0,0,0,0,0,1,1,0,0,0,false,false,true,-243.15999,2109.26,16.99,-0.004744723,-0.00047204466,0.9952864,-0.09686124,-642.05096,1171.231,8.561,-0.00010999999,0.00040999998,3.18041
219.8,2000,0,91.24,0.000002697398,0.000002697398,0.000002697398,0.99999994,0,0,0,0,0,0,1,1,0,0,0,false,false,true,-248.51,2119.02,16.99,-0.004733934,-0.00053678226,0.9939156,-0.110040784,-647.40094,1160.871,8.561,-0.00021,0.00040999998,3.18391
219.80833,2000,0,91.24,0.000002697398,0.000002697398,0.000002697398,0.99999994,0,0,0,0,0,0,1,1,0,0,0,false,false,true,-253.9,2128.69,16.99,-0.004723144,-0.00060151983,0.9923686,-0.123214915,-652.71094,1150.4409,8.561,-0.00030999997,0.00030999997,3.19101
219.81667,2000,0,91.24,0.000002697398,0.000002697398,0.000002697398,0.99999994,0,0,0,0,0,0,1,1,0,0,0,false,false,true,-259.34,2138.28,16.99,-0.0047123544,-0.00066086254,0.99064237,-0.13639984,-657.99097,1139.9409,8.561,-0.00040999998,0.00021,3.20171
219.825,2000,0,91.24,0.000002697398,0.000002697398,0.000002697398,0.99999994,0,0,0,0,0,0,1,1,0,0,0,false,false,true,-264.82,2147.78,16.99,-0.004701565,-0.0007202053,0.98873496,-0.149601,-663.18097,1129.3309,8.561,-0.00051,0.00010999999,3.2172098
219.83333,2000,0,91.24,0.000002697398,0.000002697398,0.000002697398,0.99999994,0,0,0,0,0,0,1,1,0,0,0,false,false,true,-270.35,2157.19,16.99,-0.004690775,-0.000779548,0.986641,-0.16283986,-668.191,1118.5409,8.561,-0.00061,0,3.23921
219.84166,2000,0,91.24,0.000002697398,0.000002697398,0.000002697398,0.99999994,0,0,0,0,0,0,1,1,0,0,0,false,false,true,-275.91998,2166.51,16.99,-0.0046799853,-0.0008388908,0.98435295,-0.17614347,-673.02094,1107.5809,8.561,-0.00061,0,3.26751
219.85,2000,0,91.24,0.000002697398,0.000002697398,0.000002697398,0.99999994,0,0,0,0,0,0,1,1,0,0,0,false,false,true,-281.53,2175.74,16.99,-0.0046691964,-0.0008982336,0.9818638,-0.189528,-677.67096,1096.4609,8.561,-0.00071,-0.00010999999,3.3020098
219.85834,2000,0,91.24,0.000002697398,0.000002697398,0.000002697398,0.99999994,0,0,0,0,0,0,1,1,0,0,0,false,false,true,-287.18,2184.88,16.99,-0.004658406,-0.0009575763,0.97916293,-0.20302042,-682.141,1085.2009,8.561,-0.00071,-0.00010999999,3.34261
219.86667,2000,0,91.24,0.000002697398,0.000002697398,0.000002697398,0.99999994,0,0,0,0,0,0,1,1,0,0,0,false,false,true,-292.86,2193.92,16.99,-0.0046422216,-0.0010169189,0.9762405,-0.21663694,-686.441,1073.8109,8.561,-0.00071,-0.00021,3.38921
219.875,2000,0,91.24,0.000002697398,0.000002697398,0.000002697398,0.99999994,0,0,0,0,0,0,1,1,0,0,0,false,false,true,-298.58,2202.8699,16.99,-0.004626038,-0.0010816567,0.97308457,-0.23039916,-690.571,1062.3009,8.561,-0.00071,-0.00030999997,3.44171
219.88333,2000,0,91.24,0.000002697398,0.000002697398,0.000002697398,0.99999994,0,0,0,0,0,0,1,1,0,0,0,false,false,true,-304.33,2211.72,16.99,-0.0046098535,-0.0011463943,0.96968085,-0.24432856,-694.53094,1050.6809,8.561,-0.00081,-0.00040999998,3.50001
219.89166,2000,0,91.24,0.000002697398,0.000002697398,0.000002697398,0.99999994,0,0,0,0,0,0,1,1,0,0,0,false,false,true,-310.12,2220.48,16.99,-0.0045936694,-0.0012111318,0.9660152,-0.2584414,-698.33093,1038.9509,8.561,-0.00081,-0.00051,3.56411
219.9,2000,0,91.24,0.000002697398,0.000002697398,0.000002697398,0.99999994,0,0,0,0,0,0,1,1,0,0,0,false,false,true,-315.94,2229.14,16.99,-0.0045774844,-0.0012758692,0.9620705,-0.27275923,-701.891,1027.0409,8.561,-0.00081,-0.00061,3.63221
219.90834,2000,0,91.24,0.000002697398,0.000002697398,0.000002697398,0.99999994,0,0,0,0,0,0,1,1,0,0,0,false,false,true,-321.78998,2237.7,16.99,-0.0045613004,-0.001340607,0.9578326,-0.2872875,-705.131,1014.881,8.561,-0.00081,-0.00071,3.70261
219.91667,2000,0,91.24,0.000002697398,0.000002697398,0.000002697398,0.99999994,0,0,0,0,0,0,1,1,0,0,0,false,false,true,-327.66998,2246.16,16.99,-0.004539721,-0.0014053445,0.95328605,-0.30203152,-707.97095,1002.58093,8.561,-0.00081,-0.00071,3.7746098
219.925,2000,0,91.24,0.000002697398,0.000002697398,0.000002697398,0.99999994,0,0,0,0,0,0,1,1,0,0,0,false,false,true,-333.57,2254.51,16.99,-0.004518141,-0.0014700819,0.9484182,-0.3169859,-710.251,990.371,8.561,-0.00071,-0.00071,3.8461099
219.93333,2000,0,91.24,0.000002697398,0.000002697398,0.000002697398,0.99999994,0,0,0,0,0,0,1,1,0,0,0,false,false,true,-339.49,2262.76,16.99,-0.0044965628,-0.0015402144,0.9432162,-0.3321454,-711.99097,978.28094,8.561,-0.00051,-0.00071,3.9168098
219.94167,2000,0,91.24,0.000002697398,0.000002697398,0.000002697398,0.99999994,0,0,0,0,0,0,1,1,0,0,0,false,false,true,-345.41998,2270.91,16.99,-0.0044749836,-0.0016103467,0.93767023,-0.34749365,-713.21094,966.35095,8.561,-0.00040999998,-0.00061,3.98681
219.95,2000,0,91.24,0.000002697398,0.000002697398,0.000002697398,0.99999994,0,0,0,0,0,0,1,1,0,0,0,false,false,true,-351.36,2278.96,16.99,-0.004448009,-0.001680479,0.9317692,-0.3630199,-713.93097,954.61096,8.561,-0.00030999997,-0.00051,4.05611
219.95833,2000,0,91.24,0.000002697398,0.000002697398,0.000002697398,0.99999994,0,0,0,0,0,0,1,1,0,0,0,false,false,true,-357.31,2286.92,16.99,-0.0044210358,-0.0017560063,0.9255017,-0.37871346,-714.17096,943.09094,8.561,-0.00010999999,-0.00051,4.1248097
219.96666,2000,0,91.24,0.000002697398,0.000002697398,0.000002697398,0.99999994,0,0,0,0,0,0,1,1,0,0,0,false,false,true,-363.25998,2294.78,16.99,-0.0043940614,-0.0018315333,0.9188563,-0.3945634,-713.77094,931.71094,8.561,0,-0.00040999998,4.18861
219.975,2000,0,91.24,0.000002697398,0.000002697398,0.000002697398,0.99999994,0,0,0,0,0,0,1,1,0,0,0,false,false,true,-369.21,2302.54,16.99,-0.0043616924,-0.0019070605,0.91183126,-0.41053745,-712.72095,920.501,8.561,0,-0.00030999997,4.24671
219.98334,2000,0,91.24,0.000002697398,0.000002697398,0.000002697398,0.99999994,0,0,0,0,0,0,1,1,0,0,0,false,false,true,-375.15,2310.21,16.99,-0.004329324,-0.0019825874,0.9044238,-0.4266086,-711.05096,909.501,8.561,0.00010999999,-0.00021,4.29911
219.99167,2000,0,91.24,0.000002697398,0.000002697398,0.000002697398,0.99999994,0,0,0,0,0,0,1,1,0,0,0,false,false,true,-381.08,2317.79,16.99,-0.0042915605,-0.0020581149,0.8966378,-0.44273916,-708.78094,898.74097,8.561,0.00021,-0.00010999999,4.34591
220,2000,0,91.24,0.000002697398,0.000002697398,0.000002697398,0.99999994,0,0,0,0,0,0,1,1,0,0,0,false,false,true,-386.99,2325.28,16.99,-0.0042537972,-0.002133642,0.8884741,-0.45890203,-705.941,888.261,8.561,0.00030999997,0,4.38721
220.00833,2000,0,91.24,0.000002697398,0.000002697398,0.000002697398,0.99999994,0,0,0,0,0,0,1,1,0,0,0,false,false,true,-392.87,2332.68,16.99,-0.004216033,-0.0022145638,0.8799378,-0.47506487,-702.561,878.10095,8.561,0.00040999998,0.00010999999,4.42301
220.01666,2000,0,91.24,0.000002697398,0.000002697398,0.000002697398,0.99999994,0,0,0,0,0,0,1,1,0,0,0,false,false,true,-398.72,2340,16.99,-0.0041728746,-0.0022954857,0.8710333,-0.49120075,-698.68097,868.28094,8.561,0.00040999998,0.00021,4.4534097
220.025,2000,0,91.24,0.000002697398,0.000002697398,0.000002697398,0.99999994,0,0,0,0,0,0,1,1,0,0,0,false,false,true,-404.53998,2347.24,16.99,-0.004129716,-0.0023764076,0.8617696,-0.5072773,-694.34094,858.83093,8.561,0.00040999998,0.00021,4.47841
220.03334,2000,0,91.24,0.000002697398,0.000002697398,0.000002697398,0.99999994,0,0,0,0,0,0,1,1,0,0,0,false,false,true,-410.33,2354.4,16.99,-0.004086558,-0.0024573295,0.852155,-0.52326757,-689.59094,849.78094,8.561,0.00040999998,0.00030999997,4.49821
220.04167,2000,0,91.24,0.000002697398,0.000002697398,0.000002697398,0.99999994,0,0,0,0,0,0,1,1,0,0,0,false,false,true,-416.08,2361.48,16.99,-0.0040380047,-0.0025382515,0.8421997,-0.53914446,-684.47095,841.1409,8.561,0.00040999998,0.00040999998,4.5128098
220.05,2000,0,91.24,0.000002697398,0.000002697398,0.000002697398,0.99999994,0,0,0,0,0,0,1,1,0,0,0,false,false,true,-421.78,2368.49,16.99,-0.0039894516,-0.0026137787,0.8319123,-0.5548865,-679.02094,832.93097,8.561,0.00040999998,0.00051,4.52231
220.05833,2000,0,91.24,0.000002697398,0.000002697398,0.000002697398,0.99999994,0,0,0,0,0,0,1,1,0,0,0,false,false,true,-427.44,2375.43,16.99,-0.0039408985,-0.002689306,0.82131046,-0.5704614,-673.30096,825.16095,8.561,0.00040999998,0.00061,4.52671
220.06667,2000,0,91.24,0.000002697398,0.000002697398,0.000002697398,0.99999994,0,0,0,0,0,0,1,1,0,0,0,false,false,true,-433.05,2382.31,16.99,-0.0038869507,-0.002764833,0.8104073,-0.5858474,-667.35095,817.84094,8.561,0.00040999998,0.00071,4.52621
220.075,2000,0,91.24,0.000002697398,0.000002697398,0.000002697398,0.99999994,0,0,0,0,0,0,1,1,0,0,0,false,false,true,-438.61,2389.13,16.99,-0.0038330026,-0.0028403602,0.79921335,-0.6010284,-661.23096,810.96094,8.561,0.00040999998,0.00081,4.52081
220.08333,2000,0,91.24,0.000002697398,0.000002697398,0.000002697398,0.99999994,0,0,0,0,0,0,1,1,0,0,0,false,false,true,-444.12,2395.89,16.99,-0.0037790549,-0.0029158876,0.78774923,-0.6159775,-654.98096,804.53094,8.561,0.00040999998,0.00081,4.51061
220.09166,2000,0,91.24,0.000002697398,0.000002697398,0.000002697398,0.99999994,0,0,0,0,0,0,1,1,0,0,0,false,false,true,-449.58,2402.5898,16.99,-0.003719712,-0.0029914144,0.776034,-0.63067293,-648.66095,798.53094,8.561,0.00040999998,0.00091,4.49571
220.1,2000,0,91.24,0.000002697398,0.000002697398,0.000002697398,0.99999994,0,0,0,0,0,0,1,1,0,0,0,false,false,true,-454.99,2409.24,16.99,-0.0036603692,-0.0030669416,0.7640842,-0.6450987,-642.311,792.96094,8.561,0.00040999998,0.00091,4.47621
220.10834,2000,0,91.24,0.000002697398,0.000002697398,0.000002697398,0.99999994,0,0,0,0,0,0,1,1,0,0,0,false,false,true,-460.34,2415.8499,16.99,-0.0036010267,-0.0031370742,0.7519186,-0.6592386,-635.97095,787.80096,8.561,0.00030999997,0.00091,4.45211
220.11667,2000,0,91.24,0.000002697398,0.000002697398,0.000002697398,0.99999994,0,0,0,0,0,0,1,1,0,0,0,false,false,true,-465.63998,2422.42,16.99,-0.0035416833,-0.003207206,0.7395625,-0.6730707,-629.691,783.03094,8.561,0.00030999997,0.00091,4.42341
220.125,2000,0,91.24,0.000002697398,0.000002697398,0.000002697398,0.99999994,0,0,0,0,0,0,1,1,0,0,0,false,false,true,-470.88998,2428.95,16.99,-0.0034823404,-0.003277338,0.72703385,-0.6865848,-623.511,778.631,8.551001,0.00021,0.0010099999,4.39031
220.13333,2000,0,91.24,0.000002697398,0.000002697398,0.000002697398,0.99999994,0,0,0,0,0,0,1,1,0,0,0,false,false,true,-476.09,2435.44,16.99,-0.003417603,-0.0033420757,0.71435237,-0.6997697,-617.47095,774.571,8.551001,0.00010999999,0.0010099999,4.35271
220.14166,2000,0,91.24,0.000002697398,0.000002697398,0.000002697398,0.99999994,0,0,0,0,0,0,1,1,0,0,0,false,false,true,-481.24,2441.89,16.99,0.003352866,0.003406814,-0.70154476,0.7126093,-611.61096,770.821,8.551001,0.00010999999,0.0010099999,4.31071
220.15,2000,0,91.24,0.000002697398,0.000002697398,0.000002697398,0.99999994,0,0,0,0,0,0,1,1,0,0,0,false,false,true,-486.34,2448.31,16.99,0.0032881282,0.0034715512,-0.6886348,0.7250925,-605.951,767.35095,8.551001,0.00010999999,0.0010099999,4.26441
220.15834,2000,0,91.24,0.000002697398,0.000002697398,0.000002697398,0.99999994,0,0,0,0,0,0,1,1,0,0,0,false,false,true,-491.38998,2454.7,16.99,0.0032233908,0.0035308942,-0.67564416,0.7372123,-600.53094,764.131,8.551001,0.00010999999,0.0010099999,4.21371
220.16667,2000,0,91.24,0.000002697398,0.000002697398,0.000002697398,0.99999994,0,0,0,0,0,0,1,1,0,0,0,false,false,true,-496.38998,2461.0698,16.99,0.0031586532,0.003590237,-0.66259944,0.7489586,-595.381,761.121,8.541,0.00010999999,0.00111,4.15871
220.175,2000,0,91.24,0.000002697398,0.000002697398,0.000002697398,0.99999994,0,0,0,0,0,0,1,1,0,0,0,false,false,true,-501.34998,2467.41,16.99,0.0030939155,0.0036495796,-0.6495224,0.7603273,-590.511,758.28094,8.541,0,0.00111,4.09941
220.18333,2000,0,91.24,0.000002697398,0.000002697398,0.000002697398,0.99999994,0,0,0,0,0,0,1,1,0,0,0,false,false,true,-506.27,2473.73,16.99,0.003029178,0.0037035276,-0.63644004,0.7713112,-585.91095,755.561,8.541,0,0.00111,4.03591
220.19167,2000,0,91.24,0.000002697398,0.000002697398,0.000002697398,0.99999994,0,0,0,0,0,0,1,1,0,0,0,false,false,true,-511.15,2480.03,16.99,0.0029644405,0.0037574756,-0.6233791,0.781905,-581.581,752.91095,8.541,0,0.00111,3.96911
220.2,2000,0,91.24,0.000002697398,0.000002697398,0.000002697398,0.99999994,0,0,0,0,0,0,1,1,0,0,0,false,false,true,-516,2486.3,16.99,0.0028997029,0.0038114234,-0.61036146,0.7921084,-577.501,750.29095,8.541,-0.00010999999,0.00111,3.90021
220.20833,2000,0,91.24,0.000002697398,0.000002697398,0.000002697398,0.99999994,0,0,0,0,0,0,1,1,0,0,0,false,false,true,-520.81,2492.55,16.99,0.0028349652,0.0038599768,-0.5974085,0.8019227,-573.66095,747.68097,8.541,-0.00021,0.0010099999,3.8296099
220.21666,2000,0,91.24,0.000002697398,0.000002697398,0.000002697398,0.99999994,0,0,0,0,0,0,1,1,0,0,0,false,false,true,-525.58997,2498.78,16.99,0.0027702278,0.0039085294,-0.5845365,0.8113532,-570.04095,745.071,8.541,-0.00021,0.0010099999,3.7578099
