time,ball_loc_x,ball_loc_y,ball_loc_z,ball_rot_x,ball_rot_y,ball_rot_z,ball_rot_w,ball_vel_x,ball_vel_y,ball_vel_z,ball_ang_x,ball_ang_y,ball_ang_z,player0_throttle,player0_steer,player0_pitch,player0_yaw,player0_roll,player0_jump,player0_boost,player0_handbrake,player0_loc_x,player0_loc_y,player0_loc_z,player0_rot_x,player0_rot_y,player0_rot_z,player0_rot_w,player0_vel_x,player0_vel_y,player0_vel_z,player0_ang_x,player0_ang_y,player0_ang_z
35.225,2000,0,91.24,0.000002697398,0.000002697398,0.000002697398,0.99999994,0,0,0,0,0,0,0.19685039,0,0,0,0,false,false,false,0,-4930.53,17.01,-0.00336905,0.0033582605,0.7070905,0.70710695,0,200.871,8.321,-0.00061,0.00010999999,0
35.233334,2000,0,91.24,0.000002697398,0.000002697398,0.000002697398,0.99999994,0,0,0,0,0,0,1,1,0,0,0,false,false,true,0,-4928.86,17.01,-0.00336905,0.0033582605,0.7070905,0.70710695,-8.571,208.761,8.341001,-0.00021,0.0023100001,0.23031
35.241665,2000,0,91.24,0.000002697398,0.000002697398,0.000002697398,0.99999994,0,0,0,0,0,0,1,1,0,0,0,false,false,true,-0.07,-4927.12,17.01,-0.0033636554,0.0033636554,0.7077698,0.706427,-14.731,217.551,8.351,0,0.00301,0.39711002
35.25,2000,0,91.24,0.000002697398,0.000002697398,0.000002697398,0.99999994,0,0,0,0,0,0,1,1,0,0,0,false,false,true,-0.19,-4925.31,17.01,-0.0033582605,0.00336905,0.7089364,0.7052563,-20.310999,226.321,8.351,0,0.00321,0.54651
35.258335,2000,0,91.24,0.000002697398,0.000002697398,0.000002697398,0.99999994,0,0,0,0,0,0,1,1,0,0,0,false,false,true,-0.35999998,-4923.42,17.01,-0.0033582605,0.00336905,0.7105428,0.70363784,-25.411,235.041,8.351,0,0.00301,0.67941
35.266666,2000,0,91.24,0.000002697398,0.000002697398,0.000002697398,0.99999994,0,0,0,0,0,0,1,1,0,0,0,false,false,true,-0.57,-4921.46,17.01,-0.0033582605,0.00336905,0.71252984,0.7016256,-30.110998,243.671,8.351,0,0.00271,0.79721
35.275,2000,0,91.24,0.000002697398,0.000002697398,0.000002697398,0.99999994,0,0,0,0,0,0,1,1,0,0,0,false,false,true,-0.82,-4919.4297,17.01,-0.0033636554,0.0033636554,0.7148542,0.69925725,-34.501,252.171,8.341001,0,0.00221,0.90151
35.283333,2000,0,91.24,0.000002697398,0.000002697398,0.000002697398,0.99999994,0,0,0,0,0,0,1,1,0,0,0,false,false,true,-1.11,-4917.33,17.01,-0.00336905,0.0033582605,0.71747756,0.6965653,-38.641,260.511,8.341001,0,0.0017099999,0.99391
35.291668,2000,0,91.24,0.000002697398,0.000002697398,0.000002697398,0.99999994,0,0,0,0,0,0,1,1,0,0,0,false,false,true,-1.43,-4915.1597,17.01,-0.00337984,0.0033474711,0.7203568,0.6935873,-42.611,268.671,8.331,0,0.0012099999,1.07591
35.3,2000,0,91.24,0.000002697398,0.000002697398,0.000002697398,0.99999994,0,0,0,0,0,0,1,1,0,0,0,false,false,true,-1.79,-4912.92,17.01,-0.0033906295,0.0033366818,0.7234594,0.6903505,-46.451,276.621,8.331,0,0.00081,1.1489099
35.308334,2000,0,91.24,0.000002697398,0.000002697398,0.000002697398,0.99999994,0,0,0,0,0,0,1,1,0,0,0,false,false,true,-2.18,-4910.61,17.01,-0.003401419,0.003320497,0.7267537,0.68688154,-50.190998,284.351,8.331,0,0.00040999998,1.21411
35.316666,2000,0,91.24,0.000002697398,0.000002697398,0.000002697398,0.99999994,0,0,0,0,0,0,1,1,0,0,0,false,false,true,-2.6,-4908.2397,17.01,-0.0034176034,0.0033043127,0.73021865,0.6831969,-53.871,291.861,8.331,0,0.00010999999,1.27291
35.325,2000,0,91.24,0.000002697398,0.000002697398,0.000002697398,0.99999994,0,0,0,0,0,0,1,1,0,0,0,false,false,true,-3.05,-4905.81,17.01,-0.003433788,0.0032881284,0.7338335,0.6793127,-57.510998,299.131,8.331,0,0,1.32601
35.333332,2000,0,91.24,0.000002697398,0.000002697398,0.000002697398,0.99999994,0,0,0,0,0,0,1,1,0,0,0,false,false,true,-3.53,-4903.32,17.01,-0.0034499723,0.003266549,0.7375732,0.67525035,-61.130997,306.151,8.331,0,-0.00021,1.37431
35.341667,2000,0,91.24,0.000002697398,0.000002697398,0.000002697398,0.99999994,0,0,0,0,0,0,1,1,0,0,0,false,false,true,-4.04,-4900.77,17.01,-0.0034715512,0.0032449698,0.7414281,0.6710154,-64.721,312.911,8.331,0,-0.00040999998,1.41861
35.35,2000,0,91.24,0.000002697398,0.000002697398,0.000002697398,0.99999994,0,0,0,0,0,0,1,1,0,0,0,false,false,true,-4.58,-4898.1597,17.01,-0.0034931304,0.0032233908,0.7453837,0.6666186,-68.300995,319.421,8.331,0,-0.00051,1.45941
35.358334,2000,0,91.24,0.000002697398,0.000002697398,0.000002697398,0.99999994,0,0,0,0,0,0,1,1,0,0,0,false,false,true,-5.15,-4895.5,17.01,-0.0035147096,0.0032018116,0.74942136,0.6620762,-71.861,325.681,8.321,0,-0.00061,1.49721
35.366665,2000,0,91.24,0.000002697398,0.000002697398,0.000002697398,0.99999994,0,0,0,0,0,0,1,1,0,0,0,false,false,true,-5.75,-4892.79,17.01,-0.003536289,0.0031802326,0.7535371,0.65738815,-75.391,331.701,8.321,0,-0.00061,1.53241
35.375,2000,0,91.24,0.000002697398,0.000002697398,0.000002697398,0.99999994,0,0,0,0,0,0,1,1,0,0,0,false,false,true,-6.3799996,-4890.03,17.01,-0.0035578676,0.003158653,0.7577176,0.65256506,-78.881,337.481,8.321,0,-0.00061,1.56541
35.383335,2000,0,91.24,0.000002697398,0.000002697398,0.000002697398,0.99999994,0,0,0,0,0,0,1,1,0,0,0,false,false,true,-7.04,-4887.2197,17.01,-0.0035794473,0.0031316793,0.7619594,0.64760727,-82.311,343.041,8.321,0,-0.00071,1.5965099
35.391666,2000,0,91.24,0.000002697398,0.000002697398,0.000002697398,0.99999994,0,0,0,0,0,0,1,1,0,0,0,false,false,true,-7.73,-4884.36,17.01,-0.0036010265,0.0031047051,0.76624954,0.6425254,-85.671,348.381,8.321,0,-0.00071,1.62601
35.4,2000,0,91.24,0.000002697398,0.000002697398,0.000002697398,0.99999994,0,0,0,0,0,0,1,1,0,0,0,false,false,true,-8.44,-4881.46,17.01,-0.0036226057,0.0030777312,0.770585,0.6373194,-88.931,353.511,8.321,0,-0.00071,1.65411
35.408333,2000,0,91.24,0.000002697398,0.000002697398,0.000002697398,0.99999994,0,0,0,0,0,0,1,1,0,0,0,false,false,true,-9.179999,-4878.51,17.01,-0.003644185,0.003050757,0.774958,0.6319947,-92.061,358.461,8.321,-0.00010999999,-0.00071,1.68101
35.416668,2000,0,91.24,0.000002697398,0.000002697398,0.000002697398,0.99999994,0,0,0,0,0,0,1,1,0,0,0,false,false,true,-9.95,-4875.52,17.01,-0.003665764,0.0030237832,0.77936566,0.6265513,-95.031,363.241,8.321,-0.00010999999,-0.00071,1.70691
35.425,2000,0,91.24,0.000002697398,0.000002697398,0.000002697398,0.99999994,0,0,0,0,0,0,1,1,0,0,0,false,false,true,-10.74,-4872.4897,17.01,-0.003687343,0.0029968093,0.7838003,0.6209946,-97.811,367.871,8.321,-0.00021,-0.00071,1.73191
35.433334,2000,0,91.24,0.000002697398,0.000002697398,0.000002697398,0.99999994,0,0,0,0,0,0,1,1,0,0,0,false,false,true,-11.559999,-4869.42,17.01,-0.0037143168,0.002969835,0.7882593,0.6153246,-100.721,372.451,8.321,-0.00021,-0.00071,1.75681
35.441666,2000,0,91.24,0.000002697398,0.000002697398,0.000002697398,0.99999994,0,0,0,0,0,0,1,1,0,0,0,false,false,true,-12.4,-4866.32,17.01,-0.0037412911,0.0029428613,0.7927439,0.6095361,-103.760994,376.961,8.321,-0.00021,-0.00061,1.78161
35.45,2000,0,91.24,0.000002697398,0.000002697398,0.000002697398,0.99999994,0,0,0,0,0,0,1,1,0,0,0,false,false,true,-13.259999,-4863.1797,17.01,-0.0037628706,0.0029158876,0.7972472,0.6036342,-106.931,381.411,8.321,-0.00010999999,-0.00061,1.80641
35.458332,2000,0,91.24,0.000002697398,0.000002697398,0.000002697398,0.99999994,0,0,0,0,0,0,1,1,0,0,0,false,false,true,-14.15,-4860,17.01,-0.0037844495,0.0028889133,0.8017661,0.5976189,-110.221,385.791,8.321,-0.00010999999,-0.00061,1.83111
35.466667,2000,0,91.24,0.000002697398,0.000002697398,0.000002697398,0.99999994,0,0,0,0,0,0,1,1,0,0,0,false,false,true,-15.07,-4856.78,17.01,-0.0038060287,0.0028565445,0.80630183,0.591485,-113.641,390.101,8.321,-0.00010999999,-0.00061,1.8557099
35.475,2000,0,91.24,0.000002697398,0.000002697398,0.000002697398,0.99999994,0,0,0,0,0,0,1,1,0,0,0,false,false,true,-16.02,-4853.53,17.01,-0.003827608,0.0028241756,0.8108516,0.5852324,-117.190994,394.331,8.321,-0.00010999999,-0.00061,1.8802099
35.483334,2000,0,91.24,0.000002697398,0.000002697398,0.000002697398,0.99999994,0,0,0,0,0,0,1,1,0,0,0,false,false,true,-17,-4850.2397,17.01,-0.0038545819,0.002791807,0.81541216,0.5788611,-120.870995,398.481,8.321,-0.00010999999,-0.00051,1.9046099
35.491665,2000,0,91.24,0.000002697398,0.000002697398,0.000002697398,0.99999994,0,0,0,0,0,0,1,1,0,0,0,false,false,true,-18.01,-4846.92,17.01,-0.003876161,0.0027594382,0.81998074,0.5723712,-124.681,402.541,8.321,-0.00010999999,-0.00040999998,1.92891
35.5,2000,0,91.24,0.000002697398,0.000002697398,0.000002697398,0.99999994,0,0,0,0,0,0,1,1,0,0,0,false,false,true,-19.05,-4843.56,17.01,-0.0038977403,0.0027270694,0.8245544,0.5657625,-128.61101,406.511,8.321,-0.00010999999,-0.00040999998,1.95311
35.508335,2000,0,91.24,0.000002697398,0.000002697398,0.000002697398,0.99999994,0,0,0,0,0,0,1,1,0,0,0,false,false,true,-20.119999,-4840.17,17.01,-0.0039193192,0.0026947006,0.82913023,0.5590351,-132.671,410.391,8.321,-0.00010999999,-0.00040999998,1.9772099
35.516666,2000,0,91.24,0.000002697398,0.000002697398,0.000002697398,0.99999994,0,0,0,0,0,0,1,1,0,0,0,false,false,true,-21.23,-4836.75,17.01,-0.003940899,0.002662332,0.8337088,0.5521838,-136.851,414.171,8.321,-0.00010999999,-0.00040999998,2.00121
35.525,2000,0,91.24,0.000002697398,0.000002697398,0.000002697398,0.99999994,0,0,0,0,0,0,1,1,0,0,0,false,false,true,-22.369999,-4833.3,17.01,-0.003962478,0.0026299632,0.83828354,0.54521376,-141.151,417.85098,8.321,-0.00010999999,-0.00040999998,2.02511
35.533333,2000,0,91.24,0.000002697398,0.000002697398,0.000002697398,0.99999994,0,0,0,0,0,0,1,1,0,0,0,false,false,true,-23.55,-4829.82,17.01,-0.003984057,0.0025975944,0.8428551,0.53811944,-145.58101,421.421,8.321,-0.00010999999,-0.00040999998,2.04891
35.541668,2000,0,91.24,0.000002697398,0.000002697398,0.000002697398,0.99999994,0,0,0,0,0,0,1,1,0,0,0,false,false,true,-24.76,-4826.31,17.01,-0.004005636,0.0025652256,0.84741694,0.53090656,-150.131,424.881,8.321,-0.00010999999,-0.00040999998,2.07261
35.55,2000,0,91.24,0.000002697398,0.000002697398,0.000002697398,0.99999994,0,0,0,0,0,0,1,1,0,0,0,false,false,true,-26.01,-4822.77,17.01,-0.0040272158,0.002527462,0.85196954,0.5235697,-154.791,428.231,8.321,-0.00010999999,-0.00040999998,2.09621
35.558334,2000,0,91.24,0.000002697398,0.000002697398,0.000002697398,0.99999994,0,0,0,0,0,0,1,1,0,0,0,false,false,true,-27.3,-4819.1997,17.01,-0.004048794,0.0024896981,0.8565098,0.5161085,-159.571,431.461,8.321,-0.00010999999,-0.00040999998,2.11971
35.566666,2000,0,91.24,0.000002697398,0.000002697398,0.000002697398,0.99999994,0,0,0,0,0,0,1,1,0,0,0,false,false,true,-28.63,-4815.6,17.01,-0.0040703737,0.0024519349,0.8610349,0.50852346,-164.47101,434.561,8.321,-0.00010999999,-0.00040999998,2.14311
35.575,2000,0,91.24,0.000002697398,0.000002697398,0.000002697398,0.99999994,0,0,0,0,0,0,1,1,0,0,0,false,false,true,-30,-4811.98,17.01,-0.004091953,0.0024141714,0.86554164,0.5008144,-169.481,437.541,8.321,-0.00010999999,-0.00040999998,2.16641
35.583332,2000,0,91.24,0.000002697398,0.000002697398,0.000002697398,0.99999994,0,0,0,0,0,0,1,1,0,0,0,false,false,true,-31.41,-4808.33,17.01,-0.0041135317,0.0023764076,0.870027,0.49298102,-174.601,440.391,8.321,-0.00010999999,-0.00040999998,2.18961
35.591667,2000,0,91.24,0.000002697398,0.000002697398,0.000002697398,0.99999994,0,0,0,0,0,0,1,1,0,0,0,false,false,true,-32.87,-4804.6597,17.01,-0.004135111,0.0023386441,0.874488,0.4850237,-179.83101,443.10098,8.321,-0.00010999999,-0.00040999998,2.21271
35.6,2000,0,91.24,0.000002697398,0.000002697398,0.000002697398,0.99999994,0,0,0,0,0,0,1,1,0,0,0,false,false,true,-34.37,-4800.9697,17.01,-0.00415669,0.0023008804,0.8789217,0.4769423,-185.171,445.681,8.321,-0.00010999999,-0.00040999998,2.23571
35.608334,2000,0,91.24,0.000002697398,0.000002697398,0.000002697398,0.99999994,0,0,0,0,0,0,1,1,0,0,0,false,false,true,-35.91,-4797.26,17.01,-0.0041782693,0.0022631169,0.88332504,0.46873674,-190.61101,448.111,8.321,-0.00010999999,-0.00040999998,2.25861
35.616665,2000,0,91.24,0.000002697398,0.000002697398,0.000002697398,0.99999994,0,0,0,0,0,0,1,1,0,0,0,false,false,true,-37.5,-4793.53,17.01,-0.0041998485,0.0022253534,0.8876979,0.46040177,-196.151,450.401,8.321,-0.00010999999,-0.00040999998,2.28141
35.625,2000,0,91.24,0.000002697398,0.000002697398,0.000002697398,0.99999994,0,0,0,0,0,0,1,1,0,0,0,false,false,true,-39.129997,-4789.78,17.01,-0.004221428,0.0021875899,0.8920343,0.45194268,-201.791,452.541,8.321,-0.00010999999,-0.00040999998,2.30411
35.633335,2000,0,91.24,0.000002697398,0.000002697398,0.000002697398,0.99999994,0,0,0,0,0,0,1,1,0,0,0,false,false,true,-40.809998,-4786.01,17.01,-0.004243007,0.0021444315,0.8963312,0.44335952,-207.521,454.531,8.321,-0.00010999999,-0.00040999998,2.32671
35.641666,2000,0,91.24,0.000002697398,0.000002697398,0.000002697398,0.99999994,0,0,0,0,0,0,1,1,0,0,0,false,false,true,-42.54,-4782.2197,17.01,-0.004264586,0.002101273,0.90058833,0.43464693,-213.341,456.361,8.321,-0.00010999999,-0.00040999998,2.34921
35.65,2000,0,91.24,0.000002697398,0.000002697398,0.000002697398,0.99999994,0,0,0,0,0,0,1,1,0,0,0,false,false,true,-44.32,-4778.42,17.01,-0.0042861653,0.0020581146,0.9048,0.42581016,-219.251,458.031,8.321,-0.00010999999,-0.00040999998,2.37161
35.658333,2000,0,91.24,0.000002697398,0.000002697398,0.000002697398,0.99999994,0,0,0,0,0,0,1,1,0,0,0,false,false,true,-46.149998,-4774.6,17.01,-0.0043077446,0.0020149562,0.9089631,0.4168494,-225.251,459.541,8.321,-0.00010999999,-0.00040999998,2.39391
35.666668,2000,0,91.24,0.000002697398,0.000002697398,0.000002697398,0.99999994,0,0,0,0,0,0,1,1,0,0,0,false,false,true,-48.03,-4770.77,17.01,-0.004329324,0.0019717978,0.9130747,0.4077645,-231.33101,460.881,8.321,-0.00010999999,-0.00030999997,2.41611
35.675,2000,0,91.24,0.000002697398,0.000002697398,0.000002697398,0.99999994,0,0,0,0,0,0,1,1,0,0,0,false,false,true,-49.96,-4766.9297,17.01,-0.004350903,0.0019286396,0.9171341,0.39855018,-237.491,462.051,8.321,-0.00010999999,-0.00030999997,2.43821
35.683334,2000,0,91.24,0.000002697398,0.000002697398,0.000002697398,0.99999994,0,0,0,0,0,0,1,1,0,0,0,false,false,true,-51.94,-4763.08,17.01,-0.004372482,0.0018854813,0.9211359,0.38921177,-243.72101,463.051,8.321,-0.00010999999,-0.00030999997,2.4602098
35.691666,2000,0,91.24,0.000002697398,0.000002697398,0.000002697398,0.99999994,0,0,0,0,0,0,1,1,0,0,0,false,false,true,-53.969997,-4759.2197,17.01,-0.0043940614,0.0018423229,0.92507714,0.3797492,-250.021,463.871,8.321,0,-0.00021,2.48211
35.7,2000,0,91.24,0.000002697398,0.000002697398,0.000002697398,0.99999994,0,0,0,0,0,0,1,1,0,0,0,false,false,true,-56.05,-4755.35,17.01,-0.0044156406,0.0017991646,0.92895466,0.37016267,-256.391,464.521,8.321,0,-0.00021,2.50391
35.708332,2000,0,91.24,0.000002697398,0.000002697398,0.000002697398,0.99999994,0,0,0,0,0,0,1,1,0,0,0,false,false,true,-58.19,-4751.48,17.01,-0.0044372194,0.0017506111,0.9327654,0.3604519,-262.821,464.981,8.321,0,-0.00010999999,2.52561
35.716667,2000,0,91.24,0.000002697398,0.000002697398,0.000002697398,0.99999994,0,0,0,0,0,0,1,1,0,0,0,false,false,true,-60.379997,-4747.6,17.01,-0.004453404,0.0017020581,0.9365066,0.35061723,-269.301,465.261,8.321,0,-0.00010999999,2.54721
35.725,2000,0,91.24,0.000002697398,0.000002697398,0.000002697398,0.99999994,0,0,0,0,0,0,1,1,0,0,0,false,false,true,-62.62,-4743.7197,17.01,-0.0044695884,0.001653505,0.940175,0.34065837,-275.841,465.361,8.321,0,-0.00010999999,2.5687099
35.733334,2000,0,91.24,0.000002697398,0.000002697398,0.000002697398,0.99999994,0,0,0,0,0,0,1,1,0,0,0,false,false,true,-64.92,-4739.84,17.01,-0.0044857734,0.0016049519,0.9437675,0.33057553,-282.421,465.271,8.321,0,-0.00010999999,2.59011
35.741665,2000,0,91.24,0.000002697398,0.000002697398,0.000002697398,0.99999994,0,0,0,0,0,0,1,1,0,0,0,false,false,true,-67.27,-4735.96,17.01,-0.004501958,0.0015563988,0.94727916,0.32037386,-289.051,464.991,8.321,0,-0.00010999999,2.61141
35.75,2000,0,91.24,0.000002697398,0.000002697398,0.000002697398,0.99999994,0,0,0,0,0,0,1,1,0,0,0,false,false,true,-69.68,-4732.08,17.01,-0.004518141,0.0015078454,0.95070875,0.31004816,-295.721,464.521,8.321,0,-0.00010999999,2.6326098
35.758335,2000,0,91.24,0.000002697398,0.000002697398,0.000002697398,0.99999994,0,0,0,0,0,0,1,1,0,0,0,false,false,true,-72.14,-4728.21,17.01,-0.004534326,0.0014592924,0.95405173,0.29960388,-302.421,463.85098,8.321,0,-0.00010999999,2.65371
35.766666,2000,0,91.24,0.000002697398,0.000002697398,0.000002697398,0.99999994,0,0,0,0,0,0,1,1,0,0,0,false,false,true,-74.659996,-4724.34,17.01,-0.0045505106,0.0014107391,0.9573065,0.28903538,-309.151,462.991,8.321,0,-0.00010999999,2.67471
35.775,2000,0,91.24,0.000002697398,0.000002697398,0.000002697398,0.99999994,0,0,0,0,0,0,1,1,0,0,0,false,false,true,-77.24,-4720.48,17.01,-0.0045666946,0.001362186,0.9604683,0.2783483,-315.901,461.931,8.321,0,-0.00010999999,2.69561
35.783333,2000,0,91.24,0.000002697398,0.000002697398,0.000002697398,0.99999994,0,0,0,0,0,0,1,1,0,0,0,false,false,true,-79.869995,-4716.63,17.01,-0.004582879,0.001308238,0.96353424,0.26754242,-322.671,460.671,8.321,0,-0.00010999999,2.71641
35.791668,2000,0,91.24,0.000002697398,0.000002697398,0.000002697398,0.99999994,0,0,0,0,0,0,1,1,0,0,0,false,false,true,-82.56,-4712.79,17.01,-0.0045990637,0.0012542901,0.9665011,0.25661796,-329.451,459.211,8.321,0,-0.00010999999,2.73711
35.8,2000,0,91.24,0.000002697398,0.000002697398,0.000002697398,0.99999994,0,0,0,0,0,0,1,1,0,0,0,false,false,true,-85.31,-4708.96,17.01,-0.0046152477,0.001200342,0.9693644,0.2455801,-336.241,457.551,8.321,0,-0.00010999999,2.75771
35.808334,2000,0,91.24,0.000002697398,0.000002697398,0.000002697398,0.99999994,0,0,0,0,0,0,1,1,0,0,0,false,false,true,-88.11,-4705.15,17.01,-0.0046314327,0.0011463943,0.9721228,0.23442371,-343.031,455.691,8.321,0,0,2.77821
35.816666,2000,0,91.24,0.000002697398,0.000002697398,0.000002697398,0.99999994,0,0,0,0,0,0,1,1,0,0,0,false,false,true,-90.97,-4701.35,17.01,-0.004642222,0.0010924462,0.9747715,0.22315389,-349.821,453.631,8.321,0,0,2.79861
35.825,2000,0,91.24,0.000002697398,0.000002697398,0.000002697398,0.99999994,0,0,0,0,0,0,1,1,0,0,0,false,false,true,-93.89,-4697.57,17.01,-0.0046530114,0.0010384982,0.9773077,0.21177086,-356.601,451.361,8.321,0,0,2.81891
35.833332,2000,0,91.24,0.000002697398,0.000002697398,0.000002697398,0.99999994,0,0,0,0,0,0,1,1,0,0,0,false,false,true,-96.86,-4693.81,17.01,-0.0046638013,0.0009845502,0.9797271,0.20027986,-363.371,448.891,8.321,0,0,2.83921
35.841667,2000,0,91.24,0.000002697398,0.000002697398,0.000002697398,0.99999994,0,0,0,0,0,0,1,1,0,0,0,false,false,true,-99.89,-4690.07,17.01,-0.004674591,0.0009306024,0.9820278,0.18867567,-370.121,446.221,8.321,0,0,2.85941
35.85,2000,0,91.24,0.000002697398,0.000002697398,0.000002697398,0.99999994,0,0,0,0,0,0,1,1,0,0,0,false,false,true,-102.97,-4686.35,17.01,-0.004685381,0.0008766544,0.98420584,0.1769635,-376.841,443.341,8.321,0,0,2.87951
35.858334,2000,0,91.24,0.000002697398,0.000002697398,0.000002697398,0.99999994,0,0,0,0,0,0,1,1,0,0,0,false,false,true,-106.11,-4682.6597,17.01,-0.0046961703,0.0008227065,0.98625803,0.1651434,-383.531,440.261,8.321,0,0,2.89951
35.866665,2000,0,91.24,0.000002697398,0.000002697398,0.000002697398,0.99999994,0,0,0,0,0,0,1,1,0,0,0,false,false,true,-109.31,-4678.9897,17.01,-0.00470696,0.0007633637,0.9881813,0.15321551,-390.191,436.981,8.321,0,0,2.91941
35.875,2000,0,91.24,0.000002697398,0.000002697398,0.000002697398,0.99999994,0,0,0,0,0,0,1,1,0,0,0,false,false,true,-112.56,-4675.35,17.01,-0.004717749,0.0007040209,0.9899717,0.14118502,-396.811,433.491,8.321,0,0,2.93921
35.883335,2000,0,91.24,0.000002697398,0.000002697398,0.000002697398,0.99999994,0,0,0,0,0,0,1,1,0,0,0,false,false,true,-115.869995,-4671.7397,17.01,-0.004728539,0.0006446782,0.9916263,0.12905213,-403.381,429.801,8.321,0,0,2.95901
35.891666,2000,0,91.24,0.000002697398,0.000002697398,0.000002697398,0.99999994,0,0,0,0,0,0,1,1,0,0,0,false,false,true,-119.229996,-4668.1597,17.01,-0.004733934,0.0005853354,0.993142,0.11681665,-409.901,425.911,8.321,0,0,2.97871
35.9,2000,0,91.24,0.000002697398,0.000002697398,0.000002697398,0.99999994,0,0,0,0,0,0,1,1,0,0,0,false,false,true,-122.649994,-4664.61,17.01,-0.0047393283,0.0005259926,0.99451506,0.10448413,-416.361,421.82098,8.321,0,0,2.9983099
35.908333,2000,0,91.24,0.000002697398,0.000002697398,0.000002697398,0.99999994,0,0,0,0,0,0,1,1,0,0,0,false,false,true,-126.119995,-4661.09,17.01,-0.0047447234,0.0004666499,0.99574256,0.09205445,-422.761,417.531,8.321,0,0,3.0178099
35.916668,2000,0,91.24,0.000002697398,0.000002697398,0.000002697398,0.99999994,0,0,0,0,0,0,1,1,0,0,0,false,false,true,-129.64,-4657.61,17.01,-0.004750118,0.00040730715,0.9968212,0.07952773,-429.091,413.051,8.321,0,0,3.03721
35.925,2000,0,91.24,0.000002697398,0.000002697398,0.000002697398,0.99999994,0,0,0,0,0,0,1,1,0,0,0,false,false,true,-133.22,-4654.17,17.01,-0.0047555133,0.00034796438,0.99774766,0.06690922,-435.35098,408.371,8.321,0,0,3.0566099
35.933334,2000,0,91.24,0.000002697398,0.000002697398,0.000002697398,0.99999994,0,0,0,0,0,0,1,1,0,0,0,false,false,true,-136.84999,-4650.77,17.01,-0.0047609075,0.00028862158,0.9985187,0.054198988,-441.531,403.501,8.321,0,0,3.0759099
35.941666,2000,0,91.24,0.000002697398,0.000002697398,0.000002697398,0.99999994,0,0,0,0,0,0,1,1,0,0,0,false,false,true,-140.53,-4647.4097,17.01,-0.004766302,0.00022927884,0.9991313,0.041397136,-447.621,398.431,8.321,0,0,3.09511
35.95,2000,0,91.24,0.000002697398,0.000002697398,0.000002697398,0.99999994,0,0,0,0,0,0,1,1,0,0,0,false,false,true,-144.26,-4644.09,17.01,-0.004766302,0.00016993607,0.9995821,0.028508885,-453.621,393.171,8.321,0,0,3.11431
35.958332,2000,0,91.24,0.000002697398,0.000002697398,0.000002697398,0.99999994,0,0,0,0,0,0,1,1,0,0,0,false,false,true,-148.04,-4640.81,17.01,-0.004766302,0.00011059332,0.9998679,0.0155344,-459.531,387.731,8.321,0,0,3.13341
35.966667,2000,0,91.24,0.000002697398,0.000002697398,0.000002697398,0.99999994,0,0,0,0,0,0,1,1,0,0,0,false,false,true,-151.87,-4637.58,17.01,-0.004766302,0.000045855766,0.9999855,0.0024789087,-465.341,382.101,8.321,0,0,3.15241
35.975,2000,0,91.24,0.000002697398,0.000002697398,0.000002697398,0.99999994,0,0,0,0,0,0,1,1,0,0,0,false,false,true,-155.75,-4634.4,17.01,-0.0047663026,-0.000018881788,0.9999318,-0.010657462,-471.051,376.291,8.321,0,0,3.1714098
35.983334,2000,0,91.24,0.000002697398,0.000002697398,0.000002697398,0.99999994,0,0,0,0,0,0,1,1,0,0,0,false,false,true,-159.68,-4631.26,17.01,-0.0047663026,-0.00008361934,0.9997037,-0.023869362,-476.651,370.301,8.321,0,0,3.19031
35.991665,2000,0,91.24,0.000002697398,0.000002697398,0.000002697398,0.99999994,0,0,0,0,0,0,1,1,0,0,0,false,false,true,-163.65,-4628.17,17.01,-0.0047663017,-0.00014835688,0.9992979,-0.03715678,-482.141,364.131,8.321,0,0,3.20921
36,2000,0,91.24,0.000002697398,0.000002697398,0.000002697398,0.99999994,0,0,0,0,0,0,1,1,0,0,0,false,false,true,-167.67,-4625.14,17.01,-0.004766302,-0.00021309445,0.9987119,-0.050514385,-487.511,357.781,8.321,0,0,3.22801
36.008335,2000,0,91.24,0.000002697398,0.000002697398,0.000002697398,0.99999994,0,0,0,0,0,0,1,1,0,0,0,false,false,true,-171.73,-4622.1597,17.01,-0.0047609075,-0.000277832,0.99794215,-0.063942075,-492.761,351.261,8.321,0,0,3.2467098
36.016666,2000,0,91.24,0.000002697398,0.000002697398,0.000002697398,0.99999994,0,0,0,0,0,0,1,1,0,0,0,false,false,true,-175.84,-4619.23,17.01,-0.0047555133,-0.00034256958,0.99698603,-0.07743451,-497.88098,344.571,8.321,0,0,3.26541
36.025,2000,0,91.24,0.000002697398,0.000002697398,0.000002697398,0.99999994,0,0,0,0,0,0,1,1,0,0,0,false,false,true,-179.98999,-4616.36,17.01,-0.004750118,-0.00040730715,0.9958402,-0.090991676,-502.871,337.711,8.321,0,0,3.28401
36.033333,2000,0,91.24,0.000002697398,0.000002697398,0.000002697398,0.99999994,0,0,0,0,0,0,1,1,0,0,0,false,false,true,-184.18,-4613.55,17.01,-0.0047447234,-0.0004720447,0.99450207,-0.10460818,-507.731,330.691,8.321,0,0,3.30261
36.041668,2000,0,91.24,0.000002697398,0.000002697398,0.000002697398,0.99999994,0,0,0,0,0,0,1,1,0,0,0,false,false,true,-188.40999,-4610.79,17.01,-0.0047393283,-0.0005367822,0.99296826,-0.11828407,-512.451,323.511,8.321,0,0,3.32111
36.05,2000,0,91.24,0.000002697398,0.000002697398,0.000002697398,0.99999994,0,0,0,0,0,0,1,1,0,0,0,false,false,true,-192.68,-4608.09,17.01,-0.0047339336,-0.0006015198,0.9912363,-0.13201386,-517.02094,316.171,8.321,0,0,3.3396099
36.058334,2000,0,91.24,0.000002697398,0.000002697398,0.000002697398,0.99999994,0,0,0,0,0,0,1,1,0,0,0,false,false,true,-196.98999,-4605.4497,17.01,-0.0047231438,-0.0006662573,0.9893037,-0.14579222,-521.451,308.681,8.321,0,0,3.35811
36.066666,2000,0,91.24,0.000002697398,0.000002697398,0.000002697398,0.99999994,0,0,0,0,0,0,1,1,0,0,0,false,false,true,-201.34,-4602.88,17.01,-0.004712354,-0.0007309948,0.987167,-0.15961911,-525.73096,301.041,8.321,0,0,3.37651
36.075,2000,0,91.24,0.000002697398,0.000002697398,0.000002697398,0.99999994,0,0,0,0,0,0,1,1,0,0,0,false,false,true,-205.72,-4600.37,17.01,-0.0047015646,-0.0007957324,0.9848242,-0.17348923,-529.85095,293.251,8.321,0,0,3.3949099
36.083332,2000,0,91.24,0.000002697398,0.000002697398,0.000002697398,0.99999994,0,0,0,0,0,0,1,1,0,0,0,false,false,true,-210.14,-4597.9297,17.01,-0.0046907747,-0.0008604699,0.9822715,-0.18740243,-533.821,285.321,8.321,0,0,3.41321
36.091667,2000,0,91.24,0.000002697398,0.000002697398,0.000002697398,0.99999994,0,0,0,0,0,0,1,1,0,0,0,false,false,true,-214.59,-4595.55,17.01,-0.004679985,-0.00092520745,0.9795069,-0.20135342,-537.631,277.251,8.321,0,0,3.43151
36.1,2000,0,91.24,0.000002697398,0.000002697398,0.000002697398,0.99999994,0,0,0,0,0,0,1,1,0,0,0,false,false,true,-219.06999,-4593.2397,17.01,-0.0046638013,-0.000989945,0.97652817,-0.21533678,-541.27094,269.04102,8.321,0,0.00010999999,3.44981
36.108334,2000,0,91.24,0.000002697398,0.000002697398,0.000002697398,0.99999994,0,0,0,0,0,0,1,1,0,0,0,false,false,true,-223.58,-4591,17.01,-0.0046476168,-0.0010546827,0.9733317,-0.22935255,-544.74097,260.701,8.321,0,0.00010999999,3.46801
36.116665,2000,0,91.24,0.000002697398,0.000002697398,0.000002697398,0.99999994,0,0,0,0,0,0,1,1,0,0,0,false,false,true,-228.12,-4588.83,17.01,-0.004631432,-0.00111942,0.96991533,-0.24339522,-548.04095,252.231,8.321,0,0.00010999999,3.4862099
36.125,2000,0,91.24,0.000002697398,0.000002697398,0.000002697398,0.99999994,0,0,0,0,0,0,1,1,0,0,0,false,false,true,-232.68999,-4586.73,17.01,-0.0046152486,-0.0011841578,0.9662773,-0.25745955,-551.17096,243.631,8.321,0,0.00010999999,3.50441
36.133335,2000,0,91.24,0.000002697398,0.000002697398,0.000002697398,0.99999994,0,0,0,0,0,0,1,1,0,0,0,false,false,true,-237.28,-4584.6997,17.01,-0.0045990637,-0.0012488953,0.9624153,-0.27154002,-554.121,234.901,8.321,0,0.00010999999,3.5225098
36.141666,2000,0,91.24,0.000002697398,0.000002697398,0.000002697398,0.99999994,0,0,0,0,0,0,1,1,0,0,0,false,false,true,-241.9,-4582.7397,17.01,-0.004577485,-0.0013190277,0.9583261,-0.2856367,-556.891,226.051,8.321,0,0.00010999999,3.5406098
36.15,2000,0,91.24,0.000002697398,0.000002697398,0.000002697398,0.99999994,0,0,0,0,0,0,1,1,0,0,0,false,false,true,-246.54,-4580.86,17.01,-0.0045559052,-0.0013891599,0.9540077,-0.2997441,-559.48096,217.091,8.321,0,0.00010999999,3.5587099
36.158333,2000,0,91.24,0.000002697398,0.000002697398,0.000002697398,0.99999994,0,0,0,0,0,0,1,1,0,0,0,false,false,true,-251.2,-4579.05,17.01,-0.004534326,-0.0014592924,0.94945824,-0.31385693,-561.891,208.011,8.321,0,0.00010999999,3.57681
36.166668,2000,0,91.24,0.000002697398,0.000002697398,0.000002697398,0.99999994,0,0,0,0,0,0,1,1,0,0,0,false,false,true,-255.87999,-4577.32,17.01,-0.0045127473,-0.0015294248,0.94467616,-0.32796982,-564.11096,198.821,8.321,0,0.00010999999,3.59481
36.175,2000,0,91.24,0.000002697398,0.000002697398,0.000002697398,0.99999994,0,0,0,0,0,0,1,1,0,0,0,false,false,true,-260.58,-4575.6597,17.01,-0.0044911676,-0.001599557,0.93965775,-0.34208262,-566.141,189.531,8.321,0,0.00010999999,3.61281
36.183334,2000,0,91.24,0.000002697398,0.000002697398,0.000002697398,0.99999994,0,0,0,0,0,0,1,1,0,0,0,false,false,true,-265.3,-4574.08,17.01,-0.004464194,-0.0016696895,0.93440133,-0.3561901,-567.97095,180.131,8.321,0,0.00010999999,3.63081
36.191666,2000,0,91.24,0.000002697398,0.000002697398,0.000002697398,0.99999994,0,0,0,0,0,0,1,1,0,0,0,false,false,true,-270.03,-4572.58,17.01,-0.00443722,-0.0017398217,0.9289052,-0.37028676,-569.61096,170.631,8.321,-0.00010999999,0.00010999999,3.64871
36.2,2000,0,91.24,0.000002697398,0.000002697398,0.000002697398,0.99999994,0,0,0,0,0,0,1,1,0,0,0,false,false,true,-274.78,-4571.1597,17.01,-0.0044102455,-0.0018045594,0.92316794,-0.3843672,-571.05096,161.031,8.321,-0.00021,0,3.66661
36.208332,2000,0,91.24,0.000002697398,0.000002697398,0.000002697398,0.99999994,0,0,0,0,0,0,1,1,0,0,0,false,false,true,-279.54,-4569.82,17.01,-0.0043832716,-0.0018692969,0.917188,-0.3984261,-572.29095,151.341,8.321,-0.00021,0,3.6844099
36.216667,2000,0,91.24,0.000002697398,0.000002697398,0.000002697398,0.99999994,0,0,0,0,0,0,1,1,0,0,0,false,false,true,-284.31,-4568.56,17.01,-0.0043562977,-0.0019340344,0.9109641,-0.41245803,-573.321,141.55101,8.321,-0.00021,0,3.70221
36.225,2000,0,91.24,0.000002697398,0.000002697398,0.000002697398,0.99999994,0,0,0,0,0,0,1,1,0,0,0,false,false,true,-289.09,-4567.38,17.01,-0.004323929,-0.001998772,0.90449244,-0.42646295,-574.15094,131.671,8.321,-0.00021,0,3.71991
36.233334,2000,0,91.24,0.000002697398,0.000002697398,0.000002697398,0.99999994,0,0,0,0,0,0,1,1,0,0,0,false,false,true,-293.87,-4566.28,17.01,-0.00429156,-0.0020635095,0.8977742,-0.44043013,-574.77094,121.711,8.321,-0.00021,0,3.7376099
36.241665,2000,0,91.24,0.000002697398,0.000002697398,0.000002697398,0.99999994,0,0,0,0,0,0,1,1,0,0,0,false,false,true,-298.66,-4565.26,17.01,-0.0042591915,-0.002128247,0.8908056,-0.45435956,-575.17096,111.660995,8.321,-0.00021,0,3.75521
36.25,2000,0,91.24,0.000002697398,0.000002697398,0.000002697398,0.99999994,0,0,0,0,0,0,1,1,0,0,0,false,false,true,-303.44998,-4564.33,17.01,-0.0042268224,-0.0021929846,0.8835882,-0.4682404,-575.36096,101.531,8.321,-0.00021,0,3.7727098
36.258335,2000,0,91.24,0.000002697398,0.000002697398,0.000002697398,0.99999994,0,0,0,0,0,0,1,1,0,0,0,false,false,true,-308.24,-4563.48,17.01,-0.004189059,-0.0022577222,0.8761182,-0.48207274,-575.331,91.321,8.321,-0.00021,0,3.7901099
36.266666,2000,0,91.24,0.000002697398,0.000002697398,0.000002697398,0.99999994,0,0,0,0,0,0,1,1,0,0,0,false,false,true,-313.03,-4562.7197,17.01,-0.0041512954,-0.0023224596,0.86839753,-0.4958457,-575.04095,81.061,8.321,-0.00021,0,3.80841
36.275,2000,0,91.24,0.000002697398,0.000002697398,0.000002697398,0.99999994,0,0,0,0,0,0,1,1,0,0,0,false,false,true,-317.82,-4562.04,17.01,-0.004113532,-0.0023871975,0.86041915,-0.50956476,-574.47095,70.781,8.321,-0.00010999999,0,3.8282099
36.283333,2000,0,91.24,0.000002697398,0.000002697398,0.000002697398,0.99999994,0,0,0,0,0,0,1,1,0,0,0,false,false,true,-322.61,-4561.4497,17.01,-0.0040757684,-0.0024519349,0.85218155,-0.5232244,-573.631,60.481,8.321,-0.00010999999,0,3.8494098
36.291668,2000,0,91.24,0.000002697398,0.000002697398,0.000002697398,0.99999994,0,0,0,0,0,0,1,1,0,0,0,false,false,true,-327.38998,-4560.9497,17.01,-0.004038005,-0.0025166725,0.8436803,-0.53682476,-572.511,50.170998,8.321,-0.00010999999,0,3.87201
36.3,2000,0,91.24,0.000002697398,0.000002697398,0.000002697398,0.99999994,0,0,0,0,0,0,1,1,0,0,0,false,false,true,-332.16,-4560.53,17.01,-0.0039948463,-0.0025814099,0.83491004,-0.5503657,-571.11096,39.861,8.321,-0.00010999999,0,3.89601
36.308334,2000,0,91.24,0.000002697398,0.000002697398,0.000002697398,0.99999994,0,0,0,0,0,0,1,1,0,0,0,false,false,true,-336.91998,-4560.1997,17.01,-0.003951688,-0.0026461475,0.82586527,-0.56384736,-569.441,29.550999,8.321,-0.00010999999,0,3.9214098
36.316666,2000,0,91.24,0.000002697398,0.000002697398,0.000002697398,0.99999994,0,0,0,0,0,0,1,1,0,0,0,false,false,true,-341.66998,-4559.9497,17.01,-0.0039085294,-0.002710885,0.81654346,-0.57726425,-567.49097,19.251,8.321,-0.00010999999,0,3.94821
36.325,2000,0,91.24,0.000002697398,0.000002697398,0.000002697398,0.99999994,0,0,0,0,0,0,1,1,0,0,0,false,false,true,-346.4,-4559.79,17.01,-0.0038653715,-0.0027756225,0.8069383,-0.59061646,-565.261,8.971001,8.321,-0.00010999999,0,3.97641
36.333332,2000,0,91.24,0.000002697398,0.000002697398,0.000002697398,0.99999994,0,0,0,0,0,0,1,1,0,0,0,false,false,true,-351.11,-4559.7197,17.01,-0.0038168184,-0.0028403602,0.79704285,-0.6039039,-562.751,-1.281,8.321,-0.00010999999,0,4.00591
36.341667,2000,0,91.24,0.000002697398,0.000002697398,0.000002697398,0.99999994,0,0,0,0,0,0,1,1,0,0,0,false,false,true,-355.8,-4559.73,17.01,-0.0037682652,-0.0029050978,0.7868536,-0.61712116,-559.97095,-11.501,8.321,-0.00010999999,0,4.03681
36.35,2000,0,91.24,0.000002697398,0.000002697398,0.000002697398,0.99999994,0,0,0,0,0,0,1,1,0,0,0,false,false,true,-360.47,-4559.83,17.01,-0.003719712,-0.0029698352,0.77636266,-0.63026834,-556.91095,-21.690998,8.321,-0.00010999999,0,4.06911
36.358334,2000,0,91.24,0.000002697398,0.000002697398,0.000002697398,0.99999994,0,0,0,0,0,0,1,1,0,0,0,false,false,true,-365.11,-4560.01,17.01,-0.0036711588,-0.0030345728,0.7655657,-0.64334,-553.571,-31.831,8.321,-0.00010999999,0,4.10271
36.366665,2000,0,91.24,0.000002697398,0.000002697398,0.000002697398,0.99999994,0,0,0,0,0,0,1,1,0,0,0,false,false,true,-369.72,-4560.27,17.01,-0.003617211,-0.0030939158,0.7544583,-0.6563307,-549.96094,-41.920998,8.321,-0.00010999999,0,4.13771
36.375,2000,0,91.24,0.000002697398,0.000002697398,0.000002697398,0.99999994,0,0,0,0,0,0,1,1,0,0,0,false,false,true,-374.3,-4560.62,17.01,-0.003563263,-0.0031532585,0.7430305,-0.6692406,-546.071,-51.961,8.321,-0.00010999999,0,4.17401
36.383335,2000,0,91.24,0.000002697398,0.000002697398,0.000002697398,0.99999994,0,0,0,0,0,0,1,1,0,0,0,false,false,true,-378.85,-4561.05,17.01,-0.003509315,-0.0032126012,0.73128194,-0.6820586,-541.821,-61.911,8.321,0,0,4.2108097
36.391666,2000,0,91.24,0.000002697398,0.000002697398,0.000002697398,0.99999994,0,0,0,0,0,0,1,1,0,0,0,false,false,true,-383.37,-4561.57,17.01,-0.0034499725,-0.0032719441,0.71920174,-0.694785,-537.22095,-71.751,8.321,0,0,4.24811
36.4,2000,0,91.24,0.000002697398,0.000002697398,0.000002697398,0.99999994,0,0,0,0,0,0,1,1,0,0,0,false,false,true,-387.85,-4562.17,17.01,0.0033906293,0.0033312866,-0.7067938,0.70740354,-532.261,-81.471,8.321,0,0,4.28591
36.408333,2000,0,91.24,0.000002697398,0.000002697398,0.000002697398,0.99999994,0,0,0,0,0,0,1,1,0,0,0,false,false,true,-392.28998,-4562.85,17.01,0.0033312868,0.0033906295,-0.6940513,0.7199098,-526.951,-91.061,8.321,0,0,4.3242097
36.416668,2000,0,91.24,0.000002697398,0.000002697398,0.000002697398,0.99999994,0,0,0,0,0,0,1,1,0,0,0,false,false,true,-396.68,-4563.61,17.01,0.0032719441,0.0034499725,-0.6809689,0.7322969,-521.29095,-100.510994,8.321,0,0,4.36301
36.425,2000,0,91.24,0.000002697398,0.000002697398,0.000002697398,0.99999994,0,0,0,0,0,0,1,1,0,0,0,false,false,true,-401.02,-4564.4497,17.01,0.0032072063,0.003509315,-0.6675465,0.7445528,-515.29095,-109.800995,8.321,0,0,4.40231
36.433334,2000,0,91.24,0.000002697398,0.000002697398,0.000002697398,0.99999994,0,0,0,0,0,0,1,1,0,0,0,false,false,true,-405.31,-4565.36,17.01,0.0031424686,0.0035686577,-0.6537789,0.75667053,-508.951,-118.921,8.321,0,0,4.44211
36.441666,2000,0,91.24,0.000002697398,0.000002697398,0.000002697398,0.99999994,0,0,0,0,0,0,1,1,0,0,0,false,false,true,-409.55,-4566.35,17.01,0.0030777312,0.0036280004,-0.6396607,0.76864254,-502.271,-127.861,8.321,0,0,4.48251
36.45,2000,0,91.24,0.000002697398,0.000002697398,0.000002697398,0.99999994,0,0,0,0,0,0,1,1,0,0,0,false,false,true,-413.74,-4567.42,17.01,0.003007599,0.003687343,-0.6251918,0.78045654,-495.261,-136.601,8.321,0,0,4.52341
36.458332,2000,0,91.24,0.000002697398,0.000002697398,0.000002697398,0.99999994,0,0,0,0,0,0,1,1,0,0,0,false,false,true,-417.87,-4568.56,17.01,0.0029374664,0.0037412911,-0.61037225,0.7921003,-487.921,-145.131,8.321,0,0,4.56491
36.466667,2000,0,91.24,0.000002697398,0.000002697398,0.000002697398,0.99999994,0,0,0,0,0,0,1,1,0,0,0,false,false,true,-421.94,-4569.77,17.01,0.002867334,0.0037952391,-0.5951966,0.8035659,-480.291,-153.401,8.321,0,0.00010999999,4.60661
36.475,2000,0,91.24,0.000002697398,0.000002697398,0.000002697398,0.99999994,0,0,0,0,0,0,1,1,0,0,0,false,false,true,-425.94,-4571.05,17.01,0.002791807,0.0038491872,-0.57966495,0.8148409,-472.411,-161.33101,8.321,0,0.00021,4.64791
36.483334,2000,0,91.24,0.000002697398,0.000002697398,0.000002697398,0.99999994,0,0,0,0,0,0,1,1,0,0,0,false,false,true,-429.88,-4572.39,17.01,0.00271628,0.0039031352,-0.56377727,0.82591313,-464.301,-168.921,8.321,0,0.00030999997,4.68881
36.491665,2000,0,91.24,0.000002697398,0.000002697398,0.000002697398,0.99999994,0,0,0,0,0,0,1,1,0,0,0,false,false,true,-433.75,-4573.8,17.01,0.0026407526,0.003957083,-0.54753345,0.8367702,-455.981,-176.141,8.321,0,0.00030999997,4.72911
36.5,2000,0,91.24,0.000002697398,0.000002697398,0.000002697398,0.99999994,0,0,0,0,0,0,1,1,0,0,0,false,false,true,-437.55,-4575.27,17.01,0.0025598307,0.004011031,-0.530939,0.8473966,-447.481,-182.951,8.321,0,0.00030999997,4.7687097
36.508335,2000,0,91.24,0.000002697398,0.000002697398,0.000002697398,0.99999994,0,0,0,0,0,0,1,1,0,0,0,false,false,true,-441.28,-4576.79,17.01,0.0024789087,0.004059584,-0.5139992,0.85777736,-438.811,-189.341,8.321,0,0.00030999997,4.80751
36.516666,2000,0,91.24,0.000002697398,0.000002697398,0.000002697398,0.99999994,0,0,0,0,0,0,1,1,0,0,0,false,false,true,-444.94,-4578.37,17.01,0.0023979868,0.004108137,-0.49671426,0.867901,-430.001,-195.321,8.321,0,0.00040999998,4.84551
36.525,2000,0,91.24,0.000002697398,0.000002697398,0.000002697398,0.99999994,0,0,0,0,0,0,1,1,0,0,0,false,false,true,-448.52,-4580,17.01,0.00231167,0.00415669,-0.47908944,0.87775314,-421.061,-200.881,8.321,0,0.00040999998,4.88261
36.533333,2000,0,91.24,0.000002697398,0.000002697398,0.000002697398,0.99999994,0,0,0,0,0,0,1,1,0,0,0,false,false,true,-452.03,-4581.67,17.01,0.0022253536,0.0042052437,-0.46113548,0.88731694,-412.021,-206.021,8.321,0,0.00040999998,4.9187098
36.541668,2000,0,91.24,0.000002697398,0.000002697398,0.000002697398,0.99999994,0,0,0,0,0,0,1,1,0,0,0,false,false,true,-455.46,-4583.39,17.01,0.0021390368,0.0042537972,-0.44285244,0.8965818,-402.911,-210.741,8.321,0,0.00040999998,4.9538097
36.55,2000,0,91.24,0.000002697398,0.000002697398,0.000002697398,0.99999994,0,0,0,0,0,0,1,1,0,0,0,false,false,true,-458.81998,-4585.15,17.01,0.0020527202,0.0042969557,-0.4242511,0.905532,-393.741,-215.051,8.321,-0.00010999999,0.00040999998,4.98791
36.558334,2000,0,91.24,0.000002697398,0.000002697398,0.000002697398,0.99999994,0,0,0,0,0,0,1,1,0,0,0,false,false,true,-462.09998,-4586.94,17.01,0.0019610086,0.0043401136,-0.40534225,0.91415256,-384.541,-218.951,8.321,-0.00010999999,0.00051,5.0208097
36.566666,2000,0,91.24,0.000002697398,0.000002697398,0.000002697398,0.99999994,0,0,0,0,0,0,1,1,0,0,0,false,false,true,-465.3,-4588.76,17.01,0.0018692969,0.0043832716,-0.38613132,0.92243147,-375.32098,-222.451,8.321,-0.00010999999,0.00051,5.05251
36.575,2000,0,91.24,0.000002697398,0.000002697398,0.000002697398,0.99999994,0,0,0,0,0,0,1,1,0,0,0,false,false,true,-468.43,-4590.61,17.01,0.0017775854,0.0044210353,-0.36662903,0.93035495,-366.111,-225.561,8.321,-0.00021,0.00051,5.08291
36.583332,2000,0,91.24,0.000002697398,0.000002697398,0.000002697398,0.99999994,0,0,0,0,0,0,1,1,0,0,0,false,false,true,-471.47998,-4592.4897,17.01,0.001680479,0.004458799,-0.34684622,0.93790984,-356.931,-228.291,8.321,-0.00021,0.00061,5.11191
36.591667,2000,0,91.24,0.000002697398,0.000002697398,0.000002697398,0.99999994,0,0,0,0,0,0,1,1,0,0,0,false,false,true,-474.44998,-4594.39,17.01,0.0015833727,0.0044965623,-0.32679373,0.9450836,-347.801,-230.651,8.321,-0.00021,0.00061,5.13931
36.6,2000,0,91.24,0.000002697398,0.000002697398,0.000002697398,0.99999994,0,0,0,0,0,0,1,1,0,0,0,false,false,true,-477.34998,-4596.31,17.01,0.0014862665,0.004528932,-0.30648226,0.9518644,-338.741,-232.651,8.321,-0.00021,0.00061,5.16501
36.608334,2000,0,91.24,0.000002697398,0.000002697398,0.000002697398,0.99999994,0,0,0,0,0,0,1,1,0,0,0,false,false,true,-480.16998,-4598.25,17.01,0.0013891599,0.0045613,-0.28592798,0.9582392,-329.761,-234.301,8.321,-0.00030999997,0.00071,5.18891
36.616665,2000,0,91.24,0.000002697398,0.000002697398,0.000002697398,0.99999994,0,0,0,0,0,0,1,1,0,0,0,false,false,true,-482.91998,-4600.1997,17.01,0.0012866588,0.004593669,-0.26514715,0.9641961,-320.891,-235.621,8.321,-0.00040999998,0.00081,5.2108097
36.625,2000,0,91.24,0.000002697398,0.000002697398,0.000002697398,0.99999994,0,0,0,0,0,0,1,1,0,0,0,false,false,true,-485.59,-4602.1597,17.01,0.0011841577,0.0046260376,-0.24415052,0.96972555,-312.051,-236.641,8.321,-0.00040999998,0.00081,5.23021
36.633335,2000,0,91.24,0.000002697398,0.000002697398,0.000002697398,0.99999994,0,0,0,0,0,0,1,1,0,0,0,false,false,true,-488.19,-4604.13,17.01,0.0010816565,0.0046530114,-0.22295968,0.9748159,-303.261,-237.351,8.321,-0.00040999998,0.00071,5.24691
36.641666,2000,0,91.24,0.000002697398,0.000002697398,0.000002697398,0.99999994,0,0,0,0,0,0,1,1,0,0,0,false,false,true,-490.72,-4606.11,17.01,0.0009791554,0.0046799853,-0.2015962,0.979457,-294.551,-237.711,8.321,-0.00040999998,0.00061,5.25941
36.65,2000,0,91.24,0.000002697398,0.000002697398,0.000002697398,0.99999994,0,0,0,0,0,0,1,1,0,0,0,false,false,true,-493.16998,-4608.09,17.01,0.00087665435,0.0047015646,-0.18008706,0.983639,-285.951,-237.731,8.321,-0.00040999998,0.00051,5.26751
36.658333,2000,0,91.24,0.000002697398,0.000002697398,0.000002697398,0.99999994,0,0,0,0,0,0,1,1,0,0,0,false,false,true,-495.55,-4610.07,17.01,0.0007687584,0.0047231433,-0.15845382,0.98735464,-277.501,-237.431,8.321,-0.00040999998,0.00051,5.2708097
36.666668,2000,0,91.24,0.000002697398,0.000002697398,0.000002697398,0.99999994,0,0,0,0,0,0,1,1,0,0,0,false,false,true,-497.86,-4612.05,17.01,0.0006608625,0.004739328,-0.13673429,0.99059606,-269.231,-236.841,8.321,-0.00040999998,0.00040999998,5.26851
36.675,2000,0,91.24,0.000002697398,0.000002697398,0.000002697398,0.99999994,0,0,0,0,0,0,1,1,0,0,0,false,false,true,-500.09998,-4614.02,17.01,0.00055296655,0.0047555123,-0.11495542,0.99335897,-261.141,-235.981,8.311,-0.00040999998,0.00040999998,5.26091
36.683334,2000,0,91.24,0.000002697398,0.000002697398,0.000002697398,0.99999994,0,0,0,0,0,0,1,1,0,0,0,false,false,true,-502.28,-4615.9897,17.01,0.00044507062,0.0047663017,-0.093154974,0.99564,-252.921,-234.801,8.311,-0.00040999998,0.00030999997,5.25591
36.691666,2000,0,91.24,0.000002697398,0.000002697398,0.000002697398,0.99999994,0,0,0,0,0,0,1,1,0,0,0,false,false,true,-504.38998,-4617.9497,17.01,0.00033717474,0.004777092,-0.071327545,0.9974414,-244.661,-233.301,8.311,-0.00040999998,0.00021,5.2519097
36.7,2000,0,91.24,0.000002697398,0.000002697398,0.000002697398,0.99999994,0,0,0,0,0,0,1,1,0,0,0,false,false,true,-506.43,-4619.89,17.01,0.00022927884,0.0047824867,-0.049483936,0.9987634,-236.391,-231.481,8.311,-0.00040999998,0,5.24861
36.708332,2000,0,91.24,0.000002697398,0.000002697398,0.000002697398,0.99999994,0,0,0,0,0,0,1,1,0,0,0,false,false,true,-508.4,-4621.82,17.01,0.000121382924,0.004787882,-0.027629577,0.9996067,-228.141,-229.341,8.311,-0.00040999998,0,5.24601
36.716667,2000,0,91.24,0.000002697398,0.000002697398,0.000002697398,0.99999994,0,0,0,0,0,0,1,1,0,0,0,false,false,true,-510.3,-4623.73,17.01,0.0000134869915,0.004787882,-0.005775172,0.9999718,-219.931,-226.881,8.311,-0.00030999997,-0.00010999999,5.24401
36.725,2000,0,91.24,0.000002697398,0.000002697398,0.000002697398,0.99999994,0,0,0,0,0,0,1,1,0,0,0,false,false,true,-512.13,-4625.62,17.01,-0.00009440894,0.004787882,0.01607388,0.99985933,-211.771,-224.101,8.311,-0.00021,-0.00010999999,5.24261
36.733334,2000,0,91.24,0.000002697398,0.000002697398,0.000002697398,0.99999994,0,0,0,0,0,0,1,1,0,0,0,false,false,true,-513.89,-4627.4897,17.01,-0.00020230486,0.0047824867,0.037912097,0.99926955,-203.681,-221.011,8.311,-0.00021,-0.00021,5.24201
36.741665,2000,0,91.24,0.000002697398,0.000002697398,0.000002697398,0.99999994,0,0,0,0,0,0,1,1,0,0,0,false,false,true,-515.58997,-4629.33,17.01,-0.00031020076,0.004777092,0.059728738,0.9982031,-195.671,-217.601,8.311,-0.00010999999,-0.00021,5.24231
36.75,2000,0,91.24,0.000002697398,0.000002697398,0.000002697398,0.99999994,0,0,0,0,0,0,1,1,0,0,0,false,false,true,-517.22,-4631.14,17.01,-0.0004127019,0.004766302,0.081518404,0.9966603,-187.761,-213.871,8.311,0,-0.00030999997,5.24361
36.758335,2000,0,91.24,0.000002697398,0.000002697398,0.000002697398,0.99999994,0,0,0,0,0,0,1,1,0,0,0,false,false,true,-518.77997,-4632.92,17.01,-0.000515203,0.004755513,0.10327031,0.9946418,-179.951,-209.821,8.311,0,-0.00030999997,5.24611
36.766666,2000,0,91.24,0.000002697398,0.000002697398,0.000002697398,0.99999994,0,0,0,0,0,0,1,1,0,0,0,false,false,true,-520.27997,-4634.67,17.01,-0.00061770406,0.004739328,0.12498443,0.992147,-172.261,-205.451,8.311,0,-0.00030999997,5.24991
36.775,2000,0,91.24,0.000002697398,0.000002697398,0.000002697398,0.99999994,0,0,0,0,0,0,1,1,0,0,0,false,false,true,-521.72,-4636.38,17.01,-0.00072020525,0.0047231438,0.14665543,0.98917603,-164.701,-200.751,8.311,0,-0.00030999997,5.25531
36.783333,2000,0,91.24,0.000002697398,0.000002697398,0.000002697398,0.99999994,0,0,0,0,0,0,1,1,0,0,0,false,false,true,-523.08997,-4638.05,17.01,-0.00082270644,0.0047069597,0.16827784,0.98572797,-157.281,-195.731,8.311,0,-0.00030999997,5.2624097
36.791668,2000,0,91.24,0.000002697398,0.000002697398,0.000002697398,0.99999994,0,0,0,0,0,0,1,1,0,0,0,false,false,true,-524.39996,-4639.6797,17.01,-0.00092520757,0.0046853805,0.18985173,0.9818011,-150.011,-190.381,8.311,0,-0.00030999997,5.2715096
36.8,2000,0,91.24,0.000002697398,0.000002697398,0.000002697398,0.99999994,0,0,0,0,0,0,1,1,0,0,0,false,false,true,-525.64996,-4641.27,17.01,-0.0010277086,0.0046638013,0.21137166,0.97739404,-142.901,-184.701,8.311,0,-0.00030999997,5.28291
36.808334,2000,0,91.24,0.000002697398,0.000002697398,0.000002697398,0.99999994,0,0,0,0,0,0,1,1,0,0,0,false,false,true,-526.83997,-4642.81,17.01,-0.0011302098,0.004636827,0.23283224,0.97250515,-135.97101,-178.69101,8.311,0,-0.00040999998,5.29691
36.816666,2000,0,91.24,0.000002697398,0.000002697398,0.000002697398,0.99999994,0,0,0,0,0,0,1,1,0,0,0,false,false,true,-527.97,-4644.3,17.01,-0.001232711,0.0046098535,0.2542389,0.96712965,-129.231,-172.341,8.311,0,-0.00040999998,5.3137097
36.825,2000,0,91.24,0.000002697398,0.000002697398,0.000002697398,0.99999994,0,0,0,0,0,0,1,1,0,0,0,false,false,true,-529.05,-4645.7397,17.01,-0.0013352121,0.004577485,0.2755861,0.96126455,-122.690994,-165.681,8.311,0.00010999999,-0.00040999998,5.3326097
36.833332,2000,0,91.24,0.000002697398,0.000002697398,0.000002697398,0.99999994,0,0,0,0,0,0,1,1,0,0,0,false,false,true,-530.07,-4647.12,17.01,-0.0014377132,0.0045451154,0.29687402,0.9549047,-116.370995,-158.80101,8.311,0.00010999999,-0.00030999997,5.35111
36.841667,2000,0,91.24,0.000002697398,0.000002697398,0.000002697398,0.99999994,0,0,0,0,0,0,1,1,0,0,0,false,false,true,-531.04,-4648.44,17.01,-0.0015402144,0.0045127473,0.31809187,0.9480479,-110.260994,-151.69101,8.311,0.00010999999,-0.00021,5.3695097
36.85,2000,0,91.24,0.000002697398,0.000002697398,0.000002697398,0.99999994,0,0,0,0,0,0,1,1,0,0,0,false,false,true,-531.95996,-4649.6997,17.01,-0.0016427154,0.004474983,0.33922336,0.94069374,-104.370995,-144.341,8.311,0.00021,-0.00021,5.38821
36.858334,2000,0,91.24,0.000002697398,0.000002697398,0.000002697398,0.99999994,0,0,0,0,0,0,1,1,0,0,0,false,false,true,-532.83,-4650.9,17.01,-0.0017398217,0.00443722,0.36025774,0.9328406,-98.701,-136.751,8.311,0.00021,-0.00010999999,5.40751
36.866665,2000,0,91.24,0.000002697398,0.000002697398,0.000002697398,0.99999994,0,0,0,0,0,0,1,1,0,0,0,false,false,true,-533.64996,-4652.04,17.01,-0.0018369281,0.0043940614,0.38118425,0.92448676,-93.291,-128.921,8.311,0.00021,-0.00010999999,5.42691
36.875,2000,0,91.24,0.000002697398,0.000002697398,0.000002697398,0.99999994,0,0,0,0,0,0,1,1,0,0,0,false,false,true,-534.43,-4653.11,17.01,-0.0019340345,0.0043509034,0.40199208,0.9156307,-88.230995,-120.861,8.311,0.00021,0,5.44481
36.883335,2000,0,91.24,0.000002697398,0.000002697398,0.000002697398,0.99999994,0,0,0,0,0,0,1,1,0,0,0,false,false,true,-535.17,-4654.12,17.01,-0.0020311407,0.0043077446,0.4226596,0.9062759,-83.531,-112.590996,8.311,0.00021,0,5.46121
36.891666,2000,0,91.24,0.000002697398,0.000002697398,0.000002697398,0.99999994,0,0,0,0,0,0,1,1,0,0,0,false,false,true,-535.87,-4655.06,17.01,-0.002128247,0.0042591915,0.4431707,0.89642453,-79.201,-104.111,8.311,0.00021,0,5.47631
36.9,2000,0,91.24,0.000002697398,0.000002697398,0.000002697398,0.99999994,0,0,0,0,0,0,1,1,0,0,0,false,false,true,-536.52997,-4655.9297,17.01,-0.0022253534,0.0042106383,0.46350917,0.88607925,-75.251,-95.440994,8.311,0.00021,0,5.49021
36.908333,2000,0,91.24,0.000002697398,0.000002697398,0.000002697398,0.99999994,0,0,0,0,0,0,1,1,0,0,0,false,false,true,-537.16,-4656.7197,17.01,-0.0023224596,0.00415669,0.48365343,0.8752466,-71.690994,-86.590996,8.311,0.00030999997,0,5.49991
36.916668,2000,0,91.24,0.000002697398,0.000002697398,0.000002697398,0.99999994,0,0,0,0,0,0,1,1,0,0,0,false,false,true,-537.76,-4657.44,17.01,-0.002414171,0.004102742,0.5035818,0.8639342,-68.541,-77.581,8.311,0.00040999998,0,5.50001
36.925,2000,0,91.24,0.000002697398,0.000002697398,0.000002697398,0.99999994,0,0,0,0,0,0,1,1,0,0,0,false,false,true,-538.33,-4658.09,17.01,-0.0025058826,0.0040433994,0.523246,0.8521683,-65.800995,-68.410995,8.311,0.00040999998,0,5.50001
36.933334,2000,0,91.24,0.000002697398,0.000002697398,0.000002697398,0.99999994,0,0,0,0,0,0,1,1,0,0,0,false,false,true,-538.88,-4658.6597,17.01,-0.0025975944,0.003984057,0.54263496,0.8399551,-63.481,-59.110996,8.311,0.00040999998,0.00010999999,5.50001
36.941666,2000,0,91.24,0.000002697398,0.000002697398,0.000002697398,0.99999994,0,0,0,0,0,0,1,1,0,0,0,false,false,true,-539.41,-4659.15,17.01,-0.002683911,0.003924714,0.56173795,0.8273015,-61.591,-49.681,8.311,0.00040999998,0.00021,5.49991
36.95,2000,0,91.24,0.000002697398,0.000002697398,0.000002697398,0.99999994,0,0,0,0,0,0,1,1,0,0,0,false,false,true,-539.92,-4659.56,17.01,-0.0027702278,0.0038599768,0.58054966,0.8142109,-60.141,-40.141,8.311,0.00040999998,0.00021,5.49991
36.958332,2000,0,91.24,0.000002697398,0.000002697398,0.000002697398,0.99999994,0,0,0,0,0,0,1,1,0,0,0,false,false,true,-540.42,-4659.89,17.01,-0.0028565445,0.0037952391,0.5990539,0.80069447,-59.141,-30.511,8.311,0.00040999998,0.00030999997,5.50001
36.966667,2000,0,91.24,0.000002697398,0.000002697398,0.000002697398,0.99999994,0,0,0,0,0,0,1,1,0,0,0,false,false,true,-540.91,-4660.14,17.01,-0.0029428613,0.0037305015,0.61724526,0.78675634,-58.600998,-20.790998,8.311,0.00040999998,0.00040999998,5.50001
36.975,2000,0,91.24,0.000002697398,0.000002697398,0.000002697398,0.99999994,0,0,0,0,0,0,1,1,0,0,0,false,false,true,-541.39996,-4660.31,17.01,-0.0030237832,0.0036603692,0.6351129,0.7724046,-58.521,-11.001,8.311,0.00040999998,0.00051,5.50001
36.983334,2000,0,91.24,0.000002697398,0.000002697398,0.000002697398,0.99999994,0,0,0,0,0,0,1,1,0,0,0,false,false,true,-541.89,-4660.4,17.01,-0.0031047054,0.0035902371,0.6526461,0.757648,-58.920998,-1.161,8.311,0.00040999998,0.00061,5.49991
36.991665,2000,0,91.24,0.000002697398,0.000002697398,0.000002697398,0.99999994,0,0,0,0,0,0,1,1,0,0,0,false,false,true,-542.38,-4660.4097,17.01,-0.0031856273,0.0035201048,0.66983396,0.7424957,-59.801,8.711,8.311,0.00040999998,0.00061,5.50001
37,2000,0,91.24,0.000002697398,0.000002697398,0.000002697398,0.99999994,0,0,0,0,0,0,1,1,0,0,0,false,false,true,-542.88,-4660.34,17.01,-0.0032611543,0.0034445773,0.68667114,0.7269526,-61.161,18.540998,8.311,0.00040999998,0.00071,5.50001
37.008335,2000,0,91.24,0.000002697398,0.000002697398,0.000002697398,0.99999994,0,0,0,0,0,0,1,1,0,0,0,false,false,true,-543.39,-4660.1797,17.01,-0.0033366815,0.00336905,0.70314693,0.71102864,-62.981,28.230999,8.311,0.00030999997,0.00081,5.50001
37.016666,2000,0,91.24,0.000002697398,0.000002697398,0.000002697398,0.99999994,0,0,0,0,0,0,1,1,0,0,0,false,false,true,-543.91,-4659.94,17.01,-0.0034122085,0.003293523,0.71925396,0.69473094,-65.160995,37.720997,8.311,0.00021,0.00081,5.50001
37.025,2000,0,91.24,0.000002697398,0.000002697398,0.000002697398,0.99999994,0,0,0,0,0,0,1,1,0,0,0,false,false,true,-544.45,-4659.63,17.01,-0.003482341,0.003217996,0.73498523,0.6780665,-67.701,47.001,8.311,0.00010999999,0.00081,5.49991
37.033333,2000,0,91.24,0.000002697398,0.000002697398,0.000002697398,0.99999994,0,0,0,0,0,0,1,1,0,0,0,false,false,true,-545.01,-4659.2397,17.01,-0.0035524736,0.0031370742,0.7503305,0.66104585,-70.590996,56.071,8.311,0,0.00071,5.50001
37.041668,2000,0,91.24,0.000002697398,0.000002697398,0.000002697398,0.99999994,0,0,0,0,0,0,1,1,0,0,0,false,false,true,-545.6,-4658.77,17.01,-0.0036226057,0.003056152,0.76528007,0.64367986,-73.821,64.931,8.311,0,0.00061,5.49921
37.05,2000,0,91.24,0.000002697398,0.000002697398,0.000002697398,0.99999994,0,0,0,0,0,0,1,1,0,0,0,false,false,true,-546.22,-4658.23,17.01,-0.003687343,0.00297523,0.7798251,0.6259794,-77.391,73.571,8.311,-0.00010999999,0.00051,5.49641
37.058334,2000,0,91.24,0.000002697398,0.000002697398,0.000002697398,0.99999994,0,0,0,0,0,0,1,1,0,0,0,false,false,true,-546.86,-4657.62,17.01,-0.0037520807,0.0028943082,0.79395694,0.6079554,-81.291,81.980995,8.311,-0.00021,0.00040999998,5.49161
37.066666,2000,0,91.24,0.000002697398,0.000002697398,0.000002697398,0.99999994,0,0,0,0,0,0,1,1,0,0,0,false,false,true,-547.54,-4656.94,17.01,-0.0038168184,0.0028079913,0.8076601,0.5896292,-85.510994,90.160995,8.311,-0.00021,0.00030999997,5.4850097
37.075,2000,0,91.24,0.000002697398,0.000002697398,0.000002697398,0.99999994,0,0,0,0,0,0,1,1,0,0,0,false,false,true,-548.25,-4656.19,17.01,-0.0038815557,0.0027216745,0.8209244,0.5710171,-90.050995,98.101,8.311,-0.00030999997,0.00021,5.47671
37.083332,2000,0,91.24,0.000002697398,0.000002697398,0.000002697398,0.99999994,0,0,0,0,0,0,1,1,0,0,0,false,false,true,-549,-4655.37,17.01,-0.003940899,0.0026353581,0.83374107,0.5521352,-94.901,105.800995,8.311,-0.00030999997,0.00021,5.46671
37.091667,2000,0,91.24,0.000002697398,0.000002697398,0.000002697398,0.99999994,0,0,0,0,0,0,1,1,0,0,0,false,false,true,-549.79,-4654.4897,17.01,-0.004000241,0.002549041,0.8460986,0.5330052,-100.050995,113.260994,8.311,-0.00040999998,0.00010999999,5.4552097
37.1,2000,0,91.24,0.000002697398,0.000002697398,0.000002697398,0.99999994,0,0,0,0,0,0,1,1,0,0,0,false,false,true,-550.62,-4653.55,17.01,-0.0040595834,0.0024573293,0.85799384,0.5136377,-105.491,120.461,8.311,-0.00040999998,0,5.44231
37.108334,2000,0,91.24,0.000002697398,0.000002697398,0.000002697398,0.99999994,0,0,0,0,0,0,1,1,0,0,0,false,false,true,-551.5,-4652.55,17.01,-0.0041135317,0.002365618,0.86942095,0.4940492,-111.211,127.340996,8.311,-0.00040999998,0,5.4285097
37.116665,2000,0,91.24,0.000002697398,0.000002697398,0.000002697398,0.99999994,0,0,0,0,0,0,1,1,0,0,0,false,false,true,-552.43,-4651.4897,17.01,-0.00416748,0.0022739065,0.88037145,0.474261,-117.190994,133.77101,8.311,-0.00040999998,0,5.41461
37.125,2000,0,91.24,0.000002697398,0.000002697398,0.000002697398,0.99999994,0,0,0,0,0,0,1,1,0,0,0,false,false,true,-553.41,-4650.37,17.01,-0.004216033,0.002182195,0.8908469,0.45427868,-123.40099,139.77101,8.311,-0.00030999997,0,5.4004097
37.133335,2000,0,91.24,0.000002697398,0.000002697398,0.000002697398,0.99999994,0,0,0,0,0,0,1,1,0,0,0,false,false,true,-554.44,-4649.21,17.01,-0.004264586,0.0020904834,0.9008433,0.43411824,-129.83101,145.341,8.311,-0.00030999997,-0.00010999999,5.3860097
37.141666,2000,0,91.24,0.000002697398,0.000002697398,0.000002697398,0.99999994,0,0,0,0,0,0,1,1,0,0,0,false,false,true,-555.51996,-4648,17.01,-0.0043131392,0.001993377,0.9103572,0.41379595,-136.47101,150.47101,8.311,-0.00021,-0.00021,5.3713098
37.15,2000,0,91.24,0.000002697398,0.000002697398,0.000002697398,0.99999994,0,0,0,0,0,0,1,1,0,0,0,false,false,true,-556.66,-4646.75,17.01,-0.0043562977,0.0018962709,0.9193905,0.39331722,-143.291,155.171,8.311,-0.00010999999,-0.00021,5.35641
37.158333,2000,0,91.24,0.000002697398,0.000002697398,0.000002697398,0.99999994,0,0,0,0,0,0,1,1,0,0,0,false,false,true,-557.85,-4645.46,17.01,-0.004399456,0.0017991646,0.9279382,0.3727036,-150.271,159.44101,8.311,-0.00010999999,-0.00030999997,5.34121
37.166668,2000,0,91.24,0.000002697398,0.000002697398,0.000002697398,0.99999994,0,0,0,0,0,0,1,1,0,0,0,false,false,true,-559.1,-4644.13,17.01,-0.00443722,0.0017020581,0.9360027,0.35196054,-157.401,163.281,8.311,0,-0.00030999997,5.32581
37.175,2000,0,91.24,0.000002697398,0.000002697398,0.000002697398,0.99999994,0,0,0,0,0,0,1,1,0,0,0,false,false,true,-560.41,-4642.77,17.01,-0.004474983,0.0016049518,0.9435822,0.33110416,-164.66101,166.681,8.311,0,-0.00030999997,5.31031
37.183334,2000,0,91.24,0.000002697398,0.000002697398,0.000002697398,0.99999994,0,0,0,0,0,0,1,1,0,0,0,false,false,true,-561.77997,-4641.38,17.01,-0.004512747,0.0015078455,0.95067716,0.31014532,-172.031,169.651,8.311,0,-0.00040999998,5.2947097
37.191666,2000,0,91.24,0.000002697398,0.000002697398,0.000002697398,0.99999994,0,0,0,0,0,0,1,1,0,0,0,false,false,true,-563.20996,-4639.9697,17.01,-0.004545116,0.0014053445,0.957287,0.28910014,-179.481,172.181,8.311,0,-0.00040999998,5.27901
37.2,2000,0,91.24,0.000002697398,0.000002697398,0.000002697398,0.99999994,0,0,0,0,0,0,1,1,0,0,0,false,false,true,-564.70996,-4638.53,17.01,-0.004577485,0.0013028433,0.9634144,0.26797405,-187.001,174.271,8.311,0,-0.00040999998,5.26331
37.208332,2000,0,91.24,0.000002697398,0.000002697398,0.000002697398,0.99999994,0,0,0,0,0,0,1,1,0,0,0,false,false,true,-566.26996,-4637.08,17.01,-0.004604458,0.001200342,0.9690589,0.24678315,-194.571,175.931,8.311,0,-0.00040999998,5.24761
37.216667,2000,0,91.24,0.000002697398,0.000002697398,0.000002697398,0.99999994,0,0,0,0,0,0,1,1,0,0,0,false,false,true,-567.89,-4635.61,17.01,-0.0046314322,0.001097841,0.9742226,0.22553839,-202.161,177.151,8.311,0,-0.00040999998,5.2319098
37.225,2000,0,91.24,0.000002697398,0.000002697398,0.000002697398,0.99999994,0,0,0,0,0,0,1,1,0,0,0,false,false,true,-569.57,-4634.13,17.01,-0.0046584066,0.00099534,0.97890705,0.20425045,-209.761,177.94101,8.311,0,-0.00040999998,5.2164097
37.233334,2000,0,91.24,0.000002697398,0.000002697398,0.000002697398,0.99999994,0,0,0,0,0,0,1,1,0,0,0,false,false,true,-571.32,-4632.65,17.01,-0.0046799853,0.00089283875,0.9831153,0.18292472,-217.341,178.30101,8.311,0,-0.00040999998,5.2010098
37.241665,2000,0,91.24,0.000002697398,0.000002697398,0.000002697398,0.99999994,0,0,0,0,0,0,1,1,0,0,0,false,false,true,-573.13,-4631.1597,17.01,-0.0047015646,0.0007903376,0.9868485,0.16157743,-224.891,178.231,8.311,0,-0.00040999998,5.18581
37.25,2000,0,91.24,0.000002697398,0.000002697398,0.000002697398,0.99999994,0,0,0,0,0,0,1,1,0,0,0,false,false,true,-575,-4629.67,17.01,-0.0047177495,0.00068783655,0.99010897,0.14021936,-232.381,177.741,8.311,0,-0.00030999997,5.17091
37.258335,2000,0,91.24,0.000002697398,0.000002697398,0.000002697398,0.99999994,0,0,0,0,0,0,1,1,0,0,0,false,false,true,-576.94,-4628.19,17.01,-0.004733933,0.0005853353,0.9928999,0.11885586,-239.791,176.841,8.311,0,-0.00030999997,5.15631
37.266666,2000,0,91.24,0.000002697398,0.000002697398,0.000002697398,0.99999994,0,0,0,0,0,0,1,1,0,0,0,false,false,true,-578.94,-4626.7197,17.01,-0.004744723,0.00048283426,0.99522424,0.09749779,-247.101,175.531,8.311,0,-0.00030999997,5.14181
37.275,2000,0,91.24,0.000002697398,0.000002697398,0.000002697398,0.99999994,0,0,0,0,0,0,1,1,0,0,0,false,false,true,-581,-4625.26,17.01,-0.0047555123,0.0003803331,0.9970844,0.076155886,-254.33101,173.821,8.311,0,-0.00030999997,5.1286097
37.283333,2000,0,91.24,0.000002697398,0.000002697398,0.000002697398,0.99999994,0,0,0,0,0,0,1,1,0,0,0,false,false,true,-583.12,-4623.81,17.01,-0.0047663017,0.00027783198,0.99848384,0.054835565,-261.471,171.711,8.311,0,-0.00030999997,5.11681
37.291668,2000,0,91.24,0.000002697398,0.000002697398,0.000002697398,0.99999994,0,0,0,0,0,0,1,1,0,0,0,false,false,true,-585.3,-4622.38,17.01,-0.004771697,0.00017533088,0.999426,0.03353692,-268.501,169.22101,8.311,0,-0.00030999997,5.10641
37.3,2000,0,91.24,0.000002697398,0.000002697398,0.000002697398,0.99999994,0,0,0,0,0,0,1,1,0,0,0,false,false,true,-587.54,-4620.9697,17.01,-0.0047770925,0.00007282975,0.99991333,0.012265154,-275.401,166.351,8.311,0,-0.00030999997,5.0974097
37.308334,2000,0,91.24,0.000002697398,0.000002697398,0.000002697398,0.99999994,0,0,0,0,0,0,1,1,0,0,0,false,false,true,-589.83,-4619.58,17.01,-0.004777092,-0.000029671379,0.99994826,-0.008974285,-282.161,163.121,8.311,0,-0.00021,5.0897098
