time,ball_loc_x,ball_loc_y,ball_loc_z,ball_rot_x,ball_rot_y,ball_rot_z,ball_rot_w,ball_vel_x,ball_vel_y,ball_vel_z,ball_ang_x,ball_ang_y,ball_ang_z,player0_throttle,player0_steer,player0_pitch,player0_yaw,player0_roll,player0_jump,player0_boost,player0_handbrake,player0_loc_x,player0_loc_y,player0_loc_z,player0_rot_x,player0_rot_y,player0_rot_z,player0_rot_w,player0_vel_x,player0_vel_y,player0_vel_z,player0_ang_x,player0_ang_y,player0_ang_z
140.96666,2000,0,91.24,0.000002697398,0.000002697398,0.000002697398,0.99999994,0,0,0,0,0,0,1,0,0,0,0,false,false,false,0,-4217.12,17.01,-0.003347471,0.0033528658,0.70708513,0.70711243,0,1101.031,8.321,-0.00071,0,0
140.975,2000,0,91.24,0.000002697398,0.000002697398,0.000002697398,0.99999994,0,0,0,0,0,0,1,1,0,0,0,false,false,true,0,-4207.94,17.01,-0.003347471,0.0033528658,0.70708513,0.70711243,0,1104.9209,8.321,-0.00071,0,0
140.98334,2000,0,91.24,0.000002697398,0.000002697398,0.000002697398,0.99999994,0,0,0,0,0,0,1,1,0,0,0,false,false,true,0,-4198.73,17.01,-0.003347471,0.0033528658,0.70708513,0.70711243,-13.301,1106.4309,8.341001,-0.00071,0.00341,0.36871
140.99167,2000,0,91.24,0.000002697398,0.000002697398,0.000002697398,0.99999994,0,0,0,0,0,0,1,1,0,0,0,false,false,true,-0.11,-4189.51,17.01,-0.0033420762,0.0033582605,0.7081682,0.70602775,-23.700998,1108.3209,8.351,-0.00071,0.00461,0.64581
141,2000,0,91.24,0.000002697398,0.000002697398,0.000002697398,0.99999994,0,0,0,0,0,0,1,1,0,0,0,false,false,true,-0.31,-4180.27,17.01,-0.0033420762,0.0033636554,0.71006703,0.704118,-33.470997,1110.221,8.351,-0.00071,0.00491,0.88531
141.00833,2000,0,91.24,0.000002697398,0.000002697398,0.000002697398,0.99999994,0,0,0,0,0,0,1,1,0,0,0,false,false,true,-0.59,-4171.02,17.01,-0.0033420762,0.00336905,0.7126574,0.7014961,-43.001,1112.0609,8.351,-0.00071,0.00461,1.09341
141.01666,2000,0,91.24,0.000002697398,0.000002697398,0.000002697398,0.99999994,0,0,0,0,0,0,1,1,0,0,0,false,false,true,-0.95,-4161.75,17.01,-0.0033474704,0.0033690496,0.71584487,0.698243,-52.531,1113.8009,8.351,-0.00071,0.00401,1.27531
141.025,2000,0,91.24,0.000002697398,0.000002697398,0.000002697398,0.99999994,0,0,0,0,0,0,1,1,0,0,0,false,false,true,-1.39,-4152.4697,17.01,-0.003352866,0.0033636556,0.7195456,0.6944289,-62.231,1115.381,8.351,-0.00071,0.00331,1.4355099
141.03334,2000,0,91.24,0.000002697398,0.000002697398,0.000002697398,0.99999994,0,0,0,0,0,0,1,1,0,0,0,false,false,true,-1.91,-4143.17,17.01,-0.0033636556,0.003352866,0.7236859,0.69011307,-72.190994,1116.771,8.351,-0.00071,0.00251,1.57761
141.04167,2000,0,91.24,0.000002697398,0.000002697398,0.000002697398,0.99999994,0,0,0,0,0,0,1,1,0,0,0,false,false,true,-2.51,-4133.86,17.01,-0.0033798392,0.0033420757,0.7282089,0.68533856,-82.440994,1117.9409,8.351,-0.00071,0.0018099999,1.70451
141.05,2000,0,91.24,0.000002697398,0.000002697398,0.000002697398,0.99999994,0,0,0,0,0,0,1,1,0,0,0,false,false,true,-3.1999998,-4124.54,17.01,-0.003401419,0.003325892,0.7330585,0.68014884,-92.991,1118.861,8.351,-0.00061,0.00111,1.81871
141.05833,2000,0,91.24,0.000002697398,0.000002697398,0.000002697398,0.99999994,0,0,0,0,0,0,1,1,0,0,0,false,false,true,-3.97,-4115.2197,17.01,-0.0034229981,0.0033043127,0.73818994,0.674576,-103.800995,1119.511,8.351,-0.00051,0.00051,1.92211
141.06667,2000,0,91.24,0.000002697398,0.000002697398,0.000002697398,0.99999994,0,0,0,0,0,0,1,1,0,0,0,false,false,true,-4.8399997,-4105.89,17.01,-0.0034499723,0.0032773386,0.7435695,0.6686416,-114.821,1119.881,8.351,-0.00040999998,0,2.01621
141.075,2000,0,91.24,0.000002697398,0.000002697398,0.000002697398,0.99999994,0,0,0,0,0,0,1,1,0,0,0,false,false,true,-5.7999997,-4096.56,17.01,-0.0034769461,0.0032503647,0.7491591,0.6623729,-125.991,1119.971,8.351,-0.00040999998,-0.00021,2.10221
141.08333,2000,0,91.24,0.000002697398,0.000002697398,0.000002697398,0.99999994,0,0,0,0,0,0,1,1,0,0,0,false,false,true,-6.85,-4087.23,17.01,-0.003509315,0.0032179959,0.7549318,0.65578586,-137.22101,1119.781,8.351,-0.00030999997,-0.00051,2.18101
141.09166,2000,0,91.24,0.000002697398,0.000002697398,0.000002697398,0.99999994,0,0,0,0,0,0,1,1,0,0,0,false,false,true,-7.99,-4077.9,17.01,-0.0035416838,0.003185627,0.7608616,0.6488966,-148.431,1119.3209,8.351,-0.00030999997,-0.00071,2.2534099
141.1,2000,0,91.24,0.000002697398,0.000002697398,0.000002697398,0.99999994,0,0,0,0,0,0,1,1,0,0,0,false,false,true,-9.23,-4068.5698,17.01,-0.0035740524,0.0031532582,0.7669228,0.64172155,-159.531,1118.611,8.351,-0.00021,-0.00081,2.31991
141.10834,2000,0,91.24,0.000002697398,0.000002697398,0.000002697398,0.99999994,0,0,0,0,0,0,1,1,0,0,0,false,false,true,-10.559999,-4059.25,17.01,-0.0036064212,0.0031154947,0.7730913,0.6342767,-170.41101,1117.6909,8.351,-0.00010999999,-0.00091,2.38091
141.11667,2000,0,91.24,0.000002697398,0.000002697398,0.000002697398,0.99999994,0,0,0,0,0,0,1,1,0,0,0,false,false,true,-11.98,-4049.94,17.01,-0.00363879,0.0030777312,0.77934384,0.6265783,-180.961,1116.591,8.351,-0.00010999999,-0.0010099999,2.43681
141.125,2000,0,91.24,0.000002697398,0.000002697398,0.000002697398,0.99999994,0,0,0,0,0,0,1,1,0,0,0,false,false,true,-13.49,-4040.63,17.01,-0.003671159,0.0030399677,0.7856666,0.6186318,-191.071,1115.361,8.351,-0.00010999999,-0.00111,2.48771
141.13333,2000,0,91.24,0.000002697398,0.000002697398,0.000002697398,0.99999994,0,0,0,0,0,0,1,1,0,0,0,false,false,true,-15.08,-4031.3398,17.01,-0.0037089223,0.0029968093,0.7920379,0.6104532,-200.631,1114.0709,8.351,0,-0.0012099999,2.53381
141.14166,2000,0,91.24,0.000002697398,0.000002697398,0.000002697398,0.99999994,0,0,0,0,0,0,1,1,0,0,0,false,false,true,-16.75,-4022.0598,17.01,-0.003746686,0.002953651,0.79843736,0.6020588,-209.511,1112.781,8.351,0,-0.0012099999,2.57511
141.15,2000,0,91.24,0.000002697398,0.000002697398,0.000002697398,0.99999994,0,0,0,0,0,0,1,1,0,0,0,false,false,true,-18.5,-4012.7898,17.01,-0.0037844495,0.0029104925,0.8048496,0.5934595,-217.591,1111.591,8.351,0,-0.0012099999,2.61161
141.15834,2000,0,91.24,0.000002697398,0.000002697398,0.000002697398,0.99999994,0,0,0,0,0,0,1,1,0,0,0,false,false,true,-20.31,-4003.53,17.01,-0.0038222126,0.0028673338,0.81126,0.58466583,-224.751,1110.601,8.341001,0,-0.0012099999,2.6433098
141.16667,2000,0,91.24,0.000002697398,0.000002697398,0.000002697398,0.99999994,0,0,0,0,0,0,1,1,0,0,0,false,false,true,-22.18,-3994.28,17.01,-0.0038599768,0.0028241756,0.81765085,0.5756944,-230.851,1109.9309,8.341001,0.00010999999,-0.0012099999,2.67021
141.175,2000,0,91.24,0.000002697398,0.000002697398,0.000002697398,0.99999994,0,0,0,0,0,0,1,1,0,0,0,false,false,true,-24.1,-3985.03,17.01,-0.0038923454,0.0027756225,0.82400584,0.566561,-235.771,1109.7109,8.331,0.00021,-0.0012099999,2.69211
141.18333,2000,0,91.24,0.000002697398,0.000002697398,0.000002697398,0.99999994,0,0,0,0,0,0,1,1,0,0,0,false,false,true,-26.06,-3975.78,17.01,-0.0039247144,0.0027270697,0.83030957,0.5572819,-240.901,1109.3009,8.331,0.00021,-0.00111,2.71351
141.19167,2000,0,91.24,0.000002697398,0.000002697398,0.000002697398,0.99999994,0,0,0,0,0,0,1,1,0,0,0,false,false,true,-28.07,-3966.5398,17.01,-0.0039570834,0.0026785166,0.8365582,0.54785717,-246.241,1108.6909,8.331,0.00021,-0.00111,2.7346098
141.2,2000,0,91.24,0.000002697398,0.000002697398,0.000002697398,0.99999994,0,0,0,0,0,0,1,1,0,0,0,false,false,true,-30.119999,-3957.2998,17.01,-0.003989452,0.0026299632,0.84274477,0.5382921,-251.771,1107.871,8.331,0.00021,-0.0010099999,2.75531
141.20833,2000,0,91.24,0.000002697398,0.000002697398,0.000002697398,0.99999994,0,0,0,0,0,0,1,1,0,0,0,false,false,true,-32.219997,-3948.0698,17.01,-0.0040218197,0.0025814096,0.84886897,0.5285814,-257.481,1106.841,8.331,0.00021,-0.00091,2.7757099
141.21666,2000,0,91.24,0.000002697398,0.000002697398,0.000002697398,0.99999994,0,0,0,0,0,0,1,1,0,0,0,false,false,true,-34.37,-3938.8499,17.01,-0.004054189,0.0025328568,0.8549244,0.51873046,-263.361,1105.601,8.331,0.00021,-0.00081,2.79581
141.225,2000,0,91.24,0.000002697398,0.000002697398,0.000002697398,0.99999994,0,0,0,0,0,0,1,1,0,0,0,false,false,true,-36.559998,-3929.64,17.01,-0.0040865582,0.002484304,0.8609105,0.5087339,-269.401,1104.141,8.331,0.00021,-0.00071,2.81561
141.23334,2000,0,91.24,0.000002697398,0.000002697398,0.000002697398,0.99999994,0,0,0,0,0,0,1,1,0,0,0,false,false,true,-38.809998,-3920.44,17.01,-0.0041189273,0.0024357506,0.8668206,0.49859712,-275.591,1102.4609,8.331,0.00021,-0.00071,2.83511
141.24167,2000,0,91.24,0.000002697398,0.000002697398,0.000002697398,0.99999994,0,0,0,0,0,0,1,1,0,0,0,false,false,true,-41.11,-3911.25,17.01,-0.0041512954,0.0023871972,0.8726484,0.48832533,-281.921,1100.5609,8.331,0.00030999997,-0.00061,2.85431
141.25,2000,0,91.24,0.000002697398,0.000002697398,0.000002697398,0.99999994,0,0,0,0,0,0,1,1,0,0,0,false,false,true,-43.46,-3902.0798,17.01,-0.0041782693,0.0023332492,0.8783939,0.47791335,-288.371,1098.4409,8.331,0.00030999997,-0.00051,2.8733099
141.25833,2000,0,91.24,0.000002697398,0.000002697398,0.000002697398,0.99999994,0,0,0,0,0,0,1,1,0,0,0,false,false,true,-45.86,-3892.93,17.01,-0.004205243,0.0022793014,0.8840535,0.46736106,-294.941,1096.091,8.331,0.00030999997,-0.00051,2.89201
141.26666,2000,0,91.24,0.000002697398,0.000002697398,0.000002697398,0.99999994,0,0,0,0,0,0,1,1,0,0,0,false,false,true,-48.32,-3883.7998,17.01,-0.0042322176,0.0022253534,0.8896212,0.45667395,-301.611,1093.521,8.331,0.00030999997,-0.00040999998,2.91041
141.275,2000,0,91.24,0.000002697398,0.000002697398,0.000002697398,0.99999994,0,0,0,0,0,0,1,1,0,0,0,false,false,true,-50.829998,-3874.69,17.01,-0.0042591915,0.0021714054,0.8950939,0.44585192,-308.371,1090.721,8.331,0.00030999997,-0.00040999998,2.92851
141.28334,2000,0,91.24,0.000002697398,0.000002697398,0.000002697398,0.99999994,0,0,0,0,0,0,1,1,0,0,0,false,false,true,-53.399998,-3865.5999,17.01,-0.004286166,0.0021174576,0.9004684,0.43489513,-315.211,1087.6909,8.331,0.00030999997,-0.00040999998,2.94641
141.29167,2000,0,91.24,0.000002697398,0.000002697398,0.000002697398,0.99999994,0,0,0,0,0,0,1,1,0,0,0,false,false,true,-56.03,-3856.5398,17.01,-0.0043131392,0.0020635095,0.90573907,0.4238087,-322.121,1084.4409,8.331,0.00021,-0.00030999997,2.96401
141.3,2000,0,91.24,0.000002697398,0.000002697398,0.000002697398,0.99999994,0,0,0,0,0,0,1,1,0,0,0,false,false,true,-58.71,-3847.5,17.01,-0.0043401136,0.0020095618,0.9109029,0.41259295,-329.091,1080.9609,8.331,0.00021,-0.00030999997,2.98131
141.30833,2000,0,91.24,0.000002697398,0.000002697398,0.000002697398,0.99999994,0,0,0,0,0,0,1,1,0,0,0,false,false,true,-61.449997,-3838.49,17.01,-0.0043670875,0.0019556135,0.9159571,0.40124756,-336.111,1077.261,8.331,0.00021,-0.00021,2.99841
141.31667,2000,0,91.24,0.000002697398,0.000002697398,0.000002697398,0.99999994,0,0,0,0,0,0,1,1,0,0,0,false,false,true,-64.25,-3829.51,17.01,-0.0043940614,0.0019016657,0.9208985,0.38977283,-343.181,1073.3309,8.331,0.00021,-0.00021,3.01521
141.325,2000,0,91.24,0.000002697398,0.000002697398,0.000002697398,0.99999994,0,0,0,0,0,0,1,1,0,0,0,false,false,true,-67.11,-3820.5698,17.01,-0.0044156406,0.0018477177,0.9257221,0.37817395,-350.281,1069.1809,8.331,0.00021,-0.00010999999,3.03171
141.33333,2000,0,91.24,0.000002697398,0.000002697398,0.000002697398,0.99999994,0,0,0,0,0,0,1,1,0,0,0,false,false,true,-70.03,-3811.66,17.01,-0.0044372203,0.0017883751,0.930425,0.36645108,-357.401,1064.8209,8.331,0.00021,-0.00010999999,3.0480099
141.34166,2000,0,91.24,0.000002697398,0.000002697398,0.000002697398,0.99999994,0,0,0,0,0,0,1,1,0,0,0,false,false,true,-73.01,-3802.7898,17.01,-0.004458799,0.0017290321,0.9350043,0.354604,-364.531,1060.241,8.331,0.00021,-0.00010999999,3.06401
141.35,2000,0,91.24,0.000002697398,0.000002697398,0.000002697398,0.99999994,0,0,0,0,0,0,1,1,0,0,0,false,false,true,-76.049995,-3793.95,17.01,-0.0044803782,0.0016696894,0.93945515,0.34263834,-371.671,1055.4509,8.331,0.00021,-0.00010999999,3.07981
141.35834,2000,0,91.24,0.000002697398,0.000002697398,0.000002697398,0.99999994,0,0,0,0,0,0,1,1,0,0,0,false,false,true,-79.15,-3785.15,17.01,-0.004501958,0.0016103467,0.94377494,0.33055395,-378.801,1050.4509,8.331,0.00021,-0.00010999999,3.09531
141.36667,2000,0,91.24,0.000002697398,0.000002697398,0.000002697398,0.99999994,0,0,0,0,0,0,1,1,0,0,0,false,false,true,-82.31,-3776.4,17.01,-0.0045235357,0.0015510038,0.94795895,0.31835616,-385.921,1045.251,8.331,0.00021,-0.00010999999,3.1105099
141.375,2000,0,91.24,0.000002697398,0.000002697398,0.000002697398,0.99999994,0,0,0,0,0,0,1,1,0,0,0,false,false,true,-85.53,-3767.69,17.01,-0.004545115,0.001491661,0.9520048,0.30604523,-393.021,1039.851,8.331,0.00021,0,3.12551
141.38333,2000,0,91.24,0.000002697398,0.000002697398,0.000002697398,0.99999994,0,0,0,0,0,0,1,1,0,0,0,false,false,true,-88.81,-3759.02,17.01,-0.0045613,0.0014323184,0.9559099,0.29362094,-400.101,1034.251,8.331,0.00021,0,3.14021
141.39166,2000,0,91.24,0.000002697398,0.000002697398,0.000002697398,0.99999994,0,0,0,0,0,0,1,1,0,0,0,false,false,true,-92.14,-3750.4,17.01,-0.0045774844,0.0013729756,0.95966977,0.28108886,-407.151,1028.4609,8.331,0.00021,0,3.1547098
141.4,2000,0,91.24,0.000002697398,0.000002697398,0.000002697398,0.99999994,0,0,0,0,0,0,1,1,0,0,0,false,false,true,-95.53,-3741.8298,17.01,-0.004593669,0.0013136328,0.96328205,0.26844874,-414.161,1022.48096,8.331,0.00021,0,3.16891
141.40834,2000,0,91.24,0.000002697398,0.000002697398,0.000002697398,0.99999994,0,0,0,0,0,0,1,1,0,0,0,false,false,true,-98.979996,-3733.3098,17.01,-0.0046098535,0.0012542902,0.9667427,0.25570628,-421.131,1016.321,8.331,0.00021,0,3.1828098
141.41667,2000,0,91.24,0.000002697398,0.000002697398,0.000002697398,0.99999994,0,0,0,0,0,0,1,1,0,0,0,false,false,true,-102.49,-3724.8398,17.01,-0.004626037,0.0011895524,0.97004914,0.24286114,-428.051,1009.99097,8.331,0.00021,0,3.1965098
141.425,2000,0,91.24,0.000002697398,0.000002697398,0.000002697398,0.99999994,0,0,0,0,0,0,1,1,0,0,0,false,false,true,-106.06,-3716.42,17.01,-0.004642222,0.001124815,0.973198,0.22991896,-434.911,1003.49097,8.331,0.00021,0,3.20991
141.43333,2000,0,91.24,0.000002697398,0.000002697398,0.000002697398,0.99999994,0,0,0,0,0,0,1,1,0,0,0,false,false,true,-109.68,-3708.0598,17.01,-0.004658406,0.0010600775,0.9761854,0.21688513,-441.711,996.821,8.331,0.00021,0,3.22311
141.44167,2000,0,91.24,0.000002697398,0.000002697398,0.000002697398,0.99999994,0,0,0,0,0,0,1,1,0,0,0,false,false,true,-113.36,-3699.75,17.01,-0.004674591,0.00099534,0.9790104,0.20375413,-448.451,990.001,8.331,0.00021,0,3.2360098
141.45,2000,0,91.24,0.000002697398,0.000002697398,0.000002697398,0.99999994,0,0,0,0,0,0,1,1,0,0,0,false,false,true,-117.1,-3691.5,17.01,-0.0046853805,0.0009306023,0.98166835,0.19053687,-455.131,983.02094,8.331,0.00010999999,0,3.24861
141.45833,2000,0,91.24,0.000002697398,0.000002697398,0.000002697398,0.99999994,0,0,0,0,0,0,1,1,0,0,0,false,false,true,-120.89,-3683.3098,17.01,-0.0046961694,0.0008658647,0.98415715,0.1772332,-461.741,975.90094,8.331,0.00010999999,0,3.26101
141.46666,2000,0,91.24,0.000002697398,0.000002697398,0.000002697398,0.99999994,0,0,0,0,0,0,1,1,0,0,0,false,false,true,-124.74,-3675.18,17.01,-0.00470696,0.0008011273,0.9864748,0.16384326,-468.281,968.6409,8.331,0.00010999999,0,3.27311
141.475,2000,0,91.24,0.000002697398,0.000002697398,0.000002697398,0.99999994,0,0,0,0,0,0,1,1,0,0,0,false,false,true,-128.64,-3667.1099,17.01,-0.0047177486,0.0007363896,0.9886177,0.15037242,-474.751,961.24097,8.331,0,0,3.2850099
141.48334,2000,0,91.24,0.000002697398,0.000002697398,0.000002697398,0.99999994,0,0,0,0,0,0,1,1,0,0,0,false,false,true,-132.59999,-3659.0999,17.01,-0.004728538,0.00067165203,0.9905834,0.13682601,-481.141,953.71094,8.331,0,0,3.2966099
141.49167,2000,0,91.24,0.000002697398,0.000002697398,0.000002697398,0.99999994,0,0,0,0,0,0,1,1,0,0,0,false,false,true,-136.61,-3651.15,17.01,-0.0047393283,0.0006069146,0.9923691,0.12320956,-487.461,946.061,8.331,0,0,3.30791
141.5,2000,0,91.24,0.000002697398,0.000002697398,0.000002697398,0.99999994,0,0,0,0,0,0,1,1,0,0,0,false,false,true,-140.67,-3643.27,17.01,-0.0047447234,0.00054217706,0.9939728,0.10952289,-493.701,938.29095,8.331,0,0.00010999999,3.31901
141.50833,2000,0,91.24,0.000002697398,0.000002697398,0.000002697398,0.99999994,0,0,0,0,0,0,1,1,0,0,0,false,false,true,-144.78,-3635.45,17.01,-0.004750118,0.0004774395,0.9953924,0.09576607,-499.871,930.40094,8.331,0,0.00010999999,3.32981
141.51666,2000,0,91.24,0.000002697398,0.000002697398,0.000002697398,0.99999994,0,0,0,0,0,0,1,1,0,0,0,false,false,true,-148.95,-3627.7,17.01,-0.0047555133,0.00041270192,0.9966254,0.0819446,-505.971,922.40094,8.331,0,0.00010999999,3.3403099
141.525,2000,0,91.24,0.000002697398,0.000002697398,0.000002697398,0.99999994,0,0,0,0,0,0,1,1,0,0,0,false,false,true,-153.17,-3620.01,17.01,-0.0047609075,0.00034796435,0.9976695,0.0680637,-511.991,914.30096,8.331,0,0.00010999999,3.35061
141.53334,2000,0,91.24,0.000002697398,0.000002697398,0.000002697398,0.99999994,0,0,0,0,0,0,1,1,0,0,0,false,false,true,-157.44,-3612.39,17.01,-0.0047663017,0.00028322675,0.9985224,0.054128848,-517.941,906.10095,8.331,0,0.00010999999,3.36061
141.54167,2000,0,91.24,0.000002697398,0.000002697398,0.000002697398,0.99999994,0,0,0,0,0,0,1,1,0,0,0,false,false,true,-161.76,-3604.8398,17.01,-0.004771697,0.00021848925,0.9991826,0.04014015,-523.821,897.80096,8.331,0,0.00010999999,3.3703098
141.55,2000,0,91.24,0.000002697398,0.000002697398,0.000002697398,0.99999994,0,0,0,0,0,0,1,1,0,0,0,false,false,true,-166.12999,-3597.3599,17.01,-0.0047716973,0.0001537517,0.99964786,0.026102807,-529.631,889.41095,8.331,0,0.00021,3.3798099
141.55833,2000,0,91.24,0.000002697398,0.000002697398,0.000002697398,0.99999994,0,0,0,0,0,0,1,1,0,0,0,false,false,true,-170.54,-3589.95,17.01,-0.0047716973,0.000089014145,0.9999163,0.012022388,-535.381,880.93097,8.331,0.00010999999,0.00021,3.38901
141.56667,2000,0,91.24,0.000002697398,0.000002697398,0.000002697398,0.99999994,0,0,0,0,0,0,1,1,0,0,0,false,false,true,-175,-3582.6099,17.01,-0.004771697,0.000018881787,0.99998635,-0.0020958781,-541.071,872.36096,8.331,0.00010999999,0.00021,3.3979099
141.575,2000,0,91.24,0.000002697398,0.000002697398,0.000002697398,0.99999994,0,0,0,0,0,0,1,1,0,0,0,false,false,true,-179.51,-3575.3398,17.01,-0.0047716973,-0.00005125057,0.99985653,-0.016251866,-546.701,863.71094,8.331,0.00010999999,0.00021,3.4065099
141.58333,2000,0,91.24,0.000002697398,0.000002697398,0.000002697398,0.99999994,0,0,0,0,0,0,1,1,0,0,0,false,false,true,-184.06999,-3568.14,17.01,-0.004771697,-0.00012138292,0.9995251,-0.030440263,-552.28094,854.98096,8.331,0.00010999999,0.00021,3.41481
141.59166,2000,0,91.24,0.000002697398,0.000002697398,0.000002697398,0.99999994,0,0,0,0,0,0,1,1,0,0,0,false,false,true,-188.67,-3561.01,17.01,-0.0047663026,-0.00019151528,0.998991,-0.044655595,-557.811,846.16095,8.331,0.00010999999,0.00030999997,3.4228098
141.6,2000,0,91.24,0.000002697398,0.000002697398,0.000002697398,0.99999994,0,0,0,0,0,0,1,1,0,0,0,false,false,true,-193.31999,-3553.96,17.01,-0.0047609075,-0.0002616476,0.9982526,-0.058897898,-563.29095,837.261,8.331,0,0.00030999997,3.43051
141.60834,2000,0,91.24,0.000002697398,0.000002697398,0.000002697398,0.99999994,0,0,0,0,0,0,1,1,0,0,0,false,false,true,-198.01,-3546.98,17.01,-0.004755513,-0.00033177997,0.9973086,-0.07316182,-568.73096,828.28094,8.331,0,0.00030999997,3.4379098
141.61667,2000,0,91.24,0.000002697398,0.000002697398,0.000002697398,0.99999994,0,0,0,0,0,0,1,1,0,0,0,false,false,true,-202.75,-3540.0798,17.01,-0.004750118,-0.00040191234,0.9961582,-0.0874419,-574.131,819.22095,8.331,0,0.00030999997,3.44501
141.625,2000,0,91.24,0.000002697398,0.000002697398,0.000002697398,0.99999994,0,0,0,0,0,0,1,1,0,0,0,false,false,true,-207.53,-3533.25,17.01,-0.004744723,-0.00047204466,0.99480027,-0.101732746,-579.501,810.08093,8.331,0,0.00030999997,3.45171
141.63333,2000,0,91.24,0.000002697398,0.000002697398,0.000002697398,0.99999994,0,0,0,0,0,0,1,1,0,0,0,false,false,true,-212.36,-3526.5,17.01,-0.0047339336,-0.000542177,0.99323434,-0.11602904,-584.84094,800.86096,8.331,0,0.00030999997,3.45801
141.64166,2000,0,91.24,0.000002697398,0.000002697398,0.000002697398,0.99999994,0,0,0,0,0,0,1,1,0,0,0,false,false,true,-217.23,-3519.8298,17.01,-0.0047231438,-0.0006123093,0.9914598,-0.13032529,-590.15094,791.561,8.331,0,0.00030999997,3.46401
141.65,2000,0,91.24,0.000002697398,0.000002697398,0.000002697398,0.99999994,0,0,0,0,0,0,1,1,0,0,0,false,false,true,-222.15,-3513.23,17.01,-0.004712355,-0.00068244175,0.98947555,-0.14462155,-595.43097,782.16095,8.331,-0.00010999999,0.00030999997,3.47011
141.65834,2000,0,91.24,0.000002697398,0.000002697398,0.000002697398,0.99999994,0,0,0,0,0,0,1,1,0,0,0,false,false,true,-227.11,-3506.71,17.01,-0.004701565,-0.0007525741,0.98728114,-0.15891242,-600.59094,772.621,8.331,-0.00021,0.00021,3.47921
141.66667,2000,0,91.24,0.000002697398,0.000002697398,0.000002697398,0.99999994,0,0,0,0,0,0,1,1,0,0,0,false,false,true,-232.11,-3500.27,17.01,-0.004690775,-0.00081731164,0.9848736,-0.1732087,-605.631,762.951,8.331,-0.00030999997,0.00021,3.49121
141.675,2000,0,91.24,0.000002697398,0.000002697398,0.000002697398,0.99999994,0,0,0,0,0,0,1,1,0,0,0,false,false,true,-237.15999,-3493.91,17.01,-0.00467459,-0.00088204903,0.9822499,-0.18751572,-610.55096,753.15094,8.331,-0.00030999997,0.00010999999,3.50611
141.68333,2000,0,91.24,0.000002697398,0.000002697398,0.000002697398,0.99999994,0,0,0,0,0,0,1,1,0,0,0,false,false,true,-242.25,-3487.63,17.01,-0.0046584066,-0.0009467868,0.97940606,-0.20184438,-615.36096,743.22095,8.331,-0.00030999997,0,3.52381
141.69167,2000,0,91.24,0.000002697398,0.000002697398,0.000002697398,0.99999994,0,0,0,0,0,0,1,1,0,0,0,false,false,true,-247.37999,-3481.44,17.01,-0.0046422216,-0.0010115241,0.9763374,-0.21619996,-620.061,733.17096,8.331,-0.00030999997,0,3.5443099
141.7,2000,0,91.24,0.000002697398,0.000002697398,0.000002697398,0.99999994,0,0,0,0,0,0,1,1,0,0,0,false,false,true,-252.54999,-3475.3298,17.01,-0.0046260376,-0.0010762617,0.97303855,-0.23059335,-624.65094,723.001,8.331,-0.00030999997,0,3.56761
141.70833,2000,0,91.24,0.000002697398,0.000002697398,0.000002697398,0.99999994,0,0,0,0,0,0,1,1,0,0,0,false,false,true,-257.75998,-3469.2998,17.01,-0.0046098535,-0.0011409995,0.9695039,-0.24502988,-629.131,712.71094,8.331,-0.00021,0,3.59371
141.71666,2000,0,91.24,0.000002697398,0.000002697398,0.000002697398,0.99999994,0,0,0,0,0,0,1,1,0,0,0,false,false,true,-263,-3463.3599,17.01,-0.004593669,-0.0012111317,0.9657259,-0.25952032,-633.501,702.30096,8.331,-0.00021,0,3.62251
141.725,2000,0,91.24,0.000002697398,0.000002697398,0.000002697398,0.99999994,0,0,0,0,0,0,1,1,0,0,0,false,false,true,-268.28,-3457.51,17.01,-0.00457209,-0.0012812641,0.9616995,-0.2740648,-637.751,691.761,8.331,-0.00021,0,3.65431
141.73334,2000,0,91.24,0.000002697398,0.000002697398,0.000002697398,0.99999994,0,0,0,0,0,0,1,1,0,0,0,false,false,true,-273.59,-3451.74,17.01,-0.0045505106,-0.0013513964,0.95741564,-0.28867394,-641.761,681.071,8.331,-0.00021,-0.00010999999,3.69031
141.74167,2000,0,91.24,0.000002697398,0.000002697398,0.000002697398,0.99999994,0,0,0,0,0,0,1,1,0,0,0,false,false,true,-278.94,-3446.0598,17.01,-0.0045289313,-0.0014215288,0.9528646,-0.3033586,-645.53094,670.24097,8.331,-0.00021,-0.00021,3.7304099
141.75,2000,0,91.24,0.000002697398,0.000002697398,0.000002697398,0.99999994,0,0,0,0,0,0,1,1,0,0,0,false,false,true,-284.32,-3440.47,17.01,-0.0045073517,-0.001491661,0.9480352,-0.31812963,-649.071,659.28094,8.331,-0.00030999997,-0.00030999997,3.77451
141.75833,2000,0,91.24,0.000002697398,0.000002697398,0.000002697398,0.99999994,0,0,0,0,0,0,1,1,0,0,0,false,false,true,-289.72998,-3434.98,17.01,-0.004485773,-0.0015617935,0.94291556,-0.33299774,-652.381,648.191,8.331,-0.00030999997,-0.00040999998,3.82261
141.76666,2000,0,91.24,0.000002697398,0.000002697398,0.000002697398,0.99999994,0,0,0,0,0,0,1,1,0,0,0,false,false,true,-295.16998,-3429.5798,17.01,-0.0044587995,-0.0016319259,0.9374922,-0.34797376,-655.40094,636.951,8.331,-0.00030999997,-0.00040999998,3.8738098
141.775,2000,0,91.24,0.000002697398,0.000002697398,0.000002697398,0.99999994,0,0,0,0,0,0,1,1,0,0,0,false,false,true,-300.63,-3424.27,17.01,-0.004431825,-0.0017020582,0.9317545,-0.3630577,-658.04095,625.52094,8.331,-0.00030999997,-0.00051,3.92661
141.78334,2000,0,91.24,0.000002697398,0.000002697398,0.000002697398,0.99999994,0,0,0,0,0,0,1,1,0,0,0,false,false,true,-306.11,-3419.0598,17.01,-0.0044048512,-0.0017721907,0.9256893,-0.3782549,-660.30096,613.92096,8.331,-0.00030999997,-0.00051,3.98101
141.79167,2000,0,91.24,0.000002697398,0.000002697398,0.000002697398,0.99999994,0,0,0,0,0,0,1,1,0,0,0,false,false,true,-311.61,-3413.94,17.01,-0.0043778773,-0.001842323,0.91928893,-0.39355463,-662.18097,602.16095,8.331,-0.00030999997,-0.00051,4.0370097
141.8,2000,0,91.24,0.000002697398,0.000002697398,0.000002697398,0.99999994,0,0,0,0,0,0,1,1,0,0,0,false,false,true,-317.13,-3408.92,17.01,-0.0043455083,-0.0019124552,0.91253895,-0.40896216,-663.621,590.371,8.331,-0.00021,-0.00051,4.09361
141.80833,2000,0,91.24,0.000002697398,0.000002697398,0.000002697398,0.99999994,0,0,0,0,0,0,1,1,0,0,0,false,false,true,-322.66,-3404,17.01,-0.0043131392,-0.0019825874,0.905431,-0.42446685,-664.571,578.701,8.331,-0.00010999999,-0.00051,4.1497097
141.81667,2000,0,91.24,0.000002697398,0.000002697398,0.000002697398,0.99999994,0,0,0,0,0,0,1,1,0,0,0,false,false,true,-328.19998,-3399.18,17.01,-0.00428077,-0.0020581144,0.89795667,-0.44005784,-665.04095,567.18097,8.331,0,-0.00051,4.20511
141.825,2000,0,91.24,0.000002697398,0.000002697398,0.000002697398,0.99999994,0,0,0,0,0,0,1,1,0,0,0,false,false,true,-333.74,-3394.45,17.01,-0.004248402,-0.002133642,0.89010817,-0.45572448,-665.061,555.831,8.331,0,-0.00040999998,4.25981
141.83333,2000,0,91.24,0.000002697398,0.000002697398,0.000002697398,0.99999994,0,0,0,0,0,0,1,1,0,0,0,false,false,true,-339.28,-3389.8198,17.01,-0.0042106383,-0.0022091689,0.88187975,-0.4714503,-664.641,544.67096,8.331,0,-0.00030999997,4.31391
141.84166,2000,0,91.24,0.000002697398,0.000002697398,0.000002697398,0.99999994,0,0,0,0,0,0,1,1,0,0,0,false,false,true,-344.82,-3385.28,17.01,-0.0041728746,-0.002284696,0.87326354,-0.4872248,-663.80096,533.73096,8.331,0,-0.00030999997,4.36731
141.85,2000,0,91.24,0.000002697398,0.000002697398,0.000002697398,0.99999994,0,0,0,0,0,0,1,1,0,0,0,false,false,true,-350.35,-3380.8298,17.01,-0.004129716,-0.0023602233,0.86425483,-0.5030316,-662.561,523.02094,8.331,0,-0.00021,4.4201097
141.85834,2000,0,91.24,0.000002697398,0.000002697398,0.000002697398,0.99999994,0,0,0,0,0,0,1,1,0,0,0,false,false,true,-355.87,-3376.47,17.01,-0.0040865573,-0.00243575,0.8548458,-0.5188599,-660.941,512.561,8.331,0.00010999999,-0.00021,4.47221
141.86667,2000,0,91.24,0.000002697398,0.000002697398,0.000002697398,0.99999994,0,0,0,0,0,0,1,1,0,0,0,false,false,true,-361.38,-3372.2,17.01,-0.0040433994,-0.0025112776,0.845029,-0.53469914,-658.871,502.361,8.331,0.00021,-0.00010999999,4.52141
141.875,2000,0,91.24,0.000002697398,0.000002697398,0.000002697398,0.99999994,0,0,0,0,0,0,1,1,0,0,0,false,false,true,-366.87,-3368.01,17.01,-0.0039948467,-0.002586805,0.8348069,-0.5505222,-656.311,492.431,8.331,0.00021,0,4.56621
141.88333,2000,0,91.24,0.000002697398,0.000002697398,0.000002697398,0.99999994,0,0,0,0,0,0,1,1,0,0,0,false,false,true,-372.34,-3363.91,17.01,-0.003946293,-0.0026623318,0.824184,-0.566302,-653.29095,482.791,8.331,0.00030999997,0,4.60661
141.89166,2000,0,91.24,0.000002697398,0.000002697398,0.000002697398,0.99999994,0,0,0,0,0,0,1,1,0,0,0,false,false,true,-377.78,-3359.89,17.01,-0.0038977403,-0.002737859,0.81316245,-0.5820171,-649.84094,473.471,8.331,0.00030999997,0,4.64261
141.9,2000,0,91.24,0.000002697398,0.000002697398,0.000002697398,0.99999994,0,0,0,0,0,0,1,1,0,0,0,false,false,true,-383.19998,-3355.94,17.01,-0.0038437925,-0.0028133865,0.801754,-0.59763515,-645.99097,464.481,8.331,0.00030999997,0.00010999999,4.67421
141.90834,2000,0,91.24,0.000002697398,0.000002697398,0.000002697398,0.99999994,0,0,0,0,0,0,1,1,0,0,0,false,false,true,-388.58,-3352.0698,17.01,-0.0037898442,-0.0028889133,0.78996414,-0.6131344,-641.77094,455.841,8.331,0.00030999997,0.00021,4.70141
141.91667,2000,0,91.24,0.000002697398,0.000002697398,0.000002697398,0.99999994,0,0,0,0,0,0,1,1,0,0,0,false,false,true,-393.93,-3348.27,17.01,-0.0037305015,-0.0029644405,0.77780455,-0.62848806,-637.22095,447.57098,8.331,0.00030999997,0.00030999997,4.72421
141.925,2000,0,91.24,0.000002697398,0.000002697398,0.000002697398,0.99999994,0,0,0,0,0,0,1,1,0,0,0,false,false,true,-399.24,-3344.54,17.01,-0.0036711588,-0.0030399675,0.7652845,-0.64367443,-632.381,439.671,8.331,0.00030999997,0.00040999998,4.74261
141.93333,2000,0,91.24,0.000002697398,0.000002697398,0.000002697398,0.99999994,0,0,0,0,0,0,1,1,0,0,0,false,false,true,-404.50998,-3340.88,17.01,-0.003611816,-0.0031154947,0.75241494,-0.65867203,-627.29095,432.151,8.331,0.00030999997,0.00051,4.75671
141.94167,2000,0,91.24,0.000002697398,0.000002697398,0.000002697398,0.99999994,0,0,0,0,0,0,1,1,0,0,0,false,false,true,-409.74,-3337.28,17.01,-0.0035470787,-0.0031910222,0.73921376,-0.6734539,-621.98096,425.021,8.331,0.00030999997,0.00061,4.76641
141.95,2000,0,91.24,0.000002697398,0.000002697398,0.000002697398,0.99999994,0,0,0,0,0,0,1,1,0,0,0,false,false,true,-414.91998,-3333.74,17.01,-0.0034823408,-0.0032611543,0.7256966,-0.68799824,-616.49097,418.271,8.331,0.00030999997,0.00061,4.77181
141.95833,2000,0,91.24,0.000002697398,0.000002697398,0.000002697398,0.99999994,0,0,0,0,0,0,1,1,0,0,0,false,false,true,-420.06,-3330.25,17.01,-0.0034176034,-0.0033312866,0.7118757,-0.70228916,-610.86096,411.901,8.331,0.00030999997,0.00071,4.77291
141.96666,2000,0,91.24,0.000002697398,0.000002697398,0.000002697398,0.99999994,0,0,0,0,0,0,1,1,0,0,0,false,false,true,-425.15,-3326.8198,17.01,0.003347471,0.003401419,-0.6977683,0.7163075,-605.131,405.901,8.331,0.00021,0.00081,4.76971
141.975,2000,0,91.24,0.000002697398,0.000002697398,0.000002697398,0.99999994,0,0,0,0,0,0,1,1,0,0,0,false,false,true,-430.19,-3323.44,17.01,0.0032773386,0.0034715512,-0.6833965,0.73003167,-599.34094,400.261,8.331,0.00021,0.00081,4.7621098
141.98334,2000,0,91.24,0.000002697398,0.000002697398,0.000002697398,0.99999994,0,0,0,0,0,0,1,1,0,0,0,false,false,true,-435.18,-3320.0999,17.01,0.0032072063,0.0035416838,-0.6687765,0.743448,-593.52094,394.971,8.331,0.00021,0.00081,4.75021
141.99167,2000,0,91.24,0.000002697398,0.000002697398,0.000002697398,0.99999994,0,0,0,0,0,0,1,1,0,0,0,false,false,true,-440.13,-3316.8098,17.01,0.0031370737,0.0036064207,-0.65392995,0.7565398,-587.701,390.011,8.321,0.00010999999,0.00081,4.7340097
142,2000,0,91.24,0.000002697398,0.000002697398,0.000002697398,0.99999994,0,0,0,0,0,0,1,1,0,0,0,false,false,true,-445.03,-3313.5598,17.01,0.0030615465,0.0036711583,-0.6388784,0.7692927,-581.92096,385.361,8.321,0,0.00091,4.71341
142.00833,2000,0,91.24,0.000002697398,0.000002697398,0.000002697398,0.99999994,0,0,0,0,0,0,1,1,0,0,0,false,false,true,-449.88,-3310.3499,17.01,0.00298602,0.0037358967,-0.62364894,0.7816899,-576.201,381.001,8.321,0,0.00091,4.68841
142.01666,2000,0,91.24,0.000002697398,0.000002697398,0.000002697398,0.99999994,0,0,0,0,0,0,1,1,0,0,0,false,false,true,-454.68,-3307.17,17.01,0.0029104925,0.0037952391,-0.6082629,0.79372114,-570.581,376.901,8.321,0,0.00091,4.65901
142.025,2000,0,91.24,0.000002697398,0.000002697398,0.000002697398,0.99999994,0,0,0,0,0,0,1,1,0,0,0,false,false,true,-459.43,-3304.03,17.01,0.0028349652,0.0038545819,-0.592742,0.8053781,-565.061,373.031,8.321,0,0.00091,4.62501
142.03334,2000,0,91.24,0.000002697398,0.000002697398,0.000002697398,0.99999994,0,0,0,0,0,0,1,1,0,0,0,false,false,true,-464.13998,-3300.92,17.01,0.0027594385,0.003913925,-0.5771133,0.81665003,-559.641,369.331,8.321,0,0.00091,4.5865097
142.04167,2000,0,91.24,0.000002697398,0.000002697398,0.000002697398,0.99999994,0,0,0,0,0,0,1,1,0,0,0,false,false,true,-468.8,-3297.8398,17.01,0.002683911,0.0039678724,-0.5614035,0.82752824,-554.331,365.781,8.311,-0.00010999999,0.00091,4.5437098
142.05,2000,0,91.24,0.000002697398,0.000002697398,0.000002697398,0.99999994,0,0,0,0,0,0,1,1,0,0,0,false,false,true,-473.41998,-3294.79,17.01,0.002608384,0.0040218206,-0.5456345,0.83800954,-549.121,362.341,8.311,-0.00021,0.00091,4.49761
142.05833,2000,0,91.24,0.000002697398,0.000002697398,0.000002697398,0.99999994,0,0,0,0,0,0,1,1,0,0,0,false,false,true,-478,-3291.77,17.01,0.0025274619,0.0040703737,-0.529833,0.8480884,-543.96094,358.971,8.311,-0.00030999997,0.00091,4.44971
142.06667,2000,0,91.24,0.000002697398,0.000002697398,0.000002697398,0.99999994,0,0,0,0,0,0,1,1,0,0,0,false,false,true,-482.53,-3288.78,17.01,0.00244654,0.004118927,-0.5140208,0.85776424,-538.86096,355.661,8.311,-0.00040999998,0.00081,4.40051
142.075,2000,0,91.24,0.000002697398,0.000002697398,0.000002697398,0.99999994,0,0,0,0,0,0,1,1,0,0,0,false,false,true,-487.02,-3285.8198,17.01,0.002365618,0.00416748,-0.49820864,0.86704385,-533.80096,352.401,8.311,-0.00040999998,0.00071,4.3502097
142.08333,2000,0,91.24,0.000002697398,0.000002697398,0.000002697398,0.99999994,0,0,0,0,0,0,1,1,0,0,0,false,false,true,-491.47,-3282.88,17.01,0.002284696,0.0042106383,-0.48241264,0.8759309,-528.79095,349.191,8.311,-0.00040999998,0.00061,4.29921
142.09166,2000,0,91.24,0.000002697398,0.000002697398,0.000002697398,0.99999994,0,0,0,0,0,0,1,1,0,0,0,false,false,true,-495.87997,-3279.97,17.01,0.0022037742,0.004253797,-0.46664354,0.88443244,-523.821,346.021,8.311,-0.00040999998,0.00051,4.2477098
142.1,2000,0,91.24,0.000002697398,0.000002697398,0.000002697398,0.99999994,0,0,0,0,0,0,1,1,0,0,0,false,false,true,-500.25,-3277.0898,17.01,0.002128247,0.00429156,-0.45091766,0.8925526,-518.891,342.891,8.311,-0.00040999998,0.00040999998,4.19611
142.10834,2000,0,91.24,0.000002697398,0.000002697398,0.000002697398,0.99999994,0,0,0,0,0,0,1,1,0,0,0,false,false,true,-504.56998,-3274.23,17.01,0.0020527197,0.0043293233,-0.4352457,0.9002988,-513.99097,339.791,8.311,-0.00040999998,0.00030999997,4.14451
142.11667,2000,0,91.24,0.000002697398,0.000002697398,0.000002697398,0.99999994,0,0,0,0,0,0,1,1,0,0,0,false,false,true,-508.84998,-3271.4,17.01,0.001977193,0.004367088,-0.41963315,0.9076811,-509.111,336.711,8.311,-0.00051,0.00021,4.09331
142.125,2000,0,91.24,0.000002697398,0.000002697398,0.000002697398,0.99999994,0,0,0,0,0,0,1,1,0,0,0,false,false,true,-513.08997,-3268.5898,17.01,0.0019016658,0.0043994565,-0.40409067,0.91470635,-504.251,333.651,8.311,-0.00051,0.00010999999,4.0426097
142.13333,2000,0,91.24,0.000002697398,0.000002697398,0.000002697398,0.99999994,0,0,0,0,0,0,1,1,0,0,0,false,false,true,-517.29,-3265.8098,17.01,0.0018261386,0.004431825,-0.38862914,0.9213818,-499.401,330.611,8.301001,-0.00051,0,3.9927099
142.14166,2000,0,91.24,0.000002697398,0.000002697398,0.000002697398,0.99999994,0,0,0,0,0,0,1,1,0,0,0,false,false,true,-521.45,-3263.05,17.01,0.0017506115,0.0044587995,-0.37324852,0.927719,-494.561,327.581,8.301001,-0.00051,0,3.94381
142.15,2000,0,91.24,0.000002697398,0.000002697398,0.000002697398,0.99999994,0,0,0,0,0,0,1,1,0,0,0,false,false,true,-525.57,-3260.3198,17.01,0.0016750842,0.004485773,-0.35795417,0.9337268,-489.721,324.561,8.301001,-0.00051,0,3.8961098
142.15834,2000,0,91.24,0.000002697398,0.000002697398,0.000002697398,0.99999994,0,0,0,0,0,0,1,1,0,0,0,false,false,true,-529.64996,-3257.6199,17.01,0.001599557,0.004512747,-0.3427516,0.9394138,-484.871,321.551,8.301001,-0.00051,0,3.84981
142.16667,2000,0,91.24,0.000002697398,0.000002697398,0.000002697398,0.99999994,0,0,0,0,0,0,1,1,0,0,0,false,false,true,-533.69,-3254.94,17.01,0.0015240299,0.0045397207,-0.3276407,0.9447902,-480.011,318.551,8.301001,-0.00051,-0.00010999999,3.8050098
142.175,2000,0,91.24,0.000002697398,0.000002697398,0.000002697398,0.99999994,0,0,0,0,0,0,1,1,0,0,0,false,false,true,-537.69,-3252.29,17.01,0.0014485028,0.0045613,-0.3126215,0.94986564,-475.13098,315.551,8.301001,-0.00040999998,-0.00021,3.76191
142.18333,2000,0,91.24,0.000002697398,0.000002697398,0.000002697398,0.99999994,0,0,0,0,0,0,1,1,0,0,0,false,false,true,-541.64996,-3249.66,17.01,0.0013729756,0.004582879,-0.2976941,0.95464927,-470.221,312.561,8.301001,-0.00030999997,-0.00030999997,3.7207098
142.19167,2000,0,91.24,0.000002697398,0.000002697398,0.000002697398,0.99999994,0,0,0,0,0,0,1,1,0,0,0,false,false,true,-545.57,-3247.0598,17.01,0.0013028432,0.0046044583,-0.28285834,0.9591497,-465.281,309.581,8.301001,-0.00021,-0.00030999997,3.6816099
142.2,2000,0,91.24,0.000002697398,0.000002697398,0.000002697398,0.99999994,0,0,0,0,0,0,1,1,0,0,0,false,false,true,-549.45,-3244.48,17.01,0.0012327109,0.004620643,-0.26811427,0.9633752,-460.301,306.611,8.301001,-0.00021,-0.00040999998,3.64461
142.20833,2000,0,91.24,0.000002697398,0.000002697398,0.000002697398,0.99999994,0,0,0,0,0,0,1,1,0,0,0,false,false,true,-553.29,-3241.92,17.01,0.0011625787,0.0046368274,-0.2534566,0.9673349,-455.281,303.651,8.301001,-0.00010999999,-0.00040999998,3.61001
142.21666,2000,0,91.24,0.000002697398,0.000002697398,0.000002697398,0.99999994,0,0,0,0,0,0,1,1,0,0,0,false,false,true,-557.08,-3239.39,17.01,0.0010924462,0.0046530114,-0.2388798,0.9710373,-450.221,300.701,8.301001,0,-0.00051,3.5778098
142.225,2000,0,91.24,0.000002697398,0.000002697398,0.000002697398,0.99999994,0,0,0,0,0,0,1,1,0,0,0,false,false,true,-560.83,-3236.88,17.01,0.0010223138,0.004669196,-0.22437851,0.9744903,-445.111,297.771,8.301001,0,-0.00051,3.54821
142.23334,2000,0,91.24,0.000002697398,0.000002697398,0.000002697398,0.99999994,0,0,0,0,0,0,1,1,0,0,0,false,false,true,-564.54,-3234.4,17.01,0.0009521816,0.004679986,-0.20994739,0.977701,-439.941,294.861,8.301001,0,-0.00061,3.5213099
142.24167,2000,0,91.24,0.000002697398,0.000002697398,0.000002697398,0.99999994,0,0,0,0,0,0,1,1,0,0,0,false,false,true,-568.20996,-3231.94,17.01,0.00088204915,0.004690775,-0.195581,0.9806759,-434.721,291.971,8.301001,0,-0.00061,3.49731
142.25,2000,0,91.24,0.000002697398,0.000002697398,0.000002697398,0.99999994,0,0,0,0,0,0,1,1,0,0,0,false,false,true,-571.83,-3229.51,17.01,0.0008119168,0.004701564,-0.1812685,0.9834219,-429.441,289.111,8.301001,0.00010999999,-0.00061,3.47631
142.25833,2000,0,91.24,0.000002697398,0.000002697398,0.000002697398,0.99999994,0,0,0,0,0,0,1,1,0,0,0,false,false,true,-575.41,-3227.0999,17.01,0.00074717926,0.0047123544,-0.16700463,0.9859445,-424.091,286.281,8.301001,0.00021,-0.00061,3.45851
142.26666,2000,0,91.24,0.000002697398,0.000002697398,0.000002697398,0.99999994,0,0,0,0,0,0,1,1,0,0,0,false,false,true,-578.94,-3224.71,17.01,0.0006824417,0.004717749,-0.15277852,0.9882489,-418.57098,283.461,8.301001,0.00021,-0.00061,3.4442098
142.275,2000,0,91.24,0.000002697398,0.000002697398,0.000002697398,0.99999994,0,0,0,0,0,0,1,1,0,0,0,false,false,true,-582.43,-3222.3499,17.01,0.0006177041,0.0047231438,-0.13857937,0.9903398,-412.871,280.681,8.301001,0.00030999997,-0.00061,3.43321
142.28334,2000,0,91.24,0.000002697398,0.000002697398,0.000002697398,0.99999994,0,0,0,0,0,0,1,1,0,0,0,false,false,true,-585.87,-3220.01,17.01,0.0005529666,0.0047285384,-0.12439637,0.9922211,-406.991,277.961,8.301001,0.00030999997,-0.00061,3.42541
142.29167,2000,0,91.24,0.000002697398,0.000002697398,0.000002697398,0.99999994,0,0,0,0,0,0,1,1,0,0,0,false,false,true,-589.26,-3217.69,17.01,0.00048822907,0.0047339336,-0.1102242,0.9938953,-400.921,275.331,8.301001,0.00030999997,-0.00051,3.4207098
142.3,2000,0,91.24,0.000002697398,0.000002697398,0.000002697398,0.99999994,0,0,0,0,0,0,1,1,0,0,0,false,false,true,-592.6,-3215.4,17.01,0.00042349152,0.0047393288,-0.09604664,0.99536544,-394.661,272.801,8.301001,0.00030999997,-0.00040999998,3.41921
142.30833,2000,0,91.24,0.000002697398,0.000002697398,0.000002697398,0.99999994,0,0,0,0,0,0,1,1,0,0,0,false,false,true,-595.89,-3213.13,17.01,0.00035875392,0.004744723,-0.08185823,0.9966326,-388.201,270.401,8.301001,0.00040999998,-0.00040999998,3.42091
142.31667,2000,0,91.24,0.000002697398,0.000002697398,0.000002697398,0.99999994,0,0,0,0,0,0,1,1,0,0,0,false,false,true,-599.12,-3210.88,17.01,0.00029401638,0.0047501177,-0.067642905,0.9976982,-381.541,268.151,8.301001,0.00040999998,-0.00040999998,3.42571
142.325,2000,0,91.24,0.000002697398,0.000002697398,0.000002697398,0.99999994,0,0,0,0,0,0,1,1,0,0,0,false,false,true,-602.3,-3208.65,17.01,0.00022927886,0.004750118,-0.053395208,0.9985621,-374.691,266.071,8.301001,0.00040999998,-0.00040999998,3.4337099
142.33333,2000,0,91.24,0.000002697398,0.000002697398,0.000002697398,0.99999994,0,0,0,0,0,0,1,1,0,0,0,false,false,true,-605.42,-3206.43,17.01,0.00016454128,0.0047501177,-0.039104346,0.99922377,-367.641,264.191,8.301001,0.00040999998,-0.00040999998,3.44501
142.34166,2000,0,91.24,0.000002697398,0.000002697398,0.000002697398,0.99999994,0,0,0,0,0,0,1,1,0,0,0,false,false,true,-608.48,-3204.23,17.01,0.00009980373,0.0047501177,-0.024759501,0.99968207,-360.391,262.531,8.301001,0.00040999998,-0.00030999997,3.45971
142.35,2000,0,91.24,0.000002697398,0.000002697398,0.000002697398,0.99999994,0,0,0,0,0,0,1,1,0,0,0,false,false,true,-611.48,-3202.04,17.01,0.000035066172,0.0047501177,-0.010344564,0.99993515,-352.951,261.111,8.301001,0.00040999998,-0.00030999997,3.47781
142.35834,2000,0,91.24,0.000002697398,0.000002697398,0.000002697398,0.99999994,0,0,0,0,0,0,1,1,0,0,0,false,false,true,-614.42,-3199.8599,17.01,-0.00002967138,0.004750118,0.004145901,0.9999801,-345.321,259.961,8.301001,0.00040999998,-0.00030999997,3.49941
142.36667,2000,0,91.24,0.000002697398,0.000002697398,0.000002697398,0.99999994,0,0,0,0,0,0,1,1,0,0,0,false,false,true,-617.3,-3197.69,17.01,-0.00009980373,0.0047501177,0.018728118,0.99981326,-337.501,259.111,8.301001,0.00040999998,-0.00030999997,3.52471
142.375,2000,0,91.24,0.000002697398,0.000002697398,0.000002697398,0.99999994,0,0,0,0,0,0,1,1,0,0,0,false,false,true,-620.11,-3195.53,17.01,-0.00016993607,0.004744723,0.033407442,0.9994305,-329.501,258.591,8.301001,0.00051,-0.00030999997,3.55391
142.38333,2000,0,91.24,0.000002697398,0.000002697398,0.000002697398,0.99999994,0,0,0,0,0,0,1,1,0,0,0,false,false,true,-622.86,-3193.3699,17.01,-0.00024006845,0.0047393288,0.048205372,0.99882615,-321.321,258.421,8.301001,0.00061,-0.00021,3.5871098
142.39166,2000,0,91.24,0.000002697398,0.000002697398,0.000002697398,0.99999994,0,0,0,0,0,0,1,1,0,0,0,false,false,true,-625.54,-3191.22,17.01,-0.0003102008,0.004733934,0.063127466,0.9979942,-312.981,258.641,8.301001,0.00061,-0.00021,3.62461
142.4,2000,0,91.24,0.000002697398,0.000002697398,0.000002697398,0.99999994,0,0,0,0,0,0,1,1,0,0,0,false,false,true,-628.14996,-3189.0598,17.01,-0.00038033313,0.0047285384,0.07818981,0.99692714,-304.481,259.281,8.301001,0.00071,-0.00010999999,3.66671
142.40834,2000,0,91.24,0.000002697398,0.000002697398,0.000002697398,0.99999994,0,0,0,0,0,0,1,1,0,0,0,false,false,true,-630.69,-3186.9,17.01,-0.0004504655,0.004723144,0.09340854,0.99561656,-295.841,260.231,8.301001,0.00071,-0.00010999999,3.70961
142.41667,2000,0,91.24,0.000002697398,0.000002697398,0.000002697398,0.99999994,0,0,0,0,0,0,1,1,0,0,0,false,false,true,-633.16,-3184.73,17.01,-0.00052059785,0.004712355,0.1087838,0.9940541,-287.051,261.491,8.301001,0.00071,-0.00010999999,3.7520099
142.425,2000,0,91.24,0.000002697398,0.000002697398,0.000002697398,0.99999994,0,0,0,0,0,0,1,1,0,0,0,false,false,true,-635.55,-3182.55,17.01,-0.0005907302,0.004701565,0.124310106,0.9922321,-278.121,263.081,8.301001,0.00071,0,3.79421
142.43333,2000,0,91.24,0.000002697398,0.000002697398,0.000002697398,0.99999994,0,0,0,0,0,0,1,1,0,0,0,false,false,true,-637.87,-3180.3599,17.01,-0.0006608626,0.0046907756,0.13998199,0.9901427,-269.061,265.051,8.301001,0.00071,0,3.83631
142.44167,2000,0,91.24,0.000002697398,0.000002697398,0.000002697398,0.99999994,0,0,0,0,0,0,1,1,0,0,0,false,false,true,-640.11,-3178.15,17.01,-0.00073099486,0.0046799853,0.15578881,0.98777896,-259.881,267.431,8.301001,0.00061,0,3.87851
142.45,2000,0,91.24,0.000002697398,0.000002697398,0.000002697398,0.99999994,0,0,0,0,0,0,1,1,0,0,0,false,false,true,-642.27997,-3175.92,17.01,-0.00080652203,0.004669196,0.17173052,0.9851325,-250.58101,270.261,8.301001,0.00051,0,3.92101
142.45833,2000,0,91.24,0.000002697398,0.000002697398,0.000002697398,0.99999994,0,0,0,0,0,0,1,1,0,0,0,false,false,true,-644.37,-3173.67,17.01,-0.00088204915,0.0046530114,0.18780161,0.9821955,-241.171,273.591,8.301001,0.00040999998,0.00010999999,3.96401
142.46666,2000,0,91.24,0.000002697398,0.000002697398,0.000002697398,0.99999994,0,0,0,0,0,0,1,1,0,0,0,false,false,true,-646.38,-3171.39,17.01,-0.0009575763,0.004636827,0.20399688,0.97896004,-231.661,277.471,8.301001,0.00040999998,0.00021,4.00781
142.475,2000,0,91.24,0.000002697398,0.000002697398,0.000002697398,0.99999994,0,0,0,0,0,0,1,1,0,0,0,false,false,true,-648.31,-3169.0798,17.01,-0.0010331034,0.004620643,0.22031623,0.97541696,-222.211,281.671,8.301001,0.00040999998,0.00021,4.0507097
142.48334,2000,0,91.24,0.000002697398,0.000002697398,0.000002697398,0.99999994,0,0,0,0,0,0,1,1,0,0,0,false,false,true,-650.16,-3166.73,17.01,-0.0011086306,0.0046044583,0.23674886,0.9715593,-212.821,286.101,8.301001,0.00040999998,0.00021,4.09051
142.49167,2000,0,91.24,0.000002697398,0.000002697398,0.000002697398,0.99999994,0,0,0,0,0,0,1,1,0,0,0,false,false,true,-651.93,-3164.3499,17.01,-0.0011841577,0.004582879,0.2532731,0.96738315,-203.491,290.79102,8.301001,0.00040999998,0.00021,4.12741
142.5,2000,0,91.24,0.000002697398,0.000002697398,0.000002697398,0.99999994,0,0,0,0,0,0,1,1,0,0,0,false,false,true,-653.63,-3161.93,17.01,-0.0012596849,0.0045613,0.269873,0.96288425,-194.231,295.781,8.301001,0.00030999997,0.00030999997,4.16141
142.50833,2000,0,91.24,0.000002697398,0.000002697398,0.000002697398,0.99999994,0,0,0,0,0,0,1,1,0,0,0,false,false,true,-655.25,-3159.46,17.01,-0.0013352121,0.004539721,0.28652683,0.9580605,-185.05101,301.091,8.301001,0.00030999997,0.00040999998,4.19251
142.51666,2000,0,91.24,0.000002697398,0.000002697398,0.000002697398,0.99999994,0,0,0,0,0,0,1,1,0,0,0,false,false,true,-656.79,-3156.95,17.01,-0.0014107391,0.0045181415,0.3032184,0.9529093,-176.16101,306.521,8.301001,0.00021,0.00040999998,4.2185097
142.525,2000,0,91.24,0.000002697398,0.000002697398,0.000002697398,0.99999994,0,0,0,0,0,0,1,1,0,0,0,false,false,true,-658.26,-3154.4,17.01,-0.0014862665,0.0044965628,0.31992072,0.94743246,-167.55101,312.091,8.301001,0.00010999999,0.00040999998,4.23971
142.53334,2000,0,91.24,0.000002697398,0.000002697398,0.000002697398,0.99999994,0,0,0,0,0,0,1,1,0,0,0,false,false,true,-659.66,-3151.8,17.01,-0.0015617936,0.004469589,0.3366069,0.94163334,-159.241,317.821,8.301001,0,0.00040999998,4.2561097
142.54167,2000,0,91.24,0.000002697398,0.000002697398,0.000002697398,0.99999994,0,0,0,0,0,0,1,1,0,0,0,false,false,true,-660.99,-3149.15,17.01,-0.0016427154,0.0044426145,0.3532499,0.93551695,-151.22101,323.731,8.301001,0,0.00040999998,4.26761
142.55,2000,0,91.24,0.000002697398,0.000002697398,0.000002697398,0.99999994,0,0,0,0,0,0,1,1,0,0,0,false,false,true,-662.25,-3146.45,17.01,-0.0017182425,0.0044156406,0.3698282,0.929088,-143.501,329.831,8.301001,0,0.00040999998,4.2740097
142.55833,2000,0,91.24,0.000002697398,0.000002697398,0.000002697398,0.99999994,0,0,0,0,0,0,1,1,0,0,0,false,false,true,-663.45,-3143.7,17.01,-0.0017937698,0.0043886667,0.3863147,0.9223548,-136.08101,336.131,8.301001,-0.00010999999,0.00040999998,4.2754097
142.56667,2000,0,91.24,0.000002697398,0.000002697398,0.000002697398,0.99999994,0,0,0,0,0,0,1,1,0,0,0,false,false,true,-664.57996,-3140.9,17.01,-0.001869297,0.004356298,0.4026826,0.91532737,-129.031,342.361,8.301001,-0.00021,0.00030999997,4.2782097
142.575,2000,0,91.24,0.000002697398,0.000002697398,0.000002697398,0.99999994,0,0,0,0,0,0,1,1,0,0,0,false,false,true,-665.66,-3138.05,17.01,-0.001944824,0.004323929,0.4189318,0.90800524,-122.340996,348.551,8.301001,-0.00030999997,0.00021,4.28191
142.58333,2000,0,91.24,0.000002697398,0.000002697398,0.000002697398,0.99999994,0,0,0,0,0,0,1,1,0,0,0,false,false,true,-666.68,-3135.15,17.01,-0.0020203514,0.0042915605,0.43506235,0.9003878,-116.010994,354.711,8.301001,-0.00030999997,0.00010999999,4.28611
142.59166,2000,0,91.24,0.000002697398,0.000002697398,0.000002697398,0.99999994,0,0,0,0,0,0,1,1,0,0,0,false,false,true,-667.64996,-3132.19,17.01,-0.0020958781,0.004253797,0.4510741,0.8924738,-110.031,360.861,8.301001,-0.00030999997,0,4.29061
142.6,2000,0,91.24,0.000002697398,0.000002697398,0.000002697398,0.99999994,0,0,0,0,0,0,1,1,0,0,0,false,false,true,-668.57,-3129.18,17.01,-0.0021714051,0.0042160326,0.46695638,0.88426745,-104.410995,367.001,8.301001,-0.00040999998,0,4.2951097
142.60834,2000,0,91.24,0.000002697398,0.000002697398,0.000002697398,0.99999994,0,0,0,0,0,0,1,1,0,0,0,false,false,true,-669.44,-3126.1199,17.01,-0.0022469328,0.0041782698,0.48270398,0.8757707,-99.151,373.131,8.301001,-0.00040999998,-0.00010999999,4.29941
142.61667,2000,0,91.24,0.000002697398,0.000002697398,0.000002697398,0.99999994,0,0,0,0,0,0,1,1,0,0,0,false,false,true,-670.26996,-3123.01,17.01,-0.0023224596,0.004140506,0.49831656,0.8669821,-94.251,379.251,8.301001,-0.00040999998,-0.00021,4.3035097
142.625,2000,0,91.24,0.000002697398,0.000002697398,0.000002697398,0.99999994,0,0,0,0,0,0,1,1,0,0,0,false,false,true,-671.06,-3119.8499,17.01,-0.0023979868,0.0040973476,0.5137834,0.8579067,-89.721,385.371,8.301001,-0.00040999998,-0.00030999997,4.30721
142.63333,2000,0,91.24,0.000002697398,0.000002697398,0.000002697398,0.99999994,0,0,0,0,0,0,1,1,0,0,0,false,false,true,-671.81,-3116.64,17.01,-0.0024735143,0.0040541897,0.529094,0.8485499,-85.571,391.481,8.301001,-0.00040999998,-0.00030999997,4.31041
142.64166,2000,0,91.24,0.000002697398,0.000002697398,0.000002697398,0.99999994,0,0,0,0,0,0,1,1,0,0,0,false,false,true,-672.51996,-3113.38,17.01,-0.002549041,0.004011031,0.544248,0.8389108,-81.800995,397.57098,8.301001,-0.00040999998,-0.00030999997,4.3130097
142.65,2000,0,91.24,0.000002697398,0.000002697398,0.000002697398,0.99999994,0,0,0,0,0,0,1,1,0,0,0,false,false,true,-673.2,-3110.0698,17.01,-0.0026245683,0.0039624777,0.55923474,0.82899565,-78.421,403.631,8.301001,-0.00030999997,-0.00040999998,4.31501
142.65834,2000,0,91.24,0.000002697398,0.000002697398,0.000002697398,0.99999994,0,0,0,0,0,0,1,1,0,0,0,false,false,true,-673.85,-3106.71,17.01,-0.0026947006,0.0039139246,0.57404894,0.8188071,-75.440994,409.661,8.301001,-0.00021,-0.00040999998,4.31631
142.66667,2000,0,91.24,0.000002697398,0.000002697398,0.000002697398,0.99999994,0,0,0,0,0,0,1,1,0,0,0,false,false,true,-674.48,-3103.3,17.01,-0.002764833,0.0038653715,0.58867973,0.8083523,-72.861,415.641,8.301001,-0.00021,-0.00040999998,4.31681
142.675,2000,0,91.24,0.000002697398,0.000002697398,0.000002697398,0.99999994,0,0,0,0,0,0,1,1,0,0,0,false,false,true,-675.08997,-3099.8398,17.01,-0.0028349652,0.0038168184,0.6031216,0.797635,-70.690994,421.561,8.301001,-0.00021,-0.00051,4.3165097
142.68333,2000,0,91.24,0.000002697398,0.000002697398,0.000002697398,0.99999994,0,0,0,0,0,0,1,1,0,0,0,false,false,true,-675.68,-3096.3298,17.01,-0.0029050978,0.0037628703,0.61736935,0.78665894,-68.940994,427.411,8.301001,-0.00021,-0.00051,4.31531
142.69167,2000,0,91.24,0.000002697398,0.000002697398,0.000002697398,0.99999994,0,0,0,0,0,0,1,1,0,0,0,false,false,true,-676.25,-3092.77,17.01,-0.00297523,0.0037089223,0.6314121,0.77543277,-67.611,433.171,8.301001,-0.00021,-0.00051,4.31321
142.7,2000,0,91.24,0.000002697398,0.000002697398,0.000002697398,0.99999994,0,0,0,0,0,0,1,1,0,0,0,false,false,true,-676.81,-3089.16,17.01,-0.0030453624,0.0036549745,0.6452443,0.7639614,-66.711,438.801,8.301001,-0.00010999999,-0.00051,4.31031
142.70833,2000,0,91.24,0.000002697398,0.000002697398,0.000002697398,0.99999994,0,0,0,0,0,0,1,1,0,0,0,false,false,true,-677.37,-3085.5,17.01,-0.0031101,0.0036010265,0.65886086,0.75224966,-66.230995,444.381,8.301001,0,-0.00051,4.30521
142.71666,2000,0,91.24,0.000002697398,0.000002697398,0.000002697398,0.99999994,0,0,0,0,0,0,1,1,0,0,0,false,false,true,-677.92,-3081.8,17.01,-0.0031748374,0.0035416838,0.67225075,0.74030817,-66.151,449.951,8.301001,0,-0.00051,4.29891
142.725,2000,0,91.24,0.000002697398,0.000002697398,0.000002697398,0.99999994,0,0,0,0,0,0,1,1,0,0,0,false,false,true,-678.47,-3078.05,17.01,-0.003239575,0.0034823408,0.68540335,0.728148,-66.461,455.481,8.301001,0,-0.00051,4.29161
142.73334,2000,0,91.24,0.000002697398,0.000002697398,0.000002697398,0.99999994,0,0,0,0,0,0,1,1,0,0,0,false,false,true,-679.01996,-3074.25,17.01,-0.0033043127,0.0034229981,0.6983132,0.71577644,-67.160995,460.941,8.301001,-0.00010999999,-0.00051,4.2835097
142.74167,2000,0,91.24,0.000002697398,0.000002697398,0.000002697398,0.99999994,0,0,0,0,0,0,1,1,0,0,0,false,false,true,-679.57996,-3070.41,17.01,-0.00336905,0.0033636554,0.71097517,0.7032009,-68.251,466.311,8.301001,-0.00010999999,-0.00051,4.27491
142.75,2000,0,91.24,0.000002697398,0.000002697398,0.000002697398,0.99999994,0,0,0,0,0,0,1,1,0,0,0,false,false,true,-680.14996,-3066.52,17.01,-0.0034283926,0.0033043122,0.7233873,0.6904259,-69.721,471.561,8.301001,-0.00010999999,-0.00051,4.26601
142.75833,2000,0,91.24,0.000002697398,0.000002697398,0.000002697398,0.99999994,0,0,0,0,0,0,1,1,0,0,0,false,false,true,-680.73,-3062.5898,17.01,-0.0034877358,0.003239575,0.73554707,0.6774568,-71.561,476.671,8.301001,-0.00010999999,-0.00051,4.25691
142.76666,2000,0,91.24,0.000002697398,0.000002697398,0.000002697398,0.99999994,0,0,0,0,0,0,1,1,0,0,0,false,false,true,-681.32996,-3058.6199,17.01,-0.0035470785,0.0031748374,0.7474471,0.6643042,-73.761,481.621,8.301001,-0.00010999999,-0.00051,4.24781
142.775,2000,0,91.24,0.000002697398,0.000002697398,0.000002697398,0.99999994,0,0,0,0,0,0,1,1,0,0,0,false,false,true,-681.94,-3054.6099,17.01,-0.0036064214,0.0031101003,0.75908536,0.6509737,-76.311,486.391,8.301001,-0.00021,-0.00040999998,4.23901
142.78334,2000,0,91.24,0.000002697398,0.000002697398,0.000002697398,0.99999994,0,0,0,0,0,0,1,1,0,0,0,false,false,true,-682.57996,-3050.5598,17.01,-0.0036603694,0.0030453627,0.77046454,0.63746506,-79.201,490.961,8.301001,-0.00021,-0.00030999997,4.2305098
142.79167,2000,0,91.24,0.000002697398,0.000002697398,0.000002697398,0.99999994,0,0,0,0,0,0,1,1,0,0,0,false,false,true,-683.24,-3046.47,17.01,-0.0037143172,0.0029806248,0.78158236,0.62378377,-82.421,495.32098,8.301001,-0.00021,-0.00030999997,4.22271
142.8,2000,0,91.24,0.000002697398,0.000002697398,0.000002697398,0.99999994,0,0,0,0,0,0,1,1,0,0,0,false,false,true,-683.93,-3042.3398,17.01,-0.0037682652,0.0029158874,0.7924368,0.6099353,-85.980995,499.491,8.301001,-0.00021,-0.00030999997,4.21651
142.80833,2000,0,91.24,0.000002697398,0.000002697398,0.000002697398,0.99999994,0,0,0,0,0,0,1,1,0,0,0,false,false,true,-684.64996,-3038.18,17.01,-0.003822213,0.0028511498,0.8030299,0.59591955,-89.861,503.441,8.301001,-0.00021,-0.00030999997,4.21181
142.81667,2000,0,91.24,0.000002697398,0.000002697398,0.000002697398,0.99999994,0,0,0,0,0,0,1,1,0,0,0,false,false,true,-685.39996,-3033.98,17.01,-0.0038707666,0.0027810177,0.81336325,0.58173656,-94.041,507.161,8.301001,-0.00021,-0.00030999997,4.2087097
142.825,2000,0,91.24,0.000002697398,0.000002697398,0.000002697398,0.99999994,0,0,0,0,0,0,1,1,0,0,0,false,false,true,-686.18,-3029.75,17.01,-0.0039193192,0.002710885,0.8234378,0.5673864,-98.510994,510.641,8.301001,-0.00021,-0.00030999997,4.20711
142.83333,2000,0,91.24,0.000002697398,0.000002697398,0.000002697398,0.99999994,0,0,0,0,0,0,1,1,0,0,0,false,false,true,-687,-3025.49,17.01,-0.003967873,0.0026407528,0.83325815,0.55286354,-103.291,513.92096,8.301001,-0.00021,-0.00030999997,4.20671
142.84166,2000,0,91.24,0.000002697398,0.000002697398,0.000002697398,0.99999994,0,0,0,0,0,0,1,1,0,0,0,false,false,true,-687.86,-3021.21,17.01,-0.004016426,0.0025706205,0.8428206,0.53817344,-108.361,516.98096,8.311,-0.00021,-0.00021,4.2073097
142.85,2000,0,91.24,0.000002697398,0.000002697398,0.000002697398,0.99999994,0,0,0,0,0,0,1,1,0,0,0,false,false,true,-688.76,-3016.9,17.01,-0.004059584,0.002500488,0.8521252,0.5233161,-113.701,519.811,8.311,-0.00021,-0.00010999999,4.20891
142.85834,2000,0,91.24,0.000002697398,0.000002697398,0.000002697398,0.99999994,0,0,0,0,0,0,1,1,0,0,0,false,false,true,-689.70996,-3012.5698,17.01,-0.0041027423,0.0024303556,0.8611718,0.50829154,-119.300995,522.40094,8.311,-0.00021,-0.00010999999,4.21141
142.86667,2000,0,91.24,0.000002697398,0.000002697398,0.000002697398,0.99999994,0,0,0,0,0,0,1,1,0,0,0,false,false,true,-690.7,-3008.22,17.01,-0.0041459007,0.0023602233,0.8699566,0.4931051,-125.141,524.74097,8.311,-0.00021,-0.00010999999,4.2147098
142.875,2000,0,91.24,0.000002697398,0.000002697398,0.000002697398,0.99999994,0,0,0,0,0,0,1,1,0,0,0,false,false,true,-691.74,-3003.8499,17.01,-0.004189059,0.0022900908,0.878482,0.47775152,-131.211,526.821,8.311,-0.00010999999,-0.00010999999,4.21871
142.88333,2000,0,91.24,0.000002697398,0.000002697398,0.000002697398,0.99999994,0,0,0,0,0,0,1,1,0,0,0,false,false,true,-692.82996,-2999.46,17.01,-0.0042268224,0.0022145638,0.886744,0.462236,-137.491,528.631,8.311,-0.00010999999,0,4.22341
142.89166,2000,0,91.24,0.000002697398,0.000002697398,0.000002697398,0.99999994,0,0,0,0,0,0,1,1,0,0,0,false,false,true,-693.98,-2995.05,17.01,-0.004264586,0.0021390365,0.8947416,0.44655862,-143.961,530.17096,8.311,-0.00010999999,0,4.2287097
142.9,2000,0,91.24,0.000002697398,0.000002697398,0.000002697398,0.99999994,0,0,0,0,0,0,1,1,0,0,0,false,false,true,-695.18,-2990.63,17.01,-0.00430235,0.0020635095,0.90247065,0.43072483,-150.61101,531.43097,8.311,-0.00010999999,0,4.23461
142.90834,2000,0,91.24,0.000002697398,0.000002697398,0.000002697398,0.99999994,0,0,0,0,0,0,1,1,0,0,0,false,false,true,-696.44,-2986.2,17.01,-0.0043401136,0.0019879825,0.9099299,0.41473466,-157.421,532.41095,8.311,-0.00010999999,0,4.2410097
142.91667,2000,0,91.24,0.000002697398,0.000002697398,0.000002697398,0.99999994,0,0,0,0,0,0,1,1,0,0,0,false,false,true,-697.75,-2981.76,17.01,-0.0043724827,0.0019124553,0.91711533,0.39859337,-164.381,533.11096,8.311,-0.00010999999,0,4.24791
142.925,2000,0,91.24,0.000002697398,0.000002697398,0.000002697398,0.99999994,0,0,0,0,0,0,1,1,0,0,0,false,false,true,-699.12,-2977.3198,17.01,-0.0044048512,0.0018369282,0.9240255,0.382301,-171.47101,533.52094,8.311,-0.00010999999,0,4.25531
142.93333,2000,0,91.24,0.000002697398,0.000002697398,0.000002697398,0.99999994,0,0,0,0,0,0,1,1,0,0,0,false,false,true,-700.55,-2972.8699,17.01,-0.00443722,0.001761401,0.9306585,0.36585763,-178.681,533.631,8.311,0,0,4.2631097
142.94167,2000,0,91.24,0.000002697398,0.000002697398,0.000002697398,0.99999994,0,0,0,0,0,0,1,1,0,0,0,false,false,true,-702.04,-2968.42,17.01,-0.004469588,0.0016804788,0.93701035,0.3492685,-186.001,533.451,8.311,0,0,4.27131
142.95,2000,0,91.24,0.000002697398,0.000002697398,0.000002697398,0.99999994,0,0,0,0,0,0,1,1,0,0,0,false,false,true,-703.58997,-2963.97,17.01,-0.0044965628,0.0015995571,0.9430773,0.33253923,-193.411,532.97095,8.311,0,0,4.27991
142.95833,2000,0,91.24,0.000002697398,0.000002697398,0.000002697398,0.99999994,0,0,0,0,0,0,1,1,0,0,0,false,false,true,-705.2,-2959.53,17.01,-0.004523536,0.0015186351,0.9488571,0.31566957,-200.901,532.191,8.311,0,0,4.28891
142.96666,2000,0,91.24,0.000002697398,0.000002697398,0.000002697398,0.99999994,0,0,0,0,0,0,1,1,0,0,0,false,false,true,-706.87,-2955.0898,17.01,-0.0045505106,0.0014377132,0.95434594,0.29866517,-208.461,531.121,8.311,0,0,4.2982097
142.975,2000,0,91.24,0.000002697398,0.000002697398,0.000002697398,0.99999994,0,0,0,0,0,0,1,1,0,0,0,false,false,true,-708.61,-2950.66,17.01,-0.004577485,0.0013567914,0.95954174,0.28152585,-216.071,529.751,8.311,0,0,4.30781
142.98334,2000,0,91.24,0.000002697398,0.000002697398,0.000002697398,0.99999994,0,0,0,0,0,0,1,1,0,0,0,false,false,true,-710.41,-2946.24,17.01,-0.004599064,0.0012758693,0.96444046,0.264257,-223.72101,528.081,8.311,0,0,4.31771
142.99167,2000,0,91.24,0.000002697398,0.000002697398,0.000002697398,0.99999994,0,0,0,0,0,0,1,1,0,0,0,false,false,true,-712.26996,-2941.8398,17.01,-0.004620643,0.0011949473,0.9690383,0.24686411,-231.411,526.121,8.311,0,0,4.32791
143,2000,0,91.24,0.000002697398,0.000002697398,0.000002697398,0.99999994,0,0,0,0,0,0,1,1,0,0,0,false,false,true,-714.2,-2937.46,17.01,-0.0046422225,0.0011140255,0.9733317,0.22935252,-239.121,523.86096,8.311,0,0,4.33841
143.00833,2000,0,91.24,0.000002697398,0.000002697398,0.000002697398,0.99999994,0,0,0,0,0,0,1,1,0,0,0,false,false,true,-716.19,-2933.0898,17.01,-0.0046638018,0.0010277088,0.97731817,0.21172233,-246.83101,521.311,8.311,0,0,4.34911
