time,ball_loc_x,ball_loc_y,ball_loc_z,ball_rot_x,ball_rot_y,ball_rot_z,ball_rot_w,ball_vel_x,ball_vel_y,ball_vel_z,ball_ang_x,ball_ang_y,ball_ang_z,player0_throttle,player0_steer,player0_pitch,player0_yaw,player0_roll,player0_jump,player0_boost,player0_handbrake,player0_loc_x,player0_loc_y,player0_loc_z,player0_rot_x,player0_rot_y,player0_rot_z,player0_rot_w,player0_vel_x,player0_vel_y,player0_vel_z,player0_ang_x,player0_ang_y,player0_ang_z
134.83333,2000,0,91.24,0.000002697398,0.000002697398,0.000002697398,0.99999994,0,0,0,0,0,0,0,0,0,0,0,false,false,false,0,0.14,17.01,-0.00336905,0.0033798397,0.7071014,0.7070959,0,0.011,8.321,-0.00051,0,0
134.84166,2000,0,73,0.000002697398,0.000002697398,0.000002697398,0.99999994,0,0,0,0,0,0,1,0,0,0,0,false,false,false,0,0,16.94,0.0000026973983,0.0000026973983,0.70710677,0.70710677,0,0,2.041,-0.050809998,0,0
134.85,2000,0,87.6,0.000002697398,0.000002697398,0.000002697398,0.99999994,0,0,0,0,0,0,1,0,0,0,0,false,false,false,0,0,16.89,-0.00014835689,0.00015375168,0.7071067,0.7071067,0,13.331,3.8809998,-0.085609995,0,0
134.85834,2000,0,90.52,0.000002697398,0.000002697398,0.000002697398,0.99999994,0,0,0,0,0,0,1,0,0,0,0,false,false,false,0,0.11,16.85,-0.00040191234,0.00040730715,0.70710653,0.70710677,0,26.550999,5.481,-0.10710999,0,0
134.86667,2000,0,91.1,0.000002697398,0.000002697398,0.000002697398,0.99999994,0,0,0,0,0,0,1,0,0,0,0,false,false,false,0,0.32999998,16.83,-0.0007148105,0.00072560005,0.7071067,0.707106,0,39.650997,6.791,-0.11621,0,0
134.875,2000,0,91.22,0.000002697398,0.000002697398,0.000002697398,0.99999994,0,0,0,0,0,0,1,0,0,0,0,false,false,false,0,0.65999997,16.82,-0.0010546827,0.0010654721,0.70710516,0.7071067,0,52.641,7.7409997,-0.11450999,0,0
134.88333,2000,0,91.24,0.000002697398,0.000002697398,0.000002697398,0.99999994,0,0,0,0,0,0,1,0,0,0,0,false,false,false,0,1.1,16.82,-0.0013945547,0.0014053443,0.7071067,0.70710397,0,65.520996,8.431,-0.10651,0,0
134.89166,2000,0,91.24,0.000002697398,0.000002697398,0.000002697398,0.99999994,0,0,0,0,0,0,1,0,0,0,0,false,false,false,0,1.65,16.82,-0.001707453,0.0017182427,0.707108,0.70710135,0,78.291,8.9210005,-0.09501,0,0
134.9,2000,0,91.24,0.000002697398,0.000002697398,0.000002697398,0.99999994,0,0,0,0,0,0,1,0,0,0,0,false,false,false,0,2.3,16.83,-0.0019879823,0.001998772,0.70710653,0.7071013,0,90.951,9.281,-0.08221,0,0
134.90834,2000,0,91.24,0.000002697398,0.000002697398,0.000002697398,0.99999994,0,0,0,0,0,0,1,0,0,0,0,false,false,false,0,3.06,16.84,-0.002230748,0.0022415377,0.7071051,0.7071013,0,103.501,9.521,-0.069309995,0,0
134.91667,2000,0,91.24,0.000002697398,0.000002697398,0.000002697398,0.99999994,0,0,0,0,0,0,1,0,0,0,0,false,false,false,0,3.9199998,16.85,-0.0024357503,0.00244654,0.7071037,0.7071013,0,115.940994,9.6710005,-0.057109997,0,0
134.925,2000,0,91.24,0.000002697398,0.000002697398,0.000002697398,0.99999994,0,0,0,0,0,0,1,0,0,0,0,false,false,false,0,4.89,16.859999,-0.0026029893,0.002613779,0.70710254,0.70710135,0,128.281,9.771,-0.046109997,0,0
134.93333,2000,0,91.24,0.000002697398,0.000002697398,0.000002697398,0.99999994,0,0,0,0,0,0,1,0,0,0,0,false,false,false,0,5.96,16.869999,-0.002737859,0.0027486486,0.7071015,0.7071013,0,140.511,9.821,-0.036609996,0,0
134.94167,2000,0,91.24,0.000002697398,0.000002697398,0.000002697398,0.99999994,0,0,0,0,0,0,1,0,0,0,0,false,false,false,0,7.1299996,16.88,-0.002845755,0.0028565447,0.7071007,0.70710135,0,152.641,9.841001,-0.02851,0,0
134.95,2000,0,91.24,0.000002697398,0.000002697398,0.000002697398,0.99999994,0,0,0,0,0,0,1,0,0,0,0,false,false,false,0,8.4,16.89,-0.0029320717,0.0029428613,0.7071013,0.7071,0,164.66101,9.821,-0.02231,0,0
134.95833,2000,0,91.24,0.000002697398,0.000002697398,0.000002697398,0.99999994,0,0,0,0,0,0,1,0,0,0,0,false,false,false,0,9.7699995,16.9,-0.0029968095,0.0030075992,0.70709944,0.70710135,0,176.58101,9.761001,-0.01781,0,0
134.96666,2000,0,91.24,0.000002697398,0.000002697398,0.000002697398,0.99999994,0,0,0,0,0,0,1,0,0,0,0,false,false,false,0,11.24,16.91,-0.003050757,0.0030615467,0.7071013,0.70709896,0,188.401,9.681,-0.014409999,0,0
134.975,2000,0,91.24,0.000002697398,0.000002697398,0.000002697398,0.99999994,0,0,0,0,0,0,1,0,0,0,0,false,false,false,0,12.809999,16.92,-0.0030939158,0.0031047054,0.7070986,0.70710135,0,200.11101,9.591001,-0.011909999,0,0
134.98334,2000,0,91.24,0.000002697398,0.000002697398,0.000002697398,0.99999994,0,0,0,0,0,0,1,0,0,0,0,false,false,false,0,14.48,16.93,-0.0031316793,0.0031424686,0.7070959,0.7071036,0,211.72101,9.491,-0.00991,0,0
134.99167,2000,0,91.24,0.000002697398,0.000002697398,0.000002697398,0.99999994,0,0,0,0,0,0,1,0,0,0,0,false,false,false,0,16.24,16.94,-0.0031586532,0.0031694428,0.7070959,0.7071034,0,223.231,9.391,-0.0083099995,0,0
135,2000,0,91.24,0.000002697398,0.000002697398,0.000002697398,0.99999994,0,0,0,0,0,0,1,0,0,0,0,false,false,false,0,18.1,16.949999,-0.003185627,0.0031964167,0.7070959,0.70710313,0,234.651,9.281,-0.00701,0,0
135.025,2000,0,91.24,0.000002697398,0.000002697398,0.000002697398,0.99999994,0,0,0,0,0,0,1,0,0,0,0,false,false,false,0,24.25,16.98,-0.003239575,0.0032503647,0.7070959,0.70710266,0,268.321,8.951,-0.00441,0,0
135.03334,2000,0,91.24,0.000002697398,0.000002697398,0.000002697398,0.99999994,0,0,0,0,0,0,1,0,0,0,0,false,false,false,0,26.49,16.99,-0.0032503647,0.0032611543,0.7070959,0.7071026,0,279.351,8.841001,-0.00381,0,0
135.04167,2000,0,91.24,0.000002697398,0.000002697398,0.000002697398,0.99999994,0,0,0,0,0,0,1,0,0,0,0,false,false,false,0,28.82,17,-0.0032611543,0.003271944,0.7070959,0.7071024,0,290.29102,8.731,-0.00331,0,0
135.05,2000,0,91.24,0.000002697398,0.000002697398,0.000002697398,0.99999994,0,0,0,0,0,0,1,0,0,0,0,false,false,false,0,31.24,17.01,-0.0032719441,0.0032827337,0.707096,0.70710236,0,301.131,8.621,-0.00291,0,0
135.05833,2000,0,91.24,0.000002697398,0.000002697398,0.000002697398,0.99999994,0,0,0,0,0,0,1,0,0,0,0,false,false,false,0,33.75,17.01,-0.0032827335,0.003293523,0.7070959,0.70710224,0,311.881,8.511001,-0.00251,0,0
135.06667,2000,0,91.24,0.000002697398,0.000002697398,0.000002697398,0.99999994,0,0,0,0,0,0,1,0,0,0,0,false,false,false,0,36.35,17.01,-0.0032881284,0.003298918,0.707096,0.70710224,0,322.541,8.441,-0.00221,0,0
135.075,2000,0,91.24,0.000002697398,0.000002697398,0.000002697398,0.99999994,0,0,0,0,0,0,1,0,0,0,0,false,false,false,0,39.04,17.01,-0.003293523,0.0033043127,0.7070959,0.7071021,0,333.101,8.391,-0.0019099999,0,0
135.08333,2000,0,91.24,0.000002697398,0.000002697398,0.000002697398,0.99999994,0,0,0,0,0,0,1,0,0,0,0,false,false,false,0,41.82,17.01,-0.0032989178,0.0033097074,0.7070959,0.70710206,0,343.571,8.361,-0.0017099999,0,0
135.09166,2000,0,91.24,0.000002697398,0.000002697398,0.000002697398,0.99999994,0,0,0,0,0,0,1,0,0,0,0,false,false,false,0,44.68,17.01,-0.0033043127,0.0033151023,0.7070959,0.70710206,0,353.951,8.341001,-0.00151,0,0
135.1,2000,0,91.24,0.000002697398,0.000002697398,0.000002697398,0.99999994,0,0,0,0,0,0,1,0,0,0,0,false,false,false,0,47.629997,17.01,-0.0033097074,0.003320497,0.7070959,0.707102,0,364.251,8.331,-0.00131,0,0
135.10834,2000,0,91.24,0.000002697398,0.000002697398,0.000002697398,0.99999994,0,0,0,0,0,0,1,0,0,0,0,false,false,false,0,50.67,17.01,-0.0033151023,0.003325892,0.7070959,0.70710194,0,374.461,8.321,-0.0012099999,0,0
135.11667,2000,0,91.24,0.000002697398,0.000002697398,0.000002697398,0.99999994,0,0,0,0,0,0,1,0,0,0,0,false,false,false,0,53.789997,17.01,-0.003320497,0.0033312866,0.7070959,0.7071019,0,384.581,8.321,-0.0010099999,0,0
135.125,2000,0,91.24,0.000002697398,0.000002697398,0.000002697398,0.99999994,0,0,0,0,0,0,1,0,0,0,0,false,false,false,0,56.989998,17.01,-0.003325892,0.0033366815,0.7070959,0.7071018,0,394.611,8.321,-0.00091,0,0
135.13333,2000,0,91.24,0.000002697398,0.000002697398,0.000002697398,0.99999994,0,0,0,0,0,0,1,0,0,0,0,false,false,false,0,60.28,17.01,-0.003325892,0.0033420762,0.7070959,0.7071018,0,404.561,8.321,-0.00071,0,0
135.14166,2000,0,91.24,0.000002697398,0.000002697398,0.000002697398,0.99999994,0,0,0,0,0,0,1,0,0,0,0,false,false,false,0,63.649998,17.01,-0.003325892,0.0033420762,0.7070959,0.7071018,0,414.421,8.321,-0.00061,0,0
135.15,2000,0,91.24,0.000002697398,0.000002697398,0.000002697398,0.99999994,0,0,0,0,0,0,1,0,0,0,0,false,false,false,0,67.1,17.01,-0.003325892,0.0033420762,0.7070959,0.7071018,0,424.201,8.321,-0.00051,0,0
135.15834,2000,0,91.24,0.000002697398,0.000002697398,0.000002697398,0.99999994,0,0,0,0,0,0,1,0,0,0,0,false,false,false,0,70.64,17.01,-0.003325892,0.0033420762,0.7070959,0.7071018,0,433.891,8.321,-0.00051,0,0
135.16667,2000,0,91.24,0.000002697398,0.000002697398,0.000002697398,0.99999994,0,0,0,0,0,0,1,0,0,0,0,false,false,false,0,74.26,17.01,-0.003325892,0.0033420762,0.7070959,0.7071018,0,443.501,8.321,-0.00051,0,0
135.175,2000,0,91.24,0.000002697398,0.000002697398,0.000002697398,0.99999994,0,0,0,0,0,0,1,0,0,0,0,false,false,false,0,77.96,17.01,-0.003325892,0.0033420762,0.7070959,0.7071018,0,453.031,8.321,-0.00051,0,0
135.18333,2000,0,91.24,0.000002697398,0.000002697398,0.000002697398,0.99999994,0,0,0,0,0,0,1,0,0,0,0,false,false,false,0,81.74,17.01,-0.003325892,0.0033420762,0.7070959,0.7071018,0,462.481,8.321,-0.00051,0,0
135.19167,2000,0,91.24,0.000002697398,0.000002697398,0.000002697398,0.99999994,0,0,0,0,0,0,1,0,0,0,0,false,false,false,0,85.59,17.01,-0.003325892,0.0033420762,0.7070959,0.7071018,0,471.85098,8.321,-0.00051,0,0
135.2,2000,0,91.24,0.000002697398,0.000002697398,0.000002697398,0.99999994,0,0,0,0,0,0,1,0,0,0,0,false,false,false,0,89.52,17.01,-0.003325892,0.0033420762,0.7070959,0.7071018,0,481.141,8.321,-0.00051,0,0
135.20833,2000,0,91.24,0.000002697398,0.000002697398,0.000002697398,0.99999994,0,0,0,0,0,0,1,0,0,0,0,false,false,false,0,93.53,17.01,-0.003325892,0.0033420762,0.7070959,0.7071018,0,490.35098,8.321,-0.00051,0,0
135.21666,2000,0,91.24,0.000002697398,0.000002697398,0.000002697398,0.99999994,0,0,0,0,0,0,1,0,0,0,0,false,false,false,0,97.619995,17.01,-0.003325892,0.0033420762,0.7070959,0.7071018,0,499.481,8.321,-0.00051,0,0
135.225,2000,0,91.24,0.000002697398,0.000002697398,0.000002697398,0.99999994,0,0,0,0,0,0,1,0,0,0,0,false,false,false,0,101.78,17.01,-0.003325892,0.0033420762,0.7070959,0.7071018,0,508.531,8.321,-0.00051,0,0
135.23334,2000,0,91.24,0.000002697398,0.000002697398,0.000002697398,0.99999994,0,0,0,0,0,0,1,0,0,0,0,false,false,false,0,106.02,17.01,-0.003325892,0.0033420762,0.7070959,0.7071018,0,517.501,8.321,-0.00051,0,0
135.24167,2000,0,91.24,0.000002697398,0.000002697398,0.000002697398,0.99999994,0,0,0,0,0,0,1,0,0,0,0,false,false,false,0,110.329994,17.01,-0.003325892,0.0033420762,0.7070959,0.7071018,0,526.391,8.321,-0.00051,0,0
135.25,2000,0,91.24,0.000002697398,0.000002697398,0.000002697398,0.99999994,0,0,0,0,0,0,1,0,0,0,0,false,false,false,0,114.72,17.01,-0.003325892,0.0033420762,0.7070959,0.7071018,0,535.21094,8.321,-0.00051,0,0
135.25833,2000,0,91.24,0.000002697398,0.000002697398,0.000002697398,0.99999994,0,0,0,0,0,0,1,0,0,0,0,false,false,false,0,119.18,17.01,-0.003325892,0.0033420762,0.7070959,0.7071018,0,543.951,8.321,-0.00061,0,0
135.26666,2000,0,91.24,0.000002697398,0.000002697398,0.000002697398,0.99999994,0,0,0,0,0,0,1,0,0,0,0,false,false,false,0,123.71,17.01,-0.003325892,0.0033420762,0.7070959,0.7071018,0,552.621,8.321,-0.00061,0,0
135.275,2000,0,91.24,0.000002697398,0.000002697398,0.000002697398,0.99999994,0,0,0,0,0,0,1,0,0,0,0,false,false,false,0,128.31999,17.01,-0.003325892,0.0033420762,0.7070959,0.7071018,0,561.21094,8.321,-0.00061,0,0
135.28334,2000,0,91.24,0.000002697398,0.000002697398,0.000002697398,0.99999994,0,0,0,0,0,0,1,0,0,0,0,false,false,false,0,133,17.01,-0.003325892,0.0033420762,0.7070959,0.7071018,0,569.73096,8.321,-0.00061,0,0
135.29167,2000,0,91.24,0.000002697398,0.000002697398,0.000002697398,0.99999994,0,0,0,0,0,0,1,0,0,0,0,false,false,false,0,137.75,17.01,-0.003325892,0.0033420762,0.7070959,0.7071018,0,578.18097,8.321,-0.00061,0,0
135.3,2000,0,91.24,0.000002697398,0.000002697398,0.000002697398,0.99999994,0,0,0,0,0,0,1,0,0,0,0,false,false,false,0,142.56999,17.01,-0.003325892,0.0033420762,0.7070959,0.7071018,0,586.55096,8.321,-0.00061,0,0
135.30833,2000,0,91.24,0.000002697398,0.000002697398,0.000002697398,0.99999994,0,0,0,0,0,0,1,0,0,0,0,false,false,false,0,147.45999,17.01,-0.003325892,0.0033420762,0.7070959,0.7071018,0,594.85095,8.321,-0.00061,0,0
135.31667,2000,0,91.24,0.000002697398,0.000002697398,0.000002697398,0.99999994,0,0,0,0,0,0,1,0,0,0,0,false,false,false,0,152.42,17.01,-0.003325892,0.0033420762,0.7070959,0.7071018,0,603.08093,8.321,-0.00061,0,0
135.325,2000,0,91.24,0.000002697398,0.000002697398,0.000002697398,0.99999994,0,0,0,0,0,0,1,0,0,0,0,false,false,false,0,157.45,17.01,-0.003325892,0.0033420762,0.7070959,0.7071018,0,611.24097,8.321,-0.00061,0,0
135.33333,2000,0,91.24,0.000002697398,0.000002697398,0.000002697398,0.99999994,0,0,0,0,0,0,1,0,0,0,0,false,false,false,0,162.54,17.01,-0.003325892,0.0033420762,0.7070959,0.7071018,0,619.33093,8.321,-0.00061,0,0
135.34166,2000,0,91.24,0.000002697398,0.000002697398,0.000002697398,0.99999994,0,0,0,0,0,0,1,0,0,0,0,false,false,false,0,167.7,17.01,-0.003325892,0.0033420762,0.7070959,0.7071018,0,627.35095,8.321,-0.00071,0,0
135.35,2000,0,91.24,0.000002697398,0.000002697398,0.000002697398,0.99999994,0,0,0,0,0,0,1,0,0,0,0,false,false,false,0,172.93,17.01,-0.003325892,0.0033420762,0.7070959,0.7071018,0,635.30096,8.321,-0.00071,0,0
135.35834,2000,0,91.24,0.000002697398,0.000002697398,0.000002697398,0.99999994,0,0,0,0,0,0,1,0,0,0,0,false,false,false,0,178.22,17.01,-0.003325892,0.0033420762,0.7070959,0.7071018,0,643.18097,8.321,-0.00071,0,0
135.36667,2000,0,91.24,0.000002697398,0.000002697398,0.000002697398,0.99999994,0,0,0,0,0,0,1,0,0,0,0,false,false,false,0,183.58,17.01,-0.003325892,0.0033420762,0.7070959,0.7071018,0,651.001,8.321,-0.00071,0,0
135.375,2000,0,91.24,0.000002697398,0.000002697398,0.000002697398,0.99999994,0,0,0,0,0,0,1,0,0,0,0,false,false,false,0,189.01,17.01,-0.003325892,0.0033420762,0.7070959,0.7071018,0,658.751,8.321,-0.00071,0,0
135.38333,2000,0,91.24,0.000002697398,0.000002697398,0.000002697398,0.99999994,0,0,0,0,0,0,1,0,0,0,0,false,false,false,0,194.5,17.01,-0.003325892,0.0033420762,0.7070959,0.7071018,0,666.43097,8.321,-0.00071,0,0
135.39166,2000,0,91.24,0.000002697398,0.000002697398,0.000002697398,0.99999994,0,0,0,0,0,0,1,0,0,0,0,false,false,false,0,200.05,17.01,-0.003325892,0.0033420762,0.7070959,0.7071018,0,674.05096,8.321,-0.00071,0,0
135.4,2000,0,91.24,0.000002697398,0.000002697398,0.000002697398,0.99999994,0,0,0,0,0,0,1,0,0,0,0,false,false,false,0,205.67,17.01,-0.003325892,0.0033420762,0.7070959,0.7071018,0,681.60095,8.321,-0.00071,0,0
135.40834,2000,0,91.24,0.000002697398,0.000002697398,0.000002697398,0.99999994,0,0,0,0,0,0,1,0,0,0,0,false,false,false,0,211.34999,17.01,-0.003325892,0.0033420762,0.7070959,0.7071018,0,689.09094,8.321,-0.00071,0,0
135.41667,2000,0,91.24,0.000002697398,0.000002697398,0.000002697398,0.99999994,0,0,0,0,0,0,1,0,0,0,0,false,false,false,0,217.09,17.01,-0.003325892,0.0033420762,0.7070959,0.7071018,0,696.511,8.321,-0.00071,0,0
135.425,2000,0,91.24,0.000002697398,0.000002697398,0.000002697398,0.99999994,0,0,0,0,0,0,1,0,0,0,0,false,false,false,0,222.89,17.01,-0.003325892,0.0033420762,0.7070959,0.7071018,0,703.871,8.321,-0.00071,0,0
135.43333,2000,0,91.24,0.000002697398,0.000002697398,0.000002697398,0.99999994,0,0,0,0,0,0,1,0,0,0,0,false,false,false,0,228.76,17.01,-0.003325892,0.0033420762,0.7070959,0.7071018,0,711.17096,8.321,-0.00071,0,0
135.44167,2000,0,91.24,0.000002697398,0.000002697398,0.000002697398,0.99999994,0,0,0,0,0,0,1,0,0,0,0,false,false,false,0,234.68999,17.01,-0.003325892,0.0033420762,0.7070959,0.7071018,0,718.40094,8.321,-0.00081,0,0
135.45,2000,0,91.24,0.000002697398,0.000002697398,0.000002697398,0.99999994,0,0,0,0,0,0,1,0,0,0,0,false,false,false,0,240.68,17.01,-0.003325892,0.0033420762,0.7070959,0.7071018,0,725.571,8.321,-0.00081,0,0
135.45833,2000,0,91.24,0.000002697398,0.000002697398,0.000002697398,0.99999994,0,0,0,0,0,0,1,0,0,0,0,false,false,false,0,246.73,17.01,-0.003325892,0.0033420762,0.7070959,0.7071018,0,732.68097,8.321,-0.00081,0,0
135.46666,2000,0,91.24,0.000002697398,0.000002697398,0.000002697398,0.99999994,0,0,0,0,0,0,1,0,0,0,0,false,false,false,0,252.84,17.01,-0.003325892,0.0033420762,0.7070959,0.7071018,0,739.73096,8.321,-0.00081,0,0
135.475,2000,0,91.24,0.000002697398,0.000002697398,0.000002697398,0.99999994,0,0,0,0,0,0,1,0,0,0,0,false,false,false,0,259,17.01,-0.003325892,0.0033420762,0.7070959,0.7071018,0,746.72095,8.321,-0.00081,0,0
135.48334,2000,0,91.24,0.000002697398,0.000002697398,0.000002697398,0.99999994,0,0,0,0,0,0,1,0,0,0,0,false,false,false,0,265.22,17.01,-0.003325892,0.0033420762,0.7070959,0.7071018,0,753.65094,8.321,-0.00081,0,0
135.49167,2000,0,91.24,0.000002697398,0.000002697398,0.000002697398,0.99999994,0,0,0,0,0,0,1,0,0,0,0,false,false,false,0,271.5,17.01,-0.003325892,0.0033420762,0.7070959,0.7071018,0,760.52094,8.321,-0.00081,0,0
135.5,2000,0,91.24,0.000002697398,0.000002697398,0.000002697398,0.99999994,0,0,0,0,0,0,1,0,0,0,0,false,false,false,0,277.84,17.01,-0.003325892,0.0033420762,0.7070959,0.7071018,0,767.33093,8.321,-0.00081,0,0
135.50833,2000,0,91.24,0.000002697398,0.000002697398,0.000002697398,0.99999994,0,0,0,0,0,0,1,0,0,0,0,false,false,false,0,284.22998,17.01,-0.003325892,0.0033420762,0.7070959,0.7071018,0,774.08093,8.321,-0.00081,0,0
135.51666,2000,0,91.24,0.000002697398,0.000002697398,0.000002697398,0.99999994,0,0,0,0,0,0,1,0,0,0,0,false,false,false,0,290.68,17.01,-0.003325892,0.0033420762,0.7070959,0.7071018,0,780.77094,8.321,-0.00081,0,0
135.525,2000,0,91.24,0.000002697398,0.000002697398,0.000002697398,0.99999994,0,0,0,0,0,0,1,0,0,0,0,false,false,false,0,297.19,17.01,-0.003325892,0.0033420762,0.7070959,0.7071018,0,787.41095,8.321,-0.00081,0,0
135.53334,2000,0,91.24,0.000002697398,0.000002697398,0.000002697398,0.99999994,0,0,0,0,0,0,1,0,0,0,0,false,false,false,0,303.75,17.01,-0.003325892,0.0033420762,0.7070959,0.7071018,0,793.99097,8.321,-0.00081,0,0
135.54167,2000,0,91.24,0.000002697398,0.000002697398,0.000002697398,0.99999994,0,0,0,0,0,0,1,0,0,0,0,false,false,false,0,310.37,17.01,-0.003325892,0.0033420762,0.7070959,0.7071018,0,800.511,8.321,-0.00081,0,0
135.55,2000,0,91.24,0.000002697398,0.000002697398,0.000002697398,0.99999994,0,0,0,0,0,0,1,0,0,0,0,false,false,false,0,317.03998,17.01,-0.003325892,0.0033420762,0.7070959,0.7071018,0,806.98096,8.321,-0.00091,0,0
135.55833,2000,0,91.24,0.000002697398,0.000002697398,0.000002697398,0.99999994,0,0,0,0,0,0,1,0,0,0,0,false,false,false,0,323.75998,17.01,-0.003325892,0.003347471,0.7070959,0.70710176,0,813.3909,8.321,-0.00091,0,0
135.56667,2000,0,91.24,0.000002697398,0.000002697398,0.000002697398,0.99999994,0,0,0,0,0,0,1,0,0,0,0,false,false,false,0,330.53998,17.01,-0.0033258921,0.003352866,0.707096,0.70710176,0,819.751,8.321,-0.00091,-0.00010999999,0
135.575,2000,0,91.24,0.000002697398,0.000002697398,0.000002697398,0.99999994,0,0,0,0,0,0,1,0,0,0,0,false,false,false,0,337.37,17.01,-0.0033312868,0.003352866,0.707096,0.70710176,0,826.05096,8.321,-0.00081,-0.00021,0
135.58333,2000,0,91.24,0.000002697398,0.000002697398,0.000002697398,0.99999994,0,0,0,0,0,0,1,0,0,0,0,false,false,false,0,344.25,17.01,-0.0033366815,0.0033528658,0.7070959,0.7071017,0,832.30096,8.321,-0.00071,-0.00021,0
135.59166,2000,0,91.24,0.000002697398,0.000002697398,0.000002697398,0.99999994,0,0,0,0,0,0,1,0,0,0,0,false,false,false,0,351.19,17.01,-0.0033366815,0.0033528658,0.7070959,0.7071017,0,838.501,8.321,-0.00071,-0.00021,0
135.6,2000,0,91.24,0.000002697398,0.000002697398,0.000002697398,0.99999994,0,0,0,0,0,0,1,0,0,0,0,false,false,false,0,358.18,17.01,-0.0033366815,0.0033528658,0.7070959,0.7071017,0,844.6409,8.321,-0.00071,-0.00021,0
135.60834,2000,0,91.24,0.000002697398,0.000002697398,0.000002697398,0.99999994,0,0,0,0,0,0,1,0,0,0,0,false,false,false,0,365.22,17.01,-0.0033366815,0.0033528658,0.7070959,0.7071017,0,850.73096,8.321,-0.00071,-0.00021,0
135.61667,2000,0,91.24,0.000002697398,0.000002697398,0.000002697398,0.99999994,0,0,0,0,0,0,1,0,0,0,0,false,false,false,0,372.31,17.01,-0.0033366815,0.0033528658,0.7070959,0.7071017,0,856.77094,8.321,-0.00071,-0.00021,0
135.625,2000,0,91.24,0.000002697398,0.000002697398,0.000002697398,0.99999994,0,0,0,0,0,0,1,0,0,0,0,false,false,false,0,379.44998,17.01,-0.0033366815,0.0033528658,0.7070959,0.7071017,0,862.761,8.321,-0.00071,-0.00021,0
135.63333,2000,0,91.24,0.000002697398,0.000002697398,0.000002697398,0.99999994,0,0,0,0,0,0,1,0,0,0,0,false,false,false,0,386.63998,17.01,-0.0033366815,0.0033528658,0.7070959,0.7071017,0,868.691,8.321,-0.00071,-0.00021,0
135.64166,2000,0,91.24,0.000002697398,0.000002697398,0.000002697398,0.99999994,0,0,0,0,0,0,1,0,0,0,0,false,false,false,0,393.88,17.01,-0.0033366815,0.0033528658,0.7070959,0.7071017,0,874.571,8.321,-0.00071,-0.00021,0
135.65,2000,0,91.24,0.000002697398,0.000002697398,0.000002697398,0.99999994,0,0,0,0,0,0,1,0,0,0,0,false,false,false,0,401.16998,17.01,-0.0033366815,0.0033528658,0.7070959,0.7071017,0,880.40094,8.321,-0.00071,-0.00021,0
135.65834,2000,0,91.24,0.000002697398,0.000002697398,0.000002697398,0.99999994,0,0,0,0,0,0,1,0,0,0,0,false,false,false,0,408.50998,17.01,-0.0033366815,0.0033528658,0.7070959,0.7071017,0,886.18097,8.321,-0.00071,-0.00021,0
135.66667,2000,0,91.24,0.000002697398,0.000002697398,0.000002697398,0.99999994,0,0,0,0,0,0,1,0,0,0,0,false,false,false,0,415.88998,17.01,-0.0033366815,0.0033528658,0.7070959,0.7071017,0,891.91095,8.321,-0.00071,-0.00021,0
135.675,2000,0,91.24,0.000002697398,0.000002697398,0.000002697398,0.99999994,0,0,0,0,0,0,1,0,0,0,0,false,false,false,0,423.31998,17.01,-0.0033366815,0.0033528658,0.7070959,0.7071017,0,897.59094,8.321,-0.00071,-0.00021,0
135.68333,2000,0,91.24,0.000002697398,0.000002697398,0.000002697398,0.99999994,0,0,0,0,0,0,1,0,0,0,0,false,false,false,0,430.8,17.01,-0.0033366815,0.0033528658,0.7070959,0.7071017,0,903.23096,8.321,-0.00071,-0.00021,0
135.69167,2000,0,91.24,0.000002697398,0.000002697398,0.000002697398,0.99999994,0,0,0,0,0,0,1,0,0,0,0,false,false,false,0,438.33,17.01,-0.0033366815,0.0033528658,0.7070959,0.7071017,0,908.821,8.321,-0.00071,-0.00021,0
135.7,2000,0,91.24,0.000002697398,0.000002697398,0.000002697398,0.99999994,0,0,0,0,0,0,1,0,0,0,0,false,false,false,0,445.9,17.01,-0.0033366815,0.0033528658,0.7070959,0.7071017,0,914.36096,8.321,-0.00071,-0.00021,0
135.70833,2000,0,91.24,0.000002697398,0.000002697398,0.000002697398,0.99999994,0,0,0,0,0,0,1,0,0,0,0,false,false,false,0,453.52,17.01,-0.0033366815,0.0033528658,0.7070959,0.7071017,0,919.85095,8.321,-0.00071,-0.00021,0
135.71666,2000,0,91.24,0.000002697398,0.000002697398,0.000002697398,0.99999994,0,0,0,0,0,0,1,0,0,0,0,false,false,false,0,461.19,17.01,-0.0033366815,0.0033528658,0.7070959,0.7071017,0,925.30096,8.321,-0.00071,-0.00021,0
135.725,2000,0,91.24,0.000002697398,0.000002697398,0.000002697398,0.99999994,0,0,0,0,0,0,1,0,0,0,0,false,false,false,0,468.9,17.01,-0.0033366815,0.0033528658,0.7070959,0.7071017,0,930.7009,8.321,-0.00071,-0.00021,0
135.73334,2000,0,91.24,0.000002697398,0.000002697398,0.000002697398,0.99999994,0,0,0,0,0,0,1,0,0,0,0,false,false,false,0,476.66,17.01,-0.0033366815,0.0033528658,0.7070959,0.7071017,0,936.05096,8.321,-0.00071,-0.00021,0
135.74167,2000,0,91.24,0.000002697398,0.000002697398,0.000002697398,0.99999994,0,0,0,0,0,0,1,0,0,0,0,false,false,false,0,484.46,17.01,-0.0033366815,0.0033528658,0.7070959,0.7071017,0,941.36096,8.321,-0.00071,-0.00021,0
135.75,2000,0,91.24,0.000002697398,0.000002697398,0.000002697398,0.99999994,0,0,0,0,0,0,1,0,0,0,0,false,false,false,0,492.3,17.01,-0.0033366815,0.0033528658,0.7070959,0.7071017,0,946.621,8.321,-0.00071,-0.00021,0
135.75833,2000,0,91.24,0.000002697398,0.000002697398,0.000002697398,0.99999994,0,0,0,0,0,0,1,0,0,0,0,false,false,false,0,500.19,17.01,-0.0033366815,0.0033528658,0.7070959,0.7071017,0,951.84094,8.321,-0.00071,-0.00021,0
135.76666,2000,0,91.24,0.000002697398,0.000002697398,0.000002697398,0.99999994,0,0,0,0,0,0,1,0,0,0,0,false,false,false,0,508.12,17.01,-0.0033366815,0.0033528658,0.7070959,0.7071017,0,957.0109,8.321,-0.00071,-0.00021,0
135.775,2000,0,91.24,0.000002697398,0.000002697398,0.000002697398,0.99999994,0,0,0,0,0,0,1,0,0,0,0,false,false,false,0,516.1,17.01,-0.0033366815,0.0033528658,0.7070959,0.7071017,0,962.1409,8.321,-0.00071,-0.00021,0
135.78334,2000,0,91.24,0.000002697398,0.000002697398,0.000002697398,0.99999994,0,0,0,0,0,0,1,0,0,0,0,false,false,false,0,524.12,17.01,-0.0033366815,0.0033528658,0.7070959,0.7071017,0,967.22095,8.321,-0.00071,-0.00021,0
135.79167,2000,0,91.24,0.000002697398,0.000002697398,0.000002697398,0.99999994,0,0,0,0,0,0,1,0,0,0,0,false,false,false,0,532.18,17.01,-0.0033366815,0.0033528658,0.7070959,0.7071017,0,972.2609,8.321,-0.00071,-0.00021,0
135.8,2000,0,91.24,0.000002697398,0.000002697398,0.000002697398,0.99999994,0,0,0,0,0,0,1,0,0,0,0,false,false,false,0,540.27997,17.01,-0.0033366815,0.0033528658,0.7070959,0.7071017,0,977.2609,8.321,-0.00071,-0.00021,0
135.80833,2000,0,91.24,0.000002697398,0.000002697398,0.000002697398,0.99999994,0,0,0,0,0,0,1,0,0,0,0,false,false,false,0,548.42,17.01,-0.0033366815,0.0033528658,0.7070959,0.7071017,0,982.21094,8.321,-0.00071,-0.00021,0
135.81667,2000,0,91.24,0.000002697398,0.000002697398,0.000002697398,0.99999994,0,0,0,0,0,0,1,0,0,0,0,false,false,false,0,556.61,17.01,-0.0033366815,0.0033528658,0.7070959,0.7071017,0,987.121,8.321,-0.00071,-0.00021,0
135.825,2000,0,91.24,0.000002697398,0.000002697398,0.000002697398,0.99999994,0,0,0,0,0,0,1,0,0,0,0,false,false,false,0,564.83997,17.01,-0.0033366815,0.0033528658,0.7070959,0.7071017,0,991.99097,8.321,-0.00071,-0.00021,0
135.83333,2000,0,91.24,0.000002697398,0.000002697398,0.000002697398,0.99999994,0,0,0,0,0,0,1,0,0,0,0,false,false,false,0,573.11,17.01,-0.0033366815,0.0033528658,0.7070959,0.7071017,0,996.821,8.321,-0.00071,-0.00021,0
135.84166,2000,0,91.24,0.000002697398,0.000002697398,0.000002697398,0.99999994,0,0,0,0,0,0,1,0,0,0,0,false,false,false,0,581.42,17.01,-0.0033366815,0.0033528658,0.7070959,0.7071017,0,1001.61096,8.321,-0.00071,-0.00021,0
135.85,2000,0,91.24,0.000002697398,0.000002697398,0.000002697398,0.99999994,0,0,0,0,0,0,1,0,0,0,0,false,false,false,0,589.76996,17.01,-0.0033366815,0.0033528658,0.7070959,0.7071017,0,1006.35095,8.321,-0.00071,-0.00021,0
135.85834,2000,0,91.24,0.000002697398,0.000002697398,0.000002697398,0.99999994,0,0,0,0,0,0,1,0,0,0,0,false,false,false,0,598.16,17.01,-0.0033366815,0.0033528658,0.7070959,0.7071017,0,1011.05096,8.321,-0.00071,-0.00021,0
135.86667,2000,0,91.24,0.000002697398,0.000002697398,0.000002697398,0.99999994,0,0,0,0,0,0,1,0,0,0,0,false,false,false,0,606.58997,17.01,-0.0033366815,0.0033528658,0.7070959,0.7071017,0,1015.71094,8.321,-0.00071,-0.00021,0
135.875,2000,0,91.24,0.000002697398,0.000002697398,0.000002697398,0.99999994,0,0,0,0,0,0,1,0,0,0,0,false,false,false,0,615.05,17.01,-0.0033366815,0.0033528658,0.7070959,0.7071017,0,1020.33093,8.321,-0.00071,-0.00021,0
135.88333,2000,0,91.24,0.000002697398,0.000002697398,0.000002697398,0.99999994,0,0,0,0,0,0,1,0,0,0,0,false,false,false,0,623.55,17.01,-0.0033366815,0.0033528658,0.7070959,0.7071017,0,1024.911,8.321,-0.00081,-0.00021,0
135.89166,2000,0,91.24,0.000002697398,0.000002697398,0.000002697398,0.99999994,0,0,0,0,0,0,1,0,0,0,0,false,false,false,0,632.08997,17.01,-0.0033420762,0.0033528658,0.7070959,0.7071017,0,1029.4509,8.321,-0.00081,-0.00021,0
135.9,2000,0,91.24,0.000002697398,0.000002697398,0.000002697398,0.99999994,0,0,0,0,0,0,1,0,0,0,0,false,false,false,0,640.67,17.01,-0.003347471,0.0033528658,0.7070959,0.70710164,0,1033.9609,8.321,-0.00081,-0.00010999999,0
135.90834,2000,0,91.24,0.000002697398,0.000002697398,0.000002697398,0.99999994,0,0,0,0,0,0,1,0,0,0,0,false,false,false,0,649.29,17.01,-0.003347471,0.0033528658,0.7070959,0.70710164,0,1038.4309,8.321,-0.00071,0,0
135.91667,2000,0,91.24,0.000002697398,0.000002697398,0.000002697398,0.99999994,0,0,0,0,0,0,1,0,0,0,0,false,false,false,0,657.94,17.01,-0.003347471,0.0033528658,0.7070959,0.70710164,0,1042.861,8.321,-0.00071,0,0
135.925,2000,0,91.24,0.000002697398,0.000002697398,0.000002697398,0.99999994,0,0,0,0,0,0,1,0,0,0,0,false,false,false,0,666.63,17.01,-0.003347471,0.0033528658,0.7070959,0.70710164,0,1047.251,8.321,-0.00071,0,0
135.93333,2000,0,91.24,0.000002697398,0.000002697398,0.000002697398,0.99999994,0,0,0,0,0,0,1,0,0,0,0,false,false,false,0,675.36,17.01,-0.003347471,0.0033528658,0.7070959,0.70710164,0,1051.601,8.321,-0.00071,0,0
135.94167,2000,0,91.24,0.000002697398,0.000002697398,0.000002697398,0.99999994,0,0,0,0,0,0,1,0,0,0,0,false,false,false,0,684.12,17.01,-0.003347471,0.0033528658,0.7070959,0.70710164,0,1055.9209,8.321,-0.00071,0,0
135.95,2000,0,91.24,0.000002697398,0.000002697398,0.000002697398,0.99999994,0,0,0,0,0,0,1,0,0,0,0,false,false,false,0,692.92,17.01,-0.003347471,0.0033528658,0.7070959,0.70710164,0,1060.2009,8.321,-0.00071,0,0
135.95833,2000,0,91.24,0.000002697398,0.000002697398,0.000002697398,0.99999994,0,0,0,0,0,0,1,0,0,0,0,false,false,false,0,701.76,17.01,-0.003347471,0.0033528658,0.7070959,0.70710164,0,1064.4409,8.321,-0.00071,0,0
135.96666,2000,0,91.24,0.000002697398,0.000002697398,0.000002697398,0.99999994,0,0,0,0,0,0,1,0,0,0,0,false,false,false,0,710.63,17.01,-0.003347471,0.0033528658,0.7070959,0.70710164,0,1068.651,8.321,-0.00071,0,0
135.975,2000,0,91.24,0.000002697398,0.000002697398,0.000002697398,0.99999994,0,0,0,0,0,0,1,0,0,0,0,false,false,false,0,719.54,17.01,-0.003347471,0.0033528658,0.7070959,0.70710164,0,1072.8209,8.321,-0.00071,0,0
135.98334,2000,0,91.24,0.000002697398,0.000002697398,0.000002697398,0.99999994,0,0,0,0,0,0,1,0,0,0,0,false,false,false,0,728.48,17.01,-0.003347471,0.0033528658,0.7070959,0.70710164,0,1076.9509,8.321,-0.00071,0,0
135.99167,2000,0,91.24,0.000002697398,0.000002697398,0.000002697398,0.99999994,0,0,0,0,0,0,1,0,0,0,0,false,false,false,0,737.45,17.01,-0.003347471,0.0033528658,0.7070959,0.70710164,0,1081.0509,8.321,-0.00071,0,0
136,2000,0,91.24,0.000002697398,0.000002697398,0.000002697398,0.99999994,0,0,0,0,0,0,1,0,0,0,0,false,false,false,0,746.45996,17.01,-0.003347471,0.0033528658,0.7070959,0.70710164,0,1085.111,8.321,-0.00071,0,0
136.00833,2000,0,91.24,0.000002697398,0.000002697398,0.000002697398,0.99999994,0,0,0,0,0,0,1,0,0,0,0,false,false,false,0,755.5,17.01,-0.003347471,0.0033528658,0.7070959,0.70710164,0,1089.141,8.321,-0.00071,0,0
136.01666,2000,0,91.24,0.000002697398,0.000002697398,0.000002697398,0.99999994,0,0,0,0,0,0,1,0,0,0,0,false,false,false,0,764.57996,17.01,-0.003347471,0.0033528658,0.7070959,0.70710164,0,1093.131,8.321,-0.00071,0,0
136.025,2000,0,91.24,0.000002697398,0.000002697398,0.000002697398,0.99999994,0,0,0,0,0,0,1,0,0,0,0,false,false,false,0,773.69,17.01,-0.003347471,0.0033528658,0.7070959,0.70710164,0,1097.091,8.321,-0.00071,0,0
136.03334,2000,0,91.24,0.000002697398,0.000002697398,0.000002697398,0.99999994,0,0,0,0,0,0,1,0,0,0,0,false,false,false,0,782.82996,17.01,-0.003347471,0.0033528658,0.7070959,0.70710164,0,1101.021,8.321,-0.00071,0,0
136.04167,2000,0,91.24,0.000002697398,0.000002697398,0.000002697398,0.99999994,0,0,0,0,0,0,0,1,0,0,0,false,false,true,0,792.01,17.01,-0.003347471,0.0033528658,0.7070959,0.70710164,-12.991,1098.771,8.341001,-0.0010099999,0.00331,0.35971
136.05,2000,0,91.24,0.000002697398,0.000002697398,0.000002697398,0.99999994,0,0,0,0,0,0,0,1,0,0,0,false,false,true,-0.11,801.17,17.01,-0.003347471,0.0033582605,0.7081574,0.70603853,-23.081,1096.981,8.351,-0.00111,0.00451,0.62871
136.05833,2000,0,91.24,0.000002697398,0.000002697398,0.000002697398,0.99999994,0,0,0,0,0,0,0,1,0,0,0,false,false,true,-0.29999998,810.31,17.01,-0.003347471,0.0033636554,0.7100028,0.70418274,-32.531,1095.281,8.351,-0.00111,0.00481,0.86081
136.06667,2000,0,91.24,0.000002697398,0.000002697398,0.000002697398,0.99999994,0,0,0,0,0,0,0,1,0,0,0,false,false,true,-0.57,819.44,17.01,-0.003347471,0.00336905,0.71252453,0.701631,-41.690998,1093.621,8.351,-0.00111,0.00451,1.06211
136.075,2000,0,91.24,0.000002697398,0.000002697398,0.000002697398,0.99999994,0,0,0,0,0,0,0,1,0,0,0,false,false,true,-0.91999996,828.55,17.01,-0.0033528658,0.00336905,0.7156238,0.69846964,-50.790997,1091.9509,8.351,-0.00111,0.00391,1.23771
136.08333,2000,0,91.24,0.000002697398,0.000002697398,0.000002697398,0.99999994,0,0,0,0,0,0,0,1,0,0,0,false,false,true,-1.3399999,837.64996,17.01,-0.0033636554,0.00336905,0.71921736,0.6947687,-59.990997,1090.231,8.351,-0.0010099999,0.00321,1.3918099
136.09166,2000,0,91.24,0.000002697398,0.000002697398,0.000002697398,0.99999994,0,0,0,0,0,0,0,1,0,0,0,false,false,true,-1.8399999,846.74,17.01,-0.003374445,0.0033636554,0.7232328,0.69058776,-69.370995,1088.4209,8.351,-0.00091,0.00251,1.52801
136.1,2000,0,91.24,0.000002697398,0.000002697398,0.000002697398,0.99999994,0,0,0,0,0,0,0,1,0,0,0,false,false,true,-2.4199998,855.81,17.01,-0.0033906295,0.003352866,0.7276143,0.6859699,-78.951,1086.501,8.351,-0.00081,0.0018099999,1.64911
136.10834,2000,0,91.24,0.000002697398,0.000002697398,0.000002697398,0.99999994,0,0,0,0,0,0,0,1,0,0,0,false,false,true,-3.08,864.86,17.01,-0.0034122085,0.0033366815,0.7323118,0.68095267,-88.741,1084.4309,8.351,-0.00071,0.00111,1.7574099
136.11667,2000,0,91.24,0.000002697398,0.000002697398,0.000002697398,0.99999994,0,0,0,0,0,0,0,1,0,0,0,false,false,true,-3.82,873.89996,17.01,-0.003433788,0.0033151025,0.7372766,0.6755741,-98.701,1082.2109,8.351,-0.00061,0.00051,1.85481
136.125,2000,0,91.24,0.000002697398,0.000002697398,0.000002697398,0.99999994,0,0,0,0,0,0,0,1,0,0,0,false,false,true,-4.64,882.92,17.01,-0.0034607616,0.003293523,0.74247605,0.6698555,-108.781,1079.8209,8.351,-0.00051,0,1.9428099
136.13333,2000,0,91.24,0.000002697398,0.000002697398,0.000002697398,0.99999994,0,0,0,0,0,0,0,1,0,0,0,false,false,true,-5.5499997,891.92,17.01,-0.0034877358,0.003266549,0.74787337,0.6638241,-118.921,1077.251,8.351,-0.00040999998,-0.00030999997,2.02251
136.14166,2000,0,91.24,0.000002697398,0.000002697398,0.000002697398,0.99999994,0,0,0,0,0,0,0,1,0,0,0,false,false,true,-6.54,900.89996,17.01,-0.0035147099,0.0032395753,0.7534428,0.65749604,-129.05101,1074.511,8.351,-0.00030999997,-0.00051,2.09491
136.15,2000,0,91.24,0.000002697398,0.000002697398,0.000002697398,0.99999994,0,0,0,0,0,0,0,1,0,0,0,false,false,true,-7.62,909.85,17.01,-0.0035470785,0.0032072063,0.75915456,0.6508927,-139.091,1071.611,8.351,-0.00021,-0.00071,2.1607099
136.15834,2000,0,91.24,0.000002697398,0.000002697398,0.000002697398,0.99999994,0,0,0,0,0,0,0,1,0,0,0,false,false,true,-8.78,918.77997,17.01,-0.0035794473,0.0031748374,0.7649847,0.6440305,-148.94101,1068.5709,8.351,-0.00010999999,-0.00091,2.2204099
136.16667,2000,0,91.24,0.000002697398,0.000002697398,0.000002697398,0.99999994,0,0,0,0,0,0,0,1,0,0,0,false,false,true,-10.0199995,927.68,17.01,-0.003611816,0.003137074,0.7709103,0.6369256,-158.521,1065.4209,8.351,0,-0.0010099999,2.27451
136.175,2000,0,91.24,0.000002697398,0.000002697398,0.000002697398,0.99999994,0,0,0,0,0,0,0,1,0,0,0,false,false,true,-11.34,936.56,17.01,-0.0036441851,0.0030993107,0.77691394,0.6295886,-167.72101,1062.1909,8.351,0,-0.00111,2.32331
136.18333,2000,0,91.24,0.000002697398,0.000002697398,0.000002697398,0.99999994,0,0,0,0,0,0,0,1,0,0,0,false,false,true,-12.74,945.41,17.01,-0.0036765535,0.0030615467,0.78297406,0.6220358,-176.451,1058.9209,8.351,0,-0.0012099999,2.36691
136.19167,2000,0,91.24,0.000002697398,0.000002697398,0.000002697398,0.99999994,0,0,0,0,0,0,0,1,0,0,0,false,false,true,-14.21,954.23,17.01,-0.0037089218,0.003023783,0.7890708,0.61428344,-184.601,1055.6809,8.351,0,-0.00131,2.40551
136.2,2000,0,91.24,0.000002697398,0.000002697398,0.000002697398,0.99999994,0,0,0,0,0,0,0,1,0,0,0,false,false,true,-15.75,963.02997,17.01,-0.0037412911,0.0029806248,0.7951893,0.60634226,-192.071,1052.521,8.351,0,-0.00131,2.43921
136.20833,2000,0,91.24,0.000002697398,0.000002697398,0.000002697398,0.99999994,0,0,0,0,0,0,0,1,0,0,0,false,false,true,-17.35,971.8,17.01,-0.0037736602,0.0029374666,0.8013112,0.5982286,-198.741,1049.531,8.351,0,-0.00131,2.46801
136.21666,2000,0,91.24,0.000002697398,0.000002697398,0.000002697398,0.99999994,0,0,0,0,0,0,0,1,0,0,0,false,false,true,-19.01,980.55,17.01,-0.0038060287,0.0028943082,0.8074194,0.5899583,-204.501,1046.7909,8.341001,0,-0.00131,2.49191
136.225,2000,0,91.24,0.000002697398,0.000002697398,0.000002697398,0.99999994,0,0,0,0,0,0,0,1,0,0,0,false,false,true,-20.71,989.26996,17.01,-0.0038383976,0.0028511498,0.813502,0.5815423,-209.241,1044.411,8.341001,0,-0.0014099999,2.51081
136.23334,2000,0,91.24,0.000002697398,0.000002697398,0.000002697398,0.99999994,0,0,0,0,0,0,0,1,0,0,0,false,false,true,-22.449999,997.97,17.01,-0.0038707664,0.0028079913,0.81953967,0.57300234,-212.841,1042.491,8.331,0,-0.0014099999,2.52471
136.24167,2000,0,91.24,0.000002697398,0.000002697398,0.000002697398,0.99999994,0,0,0,0,0,0,0,1,0,0,0,false,false,true,-24.22,1006.66,17.01,-0.003903135,0.002764833,0.82552224,0.5643491,-216.58101,1040.411,8.331,0,-0.0014099999,2.53801
136.25,2000,0,91.24,0.000002697398,0.000002697398,0.000002697398,0.99999994,0,0,0,0,0,0,0,1,0,0,0,false,false,true,-26.019999,1015.32996,17.01,-0.003935504,0.0027216745,0.83144397,0.5555879,-220.451,1038.151,8.331,0.00010999999,-0.0014099999,2.55091
136.25833,2000,0,91.24,0.000002697398,0.000002697398,0.000002697398,0.99999994,0,0,0,0,0,0,0,1,0,0,0,false,false,true,-27.859999,1023.98,17.01,-0.003967872,0.002678516,0.8373024,0.5467188,-224.44101,1035.7109,8.331,0.00010999999,-0.00131,2.56341
136.26666,2000,0,91.24,0.000002697398,0.000002697398,0.000002697398,0.99999994,0,0,0,0,0,0,0,1,0,0,0,false,false,true,-29.73,1032.61,17.01,-0.004000241,0.002629963,0.84309244,0.5377472,-228.531,1033.091,8.331,0.00021,-0.0012099999,2.57541
136.275,2000,0,91.24,0.000002697398,0.000002697398,0.000002697398,0.99999994,0,0,0,0,0,0,0,1,0,0,0,false,false,true,-31.63,1041.22,17.01,-0.00403261,0.0025814099,0.84881526,0.52866775,-232.711,1030.2909,8.331,0.00021,-0.00111,2.58701
136.28334,2000,0,91.24,0.000002697398,0.000002697398,0.000002697398,0.99999994,0,0,0,0,0,0,0,1,0,0,0,false,false,true,-33.57,1049.8099,17.01,-0.0040649786,0.0025328568,0.85446554,0.51948583,-236.97101,1027.3109,8.331,0.00021,-0.0010099999,2.5982099
136.29167,2000,0,91.24,0.000002697398,0.000002697398,0.000002697398,0.99999994,0,0,0,0,0,0,0,1,0,0,0,false,false,true,-35.54,1058.37,17.01,-0.0040973476,0.0024843037,0.8600384,0.51020664,-241.301,1024.141,8.331,0.00021,-0.00091,2.60901
136.3,2000,0,91.24,0.000002697398,0.000002697398,0.000002697398,0.99999994,0,0,0,0,0,0,0,1,0,0,0,false,false,true,-37.55,1066.9,17.01,-0.0041243215,0.0024357503,0.86553514,0.5008251,-245.691,1020.79095,8.331,0.00021,-0.00081,2.61931
136.30833,2000,0,91.24,0.000002697398,0.000002697398,0.000002697398,0.99999994,0,0,0,0,0,0,0,1,0,0,0,false,false,true,-39.6,1075.41,17.01,-0.0041512954,0.0023871972,0.87094796,0.4913518,-250.121,1017.251,8.331,0.00021,-0.00071,2.62921
136.31667,2000,0,91.24,0.000002697398,0.000002697398,0.000002697398,0.99999994,0,0,0,0,0,0,0,1,0,0,0,false,false,true,-41.68,1083.89,17.01,-0.0041782693,0.0023386441,0.8762783,0.48178142,-254.58101,1013.53094,8.331,0.00010999999,-0.00061,2.63861
136.325,2000,0,91.24,0.000002697398,0.000002697398,0.000002697398,0.99999994,0,0,0,0,0,0,0,1,0,0,0,false,false,true,-43.8,1092.34,17.01,-0.004205243,0.0022900908,0.8815216,0.47211927,-259.061,1009.621,8.331,0.00010999999,-0.00061,2.64761
136.33333,2000,0,91.24,0.000002697398,0.000002697398,0.000002697398,0.99999994,0,0,0,0,0,0,0,1,0,0,0,false,false,true,-45.96,1100.75,17.01,-0.0042322176,0.0022415377,0.88667643,0.46236548,-263.551,1005.53094,8.331,0.00010999999,-0.00051,2.65611
136.34166,2000,0,91.24,0.000002697398,0.000002697398,0.000002697398,0.99999994,0,0,0,0,0,0,0,1,0,0,0,false,false,true,-48.16,1109.13,17.01,-0.0042591915,0.0021929846,0.89173865,0.4525253,-268.04102,1001.2609,8.331,0.00010999999,-0.00051,2.66411
136.35,2000,0,91.24,0.000002697398,0.000002697398,0.000002697398,0.99999994,0,0,0,0,0,0,0,1,0,0,0,false,false,true,-50.39,1117.47,17.01,-0.0042861653,0.0021444315,0.8967069,0.44259885,-272.521,996.811,8.331,0.00010999999,-0.00040999998,2.6716099
136.35834,2000,0,91.24,0.000002697398,0.000002697398,0.000002697398,0.99999994,0,0,0,0,0,0,0,1,0,0,0,false,false,true,-52.66,1125.78,17.01,-0.0043131392,0.0020958781,0.9015772,0.4325915,-276.971,992.18097,8.331,0.00010999999,-0.00030999997,2.6786098
136.36667,2000,0,91.24,0.000002697398,0.000002697398,0.000002697398,0.99999994,0,0,0,0,0,0,0,1,0,0,0,false,false,true,-54.969997,1134.0499,17.01,-0.0043347185,0.002047325,0.9063487,0.42250314,-281.391,987.381,8.331,0.00010999999,-0.00030999997,2.6851099
136.375,2000,0,91.24,0.000002697398,0.000002697398,0.000002697398,0.99999994,0,0,0,0,0,0,0,1,0,0,0,false,false,true,-57.309998,1142.28,17.01,-0.0043562977,0.001998772,0.91101766,0.41233936,-285.761,982.41095,8.331,0.00010999999,-0.00030999997,2.69111
136.38333,2000,0,91.24,0.000002697398,0.000002697398,0.000002697398,0.99999994,0,0,0,0,0,0,0,1,0,0,0,false,false,true,-59.69,1150.47,17.01,-0.0043778773,0.0019502189,0.9155832,0.40209997,-290.071,977.28094,8.331,0.00010999999,-0.00030999997,2.69661
136.39166,2000,0,91.24,0.000002697398,0.000002697398,0.000002697398,0.99999994,0,0,0,0,0,0,0,1,0,0,0,false,false,true,-62.109997,1158.61,17.01,-0.0043994565,0.0019016658,0.92004424,0.39178512,-294.321,971.99097,8.331,0.00010999999,-0.00030999997,2.7016098
136.4,2000,0,91.24,0.000002697398,0.000002697398,0.000002697398,0.99999994,0,0,0,0,0,0,0,1,0,0,0,false,false,true,-64.56,1166.71,17.01,-0.0044210353,0.0018531125,0.9243953,0.3814054,-298.491,966.55096,8.331,0.00010999999,-0.00030999997,2.7060099
136.40834,2000,0,91.24,0.000002697398,0.000002697398,0.000002697398,0.99999994,0,0,0,0,0,0,0,1,0,0,0,false,false,true,-67.049995,1174.76,17.01,-0.0044426145,0.0018045594,0.92863595,0.3709611,-302.581,960.96094,8.331,0.00010999999,-0.00030999997,2.70991
136.41667,2000,0,91.24,0.000002697398,0.000002697398,0.000002697398,0.99999994,0,0,0,0,0,0,0,1,0,0,0,false,false,true,-69.57,1182.77,17.01,-0.004464194,0.0017560063,0.9327654,0.36045197,-306.581,955.23096,8.331,0.00021,-0.00030999997,2.7132099
136.425,2000,0,91.24,0.000002697398,0.000002697398,0.000002697398,0.99999994,0,0,0,0,0,0,0,1,0,0,0,false,false,true,-72.119995,1190.73,17.01,-0.0044857734,0.0017020582,0.93678087,0.3498836,-310.481,949.371,8.331,0.00021,-0.00030999997,2.71591
136.43333,2000,0,91.24,0.000002697398,0.000002697398,0.000002697398,0.99999994,0,0,0,0,0,0,0,1,0,0,0,false,false,true,-74.71,1198.64,17.01,-0.0045073526,0.0016481103,0.94067997,0.33926114,-314.271,943.381,8.331,0.00021,-0.00030999997,2.7181098
136.44167,2000,0,91.24,0.000002697398,0.000002697398,0.000002697398,0.99999994,0,0,0,0,0,0,0,1,0,0,0,false,false,true,-77.33,1206.5,17.01,-0.004528932,0.0015941623,0.94446224,0.32858482,-317.941,937.27094,8.331,0.00021,-0.00021,2.7197099
136.45,2000,0,91.24,0.000002697398,0.000002697398,0.000002697398,0.99999994,0,0,0,0,0,0,0,1,0,0,0,false,false,true,-79.979996,1214.3099,17.01,-0.0045451154,0.0015402143,0.9481255,0.31785986,-321.491,931.05096,8.331,0.00021,-0.00010999999,2.72071
136.45833,2000,0,91.24,0.000002697398,0.000002697398,0.000002697398,0.99999994,0,0,0,0,0,0,0,1,0,0,0,false,false,true,-82.659996,1222.07,17.01,-0.0045613,0.0014862664,0.9516677,0.30709186,-324.911,924.72095,8.331,0.00021,-0.00010999999,2.72101
136.46666,2000,0,91.24,0.000002697398,0.000002697398,0.000002697398,0.99999994,0,0,0,0,0,0,0,1,0,0,0,false,false,true,-85.369995,1229.78,17.01,-0.0045774844,0.0014323184,0.95508885,0.2962806,-328.191,918.30096,8.331,0.00021,-0.00010999999,2.72071
136.475,2000,0,91.24,0.000002697398,0.000002697398,0.000002697398,0.99999994,0,0,0,0,0,0,0,1,0,0,0,false,false,true,-88.1,1237.4299,17.01,-0.004593669,0.0013783704,0.9583854,0.28543705,-331.331,911.79095,8.331,0.00021,-0.00010999999,2.71981
136.48334,2000,0,91.24,0.000002697398,0.000002697398,0.000002697398,0.99999994,0,0,0,0,0,0,0,1,0,0,0,false,false,true,-90.86,1245.03,17.01,-0.004609853,0.0013244224,0.9615592,0.27455565,-334.331,905.21094,8.331,0.00021,-0.00010999999,2.71821
136.49167,2000,0,91.24,0.000002697398,0.000002697398,0.000002697398,0.99999994,0,0,0,0,0,0,0,1,0,0,0,false,false,true,-93.65,1252.57,17.01,-0.0046260376,0.0012704745,0.9646071,0.26364738,-337.181,898.561,8.331,0.00010999999,-0.00010999999,2.7160099
136.5,2000,0,91.24,0.000002697398,0.000002697398,0.000002697398,0.99999994,0,0,0,0,0,0,0,1,0,0,0,false,false,true,-96.46,1260.0599,17.01,-0.0046422225,0.0012165266,0.9675296,0.25271207,-339.881,891.85095,8.331,0.00010999999,-0.00010999999,2.71311
136.50833,2000,0,91.24,0.000002697398,0.000002697398,0.000002697398,0.99999994,0,0,0,0,0,0,0,1,0,0,0,false,false,true,-99.29,1267.49,17.01,-0.004658406,0.0011625786,0.970324,0.24176063,-342.421,885.09094,8.331,0.00010999999,0,2.7095098
136.51666,2000,0,91.24,0.000002697398,0.000002697398,0.000002697398,0.99999994,0,0,0,0,0,0,0,1,0,0,0,false,false,true,-102.14,1274.87,17.01,-0.004669196,0.0011086306,0.972991,0.23079292,-344.801,878.29095,8.331,0.00010999999,0,2.70521
136.525,2000,0,91.24,0.000002697398,0.000002697398,0.000002697398,0.99999994,0,0,0,0,0,0,0,1,0,0,0,false,false,true,-105.009995,1282.19,17.01,-0.0046799853,0.0010546827,0.97553104,0.21980911,-347.021,871.46094,8.331,0.00010999999,0,2.7002099
136.53334,2000,0,91.24,0.000002697398,0.000002697398,0.000002697398,0.99999994,0,0,0,0,0,0,0,1,0,0,0,false,false,true,-107.899994,1289.45,17.01,-0.004690775,0.0010007346,0.9779423,0.20881984,-349.081,864.61096,8.331,0.00010999999,0,2.69451
136.54167,2000,0,91.24,0.000002697398,0.000002697398,0.000002697398,0.99999994,0,0,0,0,0,0,0,1,0,0,0,false,false,true,-110.81,1296.6599,17.01,-0.0047015646,0.0009467867,0.9802255,0.19782524,-350.971,857.751,8.331,0.00010999999,0,2.6881099
136.55,2000,0,91.24,0.000002697398,0.000002697398,0.000002697398,0.99999994,0,0,0,0,0,0,0,1,0,0,0,false,false,true,-113.729996,1303.8099,17.01,-0.004712355,0.0008928388,0.9823794,0.18683596,-352.701,850.8909,8.331,0.00010999999,0,2.6809099
136.55833,2000,0,91.24,0.000002697398,0.000002697398,0.000002697398,0.99999994,0,0,0,0,0,0,0,1,0,0,0,false,false,true,-116.67,1310.9,17.01,-0.0047231438,0.0008388908,0.98440486,0.17585215,-354.271,844.04095,8.331,0.00010999999,0,2.6730099
136.56667,2000,0,91.24,0.000002697398,0.000002697398,0.000002697398,0.99999994,0,0,0,0,0,0,0,1,0,0,0,false,false,true,-119.619995,1317.9299,17.01,-0.0047339336,0.0007849428,0.9863021,0.16487904,-355.671,837.21094,8.331,0.00010999999,0,2.66431
136.575,2000,0,91.24,0.000002697398,0.000002697398,0.000002697398,0.99999994,0,0,0,0,0,0,0,1,0,0,0,false,false,true,-122.579994,1324.9099,17.01,-0.0047447234,0.0007309949,0.98807126,0.15392223,-356.911,830.40094,8.331,0.00010999999,0,2.6549098
136.58333,2000,0,91.24,0.000002697398,0.000002697398,0.000002697398,0.99999994,0,0,0,0,0,0,0,1,0,0,0,false,false,true,-125.549995,1331.83,17.01,-0.004750118,0.00067704695,0.98971367,0.1429815,-357.991,823.631,8.331,0.00010999999,0,2.64471
136.59166,2000,0,91.24,0.000002697398,0.000002697398,0.000002697398,0.99999994,0,0,0,0,0,0,0,1,0,0,0,false,false,true,-128.53,1338.69,17.01,-0.004755513,0.0006230989,0.991229,0.1320678,-358.911,816.91095,8.331,0,0,2.63371
136.6,2000,0,91.24,0.000002697398,0.000002697398,0.000002697398,0.99999994,0,0,0,0,0,0,0,1,0,0,0,false,false,true,-131.52,1345.5,17.01,-0.0047609075,0.00056915096,0.9926188,0.12118103,-359.681,810.251,8.331,0,0,2.6219099
136.60834,2000,0,91.24,0.000002697398,0.000002697398,0.000002697398,0.99999994,0,0,0,0,0,0,0,1,0,0,0,false,false,true,-134.52,1352.25,17.01,-0.0047663017,0.00051520293,0.9938831,0.11033208,-360.301,803.65094,8.331,0,0,2.60931
136.61667,2000,0,91.24,0.000002697398,0.000002697398,0.000002697398,0.99999994,0,0,0,0,0,0,0,1,0,0,0,false,false,true,-137.52,1358.95,17.01,-0.004771697,0.00046125508,0.99502385,0.09952092,-360.771,797.131,8.331,0,0,2.59581
136.625,2000,0,91.24,0.000002697398,0.000002697398,0.000002697398,0.99999994,0,0,0,0,0,0,0,1,0,0,0,false,false,true,-140.53,1365.59,17.01,-0.004777092,0.00040730712,0.9960421,0.08875282,-361.101,790.691,8.331,0,0,2.58151
136.63333,2000,0,91.24,0.000002697398,0.000002697398,0.000002697398,0.99999994,0,0,0,0,0,0,0,1,0,0,0,false,false,true,-143.54,1372.1799,17.01,-0.004782487,0.00035335918,0.9969392,0.07803337,-361.291,784.34094,8.331,0,0,2.56631
136.64166,2000,0,91.24,0.000002697398,0.000002697398,0.000002697398,0.99999994,0,0,0,0,0,0,0,1,0,0,0,false,false,true,-146.55,1378.72,17.01,-0.004787882,0.00030480602,0.99771667,0.06736778,-361.351,778.09094,8.331,0,0,2.55031
136.65,2000,0,91.24,0.000002697398,0.000002697398,0.000002697398,0.99999994,0,0,0,0,0,0,0,1,0,0,0,false,false,true,-149.56,1385.2,17.01,-0.0047932756,0.00025625277,0.9983761,0.056761593,-361.281,771.941,8.331,0,0,2.5334098
136.65834,2000,0,91.24,0.000002697398,0.000002697398,0.000002697398,0.99999994,0,0,0,0,0,0,0,1,0,0,0,false,false,true,-152.56999,1391.63,17.01,-0.0047932756,0.00020769962,0.9989196,0.04622008,-361.091,765.91095,8.331,0,0,2.51561
136.66667,2000,0,91.24,0.000002697398,0.000002697398,0.000002697398,0.99999994,0,0,0,0,0,0,0,1,0,0,0,false,false,true,-155.58,1398.01,17.01,-0.004793276,0.00015914648,0.99934924,0.035748783,-360.781,760.001,8.331,0,0,2.4969099
136.675,2000,0,91.24,0.000002697398,0.000002697398,0.000002697398,0.99999994,0,0,0,0,0,0,0,1,0,0,0,false,false,true,-158.59,1404.34,17.01,-0.0047932756,0.000110593304,0.99966705,0.025347533,-360.371,754.22095,8.331,0,0,2.47721
136.68333,2000,0,91.24,0.000002697398,0.000002697398,0.000002697398,0.99999994,0,0,0,0,0,0,0,1,0,0,0,false,false,true,-161.59,1410.63,17.01,-0.004793276,0.000062040155,0.99987555,0.015027289,-359.851,748.571,8.331,0.00010999999,0,2.45661
136.69167,2000,0,91.24,0.000002697398,0.000002697398,0.000002697398,0.99999994,0,0,0,0,0,0,0,1,0,0,0,false,false,true,-164.59,1416.87,17.01,-0.004793276,0.000013486991,0.999977,0.004793276,-359.241,743.061,8.331,0.00010999999,0,2.43501
136.7,2000,0,91.24,0.000002697398,0.000002697398,0.000002697398,0.99999994,0,0,0,0,0,0,0,1,0,0,0,false,false,true,-167.58,1423.0599,17.01,-0.004793276,-0.000035066172,0.99997413,-0.005354335,-358.551,737.701,8.331,0.00021,0,2.41241
136.70833,2000,0,91.24,0.000002697398,0.000002697398,0.000002697398,0.99999994,0,0,0,0,0,0,0,1,0,0,0,false,false,true,-170.56999,1429.21,17.01,-0.0047932756,-0.00008361933,0.9998697,-0.015404881,-357.781,732.49097,8.331,0.00021,0,2.38881
136.71666,2000,0,91.24,0.000002697398,0.000002697398,0.000002697398,0.99999994,0,0,0,0,0,0,0,1,0,0,0,false,false,true,-173.55,1435.3099,17.01,-0.0047932756,-0.00013217248,0.9996668,-0.025358321,-356.941,727.43097,8.331,0.00021,0,2.36411
136.725,2000,0,91.24,0.000002697398,0.000002697398,0.000002697398,0.99999994,0,0,0,0,0,0,0,1,0,0,0,false,false,true,-176.51999,1441.37,17.01,-0.0047932756,-0.00018072565,0.9993685,-0.035203863,-356.041,722.53094,8.331,0.00021,0,2.33841
136.73334,2000,0,91.24,0.000002697398,0.000002697398,0.000002697398,0.99999994,0,0,0,0,0,0,0,1,0,0,0,false,false,true,-179.48999,1447.39,17.01,-0.004793276,-0.00022927884,0.998978,-0.04494152,-355.081,717.79095,8.331,0.00021,0,2.3115098
136.74167,2000,0,91.24,0.000002697398,0.000002697398,0.000002697398,0.99999994,0,0,0,0,0,0,0,1,0,0,0,false,false,true,-182.45,1453.37,17.01,-0.0047932756,-0.00027783198,0.9984988,-0.054560475,-354.051,713.18097,8.331,0.00021,0,2.28511
136.75,2000,0,91.24,0.000002697398,0.000002697398,0.000002697398,0.99999994,0,0,0,0,0,0,0,1,0,0,0,false,false,true,-185.4,1459.3099,17.01,-0.0047878814,-0.00032638517,0.99793404,-0.06406615,-352.951,708.67096,8.331,0.00021,0,2.26001
136.75833,2000,0,91.24,0.000002697398,0.000002697398,0.000002697398,0.99999994,0,0,0,0,0,0,0,1,0,0,0,false,false,true,-188.34,1465.22,17.01,-0.0047824867,-0.00037493833,0.9972867,-0.07345854,-351.781,704.27094,8.331,0.00010999999,0,2.23601
136.76666,2000,0,91.24,0.000002697398,0.000002697398,0.000002697398,0.99999994,0,0,0,0,0,0,0,1,0,0,0,false,false,true,-191.26999,1471.09,17.01,-0.004777092,-0.0004180967,0.99655885,-0.082748376,-350.551,699.98096,8.331,0,0,2.21311
136.775,2000,0,91.24,0.000002697398,0.000002697398,0.000002697398,0.99999994,0,0,0,0,0,0,0,1,0,0,0,false,false,true,-194.19,1476.9199,17.01,-0.0047716964,-0.00046125503,0.9957532,-0.09193575,-349.271,695.811,8.331,0,0,2.19131
136.78334,2000,0,91.24,0.000002697398,0.000002697398,0.000002697398,0.99999994,0,0,0,0,0,0,0,1,0,0,0,false,false,true,-197.09999,1482.72,17.01,-0.0047663026,-0.0005044135,0.9948722,-0.101026036,-347.941,691.761,8.331,0,0,2.17051
136.79167,2000,0,91.24,0.000002697398,0.000002697398,0.000002697398,0.99999994,0,0,0,0,0,0,0,1,0,0,0,false,false,true,-200,1488.48,17.01,-0.004760907,-0.00054757175,0.99391776,-0.110019185,-346.571,687.84094,8.331,0,0,2.15061
136.8,2000,0,91.24,0.000002697398,0.000002697398,0.000002697398,0.99999994,0,0,0,0,0,0,0,1,0,0,0,false,false,true,-202.89,1494.21,17.01,-0.004755513,-0.00059073017,0.99289215,-0.118920654,-345.141,684.011,8.331,0,0,2.13251
136.80833,2000,0,91.24,0.000002697398,0.000002697398,0.000002697398,0.99999994,0,0,0,0,0,0,0,1,0,0,0,false,false,true,-205.76999,1499.9099,17.01,-0.004750118,-0.0006338886,0.9917966,-0.1277358,-343.631,680.23096,8.331,0,0,2.1175098
136.81667,2000,0,91.24,0.000002697398,0.000002697398,0.000002697398,0.99999994,0,0,0,0,0,0,0,1,0,0,0,false,false,true,-208.62999,1505.58,17.01,-0.0047447234,-0.00067704695,0.9906311,-0.13648076,-342.031,676.511,8.331,0,0,2.1054099
136.825,2000,0,91.24,0.000002697398,0.000002697398,0.000002697398,0.99999994,0,0,0,0,0,0,0,1,0,0,0,false,false,true,-211.48,1511.22,17.01,-0.0047393283,-0.00072020525,0.98939556,-0.14516641,-340.351,672.85095,8.331,0,0,2.09621
136.83333,2000,0,91.24,0.000002697398,0.000002697398,0.000002697398,0.99999994,0,0,0,0,0,0,0,1,0,0,0,false,false,true,-214.31999,1516.83,17.01,-0.0047339336,-0.00076336367,0.98808974,-0.15380353,-338.601,669.261,8.331,-0.00010999999,0,2.08981
136.84166,2000,0,91.24,0.000002697398,0.000002697398,0.000002697398,0.99999994,0,0,0,0,0,0,0,1,0,0,0,false,false,true,-217.14,1522.4099,17.01,-0.0047285384,-0.00080652203,0.9867128,-0.16240287,-336.781,665.751,8.331,-0.00021,0,2.08621
136.85,2000,0,91.24,0.000002697398,0.000002697398,0.000002697398,0.99999994,0,0,0,0,0,0,0,1,0,0,0,false,false,true,-219.95,1527.96,17.01,-0.004723144,-0.00084428565,0.98526365,-0.17097522,-334.901,662.321,8.331,-0.00030999997,0,2.08531
136.85834,2000,0,91.24,0.000002697398,0.000002697398,0.000002697398,0.99999994,0,0,0,0,0,0,0,1,0,0,0,false,false,true,-222.73999,1533.48,17.01,-0.004717749,-0.00088204915,0.9837405,-0.1795314,-332.961,658.98096,8.331,-0.00030999997,0,2.08701
136.86667,2000,0,91.24,0.000002697398,0.000002697398,0.000002697398,0.99999994,0,0,0,0,0,0,0,1,0,0,0,false,false,true,-225.51,1538.97,17.01,-0.00470696,-0.0009198128,0.98214257,-0.18807681,-330.971,655.73096,8.331,-0.00030999997,0,2.09131
136.875,2000,0,91.24,0.000002697398,0.000002697398,0.000002697398,0.99999994,0,0,0,0,0,0,0,1,0,0,0,false,false,true,-228.26999,1544.4299,17.01,-0.00469617,-0.0009575763,0.9804665,-0.19662759,-328.931,652.58093,8.331,-0.00030999997,-0.00010999999,2.0982099
136.88333,2000,0,91.24,0.000002697398,0.000002697398,0.000002697398,0.99999994,0,0,0,0,0,0,0,1,0,0,0,false,false,true,-231.01,1549.87,17.01,-0.004685381,-0.00099534,0.9787106,-0.20518918,-326.821,649.48096,8.331,-0.00030999997,-0.00021,2.10631
136.89166,2000,0,91.24,0.000002697398,0.000002697398,0.000002697398,0.99999994,0,0,0,0,0,0,0,1,0,0,0,false,false,true,-233.73,1555.2799,17.01,-0.0046745907,-0.0010331034,0.9768717,-0.2137723,-324.641,646.391,8.331,-0.00030999997,-0.00021,2.11501
136.9,2000,0,91.24,0.000002697398,0.000002697398,0.000002697398,0.99999994,0,0,0,0,0,0,0,1,0,0,0,false,false,true,-236.43999,1560.6699,17.01,-0.004663801,-0.0010708668,0.9749501,-0.22237161,-322.381,643.321,8.331,-0.00021,-0.00021,2.12421
136.90834,2000,0,91.24,0.000002697398,0.000002697398,0.000002697398,0.99999994,0,0,0,0,0,0,0,1,0,0,0,false,false,true,-239.12999,1566.0299,17.01,-0.0046530114,-0.0011086306,0.97294366,-0.23099257,-320.051,640.28094,8.331,-0.00021,-0.00030999997,2.13391
136.91667,2000,0,91.24,0.000002697398,0.000002697398,0.000002697398,0.99999994,0,0,0,0,0,0,0,1,0,0,0,false,false,true,-241.79999,1571.37,17.01,-0.004642222,-0.0011463942,0.9708512,-0.23963508,-317.651,637.27094,8.331,-0.00010999999,-0.00030999997,2.14411
136.925,2000,0,91.24,0.000002697398,0.000002697398,0.000002697398,0.99999994,0,0,0,0,0,0,0,1,0,0,0,false,false,true,-244.45,1576.6799,17.01,-0.0046314327,-0.0011895526,0.96867156,-0.24829914,-315.201,634.30096,8.331,0,-0.00030999997,2.15471
136.93333,2000,0,91.24,0.000002697398,0.000002697398,0.000002697398,0.99999994,0,0,0,0,0,0,0,1,0,0,0,false,false,true,-247.08,1581.97,17.01,-0.0046206424,-0.0012327108,0.9664035,-0.25698474,-312.701,631.381,8.331,0,-0.00030999997,2.16571
136.94167,2000,0,91.24,0.000002697398,0.000002697398,0.000002697398,0.99999994,0,0,0,0,0,0,0,1,0,0,0,false,false,true,-249.68999,1587.23,17.01,-0.0046098535,-0.0012758693,0.9640446,-0.26569745,-310.151,628.511,8.331,0,-0.00030999997,2.1772099
136.95,2000,0,91.24,0.000002697398,0.000002697398,0.000002697398,0.99999994,0,0,0,0,0,0,0,1,0,0,0,false,false,true,-252.26999,1592.47,17.01,-0.0045990637,-0.0013190276,0.96159464,-0.27443162,-307.551,625.701,8.331,0,-0.00030999997,2.18911
136.95833,2000,0,91.24,0.000002697398,0.000002697398,0.000002697398,0.99999994,0,0,0,0,0,0,0,1,0,0,0,false,false,true,-254.83,1597.6799,17.01,-0.004588274,-0.001362186,0.959051,-0.2831928,-304.901,622.93097,8.331,0,-0.00030999997,2.20101
136.96666,2000,0,91.24,0.000002697398,0.000002697398,0.000002697398,0.99999994,0,0,0,0,0,0,0,1,0,0,0,false,false,true,-257.37,1602.87,17.01,-0.004577484,-0.0014053442,0.9564136,-0.29197553,-302.161,620.141,8.331,0,-0.00030999997,2.21141
136.975,2000,0,91.24,0.000002697398,0.000002697398,0.000002697398,0.99999994,0,0,0,0,0,0,0,1,0,0,0,false,false,true,-259.88998,1608.0399,17.01,-0.0045666946,-0.0014485028,0.9536832,-0.3007745,-299.331,617.34094,8.331,0,-0.00030999997,2.2204099
136.98334,2000,0,91.24,0.000002697398,0.000002697398,0.000002697398,0.99999994,0,0,0,0,0,0,0,1,0,0,0,false,false,true,-262.38,1613.1799,17.01,-0.004555905,-0.001491661,0.9508598,-0.30958423,-296.411,614.54095,8.331,0,-0.00030999997,2.22801
136.99167,2000,0,91.24,0.000002697398,0.000002697398,0.000002697398,0.99999994,0,0,0,0,0,0,0,1,0,0,0,false,false,true,-264.85,1618.2999,17.01,-0.004545116,-0.0015348196,0.94794446,-0.31839943,-293.411,611.74097,8.331,0,-0.00021,2.23421
137,2000,0,91.24,0.000002697398,0.000002697398,0.000002697398,0.99999994,0,0,0,0,0,0,0,1,0,0,0,false,false,true,-267.3,1623.4,17.01,-0.004528932,-0.001577978,0.94493973,-0.32720917,-290.331,608.951,8.331,0,-0.00010999999,2.2390099
137.00833,2000,0,91.24,0.000002697398,0.000002697398,0.000002697398,0.99999994,0,0,0,0,0,0,0,1,0,0,0,false,false,true,-269.72,1628.47,17.01,-0.004512747,-0.0016211362,0.94184685,-0.33600804,-287.171,606.18097,8.331,0,-0.00010999999,2.24241
137.01666,2000,0,91.24,0.000002697398,0.000002697398,0.000002697398,0.99999994,0,0,0,0,0,0,0,1,0,0,0,false,false,true,-272.11,1633.52,17.01,-0.0044965623,-0.0016642946,0.93866724,-0.34479082,-283.941,603.43097,8.331,0,-0.00010999999,2.24451
137.025,2000,0,91.24,0.000002697398,0.000002697398,0.000002697398,0.99999994,0,0,0,0,0,0,0,1,0,0,0,false,false,true,-274.47998,1638.5499,17.01,-0.0044803782,-0.0017074529,0.9354025,-0.353552,-280.641,600.71094,8.331,0,-0.00010999999,2.24531
137.03334,2000,0,91.24,0.000002697398,0.000002697398,0.000002697398,0.99999994,0,0,0,0,0,0,0,1,0,0,0,false,false,true,-276.82,1643.5599,17.01,-0.0044641937,-0.0017506114,0.9320545,-0.3622862,-277.281,598.02094,8.331,0,-0.00010999999,2.2448099
137.04167,2000,0,91.24,0.000002697398,0.000002697398,0.000002697398,0.99999994,0,0,0,0,0,0,0,1,0,0,0,false,false,true,-279.13,1648.5399,17.01,-0.004448009,-0.0017937698,0.92862517,-0.37098807,-273.861,595.371,8.331,0,-0.00010999999,2.24301
137.05,2000,0,91.24,0.000002697398,0.000002697398,0.000002697398,0.99999994,0,0,0,0,0,0,0,1,0,0,0,false,false,true,-281.41,1653.5,17.01,-0.004431825,-0.0018369282,0.92511684,-0.37965214,-270.381,592.761,8.331,0,-0.00010999999,2.23991
