time,ball_loc_x,ball_loc_y,ball_loc_z,ball_rot_x,ball_rot_y,ball_rot_z,ball_rot_w,ball_vel_x,ball_vel_y,ball_vel_z,ball_ang_x,ball_ang_y,ball_ang_z,player0_throttle,player0_steer,player0_pitch,player0_yaw,player0_roll,player0_jump,player0_boost,player0_handbrake,player0_loc_x,player0_loc_y,player0_loc_z,player0_rot_x,player0_rot_y,player0_rot_z,player0_rot_w,player0_vel_x,player0_vel_y,player0_vel_z,player0_ang_x,player0_ang_y,player0_ang_z
30.125,2000,0,91.24,0.000002697398,0.000002697398,0.000002697398,0.99999994,0,0,0,0,0,0,0,0,0,0,0,false,false,false,0,0.14,17.01,-0.00336905,0.0033798397,0.7071014,0.7070959,0,0,8.321,-0.00051,0,0
30.133333,2000,0,73,0.000002697398,0.000002697398,0.000002697398,0.99999994,0,0,0,0,0,0,0.19685039,0,0,0,0,false,false,false,0,0,16.94,0.0000026973983,0.0000026973983,0.70710677,0.70710677,0,2.6209998,2.041,-0.050809998,0,0
30.141666,2000,0,87.6,0.000002697398,0.000002697398,0.000002697398,0.99999994,0,0,0,0,0,0,0.19685039,0,0,0,0,false,false,false,0,0.02,16.89,-0.00014835689,0.00015375168,0.7071067,0.7071067,0,5.2409997,3.8809998,-0.085609995,0,0
30.15,2000,0,90.52,0.000002697398,0.000002697398,0.000002697398,0.99999994,0,0,0,0,0,0,0.19685039,0,0,0,0,false,false,false,0,0.06,16.85,-0.00040191234,0.00040730715,0.70710653,0.70710677,0,7.851,5.481,-0.107209995,0,0
30.158333,2000,0,91.1,0.000002697398,0.000002697398,0.000002697398,0.99999994,0,0,0,0,0,0,0.19685039,0,0,0,0,false,false,false,0,0.13,16.83,-0.00072020525,0.00072560005,0.7071067,0.707106,0,10.461,6.791,-0.116409995,0,0
30.166666,2000,0,91.22,0.000002697398,0.000002697398,0.000002697398,0.99999994,0,0,0,0,0,0,0.19685039,0,0,0,0,false,false,false,0,0.22,16.82,-0.0010654721,0.001070867,0.70710516,0.7071067,0,13.061,7.7409997,-0.11481,0,0
30.175,2000,0,91.24,0.000002697398,0.000002697398,0.000002697398,0.99999994,0,0,0,0,0,0,0.19685039,0,0,0,0,false,false,false,0,0.32999998,16.82,-0.0014053443,0.0014107391,0.7071067,0.70710397,0,15.661,8.431,-0.106809996,0,0
30.183332,2000,0,91.24,0.000002697398,0.000002697398,0.000002697398,0.99999994,0,0,0,0,0,0,0.19685039,0,0,0,0,false,false,false,0,0.45999998,16.82,-0.0017182427,0.0017236375,0.707108,0.70710135,0,18.251,8.9210005,-0.09541,0,0
30.191668,2000,0,91.24,0.000002697398,0.000002697398,0.000002697398,0.99999994,0,0,0,0,0,0,0.19685039,0,0,0,0,false,false,false,0,0.61,16.83,-0.001998772,0.0020041666,0.70710653,0.7071013,0,20.841,9.281,-0.08271,0,0
30.2,2000,0,91.24,0.000002697398,0.000002697398,0.000002697398,0.99999994,0,0,0,0,0,0,0.19685039,0,0,0,0,false,false,false,0,0.78,16.84,-0.0022415377,0.0022469326,0.70710504,0.7071013,0,23.431,9.521,-0.06991,0,0
30.208334,2000,0,91.24,0.000002697398,0.000002697398,0.000002697398,0.99999994,0,0,0,0,0,0,0.19685039,0,0,0,0,false,false,false,0,0.97999996,16.85,-0.00244654,0.0024519349,0.70710367,0.7071013,0,26.011,9.6710005,-0.057809997,0,0
30.216667,2000,0,91.24,0.000002697398,0.000002697398,0.000002697398,0.99999994,0,0,0,0,0,0,0.19685039,0,0,0,0,false,false,false,0,1.1999999,16.859999,-0.0026191734,0.0026245683,0.7071024,0.7071013,0,28.591,9.761001,-0.04691,0,0
30.225,2000,0,91.24,0.000002697398,0.000002697398,0.000002697398,0.99999994,0,0,0,0,0,0,0.19685039,0,0,0,0,false,false,false,0,1.4399999,16.869999,-0.0027594382,0.002764833,0.70710135,0.7071013,0,31.161,9.811,-0.03741,0,0
30.233334,2000,0,91.24,0.000002697398,0.000002697398,0.000002697398,0.99999994,0,0,0,0,0,0,0.19685039,0,0,0,0,false,false,false,0,1.6999999,16.88,-0.002867334,0.002872729,0.7071005,0.7071013,0,33.731,9.831,-0.02931,0,0
30.241667,2000,0,91.24,0.000002697398,0.000002697398,0.000002697398,0.99999994,0,0,0,0,0,0,0.19685039,0,0,0,0,false,false,false,0,1.9799999,16.89,-0.002953651,0.0029590456,0.7071013,0.7070998,0,36.291,9.811,-0.02301,0,0
30.25,2000,0,91.24,0.000002697398,0.000002697398,0.000002697398,0.99999994,0,0,0,0,0,0,0.19685039,0,0,0,0,false,false,false,0,2.28,16.9,-0.0030237832,0.003029178,0.7070992,0.7071013,0,38.850998,9.761001,-0.018410001,0,0
30.258333,2000,0,91.24,0.000002697398,0.000002697398,0.000002697398,0.99999994,0,0,0,0,0,0,0.19685039,0,0,0,0,false,false,false,0,2.6,16.91,-0.0030777312,0.003083126,0.7071013,0.7070988,0,41.411,9.681,-0.014909999,0,0
30.266666,2000,0,91.24,0.000002697398,0.000002697398,0.000002697398,0.99999994,0,0,0,0,0,0,0.19685039,0,0,0,0,false,false,false,0,2.95,16.92,-0.0031208897,0.0031262843,0.70709836,0.7071013,0,43.961,9.591001,-0.012309999,0,0
30.275,2000,0,91.24,0.000002697398,0.000002697398,0.000002697398,0.99999994,0,0,0,0,0,0,0.19685039,0,0,0,0,false,false,false,0,3.32,16.93,-0.0031586532,0.0031640478,0.7070959,0.70710343,0,46.510998,9.491,-0.01031,0,0
30.283333,2000,0,91.24,0.000002697398,0.000002697398,0.000002697398,0.99999994,0,0,0,0,0,0,0.19685039,0,0,0,0,false,false,false,0,3.7099998,16.94,-0.003191022,0.0031964167,0.7070959,0.70710313,0,49.051,9.391,-0.008609999,0,0
30.291666,2000,0,91.24,0.000002697398,0.000002697398,0.000002697398,0.99999994,0,0,0,0,0,0,0.19685039,0,0,0,0,false,false,false,0,4.12,16.949999,-0.0032179959,0.0032233908,0.7070959,0.7071029,0,51.591,9.281,-0.00731,0,0
30.3,2000,0,91.24,0.000002697398,0.000002697398,0.000002697398,0.99999994,0,0,0,0,0,0,0.19685039,0,0,0,0,false,false,false,0,4.5499997,16.96,-0.003239575,0.0032449698,0.7070959,0.70710266,0,54.121,9.1710005,-0.00621,0,0
30.308332,2000,0,91.24,0.000002697398,0.000002697398,0.000002697398,0.99999994,0,0,0,0,0,0,0.19685039,0,0,0,0,false,false,false,0,5,16.97,-0.0032557594,0.0032611543,0.7070959,0.70710254,0,56.650997,9.061,-0.00531,0,0
30.316668,2000,0,91.24,0.000002697398,0.000002697398,0.000002697398,0.99999994,0,0,0,0,0,0,0.19685039,0,0,0,0,false,false,false,0,5.47,16.98,-0.003271944,0.0032773386,0.7070959,0.70710236,0,59.181,8.951,-0.00461,0,0
30.325,2000,0,91.24,0.000002697398,0.000002697398,0.000002697398,0.99999994,0,0,0,0,0,0,0.19685039,0,0,0,0,false,false,false,0,5.96,16.99,-0.0032881282,0.003293523,0.7070959,0.70710224,0,61.700996,8.841001,-0.00401,0,0
30.333334,2000,0,91.24,0.000002697398,0.000002697398,0.000002697398,0.99999994,0,0,0,0,0,0,0.19685039,0,0,0,0,false,false,false,0,6.47,17,-0.0032989178,0.0033043127,0.7070959,0.7071021,0,64.221,8.731,-0.00341,0,0
30.341667,2000,0,91.24,0.000002697398,0.000002697398,0.000002697398,0.99999994,0,0,0,0,0,0,0.19685039,0,0,0,0,false,false,false,0,7.0099998,17.01,-0.0033097074,0.0033151023,0.7070959,0.707102,0,66.730995,8.621,-0.00291,0,0
30.35,2000,0,91.24,0.000002697398,0.000002697398,0.000002697398,0.99999994,0,0,0,0,0,0,0.19685039,0,0,0,0,false,false,false,0,7.5699997,17.01,-0.0033204972,0.0033258921,0.707096,0.70710194,0,69.241,8.511001,-0.00251,0,0
30.358334,2000,0,91.24,0.000002697398,0.000002697398,0.000002697398,0.99999994,0,0,0,0,0,0,0.19685039,0,0,0,0,false,false,false,0,8.15,17.01,-0.003325892,0.0033312866,0.7070959,0.7071019,0,71.741,8.441,-0.00211,0,0
30.366667,2000,0,91.24,0.000002697398,0.000002697398,0.000002697398,0.99999994,0,0,0,0,0,0,0.19685039,0,0,0,0,false,false,false,0,8.75,17.01,-0.0033312866,0.0033366815,0.7070959,0.7071018,0,74.241,8.391,-0.0019099999,0,0
30.375,2000,0,91.24,0.000002697398,0.000002697398,0.000002697398,0.99999994,0,0,0,0,0,0,0.19685039,0,0,0,0,false,false,false,0,9.37,17.01,-0.0033366815,0.0033420762,0.7070959,0.70710176,0,76.741,8.361,-0.0017099999,0,0
30.383333,2000,0,91.24,0.000002697398,0.000002697398,0.000002697398,0.99999994,0,0,0,0,0,0,0.19685039,0,0,0,0,false,false,false,0,10.01,17.01,-0.0033420762,0.003347471,0.7070959,0.7071017,0,79.230995,8.341001,-0.00151,0,0
30.391666,2000,0,91.24,0.000002697398,0.000002697398,0.000002697398,0.99999994,0,0,0,0,0,0,0.19685039,0,0,0,0,false,false,false,0,10.67,17.01,-0.003347471,0.0033528658,0.7070959,0.70710164,0,81.721,8.331,-0.00131,0,0
30.4,2000,0,91.24,0.000002697398,0.000002697398,0.000002697398,0.99999994,0,0,0,0,0,0,0.19685039,0,0,0,0,false,false,false,0,11.349999,17.01,-0.003352866,0.0033582607,0.707096,0.70710164,0,84.201,8.321,-0.00111,0,0
30.408333,2000,0,91.24,0.000002697398,0.000002697398,0.000002697398,0.99999994,0,0,0,0,0,0,0.19685039,0,0,0,0,false,false,false,0,12.05,17.01,-0.0033582605,0.0033636554,0.7070959,0.7071016,0,86.681,8.321,-0.00091,0,0
30.416666,2000,0,91.24,0.000002697398,0.000002697398,0.000002697398,0.99999994,0,0,0,0,0,0,0.19685039,0,0,0,0,false,false,false,0,12.7699995,17.01,-0.0033582605,0.00336905,0.7070959,0.7071016,0,89.151,8.321,-0.00071,0,0
30.425,2000,0,91.24,0.000002697398,0.000002697398,0.000002697398,0.99999994,0,0,0,0,0,0,0.19685039,0,0,0,0,false,false,false,0,13.509999,17.01,-0.0033582605,0.00336905,0.7070959,0.7071016,0,91.620995,8.321,-0.00061,0,0
30.433332,2000,0,91.24,0.000002697398,0.000002697398,0.000002697398,0.99999994,0,0,0,0,0,0,0.19685039,0,0,0,0,false,false,false,0,14.2699995,17.01,-0.0033582605,0.00336905,0.7070959,0.7071016,0,94.090996,8.321,-0.00051,0,0
30.441668,2000,0,91.24,0.000002697398,0.000002697398,0.000002697398,0.99999994,0,0,0,0,0,0,0.19685039,0,0,0,0,false,false,false,0,15.049999,17.01,-0.0033582605,0.00336905,0.7070959,0.7071016,0,96.550995,8.321,-0.00051,0,0
30.45,2000,0,91.24,0.000002697398,0.000002697398,0.000002697398,0.99999994,0,0,0,0,0,0,0.19685039,0,0,0,0,false,false,false,0,15.849999,17.01,-0.0033582605,0.00336905,0.7070959,0.7071016,0,99.010994,8.321,-0.00051,0,0
30.458334,2000,0,91.24,0.000002697398,0.000002697398,0.000002697398,0.99999994,0,0,0,0,0,0,0.19685039,0,0,0,0,false,false,false,0,16.68,17.01,-0.0033582605,0.00336905,0.7070959,0.7071016,0,101.461,8.321,-0.00051,0,0
30.466667,2000,0,91.24,0.000002697398,0.000002697398,0.000002697398,0.99999994,0,0,0,0,0,0,0.19685039,0,0,0,0,false,false,false,0,17.529999,17.01,-0.0033582605,0.00336905,0.7070959,0.7071016,0,103.910995,8.321,-0.00051,0,0
30.475,2000,0,91.24,0.000002697398,0.000002697398,0.000002697398,0.99999994,0,0,0,0,0,0,0.19685039,0,0,0,0,false,false,false,0,18.4,17.01,-0.0033582605,0.00336905,0.7070959,0.7071016,0,106.361,8.321,-0.00051,0,0
30.483334,2000,0,91.24,0.000002697398,0.000002697398,0.000002697398,0.99999994,0,0,0,0,0,0,0.19685039,0,0,0,0,false,false,false,0,19.289999,17.01,-0.0033582605,0.00336905,0.7070959,0.7071016,0,108.800995,8.321,-0.00051,0,0
30.491667,2000,0,91.24,0.000002697398,0.000002697398,0.000002697398,0.99999994,0,0,0,0,0,0,0.19685039,0,0,0,0,false,false,false,0,20.199999,17.01,-0.0033582605,0.00336905,0.7070959,0.7071016,0,111.241,8.321,-0.00051,0,0
30.5,2000,0,91.24,0.000002697398,0.000002697398,0.000002697398,0.99999994,0,0,0,0,0,0,0.19685039,0,0,0,0,false,false,false,0,21.13,17.01,-0.0033582605,0.00336905,0.7070959,0.7071016,0,113.671,8.321,-0.00051,0,0
30.508333,2000,0,91.24,0.000002697398,0.000002697398,0.000002697398,0.99999994,0,0,0,0,0,0,0.19685039,0,0,0,0,false,false,false,0,22.08,17.01,-0.0033582605,0.00336905,0.7070959,0.7071016,0,116.101,8.321,-0.00051,0,0
30.516666,2000,0,91.24,0.000002697398,0.000002697398,0.000002697398,0.99999994,0,0,0,0,0,0,0.19685039,0,0,0,0,false,false,false,0,23.05,17.01,-0.0033582605,0.00336905,0.7070959,0.7071016,0,118.520996,8.321,-0.00051,0,0
30.525,2000,0,91.24,0.000002697398,0.000002697398,0.000002697398,0.99999994,0,0,0,0,0,0,0.19685039,0,0,0,0,false,false,false,0,24.039999,17.01,-0.0033582605,0.00336905,0.7070959,0.7071016,0,120.940994,8.321,-0.00051,0,0
30.533333,2000,0,91.24,0.000002697398,0.000002697398,0.000002697398,0.99999994,0,0,0,0,0,0,0.19685039,0,0,0,0,false,false,false,0,25.05,17.01,-0.0033582605,0.00336905,0.7070959,0.7071016,0,123.361,8.321,-0.00051,0,0
30.541666,2000,0,91.24,0.000002697398,0.000002697398,0.000002697398,0.99999994,0,0,0,0,0,0,0.19685039,0,0,0,0,false,false,false,0,26.08,17.01,-0.0033582605,0.00336905,0.7070959,0.7071016,0,125.770996,8.321,-0.00051,0,0
30.55,2000,0,91.24,0.000002697398,0.000002697398,0.000002697398,0.99999994,0,0,0,0,0,0,0.19685039,0,0,0,0,false,false,false,0,27.13,17.01,-0.0033582605,0.00336905,0.7070959,0.7071016,0,128.181,8.321,-0.00051,0,0
30.558332,2000,0,91.24,0.000002697398,0.000002697398,0.000002697398,0.99999994,0,0,0,0,0,0,0.19685039,0,0,0,0,false,false,false,0,28.199999,17.01,-0.0033582605,0.00336905,0.7070959,0.7071016,0,130.58101,8.321,-0.00051,0,0
30.566668,2000,0,91.24,0.000002697398,0.000002697398,0.000002697398,0.99999994,0,0,0,0,0,0,0.19685039,0,0,0,0,false,false,false,0,29.289999,17.01,-0.0033582605,0.00336905,0.7070959,0.7071016,0,132.981,8.321,-0.00051,0,0
30.575,2000,0,91.24,0.000002697398,0.000002697398,0.000002697398,0.99999994,0,0,0,0,0,0,0.19685039,0,0,0,0,false,false,false,0,30.4,17.01,-0.0033582605,0.00336905,0.7070959,0.7071016,0,135.381,8.321,-0.00051,0,0
30.583334,2000,0,91.24,0.000002697398,0.000002697398,0.000002697398,0.99999994,0,0,0,0,0,0,0.19685039,0,0,0,0,false,false,false,0,31.529999,17.01,-0.0033582605,0.00336905,0.7070959,0.7071016,0,137.77101,8.321,-0.00051,0,0
30.591667,2000,0,91.24,0.000002697398,0.000002697398,0.000002697398,0.99999994,0,0,0,0,0,0,0.19685039,0,0,0,0,false,false,false,0,32.68,17.01,-0.0033582605,0.00336905,0.7070959,0.7071016,0,140.16101,8.321,-0.00051,0,0
30.6,2000,0,91.24,0.000002697398,0.000002697398,0.000002697398,0.99999994,0,0,0,0,0,0,0.19685039,0,0,0,0,false,false,false,0,33.85,17.01,-0.0033582605,0.00336905,0.7070959,0.7071016,0,142.541,8.321,-0.00051,0,0
30.608334,2000,0,91.24,0.000002697398,0.000002697398,0.000002697398,0.99999994,0,0,0,0,0,0,0.19685039,0,0,0,0,false,false,false,0,35.04,17.01,-0.0033582605,0.00336905,0.7070959,0.7071016,0,144.921,8.321,-0.00051,0,0
30.616667,2000,0,91.24,0.000002697398,0.000002697398,0.000002697398,0.99999994,0,0,0,0,0,0,0.19685039,0,0,0,0,false,false,false,0,36.25,17.01,-0.0033582605,0.00336905,0.7070959,0.7071016,0,147.30101,8.321,-0.00051,0,0
30.625,2000,0,91.24,0.000002697398,0.000002697398,0.000002697398,0.99999994,0,0,0,0,0,0,0.19685039,0,0,0,0,false,false,false,0,37.48,17.01,-0.0033582605,0.00336905,0.7070959,0.7071016,0,149.671,8.321,-0.00051,0,0
30.633333,2000,0,91.24,0.000002697398,0.000002697398,0.000002697398,0.99999994,0,0,0,0,0,0,0.19685039,0,0,0,0,false,false,false,0,38.73,17.01,-0.0033582605,0.00336905,0.7070959,0.7071016,0,152.041,8.321,-0.00051,0,0
30.641666,2000,0,91.24,0.000002697398,0.000002697398,0.000002697398,0.99999994,0,0,0,0,0,0,0.19685039,0,0,0,0,false,false,false,0,40,17.01,-0.0033582605,0.00336905,0.7070959,0.7071016,0,154.401,8.321,-0.00051,0,0
30.65,2000,0,91.24,0.000002697398,0.000002697398,0.000002697398,0.99999994,0,0,0,0,0,0,0.19685039,0,0,0,0,false,false,false,0,41.29,17.01,-0.0033582605,0.00336905,0.7070959,0.7071016,0,156.761,8.321,-0.00051,0,0
30.658333,2000,0,91.24,0.000002697398,0.000002697398,0.000002697398,0.99999994,0,0,0,0,0,0,0.19685039,0,0,0,0,false,false,false,0,42.6,17.01,-0.0033582605,0.00336905,0.7070959,0.7071016,0,159.121,8.321,-0.00051,0,0
30.666666,2000,0,91.24,0.000002697398,0.000002697398,0.000002697398,0.99999994,0,0,0,0,0,0,0.19685039,0,0,0,0,false,false,false,0,43.93,17.01,-0.0033582605,0.00336905,0.7070959,0.7071016,0,161.47101,8.321,-0.00051,0,0
30.675,2000,0,91.24,0.000002697398,0.000002697398,0.000002697398,0.99999994,0,0,0,0,0,0,0.19685039,0,0,0,0,false,false,false,0,45.28,17.01,-0.0033582605,0.00336905,0.7070959,0.7071016,0,163.821,8.321,-0.00051,0,0
30.683332,2000,0,91.24,0.000002697398,0.000002697398,0.000002697398,0.99999994,0,0,0,0,0,0,0.19685039,0,0,0,0,false,false,false,0,46.649998,17.01,-0.0033582605,0.00336905,0.7070959,0.7071016,0,166.16101,8.321,-0.00051,0,0
30.691668,2000,0,91.24,0.000002697398,0.000002697398,0.000002697398,0.99999994,0,0,0,0,0,0,0.19685039,0,0,0,0,false,false,false,0,48.03,17.01,-0.0033582605,0.00336905,0.7070959,0.7071016,0,168.501,8.321,-0.00051,0,0
30.7,2000,0,91.24,0.000002697398,0.000002697398,0.000002697398,0.99999994,0,0,0,0,0,0,0.19685039,0,0,0,0,false,false,false,0,49.43,17.01,-0.0033582605,0.00336905,0.7070959,0.7071016,0,170.841,8.321,-0.00051,0,0
30.708334,2000,0,91.24,0.000002697398,0.000002697398,0.000002697398,0.99999994,0,0,0,0,0,0,0.19685039,0,0,0,0,false,false,false,0,50.85,17.01,-0.0033582605,0.00336905,0.7070959,0.7071016,0,173.171,8.321,-0.00051,0,0
30.716667,2000,0,91.24,0.000002697398,0.000002697398,0.000002697398,0.99999994,0,0,0,0,0,0,0.19685039,0,0,0,0,false,false,false,0,52.289997,17.01,-0.0033582605,0.00336905,0.7070959,0.7071016,0,175.501,8.321,-0.00051,0,0
30.725,2000,0,91.24,0.000002697398,0.000002697398,0.000002697398,0.99999994,0,0,0,0,0,0,0.19685039,0,0,0,0,false,false,false,0,53.75,17.01,-0.0033582605,0.00336905,0.7070959,0.7071016,0,177.821,8.321,-0.00051,0,0
30.733334,2000,0,91.24,0.000002697398,0.000002697398,0.000002697398,0.99999994,0,0,0,0,0,0,0.19685039,0,0,0,0,false,false,false,0,55.23,17.01,-0.0033582605,0.00336905,0.7070959,0.7071016,0,180.141,8.321,-0.00051,0,0
30.741667,2000,0,91.24,0.000002697398,0.000002697398,0.000002697398,0.99999994,0,0,0,0,0,0,0.19685039,0,0,0,0,false,false,false,0,56.73,17.01,-0.0033582605,0.00336905,0.7070959,0.7071016,0,182.461,8.321,-0.00051,0,0
30.75,2000,0,91.24,0.000002697398,0.000002697398,0.000002697398,0.99999994,0,0,0,0,0,0,0.19685039,0,0,0,0,false,false,false,0,58.25,17.01,-0.0033582605,0.00336905,0.7070959,0.7071016,0,184.771,8.321,-0.00051,0,0
30.758333,2000,0,91.24,0.000002697398,0.000002697398,0.000002697398,0.99999994,0,0,0,0,0,0,0.19685039,0,0,0,0,false,false,false,0,59.789997,17.01,-0.0033582605,0.00336905,0.7070959,0.7071016,0,187.08101,8.321,-0.00051,0,0
30.766666,2000,0,91.24,0.000002697398,0.000002697398,0.000002697398,0.99999994,0,0,0,0,0,0,0.19685039,0,0,0,0,false,false,false,0,61.35,17.01,-0.0033582605,0.00336905,0.7070959,0.7071016,0,189.391,8.321,-0.00051,0,0
30.775,2000,0,91.24,0.000002697398,0.000002697398,0.000002697398,0.99999994,0,0,0,0,0,0,0.19685039,0,0,0,0,false,false,false,0,62.93,17.01,-0.0033582605,0.00336905,0.7070959,0.7071016,0,191.69101,8.321,-0.00051,0,0
30.783333,2000,0,91.24,0.000002697398,0.000002697398,0.000002697398,0.99999994,0,0,0,0,0,0,0.19685039,0,0,0,0,false,false,false,0,64.53,17.01,-0.0033582605,0.00336905,0.7070959,0.7071016,0,193.991,8.321,-0.00051,0,0
30.791666,2000,0,91.24,0.000002697398,0.000002697398,0.000002697398,0.99999994,0,0,0,0,0,0,0.19685039,0,0,0,0,false,false,false,0,66.15,17.01,-0.0033582605,0.00336905,0.7070959,0.7071016,0,196.281,8.321,-0.00051,0,0
30.8,2000,0,91.24,0.000002697398,0.000002697398,0.000002697398,0.99999994,0,0,0,0,0,0,0.19685039,0,0,0,0,false,false,false,0,67.79,17.01,-0.0033582605,0.00336905,0.7070959,0.7071016,0,198.571,8.321,-0.00051,0,0
30.808332,2000,0,91.24,0.000002697398,0.000002697398,0.000002697398,0.99999994,0,0,0,0,0,0,0.19685039,0,0,0,0,false,false,false,0,69.439995,17.01,-0.0033582605,0.00336905,0.7070959,0.7071016,0,200.86101,8.321,-0.00051,0,0
30.816668,2000,0,91.24,0.000002697398,0.000002697398,0.000002697398,0.99999994,0,0,0,0,0,0,0,1,0,0,0,false,false,true,0,71.11,17.01,-0.0033582605,0.00336905,0.7070959,0.7071016,-6.1309996,197.94101,8.341001,-0.00061,0.0014099999,0.16211
30.825,2000,0,91.24,0.000002697398,0.000002697398,0.000002697398,0.99999994,0,0,0,0,0,0,0,1,0,0,0,false,false,true,-0.049999997,72.76,17.01,-0.0033582605,0.003374445,0.7075759,0.70662117,-9.9210005,196.121,8.351,-0.00071,0.0017099999,0.26341
30.833334,2000,0,91.24,0.000002697398,0.000002697398,0.000002697398,0.99999994,0,0,0,0,0,0,0,1,0,0,0,false,false,true,-0.13,74.39,17.01,-0.0033582605,0.0033798397,0.70835084,0.70584434,-13.211,194.541,8.351,-0.00071,0.0017099999,0.35091
30.841667,2000,0,91.24,0.000002697398,0.000002697398,0.000002697398,0.99999994,0,0,0,0,0,0,0,1,0,0,0,false,false,true,-0.24,76.009995,17.01,-0.0033582605,0.0033798397,0.70938146,0.70480853,-16.071,193.171,8.351,-0.00071,0.00151,0.42611
30.85,2000,0,91.24,0.000002697398,0.000002697398,0.000002697398,0.99999994,0,0,0,0,0,0,0,1,0,0,0,false,false,true,-0.37,77.619995,17.01,-0.0033636556,0.00337984,0.71063346,0.7035462,-18.571,191.991,8.351,-0.00071,0.0012099999,0.49031
30.858334,2000,0,91.24,0.000002697398,0.000002697398,0.000002697398,0.99999994,0,0,0,0,0,0,0,1,0,0,0,false,false,true,-0.52,79.22,17.01,-0.00336905,0.0033798397,0.7120672,0.702095,-20.771,190.961,8.341001,-0.00061,0.00091,0.54491
30.866667,2000,0,91.24,0.000002697398,0.000002697398,0.000002697398,0.99999994,0,0,0,0,0,0,0,1,0,0,0,false,false,true,-0.69,80.81,17.01,-0.003374445,0.003374445,0.71365935,0.7004765,-22.710999,190.071,8.341001,-0.00051,0.00061,0.59121
30.875,2000,0,91.24,0.000002697398,0.000002697398,0.000002697398,0.99999994,0,0,0,0,0,0,0,1,0,0,0,false,false,true,-0.88,82.39,17.01,-0.0033798397,0.00336905,0.7153814,0.6987178,-24.431,189.291,8.341001,-0.00051,0.00030999997,0.63021
30.883333,2000,0,91.24,0.000002697398,0.000002697398,0.000002697398,0.99999994,0,0,0,0,0,0,0,1,0,0,0,false,false,true,-1.0799999,83.97,17.01,-0.0033906293,0.0033636554,0.71721536,0.69683504,-25.970999,188.61101,8.331,-0.00051,0,0.66301
30.891666,2000,0,91.24,0.000002697398,0.000002697398,0.000002697398,0.99999994,0,0,0,0,0,0,0,1,0,0,0,false,false,true,-1.3,85.54,17.01,-0.003401419,0.0033582605,0.71913904,0.69484967,-27.360998,188.011,8.331,-0.00040999998,-0.00010999999,0.69051
30.9,2000,0,91.24,0.000002697398,0.000002697398,0.000002697398,0.99999994,0,0,0,0,0,0,0,1,0,0,0,false,false,true,-1.53,87.11,17.01,-0.0034122085,0.003347471,0.7211349,0.69277805,-28.620998,187.481,8.331,-0.00030999997,-0.00021,0.71351
30.908333,2000,0,91.24,0.000002697398,0.000002697398,0.000002697398,0.99999994,0,0,0,0,0,0,0,1,0,0,0,false,false,true,-1.77,88.67,17.01,-0.0034229984,0.0033366818,0.7231915,0.690631,-29.761,187.011,8.331,-0.00030999997,-0.00030999997,0.73261
30.916666,2000,0,91.24,0.000002697398,0.000002697398,0.000002697398,0.99999994,0,0,0,0,0,0,0,1,0,0,0,false,false,true,-2.02,90.229996,17.01,-0.0034337877,0.003325892,0.72529733,0.68841904,-30.800999,186.601,8.331,-0.00030999997,-0.00040999998,0.74841
30.925,2000,0,91.24,0.000002697398,0.000002697398,0.000002697398,0.99999994,0,0,0,0,0,0,0,1,0,0,0,false,false,true,-2.28,91.79,17.01,-0.0034445773,0.0033151023,0.72744125,0.68615323,-31.751,186.231,8.331,-0.00030999997,-0.00051,0.76141
30.933332,2000,0,91.24,0.000002697398,0.000002697398,0.000002697398,0.99999994,0,0,0,0,0,0,0,1,0,0,0,false,false,true,-2.54,93.34,17.01,-0.003455367,0.0033043127,0.72961223,0.68384427,-32.631,185.901,8.321,-0.00030999997,-0.00061,0.77200997
30.941668,2000,0,91.24,0.000002697398,0.000002697398,0.000002697398,0.99999994,0,0,0,0,0,0,0,1,0,0,0,false,false,true,-2.81,94.89,17.01,-0.0034661565,0.003293523,0.7318097,0.68149215,-33.431,185.61101,8.321,-0.00030999997,-0.00071,0.78071
30.95,2000,0,91.24,0.000002697398,0.000002697398,0.000002697398,0.99999994,0,0,0,0,0,0,0,1,0,0,0,false,false,true,-3.09,96.439995,17.01,-0.0034823408,0.0032827335,0.73402303,0.6791076,-34.161,185.351,8.321,-0.00030999997,-0.00071,0.78771
30.958334,2000,0,91.24,0.000002697398,0.000002697398,0.000002697398,0.99999994,0,0,0,0,0,0,0,1,0,0,0,false,false,true,-3.37,97.979996,17.01,-0.0034985256,0.0032719441,0.7362467,0.67669624,-34.821,185.11101,8.321,-0.00021,-0.00071,0.79320997
30.966667,2000,0,91.24,0.000002697398,0.000002697398,0.000002697398,0.99999994,0,0,0,0,0,0,0,1,0,0,0,false,false,true,-3.6599998,99.52,17.01,-0.0035147096,0.0032611543,0.7384805,0.6742577,-35.411,184.901,8.321,-0.00010999999,-0.00071,0.79750997
30.975,2000,0,91.24,0.000002697398,0.000002697398,0.000002697398,0.99999994,0,0,0,0,0,0,0,1,0,0,0,false,false,true,-3.9599998,101.06,17.01,-0.0035254993,0.0032503647,0.74071914,0.6717976,-35.940998,184.72101,8.321,0,-0.00071,0.80081
30.983334,2000,0,91.24,0.000002697398,0.000002697398,0.000002697398,0.99999994,0,0,0,0,0,0,0,1,0,0,0,false,false,true,-4.2599998,102.6,17.01,-0.0035362889,0.0032341804,0.7429575,0.66932136,-36.400997,184.561,8.321,0,-0.00071,0.80331
30.991667,2000,0,91.24,0.000002697398,0.000002697398,0.000002697398,0.99999994,0,0,0,0,0,0,0,1,0,0,0,false,false,true,-4.56,104.14,17.01,-0.0035470785,0.0032179959,0.74519527,0.666829,-36.791,184.431,8.321,0,-0.00071,0.80511
31,2000,0,91.24,0.000002697398,0.000002697398,0.000002697398,0.99999994,0,0,0,0,0,0,0,1,0,0,0,false,false,true,-4.87,105.68,17.01,-0.003557868,0.0032018116,0.7474277,0.66432583,-37.111,184.321,8.321,0,-0.00071,0.80631
31.008333,2000,0,91.24,0.000002697398,0.000002697398,0.000002697398,0.99999994,0,0,0,0,0,0,0,1,0,0,0,false,false,true,-5.18,107.22,17.01,-0.0035686572,0.0031856268,0.7496546,0.66181177,-37.350998,184.241,8.321,0,-0.00061,0.80701
31.016666,2000,0,91.24,0.000002697398,0.000002697398,0.000002697398,0.99999994,0,0,0,0,0,0,0,1,0,0,0,false,false,true,-5.49,108.759995,17.01,-0.0035794475,0.003169443,0.75187606,0.6592871,-37.600998,184.151,8.321,-0.00010999999,-0.00061,0.80771
31.025,2000,0,91.24,0.000002697398,0.000002697398,0.000002697398,0.99999994,0,0,0,0,0,0,0,1,0,0,0,false,false,true,-5.7999997,110.29,17.01,-0.003590237,0.0031586532,0.7540918,0.6567515,-37.871,184.05101,8.321,-0.00021,-0.00051,0.80841
31.033333,2000,0,91.24,0.000002697398,0.000002697398,0.000002697398,0.99999994,0,0,0,0,0,0,0,1,0,0,0,false,false,true,-6.12,111.82,17.01,-0.0036010265,0.0031478636,0.7563019,0.65420514,-38.150997,183.951,8.321,-0.00021,-0.00051,0.80911
31.041666,2000,0,91.24,0.000002697398,0.000002697398,0.000002697398,0.99999994,0,0,0,0,0,0,0,1,0,0,0,false,false,true,-6.44,113.35,17.01,-0.003611816,0.003137074,0.7585017,0.65165335,-38.440998,183.841,8.321,-0.00021,-0.00051,0.80981
31.05,2000,0,91.24,0.000002697398,0.000002697398,0.000002697398,0.99999994,0,0,0,0,0,0,0,1,0,0,0,false,false,true,-6.7599998,114.88,17.01,-0.0036226057,0.0031262843,0.76069576,0.6490908,-38.751,183.731,8.321,-0.00021,-0.00051,0.81051
31.058332,2000,0,91.24,0.000002697398,0.000002697398,0.000002697398,0.99999994,0,0,0,0,0,0,0,1,0,0,0,false,false,true,-7.08,116.409996,17.01,-0.0036333953,0.0031154947,0.762884,0.6465175,-39.071,183.61101,8.321,-0.00021,-0.00051,0.81121
31.066668,2000,0,91.24,0.000002697398,0.000002697398,0.000002697398,0.99999994,0,0,0,0,0,0,0,1,0,0,0,false,false,true,-7.41,117.939995,17.01,-0.003644185,0.0031047051,0.76506644,0.6439334,-39.400997,183.481,8.321,-0.00010999999,-0.00051,0.81191
31.075,2000,0,91.24,0.000002697398,0.000002697398,0.000002697398,0.99999994,0,0,0,0,0,0,0,1,0,0,0,false,false,true,-7.74,119.46999,17.01,-0.0036549745,0.0030939155,0.7672385,0.6413439,-39.740997,183.351,8.321,-0.00010999999,-0.00051,0.81251
31.083334,2000,0,91.24,0.000002697398,0.000002697398,0.000002697398,0.99999994,0,0,0,0,0,0,0,1,0,0,0,false,false,true,-8.07,121,17.01,-0.003665764,0.003083126,0.7694047,0.6387436,-40.091,183.211,8.321,-0.00010999999,-0.00051,0.81311
31.091667,2000,0,91.24,0.000002697398,0.000002697398,0.000002697398,0.99999994,0,0,0,0,0,0,0,1,0,0,0,false,false,true,-8.4,122.53,17.01,-0.0036765535,0.0030723363,0.77156484,0.63613254,-40.451,183.061,8.321,0,-0.00051,0.81371
31.1,2000,0,91.24,0.000002697398,0.000002697398,0.000002697398,0.99999994,0,0,0,0,0,0,0,1,0,0,0,false,false,true,-8.74,124.06,17.01,-0.003687343,0.003056152,0.7737191,0.63351065,-40.821,182.911,8.321,0,-0.00051,0.81431
31.108334,2000,0,91.24,0.000002697398,0.000002697398,0.000002697398,0.99999994,0,0,0,0,0,0,0,1,0,0,0,false,false,true,-9.08,125.579994,17.01,-0.0036981327,0.0030399675,0.7758628,0.6308834,-41.201,182.751,8.321,0,-0.00051,0.81491
31.116667,2000,0,91.24,0.000002697398,0.000002697398,0.000002697398,0.99999994,0,0,0,0,0,0,0,1,0,0,0,false,false,true,-9.42,127.1,17.01,-0.0037089223,0.0030237832,0.77800053,0.62824523,-41.591,182.58101,8.321,0,-0.00051,0.81551
31.125,2000,0,91.24,0.000002697398,0.000002697398,0.000002697398,0.99999994,0,0,0,0,0,0,0,1,0,0,0,false,false,true,-9.7699995,128.62,17.01,-0.003719712,0.003007599,0.7801321,0.6255964,-41.990997,182.411,8.321,0,-0.00051,0.81611
31.133333,2000,0,91.24,0.000002697398,0.000002697398,0.000002697398,0.99999994,0,0,0,0,0,0,0,1,0,0,0,false,false,true,-10.12,130.14,17.01,-0.0037305015,0.0029914144,0.7822532,0.62294215,-42.400997,182.231,8.321,-0.00010999999,-0.00040999998,0.81671
31.141666,2000,0,91.24,0.000002697398,0.000002697398,0.000002697398,0.99999994,0,0,0,0,0,0,0,1,0,0,0,false,false,true,-10.469999,131.66,17.01,-0.0037412911,0.0029806248,0.7843681,0.6202771,-42.821,182.041,8.321,-0.00010999999,-0.00040999998,0.81731
31.15,2000,0,91.24,0.000002697398,0.000002697398,0.000002697398,0.99999994,0,0,0,0,0,0,0,1,0,0,0,false,false,true,-10.83,133.18,17.01,-0.0037520807,0.0029698352,0.78647673,0.6176013,-43.251,181.851,8.321,-0.00010999999,-0.00040999998,0.81781
31.158333,2000,0,91.24,0.000002697398,0.000002697398,0.000002697398,0.99999994,0,0,0,0,0,0,0,1,0,0,0,false,false,true,-11.19,134.7,17.01,-0.0037628706,0.0029590458,0.7885748,0.61492014,-43.690998,181.651,8.321,-0.00010999999,-0.00040999998,0.81831
31.166666,2000,0,91.24,0.000002697398,0.000002697398,0.000002697398,0.99999994,0,0,0,0,0,0,0,1,0,0,0,false,false,true,-11.55,136.20999,17.01,-0.0037736602,0.0029428615,0.79066664,0.61222816,-44.141,181.44101,8.321,-0.00010999999,-0.00040999998,0.81881
31.175,2000,0,91.24,0.000002697398,0.000002697398,0.000002697398,0.99999994,0,0,0,0,0,0,0,1,0,0,0,false,false,true,-11.92,137.72,17.01,-0.0037844498,0.002926677,0.79275215,0.6095253,-44.600998,181.22101,8.321,-0.00010999999,-0.00040999998,0.81931
31.183332,2000,0,91.24,0.000002697398,0.000002697398,0.000002697398,0.99999994,0,0,0,0,0,0,0,1,0,0,0,false,false,true,-12.29,139.23,17.01,-0.0037952394,0.0029104927,0.7948271,0.60681707,-45.060997,181.001,8.321,-0.00010999999,-0.00030999997,0.81981
31.191668,2000,0,91.24,0.000002697398,0.000002697398,0.000002697398,0.99999994,0,0,0,0,0,0,0,1,0,0,0,false,false,true,-12.67,140.73999,17.01,-0.0038060287,0.0028997029,0.79689556,0.604098,-45.531,180.771,8.321,-0.00010999999,-0.00030999997,0.82031
31.2,2000,0,91.24,0.000002697398,0.000002697398,0.000002697398,0.99999994,0,0,0,0,0,0,0,1,0,0,0,false,false,true,-13.049999,142.25,17.01,-0.0038168186,0.0028889135,0.7989576,0.6013683,-46.010998,180.531,8.321,-0.00010999999,-0.00030999997,0.82081
31.208334,2000,0,91.24,0.000002697398,0.000002697398,0.000002697398,0.99999994,0,0,0,0,0,0,0,1,0,0,0,false,false,true,-13.429999,143.75,17.01,-0.003827608,0.0028781237,0.80100894,0.5986331,-46.501,180.291,8.321,-0.00010999999,-0.00030999997,0.82131
31.216667,2000,0,91.24,0.000002697398,0.000002697398,0.000002697398,0.99999994,0,0,0,0,0,0,0,1,0,0,0,false,false,true,-13.82,145.25,17.01,-0.0038383978,0.0028673343,0.8030538,0.59588724,-46.990997,180.041,8.321,-0.00010999999,-0.00030999997,0.82181
31.225,2000,0,91.24,0.000002697398,0.000002697398,0.000002697398,0.99999994,0,0,0,0,0,0,0,1,0,0,0,false,false,true,-14.21,146.75,17.01,-0.0038491872,0.0028511498,0.80508804,0.59313583,-47.490997,179.781,8.321,0,-0.00030999997,0.82221
31.233334,2000,0,91.24,0.000002697398,0.000002697398,0.000002697398,0.99999994,0,0,0,0,0,0,0,1,0,0,0,false,false,true,-14.61,148.25,17.01,-0.003859977,0.0028349655,0.80711573,0.59037375,-47.990997,179.511,8.321,0,-0.00030999997,0.82261
31.241667,2000,0,91.24,0.000002697398,0.000002697398,0.000002697398,0.99999994,0,0,0,0,0,0,0,1,0,0,0,false,false,true,-15.009999,149.75,17.01,-0.003870766,0.0028187807,0.8091328,0.5876061,-48.501,179.241,8.321,0,-0.00021,0.82300997
31.25,2000,0,91.24,0.000002697398,0.000002697398,0.000002697398,0.99999994,0,0,0,0,0,0,0,1,0,0,0,false,false,true,-15.41,151.23999,17.01,-0.0038815557,0.0028025967,0.8111433,0.5848277,-49.021,178.961,8.321,0,-0.00021,0.82341
31.258333,2000,0,91.24,0.000002697398,0.000002697398,0.000002697398,0.99999994,0,0,0,0,0,0,0,1,0,0,0,false,false,true,-15.82,152.73,17.01,-0.0038923454,0.0027864121,0.81314313,0.582044,-49.540997,178.671,8.321,0,-0.00010999999,0.82381
31.266666,2000,0,91.24,0.000002697398,0.000002697398,0.000002697398,0.99999994,0,0,0,0,0,0,0,1,0,0,0,false,false,true,-16.23,154.22,17.01,-0.0039031352,0.002770228,0.8151362,0.57924956,-50.071,178.371,8.321,-0.00010999999,-0.00010999999,0.82421
31.275,2000,0,91.24,0.000002697398,0.000002697398,0.000002697398,0.99999994,0,0,0,0,0,0,0,1,0,0,0,false,false,true,-16.65,155.70999,17.01,-0.0039139246,0.0027594382,0.8171224,0.5764442,-50.600998,178.071,8.321,-0.00010999999,0,0.82461
31.283333,2000,0,91.24,0.000002697398,0.000002697398,0.000002697398,0.99999994,0,0,0,0,0,0,0,1,0,0,0,false,false,true,-17.07,157.19,17.01,-0.003924714,0.0027486486,0.81909794,0.57363355,-51.141,177.761,8.321,-0.00010999999,0,0.82491
31.291666,2000,0,91.24,0.000002697398,0.000002697398,0.000002697398,0.99999994,0,0,0,0,0,0,0,1,0,0,0,false,false,true,-17.5,158.67,17.01,-0.0039355042,0.0027378593,0.8210667,0.5708121,-51.681,177.44101,8.321,-0.00010999999,0,0.82521
31.3,2000,0,91.24,0.000002697398,0.000002697398,0.000002697398,0.99999994,0,0,0,0,0,0,0,1,0,0,0,false,false,true,-17.93,160.15,17.01,-0.0039462936,0.0027270697,0.82302475,0.56798524,-52.231,177.121,8.321,0,0,0.82550997
31.308332,2000,0,91.24,0.000002697398,0.000002697398,0.000002697398,0.99999994,0,0,0,0,0,0,0,1,0,0,0,false,false,true,-18.369999,161.62999,17.01,-0.003957083,0.002710885,0.8249721,0.56515294,-52.781,176.791,8.321,0,0,0.82581
31.316668,2000,0,91.24,0.000002697398,0.000002697398,0.000002697398,0.99999994,0,0,0,0,0,0,0,1,0,0,0,false,false,true,-18.81,163.09999,17.01,-0.0039678724,0.0026947006,0.82691264,0.5623098,-53.330997,176.451,8.321,0,0,0.82611
31.325,2000,0,91.24,0.000002697398,0.000002697398,0.000002697398,0.99999994,0,0,0,0,0,0,0,1,0,0,0,false,false,true,-19.25,164.56999,17.01,-0.003978662,0.0026785163,0.82884246,0.55946136,-53.891,176.101,8.321,0,0,0.82641
31.333334,2000,0,91.24,0.000002697398,0.000002697398,0.000002697398,0.99999994,0,0,0,0,0,0,0,1,0,0,0,false,false,true,-19.699999,166.04,17.01,-0.0039894516,0.0026623318,0.8307653,0.55660206,-54.450996,175.751,8.321,0,0,0.82671
31.341667,2000,0,91.24,0.000002697398,0.000002697398,0.000002697398,0.99999994,0,0,0,0,0,0,0,1,0,0,0,false,false,true,-20.15,167.5,17.01,-0.004000241,0.0026461475,0.8326774,0.55373746,-55.010998,175.391,8.321,0,0,0.82691
31.35,2000,0,91.24,0.000002697398,0.000002697398,0.000002697398,0.99999994,0,0,0,0,0,0,0,1,0,0,0,false,false,true,-20.609999,168.95999,17.01,-0.004011031,0.002629963,0.8345789,0.55086744,-55.580997,175.021,8.321,0,0,0.82711
31.358334,2000,0,91.24,0.000002697398,0.000002697398,0.000002697398,0.99999994,0,0,0,0,0,0,0,1,0,0,0,false,false,true,-21.07,170.42,17.01,-0.00402182,0.0026137787,0.8364733,0.54798657,-56.150997,174.641,8.321,0,0.00010999999,0.82730997
31.366667,2000,0,91.24,0.000002697398,0.000002697398,0.000002697398,0.99999994,0,0,0,0,0,0,0,1,0,0,0,false,false,true,-21.539999,171.87999,17.01,-0.00403261,0.0025975944,0.838357,0.5451004,-56.720997,174.261,8.321,0,0.00010999999,0.82751
31.375,2000,0,91.24,0.000002697398,0.000002697398,0.000002697398,0.99999994,0,0,0,0,0,0,0,1,0,0,0,false,false,true,-22.01,173.33,17.01,-0.0040433994,0.0025814099,0.84023,0.5422088,-57.301,173.871,8.321,0,0.00021,0.82771
31.383333,2000,0,91.24,0.000002697398,0.000002697398,0.000002697398,0.99999994,0,0,0,0,0,0,0,1,0,0,0,false,false,true,-22.49,174.78,17.01,-0.004054189,0.0025706203,0.8420959,0.5393063,-57.880997,173.47101,8.321,0,0.00030999997,0.82791
31.391666,2000,0,91.24,0.000002697398,0.000002697398,0.000002697398,0.99999994,0,0,0,0,0,0,0,1,0,0,0,false,false,true,-22.97,176.23,17.01,-0.004059584,0.0025598307,0.8439511,0.5363985,-58.461,173.061,8.321,0,0.00030999997,0.82811
31.4,2000,0,91.24,0.000002697398,0.000002697398,0.000002697398,0.99999994,0,0,0,0,0,0,0,1,0,0,0,false,false,true,-23.46,177.67,17.01,-0.0040649786,0.002549041,0.84579563,0.5334853,-59.040997,172.651,8.321,0,0.00030999997,0.82831
31.408333,2000,0,91.24,0.000002697398,0.000002697398,0.000002697398,0.99999994,0,0,0,0,0,0,0,1,0,0,0,false,false,true,-23.949999,179.11,17.01,-0.0040703737,0.0025382515,0.8476329,0.5305613,-59.630997,172.231,8.321,0,0.00021,0.82840997
31.416666,2000,0,91.24,0.000002697398,0.000002697398,0.000002697398,0.99999994,0,0,0,0,0,0,0,1,0,0,0,false,false,true,-24.449999,180.55,17.01,-0.0040757684,0.0025220672,0.84945947,0.52763194,-60.220997,171.80101,8.321,0,0.00010999999,0.82851
31.425,2000,0,91.24,0.000002697398,0.000002697398,0.000002697398,0.99999994,0,0,0,0,0,0,0,1,0,0,0,false,false,true,-24.949999,181.98,17.01,-0.004086558,0.0025058826,0.8512753,0.5246972,-60.810997,171.371,8.321,0,0.00010999999,0.82861
31.433332,2000,0,91.24,0.000002697398,0.000002697398,0.000002697398,0.99999994,0,0,0,0,0,0,0,1,0,0,0,false,false,true,-25.46,183.40999,17.01,-0.0040973476,0.0024896984,0.8530806,0.521757,-61.400997,170.931,8.321,0,0.00010999999,0.82871
31.441668,2000,0,91.24,0.000002697398,0.000002697398,0.000002697398,0.99999994,0,0,0,0,0,0,0,1,0,0,0,false,false,true,-25.97,184.83,17.01,-0.004108137,0.002473514,0.8548785,0.518806,-61.990997,170.481,8.321,0,0.00010999999,0.82881
31.45,2000,0,91.24,0.000002697398,0.000002697398,0.000002697398,0.99999994,0,0,0,0,0,0,0,1,0,0,0,false,false,true,-26.49,186.25,17.01,-0.004118927,0.0024573295,0.8566656,0.51584965,-62.580997,170.021,8.321,0,0.00010999999,0.82891
31.458334,2000,0,91.24,0.000002697398,0.000002697398,0.000002697398,0.99999994,0,0,0,0,0,0,0,1,0,0,0,false,false,true,-27.01,187.67,17.01,-0.0041243215,0.0024411452,0.8584421,0.5128879,-63.170998,169.561,8.321,0,0.00021,0.82901
31.466667,2000,0,91.24,0.000002697398,0.000002697398,0.000002697398,0.99999994,0,0,0,0,0,0,0,1,0,0,0,false,false,true,-27.539999,189.08,17.01,-0.004129716,0.0024249607,0.860208,0.5099207,-63.760998,169.091,8.321,-0.00010999999,0.00021,0.82901
31.475,2000,0,91.24,0.000002697398,0.000002697398,0.000002697398,0.99999994,0,0,0,0,0,0,0,1,0,0,0,false,false,true,-28.07,190.48999,17.01,-0.004135111,0.0024141711,0.8619631,0.50694823,-64.351,168.61101,8.321,-0.00021,0.00021,0.82901
31.483334,2000,0,91.24,0.000002697398,0.000002697398,0.000002697398,0.99999994,0,0,0,0,0,0,0,1,0,0,0,false,false,true,-28.609999,191.9,17.01,-0.004140506,0.0024033815,0.86371076,0.5039649,-64.940994,168.131,8.321,-0.00021,0.00010999999,0.82901
31.491667,2000,0,91.24,0.000002697398,0.000002697398,0.000002697398,0.99999994,0,0,0,0,0,0,0,1,0,0,0,false,false,true,-29.15,193.3,17.01,-0.0041512954,0.002392592,0.86544776,0.50097615,-65.541,167.641,8.321,-0.00021,0,0.82901
31.5,2000,0,91.24,0.000002697398,0.000002697398,0.000002697398,0.99999994,0,0,0,0,0,0,0,1,0,0,0,false,false,true,-29.699999,194.7,17.01,-0.0041620857,0.0023764079,0.867174,0.4979821,-66.141,167.141,8.321,-0.00021,0,0.82901
31.508333,2000,0,91.24,0.000002697398,0.000002697398,0.000002697398,0.99999994,0,0,0,0,0,0,0,1,0,0,0,false,false,true,-30.25,196.09,17.01,-0.004172874,0.002360223,0.8688896,0.49498245,-66.741,166.641,8.321,-0.00021,0,0.82901
31.516666,2000,0,91.24,0.000002697398,0.000002697398,0.000002697398,0.99999994,0,0,0,0,0,0,0,1,0,0,0,false,false,true,-30.81,197.48,17.01,-0.0041836645,0.0023440388,0.87059456,0.4919776,-67.340996,166.131,8.321,-0.00021,0,0.82901
31.525,2000,0,91.24,0.000002697398,0.000002697398,0.000002697398,0.99999994,0,0,0,0,0,0,0,1,0,0,0,false,false,true,-31.369999,198.86,17.01,-0.004194454,0.0023278545,0.8722889,0.4889673,-67.931,165.61101,8.321,-0.00021,0.00010999999,0.82891
31.533333,2000,0,91.24,0.000002697398,0.000002697398,0.000002697398,0.99999994,0,0,0,0,0,0,0,1,0,0,0,false,false,true,-31.939999,200.23999,17.01,-0.0041998485,0.002317065,0.8739725,0.4859516,-68.520996,165.091,8.321,-0.00021,0.00021,0.82881
31.541666,2000,0,91.24,0.000002697398,0.000002697398,0.000002697398,0.99999994,0,0,0,0,0,0,0,1,0,0,0,false,false,true,-32.51,201.62,17.01,-0.0042052437,0.0023062755,0.8756455,0.48293054,-69.111,164.561,8.321,-0.00021,0.00021,0.82871
31.55,2000,0,91.24,0.000002697398,0.000002697398,0.000002697398,0.99999994,0,0,0,0,0,0,0,1,0,0,0,false,false,true,-33.09,202.98999,17.01,-0.0042106383,0.0022954857,0.87730783,0.47990406,-69.701,164.021,8.321,-0.00010999999,0.00021,0.82861
31.558332,2000,0,91.24,0.000002697398,0.000002697398,0.000002697398,0.99999994,0,0,0,0,0,0,0,1,0,0,0,false,false,true,-33.67,204.36,17.01,-0.004216033,0.0022793014,0.87895954,0.47687218,-70.291,163.481,8.321,-0.00010999999,0.00010999999,0.82851
31.566668,2000,0,91.24,0.000002697398,0.000002697398,0.000002697398,0.99999994,0,0,0,0,0,0,0,1,0,0,0,false,false,true,-34.26,205.72,17.01,-0.0042214277,0.0022631169,0.88060063,0.4738348,-70.881,162.931,8.321,-0.00010999999,0,0.82840997
31.575,2000,0,91.24,0.000002697398,0.000002697398,0.000002697398,0.99999994,0,0,0,0,0,0,0,1,0,0,0,false,false,true,-34.85,207.08,17.01,-0.004226823,0.0022469328,0.8822311,0.47079217,-71.471,162.371,8.321,-0.00010999999,0,0.82831
31.583334,2000,0,91.24,0.000002697398,0.000002697398,0.000002697398,0.99999994,0,0,0,0,0,0,0,1,0,0,0,false,false,true,-35.45,208.43,17.01,-0.0042322176,0.002230748,0.88385093,0.46774408,-72.061,161.811,8.321,-0.00010999999,0,0.82811
31.591667,2000,0,91.24,0.000002697398,0.000002697398,0.000002697398,0.99999994,0,0,0,0,0,0,0,1,0,0,0,false,false,true,-36.05,209.78,17.01,-0.0042376122,0.0022145638,0.88546014,0.46469063,-72.651,161.241,8.321,-0.00021,0,0.82791
31.6,2000,0,91.24,0.000002697398,0.000002697398,0.000002697398,0.99999994,0,0,0,0,0,0,0,1,0,0,0,false,false,true,-36.66,211.12,17.01,-0.004243007,0.0021983793,0.8870587,0.46163177,-73.241,160.66101,8.321,-0.00021,0,0.82771
31.608334,2000,0,91.24,0.000002697398,0.000002697398,0.000002697398,0.99999994,0,0,0,0,0,0,0,1,0,0,0,false,false,true,-37.27,212.45999,17.01,-0.0042484016,0.002182195,0.88864666,0.45856753,-73.821,160.08101,8.321,-0.00030999997,0,0.82751
31.616667,2000,0,91.24,0.000002697398,0.000002697398,0.000002697398,0.99999994,0,0,0,0,0,0,0,1,0,0,0,false,false,true,-37.89,213.79,17.01,-0.004253797,0.0021714054,0.8902212,0.45550328,-74.401,159.491,8.321,-0.00040999998,0,0.82730997
31.625,2000,0,91.24,0.000002697398,0.000002697398,0.000002697398,0.99999994,0,0,0,0,0,0,0,1,0,0,0,false,false,true,-38.51,215.12,17.01,-0.004264586,0.0021606158,0.89178526,0.45243356,-74.980995,158.901,8.321,-0.00040999998,0,0.82711
31.633333,2000,0,91.24,0.000002697398,0.000002697398,0.000002697398,0.99999994,0,0,0,0,0,0,0,1,0,0,0,false,false,true,-39.129997,216.44,17.01,-0.004275376,0.0021498261,0.8933386,0.44935852,-75.561,158.30101,8.321,-0.00030999997,0,0.82691
31.641666,2000,0,91.24,0.000002697398,0.000002697398,0.000002697398,0.99999994,0,0,0,0,0,0,0,1,0,0,0,false,false,true,-39.76,217.76,17.01,-0.0042807707,0.0021336419,0.8948815,0.4462781,-76.141,157.69101,8.321,-0.00021,0,0.82660997
31.65,2000,0,91.24,0.000002697398,0.000002697398,0.000002697398,0.99999994,0,0,0,0,0,0,0,1,0,0,0,false,false,true,-40.39,219.06999,17.01,-0.004286166,0.0021174576,0.8964138,0.4431923,-76.711,157.08101,8.321,-0.00021,0,0.82631
31.658333,2000,0,91.24,0.000002697398,0.000002697398,0.000002697398,0.99999994,0,0,0,0,0,0,0,1,0,0,0,false,false,true,-41.03,220.37999,17.01,-0.00429156,0.002101273,0.89793545,0.44010106,-77.281,156.461,8.321,-0.00021,0,0.82601
31.666666,2000,0,91.24,0.000002697398,0.000002697398,0.000002697398,0.99999994,0,0,0,0,0,0,0,1,0,0,0,false,false,true,-41.67,221.68,17.01,-0.004296955,0.0020850885,0.899444,0.43700984,-77.851,155.841,8.321,-0.00021,-0.00010999999,0.82571
31.675,2000,0,91.24,0.000002697398,0.000002697398,0.000002697398,0.99999994,0,0,0,0,0,0,0,1,0,0,0,false,false,true,-42.32,222.98,17.01,-0.0043023503,0.0020689045,0.90094197,0.43391326,-78.421,155.211,8.321,-0.00030999997,-0.00010999999,0.82541
31.683332,2000,0,91.24,0.000002697398,0.000002697398,0.000002697398,0.99999994,0,0,0,0,0,0,0,1,0,0,0,false,false,true,-42.969997,224.26999,17.01,-0.004307745,0.0020527202,0.90242946,0.43081117,-78.991,154.571,8.321,-0.00030999997,-0.00010999999,0.82511
31.691668,2000,0,91.24,0.000002697398,0.000002697398,0.000002697398,0.99999994,0,0,0,0,0,0,0,1,0,0,0,false,false,true,-43.629997,225.56,17.01,-0.0043131392,0.0020365354,0.9039063,0.42770374,-79.550995,153.931,8.321,-0.00030999997,-0.00021,0.82480997
31.7,2000,0,91.24,0.000002697398,0.000002697398,0.000002697398,0.99999994,0,0,0,0,0,0,0,1,0,0,0,false,false,true,-44.29,226.84,17.01,-0.004323929,0.0020203511,0.9053701,0.42459634,-80.111,153.281,8.321,-0.00040999998,-0.00021,0.82441
31.708334,2000,0,91.24,0.000002697398,0.000002697398,0.000002697398,0.99999994,0,0,0,0,0,0,0,1,0,0,0,false,false,true,-44.96,228.12,17.01,-0.0043347185,0.0020041666,0.9068234,0.42148355,-80.671,152.631,8.321,-0.00040999998,-0.00021,0.82401
31.716667,2000,0,91.24,0.000002697398,0.000002697398,0.000002697398,0.99999994,0,0,0,0,0,0,0,1,0,0,0,false,false,true,-45.629997,229.39,17.01,-0.0043455083,0.0019879823,0.9082662,0.41836533,-81.221,151.97101,8.321,-0.00040999998,-0.00010999999,0.82361
31.725,2000,0,91.24,0.000002697398,0.000002697398,0.000002697398,0.99999994,0,0,0,0,0,0,0,1,0,0,0,false,false,true,-46.309998,230.65999,17.01,-0.004350903,0.0019717978,0.90969604,0.41524714,-81.770996,151.311,8.321,-0.00040999998,-0.00010999999,0.82321
31.733334,2000,0,91.24,0.000002697398,0.000002697398,0.000002697398,0.99999994,0,0,0,0,0,0,0,1,0,0,0,false,false,true,-46.989998,231.92,17.01,-0.004356297,0.0019556133,0.9111153,0.41212353,-82.321,150.641,8.321,-0.00040999998,-0.00010999999,0.82281
31.741667,2000,0,91.24,0.000002697398,0.000002697398,0.000002697398,0.99999994,0,0,0,0,0,0,0,1,0,0,0,false,false,true,-47.68,233.18,17.01,-0.0043616924,0.0019394292,0.91252184,0.40899998,-82.861,149.97101,8.321,-0.00040999998,-0.00010999999,0.82241
31.75,2000,0,91.24,0.000002697398,0.000002697398,0.000002697398,0.99999994,0,0,0,0,0,0,0,1,0,0,0,false,false,true,-48.37,234.43,17.01,-0.0043670875,0.0019232448,0.9139179,0.4058709,-83.401,149.291,8.321,-0.00040999998,-0.00010999999,0.82201
31.758333,2000,0,91.24,0.000002697398,0.000002697398,0.000002697398,0.99999994,0,0,0,0,0,0,0,1,0,0,0,false,false,true,-49.07,235.67,17.01,-0.0043724827,0.0019070606,0.91530347,0.40273657,-83.940994,148.61101,8.321,-0.00051,-0.00010999999,0.82161
31.766666,2000,0,91.24,0.000002697398,0.000002697398,0.000002697398,0.99999994,0,0,0,0,0,0,0,1,0,0,0,false,false,true,-49.77,236.90999,17.01,-0.004377877,0.0018962709,0.91667616,0.39960214,-84.471,147.921,8.321,-0.00051,-0.00010999999,0.82111
31.775,2000,0,91.24,0.000002697398,0.000002697398,0.000002697398,0.99999994,0,0,0,0,0,0,0,1,0,0,0,false,false,true,-50.469997,238.14,17.01,-0.0043832716,0.0018854813,0.9180385,0.39646238,-85.001,147.231,8.321,-0.00051,-0.00010999999,0.82061
31.783333,2000,0,91.24,0.000002697398,0.000002697398,0.000002697398,0.99999994,0,0,0,0,0,0,0,1,0,0,0,false,false,true,-51.18,239.37,17.01,-0.0043886667,0.0018746917,0.91938806,0.39332262,-85.531,146.531,8.321,-0.00051,-0.00010999999,0.82010996
31.791666,2000,0,91.24,0.000002697398,0.000002697398,0.000002697398,0.99999994,0,0,0,0,0,0,0,1,0,0,0,false,false,true,-51.89,240.59,17.01,-0.0043940614,0.0018639021,0.92072725,0.39017746,-86.050995,145.83101,8.321,-0.00040999998,-0.00021,0.81961
31.8,2000,0,91.24,0.000002697398,0.000002697398,0.000002697398,0.99999994,0,0,0,0,0,0,0,1,0,0,0,false,false,true,-52.61,241.81,17.01,-0.004399456,0.0018477177,0.92205375,0.38703227,-86.571,145.121,8.321,-0.00030999997,-0.00021,0.81911
31.808332,2000,0,91.24,0.000002697398,0.000002697398,0.000002697398,0.99999994,0,0,0,0,0,0,0,1,0,0,0,false,false,true,-53.329998,243.01999,17.01,-0.004404851,0.0018315333,0.92336994,0.38388163,-87.081,144.41101,8.321,-0.00030999997,-0.00030999997,0.81861
31.816668,2000,0,91.24,0.000002697398,0.000002697398,0.000002697398,0.99999994,0,0,0,0,0,0,0,1,0,0,0,false,false,true,-54.059998,244.22,17.01,-0.0044102455,0.0018153489,0.92467344,0.38073108,-87.590996,143.69101,8.321,-0.00030999997,-0.00030999997,0.81811
31.825,2000,0,91.24,0.000002697398,0.000002697398,0.000002697398,0.99999994,0,0,0,0,0,0,0,1,0,0,0,false,false,true,-54.789997,245.42,17.01,-0.0044156406,0.0017991646,0.9259666,0.37757513,-88.101,142.97101,8.321,-0.00030999997,-0.00030999997,0.81760997
31.833334,2000,0,91.24,0.000002697398,0.000002697398,0.000002697398,0.99999994,0,0,0,0,0,0,0,1,0,0,0,false,false,true,-55.52,246.61,17.01,-0.0044210358,0.0017829803,0.9272473,0.37441918,-88.601,142.241,8.321,-0.00030999997,-0.00030999997,0.81701
31.841667,2000,0,91.24,0.000002697398,0.000002697398,0.000002697398,0.99999994,0,0,0,0,0,0,0,1,0,0,0,false,false,true,-56.26,247.79999,17.01,-0.00442643,0.0017667958,0.9285175,0.3712578,-89.101,141.511,8.321,-0.00030999997,-0.00030999997,0.81641
31.85,2000,0,91.24,0.000002697398,0.000002697398,0.000002697398,0.99999994,0,0,0,0,0,0,0,1,0,0,0,false,false,true,-57,248.98,17.01,-0.004431824,0.0017506111,0.92977524,0.36809644,-89.590996,140.781,8.321,-0.00040999998,-0.00030999997,0.81580997
31.858334,2000,0,91.24,0.000002697398,0.000002697398,0.000002697398,0.99999994,0,0,0,0,0,0,0,1,0,0,0,false,false,true,-57.75,250.15,17.01,-0.0044372194,0.0017344267,0.9310206,0.36493507,-90.08099,140.041,8.321,-0.00040999998,-0.00030999997,0.81521
31.866667,2000,0,91.24,0.000002697398,0.000002697398,0.000002697398,0.99999994,0,0,0,0,0,0,0,1,0,0,0,false,false,true,-58.5,251.31999,17.01,-0.0044426145,0.0017182425,0.9322558,0.36176828,-90.571,139.30101,8.321,-0.00040999998,-0.00030999997,0.81461
31.875,2000,0,91.24,0.000002697398,0.000002697398,0.000002697398,0.99999994,0,0,0,0,0,0,0,1,0,0,0,false,false,true,-59.25,252.48,17.01,-0.0044480087,0.0017020579,0.9334784,0.3586015,-91.050995,138.55101,8.321,-0.00040999998,-0.00040999998,0.81400996
31.883333,2000,0,91.24,0.000002697398,0.000002697398,0.000002697398,0.99999994,0,0,0,0,0,0,0,1,0,0,0,false,false,true,-60.01,253.62999,17.01,-0.0044534043,0.001685874,0.9346889,0.3554348,-91.531,137.80101,8.321,-0.00051,-0.00040999998,0.81341
31.891666,2000,0,91.24,0.000002697398,0.000002697398,0.000002697398,0.99999994,0,0,0,0,0,0,0,1,0,0,0,false,false,true,-60.77,254.78,17.01,-0.004458799,0.0016696894,0.935889,0.35226265,-92.001,137.05101,8.321,-0.00051,-0.00040999998,0.81281
31.9,2000,0,91.24,0.000002697398,0.000002697398,0.000002697398,0.99999994,0,0,0,0,0,0,0,1,0,0,0,false,false,true,-61.539997,255.92,17.01,-0.0044641937,0.001653505,0.93707687,0.34909052,-92.471,136.291,8.321,-0.00051,-0.00040999998,0.81220996
31.908333,2000,0,91.24,0.000002697398,0.000002697398,0.000002697398,0.99999994,0,0,0,0,0,0,0,1,0,0,0,false,false,true,-62.309998,257.06,17.01,-0.004469589,0.0016373207,0.9382525,0.3459184,-92.931,135.531,8.321,-0.00051,-0.00040999998,0.81150997
31.916666,2000,0,91.24,0.000002697398,0.000002697398,0.000002697398,0.99999994,0,0,0,0,0,0,0,1,0,0,0,false,false,true,-63.079998,258.19,17.01,-0.004474983,0.0016211362,0.93941593,0.34274623,-93.391,134.761,8.321,-0.00051,-0.00040999998,0.81080997
31.925,2000,0,91.24,0.000002697398,0.000002697398,0.000002697398,0.99999994,0,0,0,0,0,0,0,1,0,0,0,false,false,true,-63.859997,259.31,17.01,-0.0044803787,0.0016049519,0.9405692,0.33956864,-93.840996,133.991,8.321,-0.00061,-0.00040999998,0.81011
31.933332,2000,0,91.24,0.000002697398,0.000002697398,0.000002697398,0.99999994,0,0,0,0,0,0,0,1,0,0,0,false,false,true,-64.64,260.43,17.01,-0.004485773,0.0015941622,0.9417103,0.33639106,-94.291,133.22101,8.321,-0.00061,-0.00040999998,0.80941
31.941668,2000,0,91.24,0.000002697398,0.000002697398,0.000002697398,0.99999994,0,0,0,0,0,0,0,1,0,0,0,false,false,true,-65.43,261.54,17.01,-0.0044911676,0.0015833727,0.9428393,0.33321354,-94.730995,132.44101,8.321,-0.00061,-0.00040999998,0.80871
31.95,2000,0,91.24,0.000002697398,0.000002697398,0.000002697398,0.99999994,0,0,0,0,0,0,0,1,0,0,0,false,false,true,-66.22,262.63998,17.01,-0.0044965623,0.0015725831,0.94395626,0.330036,-95.171,131.66101,8.321,-0.00051,-0.00040999998,0.80801
31.958334,2000,0,91.24,0.000002697398,0.000002697398,0.000002697398,0.99999994,0,0,0,0,0,0,0,1,0,0,0,false,false,true,-67.01,263.74,17.01,-0.0045019574,0.0015563987,0.9450612,0.32685846,-95.601,130.881,8.321,-0.00040999998,-0.00040999998,0.80731
31.966667,2000,0,91.24,0.000002697398,0.000002697398,0.000002697398,0.99999994,0,0,0,0,0,0,0,1,0,0,0,false,false,true,-67.81,264.83,17.01,-0.004507352,0.0015402143,0.9461561,0.32367554,-96.031,130.091,8.321,-0.00040999998,-0.00040999998,0.80661
31.975,2000,0,91.24,0.000002697398,0.000002697398,0.000002697398,0.99999994,0,0,0,0,0,0,0,1,0,0,0,false,false,true,-68.61,265.91,17.01,-0.0045127473,0.00152403,0.947239,0.32049263,-96.451,129.30101,8.321,-0.00040999998,-0.00040999998,0.80581
31.983334,2000,0,91.24,0.000002697398,0.000002697398,0.000002697398,0.99999994,0,0,0,0,0,0,0,1,0,0,0,false,false,true,-69.409996,266.99,17.01,-0.0045181415,0.0015078455,0.94830996,0.3173096,-96.870995,128.511,8.321,-0.00040999998,-0.00040999998,0.80501
31.991667,2000,0,91.24,0.000002697398,0.000002697398,0.000002697398,0.99999994,0,0,0,0,0,0,0,1,0,0,0,false,false,true,-70.22,268.06,17.01,-0.004523536,0.0014916611,0.9493691,0.31412667,-97.281,127.711,8.321,-0.00040999998,-0.00040999998,0.80421
32,2000,0,91.24,0.000002697398,0.000002697398,0.000002697398,0.99999994,0,0,0,0,0,0,0,1,0,0,0,false,false,true,-71.03,269.12,17.01,-0.0045289313,0.0014754768,0.9504163,0.31094372,-97.690994,126.910995,8.321,-0.00040999998,-0.00040999998,0.80341
32.008335,2000,0,91.24,0.000002697398,0.000002697398,0.000002697398,0.99999994,0,0,0,0,0,0,0,1,0,0,0,false,false,true,-71.84,270.18,17.01,-0.004534326,0.0014592924,0.9514518,0.3077608,-98.090996,126.111,8.321,-0.00040999998,-0.00040999998,0.80261
32.016666,2000,0,91.24,0.000002697398,0.000002697398,0.000002697398,0.99999994,0,0,0,0,0,0,0,1,0,0,0,false,false,true,-72.659996,271.22998,17.01,-0.0045397207,0.001443108,0.9524754,0.3045779,-98.491,125.311,8.321,-0.00040999998,-0.00040999998,0.80180997
32.025,2000,0,91.24,0.000002697398,0.000002697398,0.000002697398,0.99999994,0,0,0,0,0,0,0,1,0,0,0,false,false,true,-73.479996,272.27,17.01,-0.004545116,0.0014269237,0.95348746,0.30139497,-98.881,124.501,8.321,-0.00040999998,-0.00040999998,0.80101
32.033333,2000,0,91.24,0.000002697398,0.000002697398,0.000002697398,0.99999994,0,0,0,0,0,0,0,1,0,0,0,false,false,true,-74.299995,273.31,17.01,-0.00455051,0.001410739,0.9544876,0.2982119,-99.270996,123.690994,8.321,-0.00040999998,-0.00040999998,0.80021
32.041668,2000,0,91.24,0.000002697398,0.000002697398,0.000002697398,0.99999994,0,0,0,0,0,0,0,1,0,0,0,false,false,true,-75.13,274.34,17.01,-0.0045559052,0.0013945547,0.95547634,0.295029,-99.651,122.881,8.321,-0.00040999998,-0.00040999998,0.79941
32.05,2000,0,91.24,0.000002697398,0.000002697398,0.000002697398,0.99999994,0,0,0,0,0,0,0,1,0,0,0,false,false,true,-75.96,275.36,17.01,-0.0045613,0.0013783704,0.9564534,0.29184607,-100.031,122.071,8.321,-0.00040999998,-0.00040999998,0.79861
32.058334,2000,0,91.24,0.000002697398,0.000002697398,0.000002697398,0.99999994,0,0,0,0,0,0,0,1,0,0,0,false,false,true,-76.79,276.38,17.01,-0.0045666946,0.001362186,0.9574188,0.28866315,-100.401,121.251,8.321,-0.00040999998,-0.00040999998,0.79771
32.066666,2000,0,91.24,0.000002697398,0.000002697398,0.000002697398,0.99999994,0,0,0,0,0,0,0,1,0,0,0,false,false,true,-77.63,277.38998,17.01,-0.00457209,0.0013460018,0.9583727,0.28548023,-100.760994,120.431,8.321,-0.00051,-0.00040999998,0.79681
32.075,2000,0,91.24,0.000002697398,0.000002697398,0.000002697398,0.99999994,0,0,0,0,0,0,0,1,0,0,0,false,false,true,-78.47,278.38998,17.01,-0.0045774844,0.0013298172,0.95931506,0.28229728,-101.120995,119.611,8.321,-0.00051,-0.00040999998,0.79591
32.083332,2000,0,91.24,0.000002697398,0.000002697398,0.000002697398,0.99999994,0,0,0,0,0,0,0,1,0,0,0,false,false,true,-79.31,279.38998,17.01,-0.0045828796,0.0013136329,0.960246,0.2791144,-101.471,118.791,8.321,-0.00051,-0.00040999998,0.79501
32.091667,2000,0,91.24,0.000002697398,0.000002697398,0.000002697398,0.99999994,0,0,0,0,0,0,0,1,0,0,0,false,false,true,-80.159996,280.38,17.01,-0.0045882743,0.0012974485,0.9611655,0.27593136,-101.821,117.97099,8.321,-0.00051,-0.00040999998,0.79411
32.1,2000,0,91.24,0.000002697398,0.000002697398,0.000002697398,0.99999994,0,0,0,0,0,0,0,1,0,0,0,false,false,true,-81.009995,281.36,17.01,-0.004593669,0.001281264,0.9620735,0.2727484,-102.160995,117.141,8.321,-0.00051,-0.00030999997,0.79320997
32.108334,2000,0,91.24,0.000002697398,0.000002697398,0.000002697398,0.99999994,0,0,0,0,0,0,0,1,0,0,0,false,false,true,-81.86,282.34,17.01,-0.0045990637,0.0012704745,0.9629702,0.26956546,-102.501,116.311,8.321,-0.00051,-0.00030999997,0.79231
32.116665,2000,0,91.24,0.000002697398,0.000002697398,0.000002697398,0.99999994,0,0,0,0,0,0,0,1,0,0,0,false,false,true,-82.71,283.31,17.01,-0.004604459,0.001259685,0.9638555,0.26638258,-102.83099,115.480995,8.321,-0.00051,-0.00030999997,0.79140997
32.125,2000,0,91.24,0.000002697398,0.000002697398,0.000002697398,0.99999994,0,0,0,0,0,0,0,1,0,0,0,false,false,true,-83.57,284.27,17.01,-0.0046098526,0.0012488952,0.96472794,0.263205,-103.160995,114.65099,8.321,-0.00051,-0.00030999997,0.79051
32.133335,2000,0,91.24,0.000002697398,0.000002697398,0.000002697398,0.99999994,0,0,0,0,0,0,0,1,0,0,0,false,false,true,-84.43,285.22998,17.01,-0.004615248,0.0012381057,0.96558934,0.26002747,-103.480995,113.821,8.321,-0.00040999998,-0.00030999997,0.78960997
32.141666,2000,0,91.24,0.000002697398,0.000002697398,0.000002697398,0.99999994,0,0,0,0,0,0,0,1,0,0,0,false,false,true,-85.29,286.18,17.01,-0.004620643,0.0012219213,0.9664394,0.25684994,-103.800995,112.991,8.321,-0.00030999997,-0.00030999997,0.78871
32.15,2000,0,91.24,0.000002697398,0.000002697398,0.000002697398,0.99999994,0,0,0,0,0,0,0,1,0,0,0,false,false,true,-86.159996,287.12,17.01,-0.0046260376,0.0012057369,0.96727836,0.25367233,-104.111,112.15099,8.321,-0.00030999997,-0.00030999997,0.78771
32.158333,2000,0,91.24,0.000002697398,0.000002697398,0.000002697398,0.99999994,0,0,0,0,0,0,0,1,0,0,0,false,false,true,-87.03,288.05,17.01,-0.0046314327,0.0011895526,0.9681061,0.2504948,-104.410995,111.311,8.321,-0.00030999997,-0.00021,0.78670996
32.166668,2000,0,91.24,0.000002697398,0.000002697398,0.000002697398,0.99999994,0,0,0,0,0,0,0,1,0,0,0,false,false,true,-87.9,288.97998,17.01,-0.004636827,0.0011733681,0.9689213,0.24732266,-104.711,110.471,8.321,-0.00030999997,-0.00021,0.78571
32.175,2000,0,91.24,0.000002697398,0.000002697398,0.000002697398,0.99999994,0,0,0,0,0,0,0,1,0,0,0,false,false,true,-88.77,289.9,17.01,-0.004642222,0.0011571838,0.9697255,0.24415052,-105.001,109.631,8.321,-0.00030999997,-0.00021,0.78471
32.183334,2000,0,91.24,0.000002697398,0.000002697398,0.000002697398,0.99999994,0,0,0,0,0,0,0,1,0,0,0,false,false,true,-89.64,290.81,17.01,-0.0046476168,0.0011409994,0.97051865,0.24097838,-105.291,108.791,8.321,-0.00030999997,-0.00010999999,0.78371
32.191666,2000,0,91.24,0.000002697398,0.000002697398,0.000002697398,0.99999994,0,0,0,0,0,0,0,1,0,0,0,false,false,true,-90.52,291.72,17.01,-0.0046530114,0.001124815,0.9713008,0.23780625,-105.571,107.951,8.321,-0.00030999997,-0.00010999999,0.78271
32.2,2000,0,91.24,0.000002697398,0.000002697398,0.000002697398,0.99999994,0,0,0,0,0,0,0,1,0,0,0,false,false,true,-91.4,292.62,17.01,-0.0046584066,0.0011086307,0.97207063,0.23463951,-105.851,107.111,8.321,-0.00030999997,-0.00010999999,0.78170997
32.208332,2000,0,91.24,0.000002697398,0.000002697398,0.000002697398,0.99999994,0,0,0,0,0,0,0,1,0,0,0,false,false,true,-92.28,293.50998,17.01,-0.0046638018,0.0010924463,0.9728296,0.23147269,-106.120995,106.270996,8.321,-0.00030999997,0,0.78071
32.216667,2000,0,91.24,0.000002697398,0.000002697398,0.000002697398,0.99999994,0,0,0,0,0,0,0,1,0,0,0,false,false,true,-93.159996,294.4,17.01,-0.004669196,0.0010762617,0.9735776,0.22830592,-106.381,105.421,8.321,-0.00030999997,0,0.77971
32.225,2000,0,91.24,0.000002697398,0.000002697398,0.000002697398,0.99999994,0,0,0,0,0,0,0,1,0,0,0,false,false,true,-94.049995,295.28,17.01,-0.004674591,0.0010600776,0.9743148,0.22513919,-106.641,104.571,8.321,-0.00030999997,0,0.77871
32.233334,2000,0,91.24,0.000002697398,0.000002697398,0.000002697398,0.99999994,0,0,0,0,0,0,0,1,0,0,0,false,false,true,-94.939995,296.15,17.01,-0.004679985,0.0010438929,0.9750398,0.2219778,-106.891,103.721,8.321,-0.00030999997,0,0.77771
32.241665,2000,0,91.24,0.000002697398,0.000002697398,0.000002697398,0.99999994,0,0,0,0,0,0,0,1,0,0,0,false,false,true,-95.829994,297.00998,17.01,-0.00468538,0.0010277085,0.9757541,0.21881644,-107.141,102.870995,8.321,-0.00030999997,0,0.77661
32.25,2000,0,91.24,0.000002697398,0.000002697398,0.000002697398,0.99999994,0,0,0,0,0,0,0,1,0,0,0,false,false,true,-96.72,297.87,17.01,-0.004690775,0.0010115242,0.9764566,0.21566051,-107.381,102.020996,8.321,-0.00030999997,0,0.77551
