time,ball_loc_x,ball_loc_y,ball_loc_z,ball_rot_x,ball_rot_y,ball_rot_z,ball_rot_w,ball_vel_x,ball_vel_y,ball_vel_z,ball_ang_x,ball_ang_y,ball_ang_z,player0_throttle,player0_steer,player0_pitch,player0_yaw,player0_roll,player0_jump,player0_boost,player0_handbrake,player0_loc_x,player0_loc_y,player0_loc_z,player0_rot_x,player0_rot_y,player0_rot_z,player0_rot_w,player0_vel_x,player0_vel_y,player0_vel_z,player0_ang_x,player0_ang_y,player0_ang_z
160.125,2000,0,73,0.000002697398,0.000002697398,0.000002697398,0.99999994,0,0,0,0,0,0,0,0,0,0,0,false,false,false,0,0,16.94,0.0000026973983,0.0000026973983,0.70710677,0.70710677,0,0,2.041,-0.050809998,0,0
160.13333,2000,0,87.6,0.000002697398,0.000002697398,0.000002697398,0.99999994,0,0,0,0,0,0,1,0,0,0,0,false,false,false,0,0,16.89,-0.00014835689,0.00015375168,0.7071067,0.7071067,0,13.331,3.8809998,-0.085609995,0,0
160.14166,2000,0,90.52,0.000002697398,0.000002697398,0.000002697398,0.99999994,0,0,0,0,0,0,1,0,0,0,0,false,false,false,0,0.11,16.85,-0.00040191234,0.00040730715,0.70710653,0.70710677,0,26.550999,5.481,-0.10710999,0,0
160.15,2000,0,91.1,0.000002697398,0.000002697398,0.000002697398,0.99999994,0,0,0,0,0,0,1,0,0,0,0,false,false,false,0,0.32999998,16.83,-0.0007148105,0.00072560005,0.7071067,0.707106,0,39.650997,6.791,-0.11621,0,0
160.15834,2000,0,91.22,0.000002697398,0.000002697398,0.000002697398,0.99999994,0,0,0,0,0,0,1,0,0,0,0,false,false,false,0,0.65999997,16.82,-0.0010546827,0.0010654721,0.70710516,0.7071067,0,52.641,7.7409997,-0.11450999,0,0
160.16667,2000,0,91.24,0.000002697398,0.000002697398,0.000002697398,0.99999994,0,0,0,0,0,0,1,0,0,0,0,false,false,false,0,1.1,16.82,-0.0013945547,0.0014053443,0.7071067,0.70710397,0,65.520996,8.431,-0.10651,0,0
160.175,2000,0,91.24,0.000002697398,0.000002697398,0.000002697398,0.99999994,0,0,0,0,0,0,1,0,0,0,0,false,false,false,0,1.65,16.82,-0.001707453,0.0017182427,0.707108,0.70710135,0,78.291,8.9210005,-0.09501,0,0
160.18333,2000,0,91.24,0.000002697398,0.000002697398,0.000002697398,0.99999994,0,0,0,0,0,0,1,0,0,0,0,false,false,false,0,2.3,16.83,-0.0019879823,0.001998772,0.70710653,0.7071013,0,90.951,9.281,-0.08221,0,0
160.19167,2000,0,91.24,0.000002697398,0.000002697398,0.000002697398,0.99999994,0,0,0,0,0,0,1,0,0,0,0,false,false,false,0,3.06,16.84,-0.002230748,0.0022415377,0.7071051,0.7071013,0,103.501,9.521,-0.069309995,0,0
160.2,2000,0,91.24,0.000002697398,0.000002697398,0.000002697398,0.99999994,0,0,0,0,0,0,1,0,0,0,0,false,false,false,0,3.9199998,16.85,-0.0024357503,0.00244654,0.7071037,0.7071013,0,115.940994,9.6710005,-0.057109997,0,0
160.20833,2000,0,91.24,0.000002697398,0.000002697398,0.000002697398,0.99999994,0,0,0,0,0,0,1,0,0,0,0,false,false,false,0,4.89,16.859999,-0.0026029893,0.002613779,0.70710254,0.70710135,0,128.281,9.771,-0.046109997,0,0
160.21666,2000,0,91.24,0.000002697398,0.000002697398,0.000002697398,0.99999994,0,0,0,0,0,0,1,0,0,0,0,false,false,false,0,5.96,16.869999,-0.002737859,0.0027486486,0.7071015,0.7071013,0,140.511,9.821,-0.036609996,0,0
160.225,2000,0,91.24,0.000002697398,0.000002697398,0.000002697398,0.99999994,0,0,0,0,0,0,1,0,0,0,0,false,false,false,0,7.1299996,16.88,-0.002845755,0.0028565447,0.7071007,0.70710135,0,152.641,9.841001,-0.02851,0,0
160.23334,2000,0,91.24,0.000002697398,0.000002697398,0.000002697398,0.99999994,0,0,0,0,0,0,1,0,0,0,0,false,false,false,0,8.4,16.89,-0.0029320717,0.0029428613,0.7071013,0.7071,0,164.66101,9.821,-0.02231,0,0
160.24167,2000,0,91.24,0.000002697398,0.000002697398,0.000002697398,0.99999994,0,0,0,0,0,0,1,0,0,0,0,false,false,false,0,9.7699995,16.9,-0.0029968095,0.0030075992,0.70709944,0.70710135,0,176.58101,9.761001,-0.01781,0,0
160.25,2000,0,91.24,0.000002697398,0.000002697398,0.000002697398,0.99999994,0,0,0,0,0,0,1,0,0,0,0,false,false,false,0,11.24,16.91,-0.003050757,0.0030615467,0.7071013,0.70709896,0,188.401,9.681,-0.014409999,0,0
160.25833,2000,0,91.24,0.000002697398,0.000002697398,0.000002697398,0.99999994,0,0,0,0,0,0,1,0,0,0,0,false,false,false,0,12.809999,16.92,-0.0030939158,0.0031047054,0.7070986,0.70710135,0,200.11101,9.591001,-0.011909999,0,0
160.26666,2000,0,91.24,0.000002697398,0.000002697398,0.000002697398,0.99999994,0,0,0,0,0,0,1,0,0,0,0,false,false,false,0,14.48,16.93,-0.0031316793,0.0031424686,0.7070959,0.7071036,0,211.72101,9.491,-0.00991,0,0
160.275,2000,0,91.24,0.000002697398,0.000002697398,0.000002697398,0.99999994,0,0,0,0,0,0,1,0,0,0,0,false,false,false,0,16.24,16.94,-0.0031586532,0.0031694428,0.7070959,0.7071034,0,223.231,9.391,-0.0083099995,0,0
160.28334,2000,0,91.24,0.000002697398,0.000002697398,0.000002697398,0.99999994,0,0,0,0,0,0,1,0,0,0,0,false,false,false,0,18.1,16.949999,-0.003185627,0.0031964167,0.7070959,0.70710313,0,234.651,9.281,-0.00701,0,0
160.29167,2000,0,91.24,0.000002697398,0.000002697398,0.000002697398,0.99999994,0,0,0,0,0,0,1,0,0,0,0,false,false,false,0,20.06,16.96,-0.0032072065,0.003217996,0.707096,0.70710295,0,245.97101,9.1710005,-0.00601,0,0
160.3,2000,0,91.24,0.000002697398,0.000002697398,0.000002697398,0.99999994,0,0,0,0,0,0,1,0,0,0,0,false,false,false,0,22.109999,16.97,-0.0032233908,0.0032341804,0.7070959,0.70710284,0,257.191,9.061,-0.00511,0,0
160.30833,2000,0,91.24,0.000002697398,0.000002697398,0.000002697398,0.99999994,0,0,0,0,0,0,1,0,0,0,0,false,false,false,0,24.25,16.98,-0.003239575,0.0032503647,0.7070959,0.70710266,0,268.321,8.951,-0.00441,0,0
160.31667,2000,0,91.24,0.000002697398,0.000002697398,0.000002697398,0.99999994,0,0,0,0,0,0,1,0,0,0,0,false,false,false,0,26.49,16.99,-0.0032503647,0.0032611543,0.7070959,0.7071026,0,279.351,8.841001,-0.00381,0,0
160.325,2000,0,91.24,0.000002697398,0.000002697398,0.000002697398,0.99999994,0,0,0,0,0,0,1,0,0,0,0,false,false,false,0,28.82,17,-0.0032611543,0.003271944,0.7070959,0.7071024,0,290.29102,8.731,-0.00331,0,0
160.33333,2000,0,91.24,0.000002697398,0.000002697398,0.000002697398,0.99999994,0,0,0,0,0,0,1,0,0,0,0,false,false,false,0,31.24,17.01,-0.0032719441,0.0032827337,0.707096,0.70710236,0,301.131,8.621,-0.00291,0,0
160.34166,2000,0,91.24,0.000002697398,0.000002697398,0.000002697398,0.99999994,0,0,0,0,0,0,1,0,0,0,0,false,false,false,0,33.75,17.01,-0.0032827335,0.003293523,0.7070959,0.70710224,0,311.881,8.511001,-0.00251,0,0
160.35,2000,0,91.24,0.000002697398,0.000002697398,0.000002697398,0.99999994,0,0,0,0,0,0,1,0,0,0,0,false,false,false,0,36.35,17.01,-0.0032881284,0.003298918,0.707096,0.70710224,0,322.541,8.441,-0.00221,0,0
160.35834,2000,0,91.24,0.000002697398,0.000002697398,0.000002697398,0.99999994,0,0,0,0,0,0,1,0,0,0,0,false,false,false,0,39.04,17.01,-0.003293523,0.0033043127,0.7070959,0.7071021,0,333.101,8.391,-0.0019099999,0,0
160.36667,2000,0,91.24,0.000002697398,0.000002697398,0.000002697398,0.99999994,0,0,0,0,0,0,1,0,0,0,0,false,false,false,0,41.82,17.01,-0.0032989178,0.0033097074,0.7070959,0.70710206,0,343.571,8.361,-0.0017099999,0,0
160.375,2000,0,91.24,0.000002697398,0.000002697398,0.000002697398,0.99999994,0,0,0,0,0,0,1,0,0,0,0,false,false,false,0,44.68,17.01,-0.0033043127,0.0033151023,0.7070959,0.70710206,0,353.951,8.341001,-0.00151,0,0
160.38333,2000,0,91.24,0.000002697398,0.000002697398,0.000002697398,0.99999994,0,0,0,0,0,0,1,0,0,0,0,false,false,false,0,47.629997,17.01,-0.0033097074,0.003320497,0.7070959,0.707102,0,364.251,8.331,-0.00131,0,0
160.39166,2000,0,91.24,0.000002697398,0.000002697398,0.000002697398,0.99999994,0,0,0,0,0,0,1,0,0,0,0,false,false,false,0,50.67,17.01,-0.0033151023,0.003325892,0.7070959,0.70710194,0,374.461,8.321,-0.0012099999,0,0
160.4,2000,0,91.24,0.000002697398,0.000002697398,0.000002697398,0.99999994,0,0,0,0,0,0,1,0,0,0,0,false,false,false,0,53.789997,17.01,-0.003320497,0.0033312866,0.7070959,0.7071019,0,384.581,8.321,-0.0010099999,0,0
160.40834,2000,0,91.24,0.000002697398,0.000002697398,0.000002697398,0.99999994,0,0,0,0,0,0,1,0,0,0,0,false,false,false,0,56.989998,17.01,-0.003325892,0.0033366815,0.7070959,0.7071018,0,394.611,8.321,-0.00091,0,0
160.41667,2000,0,91.24,0.000002697398,0.000002697398,0.000002697398,0.99999994,0,0,0,0,0,0,1,0,0,0,0,false,false,false,0,60.28,17.01,-0.003325892,0.0033420762,0.7070959,0.7071018,0,404.561,8.321,-0.00071,0,0
160.425,2000,0,91.24,0.000002697398,0.000002697398,0.000002697398,0.99999994,0,0,0,0,0,0,1,0,0,0,0,false,false,false,0,63.649998,17.01,-0.003325892,0.0033420762,0.7070959,0.7071018,0,414.421,8.321,-0.00061,0,0
160.43333,2000,0,91.24,0.000002697398,0.000002697398,0.000002697398,0.99999994,0,0,0,0,0,0,1,0,0,0,0,false,false,false,0,67.1,17.01,-0.003325892,0.0033420762,0.7070959,0.7071018,0,424.201,8.321,-0.00051,0,0
160.44167,2000,0,91.24,0.000002697398,0.000002697398,0.000002697398,0.99999994,0,0,0,0,0,0,1,0,0,0,0,false,false,false,0,70.64,17.01,-0.003325892,0.0033420762,0.7070959,0.7071018,0,433.891,8.321,-0.00051,0,0
160.45,2000,0,91.24,0.000002697398,0.000002697398,0.000002697398,0.99999994,0,0,0,0,0,0,1,0,0,0,0,false,false,false,0,74.26,17.01,-0.003325892,0.0033420762,0.7070959,0.7071018,0,443.501,8.321,-0.00051,0,0
160.45833,2000,0,91.24,0.000002697398,0.000002697398,0.000002697398,0.99999994,0,0,0,0,0,0,1,0,0,0,0,false,false,false,0,77.96,17.01,-0.003325892,0.0033420762,0.7070959,0.7071018,0,453.031,8.321,-0.00051,0,0
160.46666,2000,0,91.24,0.000002697398,0.000002697398,0.000002697398,0.99999994,0,0,0,0,0,0,1,0,0,0,0,false,false,false,0,81.74,17.01,-0.003325892,0.0033420762,0.7070959,0.7071018,0,462.481,8.321,-0.00051,0,0
160.475,2000,0,91.24,0.000002697398,0.000002697398,0.000002697398,0.99999994,0,0,0,0,0,0,1,0,0,0,0,false,false,false,0,85.59,17.01,-0.003325892,0.0033420762,0.7070959,0.7071018,0,471.85098,8.321,-0.00051,0,0
160.48334,2000,0,91.24,0.000002697398,0.000002697398,0.000002697398,0.99999994,0,0,0,0,0,0,1,0,0,0,0,false,false,false,0,89.52,17.01,-0.003325892,0.0033420762,0.7070959,0.7071018,0,481.141,8.321,-0.00051,0,0
160.49167,2000,0,91.24,0.000002697398,0.000002697398,0.000002697398,0.99999994,0,0,0,0,0,0,1,0,0,0,0,false,false,false,0,93.53,17.01,-0.003325892,0.0033420762,0.7070959,0.7071018,0,490.35098,8.321,-0.00051,0,0
160.5,2000,0,91.24,0.000002697398,0.000002697398,0.000002697398,0.99999994,0,0,0,0,0,0,1,0,0,0,0,false,false,false,0,97.619995,17.01,-0.003325892,0.0033420762,0.7070959,0.7071018,0,499.481,8.321,-0.00051,0,0
160.50833,2000,0,91.24,0.000002697398,0.000002697398,0.000002697398,0.99999994,0,0,0,0,0,0,1,0,0,0,0,false,false,false,0,101.78,17.01,-0.003325892,0.0033420762,0.7070959,0.7071018,0,508.531,8.321,-0.00051,0,0
160.51666,2000,0,91.24,0.000002697398,0.000002697398,0.000002697398,0.99999994,0,0,0,0,0,0,1,0,0,0,0,false,false,false,0,106.02,17.01,-0.003325892,0.0033420762,0.7070959,0.7071018,0,517.501,8.321,-0.00051,0,0
160.525,2000,0,91.24,0.000002697398,0.000002697398,0.000002697398,0.99999994,0,0,0,0,0,0,1,0,0,0,0,false,false,false,0,110.329994,17.01,-0.003325892,0.0033420762,0.7070959,0.7071018,0,526.391,8.321,-0.00051,0,0
160.53334,2000,0,91.24,0.000002697398,0.000002697398,0.000002697398,0.99999994,0,0,0,0,0,0,1,0,0,0,0,false,false,false,0,114.72,17.01,-0.003325892,0.0033420762,0.7070959,0.7071018,0,535.21094,8.321,-0.00051,0,0
160.54167,2000,0,91.24,0.000002697398,0.000002697398,0.000002697398,0.99999994,0,0,0,0,0,0,1,0,0,0,0,false,false,false,0,119.18,17.01,-0.003325892,0.0033420762,0.7070959,0.7071018,0,543.951,8.321,-0.00061,0,0
160.55,2000,0,91.24,0.000002697398,0.000002697398,0.000002697398,0.99999994,0,0,0,0,0,0,1,0,0,0,0,false,false,false,0,123.71,17.01,-0.003325892,0.0033420762,0.7070959,0.7071018,0,552.621,8.321,-0.00061,0,0
160.55833,2000,0,91.24,0.000002697398,0.000002697398,0.000002697398,0.99999994,0,0,0,0,0,0,1,0,0,0,0,false,false,false,0,128.31999,17.01,-0.003325892,0.0033420762,0.7070959,0.7071018,0,561.21094,8.321,-0.00061,0,0
160.56667,2000,0,91.24,0.000002697398,0.000002697398,0.000002697398,0.99999994,0,0,0,0,0,0,1,0,0,0,0,false,false,false,0,133,17.01,-0.003325892,0.0033420762,0.7070959,0.7071018,0,569.73096,8.321,-0.00061,0,0
160.575,2000,0,91.24,0.000002697398,0.000002697398,0.000002697398,0.99999994,0,0,0,0,0,0,1,0,0,0,0,false,false,false,0,137.75,17.01,-0.003325892,0.0033420762,0.7070959,0.7071018,0,578.18097,8.321,-0.00061,0,0
160.58333,2000,0,91.24,0.000002697398,0.000002697398,0.000002697398,0.99999994,0,0,0,0,0,0,1,0,0,0,0,false,false,false,0,142.56999,17.01,-0.003325892,0.0033420762,0.7070959,0.7071018,0,586.55096,8.321,-0.00061,0,0
160.59166,2000,0,91.24,0.000002697398,0.000002697398,0.000002697398,0.99999994,0,0,0,0,0,0,1,0,0,0,0,false,false,false,0,147.45999,17.01,-0.003325892,0.0033420762,0.7070959,0.7071018,0,594.85095,8.321,-0.00061,0,0
160.6,2000,0,91.24,0.000002697398,0.000002697398,0.000002697398,0.99999994,0,0,0,0,0,0,1,0,0,0,0,false,false,false,0,152.42,17.01,-0.003325892,0.0033420762,0.7070959,0.7071018,0,603.08093,8.321,-0.00061,0,0
160.60834,2000,0,91.24,0.000002697398,0.000002697398,0.000002697398,0.99999994,0,0,0,0,0,0,1,0,0,0,0,false,false,false,0,157.45,17.01,-0.003325892,0.0033420762,0.7070959,0.7071018,0,611.24097,8.321,-0.00061,0,0
160.61667,2000,0,91.24,0.000002697398,0.000002697398,0.000002697398,0.99999994,0,0,0,0,0,0,1,0,0,0,0,false,false,false,0,162.54,17.01,-0.003325892,0.0033420762,0.7070959,0.7071018,0,619.33093,8.321,-0.00061,0,0
160.625,2000,0,91.24,0.000002697398,0.000002697398,0.000002697398,0.99999994,0,0,0,0,0,0,1,0,0,0,0,false,false,false,0,167.7,17.01,-0.003325892,0.0033420762,0.7070959,0.7071018,0,627.35095,8.321,-0.00071,0,0
160.63333,2000,0,91.24,0.000002697398,0.000002697398,0.000002697398,0.99999994,0,0,0,0,0,0,1,0,0,0,0,false,false,false,0,172.93,17.01,-0.003325892,0.0033420762,0.7070959,0.7071018,0,635.30096,8.321,-0.00071,0,0
160.64166,2000,0,91.24,0.000002697398,0.000002697398,0.000002697398,0.99999994,0,0,0,0,0,0,1,0,0,0,0,false,false,false,0,178.22,17.01,-0.003325892,0.0033420762,0.7070959,0.7071018,0,643.18097,8.321,-0.00071,0,0
160.65,2000,0,91.24,0.000002697398,0.000002697398,0.000002697398,0.99999994,0,0,0,0,0,0,1,0,0,0,0,false,false,false,0,183.58,17.01,-0.003325892,0.0033420762,0.7070959,0.7071018,0,651.001,8.321,-0.00071,0,0
160.65834,2000,0,91.24,0.000002697398,0.000002697398,0.000002697398,0.99999994,0,0,0,0,0,0,1,0,0,0,0,false,false,false,0,189.01,17.01,-0.003325892,0.0033420762,0.7070959,0.7071018,0,658.751,8.321,-0.00071,0,0
160.66667,2000,0,91.24,0.000002697398,0.000002697398,0.000002697398,0.99999994,0,0,0,0,0,0,1,0,0,0,0,false,false,false,0,194.5,17.01,-0.003325892,0.0033420762,0.7070959,0.7071018,0,666.43097,8.321,-0.00071,0,0
160.675,2000,0,91.24,0.000002697398,0.000002697398,0.000002697398,0.99999994,0,0,0,0,0,0,1,0,0,0,0,false,false,false,0,200.05,17.01,-0.003325892,0.0033420762,0.7070959,0.7071018,0,674.05096,8.321,-0.00071,0,0
160.68333,2000,0,91.24,0.000002697398,0.000002697398,0.000002697398,0.99999994,0,0,0,0,0,0,1,0,0,0,0,false,false,false,0,205.67,17.01,-0.003325892,0.0033420762,0.7070959,0.7071018,0,681.60095,8.321,-0.00071,0,0
160.69167,2000,0,91.24,0.000002697398,0.000002697398,0.000002697398,0.99999994,0,0,0,0,0,0,1,0,0,0,0,false,false,false,0,211.34999,17.01,-0.003325892,0.0033420762,0.7070959,0.7071018,0,689.09094,8.321,-0.00071,0,0
160.7,2000,0,91.24,0.000002697398,0.000002697398,0.000002697398,0.99999994,0,0,0,0,0,0,1,0,0,0,0,false,false,false,0,217.09,17.01,-0.003325892,0.0033420762,0.7070959,0.7071018,0,696.511,8.321,-0.00071,0,0
160.70833,2000,0,91.24,0.000002697398,0.000002697398,0.000002697398,0.99999994,0,0,0,0,0,0,1,0,0,0,0,false,false,false,0,222.89,17.01,-0.003325892,0.0033420762,0.7070959,0.7071018,0,703.871,8.321,-0.00071,0,0
160.71666,2000,0,91.24,0.000002697398,0.000002697398,0.000002697398,0.99999994,0,0,0,0,0,0,1,0,0,0,0,false,false,false,0,228.76,17.01,-0.003325892,0.0033420762,0.7070959,0.7071018,0,711.17096,8.321,-0.00071,0,0
160.725,2000,0,91.24,0.000002697398,0.000002697398,0.000002697398,0.99999994,0,0,0,0,0,0,1,0,0,0,0,false,false,false,0,234.68999,17.01,-0.003325892,0.0033420762,0.7070959,0.7071018,0,718.40094,8.321,-0.00081,0,0
160.73334,2000,0,91.24,0.000002697398,0.000002697398,0.000002697398,0.99999994,0,0,0,0,0,0,1,0,0,0,0,false,false,false,0,240.68,17.01,-0.003325892,0.0033420762,0.7070959,0.7071018,0,725.571,8.321,-0.00081,0,0
160.74167,2000,0,91.24,0.000002697398,0.000002697398,0.000002697398,0.99999994,0,0,0,0,0,0,1,0,0,0,0,false,false,false,0,246.73,17.01,-0.003325892,0.0033420762,0.7070959,0.7071018,0,732.68097,8.321,-0.00081,0,0
160.75,2000,0,91.24,0.000002697398,0.000002697398,0.000002697398,0.99999994,0,0,0,0,0,0,1,0,0,0,0,false,false,false,0,252.84,17.01,-0.003325892,0.0033420762,0.7070959,0.7071018,0,739.73096,8.321,-0.00081,0,0
160.75833,2000,0,91.24,0.000002697398,0.000002697398,0.000002697398,0.99999994,0,0,0,0,0,0,1,0,0,0,0,false,false,false,0,259,17.01,-0.003325892,0.0033420762,0.7070959,0.7071018,0,746.72095,8.321,-0.00081,0,0
160.76666,2000,0,91.24,0.000002697398,0.000002697398,0.000002697398,0.99999994,0,0,0,0,0,0,1,0,0,0,0,false,false,false,0,265.22,17.01,-0.003325892,0.0033420762,0.7070959,0.7071018,0,753.65094,8.321,-0.00081,0,0
160.775,2000,0,91.24,0.000002697398,0.000002697398,0.000002697398,0.99999994,0,0,0,0,0,0,1,0,0,0,0,false,false,false,0,271.5,17.01,-0.003325892,0.0033420762,0.7070959,0.7071018,0,760.52094,8.321,-0.00081,0,0
160.78334,2000,0,91.24,0.000002697398,0.000002697398,0.000002697398,0.99999994,0,0,0,0,0,0,1,0,0,0,0,false,false,false,0,277.84,17.01,-0.003325892,0.0033420762,0.7070959,0.7071018,0,767.33093,8.321,-0.00081,0,0
160.79167,2000,0,91.24,0.000002697398,0.000002697398,0.000002697398,0.99999994,0,0,0,0,0,0,1,0,0,0,0,false,false,false,0,284.22998,17.01,-0.003325892,0.0033420762,0.7070959,0.7071018,0,774.08093,8.321,-0.00081,0,0
160.8,2000,0,91.24,0.000002697398,0.000002697398,0.000002697398,0.99999994,0,0,0,0,0,0,1,0,0,0,0,false,false,false,0,290.68,17.01,-0.003325892,0.0033420762,0.7070959,0.7071018,0,780.77094,8.321,-0.00081,0,0
160.80833,2000,0,91.24,0.000002697398,0.000002697398,0.000002697398,0.99999994,0,0,0,0,0,0,1,0,0,0,0,false,false,false,0,297.19,17.01,-0.003325892,0.0033420762,0.7070959,0.7071018,0,787.41095,8.321,-0.00081,0,0
160.81667,2000,0,91.24,0.000002697398,0.000002697398,0.000002697398,0.99999994,0,0,0,0,0,0,1,0,0,0,0,false,false,false,0,303.75,17.01,-0.003325892,0.0033420762,0.7070959,0.7071018,0,793.99097,8.321,-0.00081,0,0
160.825,2000,0,91.24,0.000002697398,0.000002697398,0.000002697398,0.99999994,0,0,0,0,0,0,1,0,0,0,0,false,false,false,0,310.37,17.01,-0.003325892,0.0033420762,0.7070959,0.7071018,0,800.511,8.321,-0.00081,0,0
160.83333,2000,0,91.24,0.000002697398,0.000002697398,0.000002697398,0.99999994,0,0,0,0,0,0,1,0,0,0,0,false,false,false,0,317.03998,17.01,-0.003325892,0.0033420762,0.7070959,0.7071018,0,806.98096,8.321,-0.00091,0,0
160.84166,2000,0,91.24,0.000002697398,0.000002697398,0.000002697398,0.99999994,0,0,0,0,0,0,1,0,0,0,0,false,false,false,0,323.75998,17.01,-0.003325892,0.003347471,0.7070959,0.70710176,0,813.3909,8.321,-0.00091,0,0
160.85,2000,0,91.24,0.000002697398,0.000002697398,0.000002697398,0.99999994,0,0,0,0,0,0,1,0,0,0,0,false,false,false,0,330.53998,17.01,-0.0033258921,0.003352866,0.707096,0.70710176,0,819.751,8.321,-0.00091,-0.00010999999,0
160.85834,2000,0,91.24,0.000002697398,0.000002697398,0.000002697398,0.99999994,0,0,0,0,0,0,1,0,0,0,0,false,false,false,0,337.37,17.01,-0.0033312868,0.003352866,0.707096,0.70710176,0,826.05096,8.321,-0.00081,-0.00021,0
160.86667,2000,0,91.24,0.000002697398,0.000002697398,0.000002697398,0.99999994,0,0,0,0,0,0,1,0,0,0,0,false,false,false,0,344.25,17.01,-0.0033366815,0.0033528658,0.7070959,0.7071017,0,832.30096,8.321,-0.00071,-0.00021,0
160.875,2000,0,91.24,0.000002697398,0.000002697398,0.000002697398,0.99999994,0,0,0,0,0,0,1,0,0,0,0,false,false,false,0,351.19,17.01,-0.0033366815,0.0033528658,0.7070959,0.7071017,0,838.501,8.321,-0.00071,-0.00021,0
160.88333,2000,0,91.24,0.000002697398,0.000002697398,0.000002697398,0.99999994,0,0,0,0,0,0,1,0,0,0,0,false,false,false,0,358.18,17.01,-0.0033366815,0.0033528658,0.7070959,0.7071017,0,844.6409,8.321,-0.00071,-0.00021,0
160.89166,2000,0,91.24,0.000002697398,0.000002697398,0.000002697398,0.99999994,0,0,0,0,0,0,1,0,0,0,0,false,false,false,0,365.22,17.01,-0.0033366815,0.0033528658,0.7070959,0.7071017,0,850.73096,8.321,-0.00071,-0.00021,0
160.9,2000,0,91.24,0.000002697398,0.000002697398,0.000002697398,0.99999994,0,0,0,0,0,0,1,0,0,0,0,false,false,false,0,372.31,17.01,-0.0033366815,0.0033528658,0.7070959,0.7071017,0,856.77094,8.321,-0.00071,-0.00021,0
160.90834,2000,0,91.24,0.000002697398,0.000002697398,0.000002697398,0.99999994,0,0,0,0,0,0,1,0,0,0,0,false,false,false,0,379.44998,17.01,-0.0033366815,0.0033528658,0.7070959,0.7071017,0,862.761,8.321,-0.00071,-0.00021,0
160.91667,2000,0,91.24,0.000002697398,0.000002697398,0.000002697398,0.99999994,0,0,0,0,0,0,1,0,0,0,0,false,false,false,0,386.63998,17.01,-0.0033366815,0.0033528658,0.7070959,0.7071017,0,868.691,8.321,-0.00071,-0.00021,0
160.925,2000,0,91.24,0.000002697398,0.000002697398,0.000002697398,0.99999994,0,0,0,0,0,0,1,0,0,0,0,false,false,false,0,393.88,17.01,-0.0033366815,0.0033528658,0.7070959,0.7071017,0,874.571,8.321,-0.00071,-0.00021,0
160.93333,2000,0,91.24,0.000002697398,0.000002697398,0.000002697398,0.99999994,0,0,0,0,0,0,1,0,0,0,0,false,false,false,0,401.16998,17.01,-0.0033366815,0.0033528658,0.7070959,0.7071017,0,880.40094,8.321,-0.00071,-0.00021,0
160.94167,2000,0,91.24,0.000002697398,0.000002697398,0.000002697398,0.99999994,0,0,0,0,0,0,1,0,0,0,0,false,false,false,0,408.50998,17.01,-0.0033366815,0.0033528658,0.7070959,0.7071017,0,886.18097,8.321,-0.00071,-0.00021,0
160.95,2000,0,91.24,0.000002697398,0.000002697398,0.000002697398,0.99999994,0,0,0,0,0,0,1,0,0,0,0,false,false,false,0,415.88998,17.01,-0.0033366815,0.0033528658,0.7070959,0.7071017,0,891.91095,8.321,-0.00071,-0.00021,0
160.95833,2000,0,91.24,0.000002697398,0.000002697398,0.000002697398,0.99999994,0,0,0,0,0,0,1,0,0,0,0,false,false,false,0,423.31998,17.01,-0.0033366815,0.0033528658,0.7070959,0.7071017,0,897.59094,8.321,-0.00071,-0.00021,0
160.96666,2000,0,91.24,0.000002697398,0.000002697398,0.000002697398,0.99999994,0,0,0,0,0,0,1,0,0,0,0,false,false,false,0,430.8,17.01,-0.0033366815,0.0033528658,0.7070959,0.7071017,0,903.23096,8.321,-0.00071,-0.00021,0
160.975,2000,0,91.24,0.000002697398,0.000002697398,0.000002697398,0.99999994,0,0,0,0,0,0,1,0,0,0,0,false,false,false,0,438.33,17.01,-0.0033366815,0.0033528658,0.7070959,0.7071017,0,908.821,8.321,-0.00071,-0.00021,0
160.98334,2000,0,91.24,0.000002697398,0.000002697398,0.000002697398,0.99999994,0,0,0,0,0,0,1,0,0,0,0,false,false,false,0,445.9,17.01,-0.0033366815,0.0033528658,0.7070959,0.7071017,0,914.36096,8.321,-0.00071,-0.00021,0
160.99167,2000,0,91.24,0.000002697398,0.000002697398,0.000002697398,0.99999994,0,0,0,0,0,0,1,0,0,0,0,false,false,false,0,453.52,17.01,-0.0033366815,0.0033528658,0.7070959,0.7071017,0,919.85095,8.321,-0.00071,-0.00021,0
161,2000,0,91.24,0.000002697398,0.000002697398,0.000002697398,0.99999994,0,0,0,0,0,0,1,0,0,0,0,false,false,false,0,461.19,17.01,-0.0033366815,0.0033528658,0.7070959,0.7071017,0,925.30096,8.321,-0.00071,-0.00021,0
161.00833,2000,0,91.24,0.000002697398,0.000002697398,0.000002697398,0.99999994,0,0,0,0,0,0,1,0,0,0,0,false,false,false,0,468.9,17.01,-0.0033366815,0.0033528658,0.7070959,0.7071017,0,930.7009,8.321,-0.00071,-0.00021,0
161.01666,2000,0,91.24,0.000002697398,0.000002697398,0.000002697398,0.99999994,0,0,0,0,0,0,1,0,0,0,0,false,false,false,0,476.66,17.01,-0.0033366815,0.0033528658,0.7070959,0.7071017,0,936.05096,8.321,-0.00071,-0.00021,0
161.025,2000,0,91.24,0.000002697398,0.000002697398,0.000002697398,0.99999994,0,0,0,0,0,0,1,0,0,0,0,false,false,false,0,484.46,17.01,-0.0033366815,0.0033528658,0.7070959,0.7071017,0,941.36096,8.321,-0.00071,-0.00021,0
161.03334,2000,0,91.24,0.000002697398,0.000002697398,0.000002697398,0.99999994,0,0,0,0,0,0,1,0,0,0,0,false,false,false,0,492.3,17.01,-0.0033366815,0.0033528658,0.7070959,0.7071017,0,946.621,8.321,-0.00071,-0.00021,0
161.04167,2000,0,91.24,0.000002697398,0.000002697398,0.000002697398,0.99999994,0,0,0,0,0,0,1,0,0,0,0,false,false,false,0,500.19,17.01,-0.0033366815,0.0033528658,0.7070959,0.7071017,0,951.84094,8.321,-0.00071,-0.00021,0
161.05,2000,0,91.24,0.000002697398,0.000002697398,0.000002697398,0.99999994,0,0,0,0,0,0,1,0,0,0,0,false,false,false,0,508.12,17.01,-0.0033366815,0.0033528658,0.7070959,0.7071017,0,957.0109,8.321,-0.00071,-0.00021,0
161.05833,2000,0,91.24,0.000002697398,0.000002697398,0.000002697398,0.99999994,0,0,0,0,0,0,1,0,0,0,0,false,false,false,0,516.1,17.01,-0.0033366815,0.0033528658,0.7070959,0.7071017,0,962.1409,8.321,-0.00071,-0.00021,0
161.06667,2000,0,91.24,0.000002697398,0.000002697398,0.000002697398,0.99999994,0,0,0,0,0,0,1,0,0,0,0,false,false,false,0,524.12,17.01,-0.0033366815,0.0033528658,0.7070959,0.7071017,0,967.22095,8.321,-0.00071,-0.00021,0
161.075,2000,0,91.24,0.000002697398,0.000002697398,0.000002697398,0.99999994,0,0,0,0,0,0,1,0,0,0,0,false,false,false,0,532.18,17.01,-0.0033366815,0.0033528658,0.7070959,0.7071017,0,972.2609,8.321,-0.00071,-0.00021,0
161.08333,2000,0,91.24,0.000002697398,0.000002697398,0.000002697398,0.99999994,0,0,0,0,0,0,1,0,0,0,0,false,false,false,0,540.27997,17.01,-0.0033366815,0.0033528658,0.7070959,0.7071017,0,977.2609,8.321,-0.00071,-0.00021,0
161.09166,2000,0,91.24,0.000002697398,0.000002697398,0.000002697398,0.99999994,0,0,0,0,0,0,1,0,0,0,0,false,false,false,0,548.42,17.01,-0.0033366815,0.0033528658,0.7070959,0.7071017,0,982.21094,8.321,-0.00071,-0.00021,0
161.1,2000,0,91.24,0.000002697398,0.000002697398,0.000002697398,0.99999994,0,0,0,0,0,0,1,0,0,0,0,false,false,false,0,556.61,17.01,-0.0033366815,0.0033528658,0.7070959,0.7071017,0,987.121,8.321,-0.00071,-0.00021,0
161.10834,2000,0,91.24,0.000002697398,0.000002697398,0.000002697398,0.99999994,0,0,0,0,0,0,1,0,0,0,0,false,false,false,0,564.83997,17.01,-0.0033366815,0.0033528658,0.7070959,0.7071017,0,991.99097,8.321,-0.00071,-0.00021,0
161.11667,2000,0,91.24,0.000002697398,0.000002697398,0.000002697398,0.99999994,0,0,0,0,0,0,1,0,0,0,0,false,false,false,0,573.11,17.01,-0.0033366815,0.0033528658,0.7070959,0.7071017,0,996.821,8.321,-0.00071,-0.00021,0
161.125,2000,0,91.24,0.000002697398,0.000002697398,0.000002697398,0.99999994,0,0,0,0,0,0,1,0,0,0,0,false,false,false,0,581.42,17.01,-0.0033366815,0.0033528658,0.7070959,0.7071017,0,1001.61096,8.321,-0.00071,-0.00021,0
161.13333,2000,0,91.24,0.000002697398,0.000002697398,0.000002697398,0.99999994,0,0,0,0,0,0,1,0,0,0,0,false,false,false,0,589.76996,17.01,-0.0033366815,0.0033528658,0.7070959,0.7071017,0,1006.35095,8.321,-0.00071,-0.00021,0
161.14166,2000,0,91.24,0.000002697398,0.000002697398,0.000002697398,0.99999994,0,0,0,0,0,0,1,0,0,0,0,false,false,false,0,598.16,17.01,-0.0033366815,0.0033528658,0.7070959,0.7071017,0,1011.05096,8.321,-0.00071,-0.00021,0
161.15,2000,0,91.24,0.000002697398,0.000002697398,0.000002697398,0.99999994,0,0,0,0,0,0,1,0,0,0,0,false,false,false,0,606.58997,17.01,-0.0033366815,0.0033528658,0.7070959,0.7071017,0,1015.71094,8.321,-0.00071,-0.00021,0
161.15834,2000,0,91.24,0.000002697398,0.000002697398,0.000002697398,0.99999994,0,0,0,0,0,0,1,0,0,0,0,false,false,false,0,615.05,17.01,-0.0033366815,0.0033528658,0.7070959,0.7071017,0,1020.33093,8.321,-0.00071,-0.00021,0
161.16667,2000,0,91.24,0.000002697398,0.000002697398,0.000002697398,0.99999994,0,0,0,0,0,0,1,0,0,0,0,false,false,false,0,623.55,17.01,-0.0033366815,0.0033528658,0.7070959,0.7071017,0,1024.911,8.321,-0.00081,-0.00021,0
161.175,2000,0,91.24,0.000002697398,0.000002697398,0.000002697398,0.99999994,0,0,0,0,0,0,1,0,0,0,0,false,false,false,0,632.08997,17.01,-0.0033420762,0.0033528658,0.7070959,0.7071017,0,1029.4509,8.321,-0.00081,-0.00021,0
161.18333,2000,0,91.24,0.000002697398,0.000002697398,0.000002697398,0.99999994,0,0,0,0,0,0,1,0,0,0,0,false,false,false,0,640.67,17.01,-0.003347471,0.0033528658,0.7070959,0.70710164,0,1033.9609,8.321,-0.00081,-0.00010999999,0
161.19167,2000,0,91.24,0.000002697398,0.000002697398,0.000002697398,0.99999994,0,0,0,0,0,0,1,0,0,0,0,false,false,false,0,649.29,17.01,-0.003347471,0.0033528658,0.7070959,0.70710164,0,1038.4309,8.321,-0.00071,0,0
161.2,2000,0,91.24,0.000002697398,0.000002697398,0.000002697398,0.99999994,0,0,0,0,0,0,1,0,0,0,0,false,false,false,0,657.94,17.01,-0.003347471,0.0033528658,0.7070959,0.70710164,0,1042.861,8.321,-0.00071,0,0
161.20833,2000,0,91.24,0.000002697398,0.000002697398,0.000002697398,0.99999994,0,0,0,0,0,0,1,0,0,0,0,false,false,false,0,666.63,17.01,-0.003347471,0.0033528658,0.7070959,0.70710164,0,1047.251,8.321,-0.00071,0,0
161.21666,2000,0,91.24,0.000002697398,0.000002697398,0.000002697398,0.99999994,0,0,0,0,0,0,1,0,0,0,0,false,false,false,0,675.36,17.01,-0.003347471,0.0033528658,0.7070959,0.70710164,0,1051.601,8.321,-0.00071,0,0
161.225,2000,0,91.24,0.000002697398,0.000002697398,0.000002697398,0.99999994,0,0,0,0,0,0,1,0,0,0,0,false,false,false,0,684.12,17.01,-0.003347471,0.0033528658,0.7070959,0.70710164,0,1055.9209,8.321,-0.00071,0,0
161.23334,2000,0,91.24,0.000002697398,0.000002697398,0.000002697398,0.99999994,0,0,0,0,0,0,1,0,0,0,0,false,false,false,0,692.92,17.01,-0.003347471,0.0033528658,0.7070959,0.70710164,0,1060.2009,8.321,-0.00071,0,0
161.24167,2000,0,91.24,0.000002697398,0.000002697398,0.000002697398,0.99999994,0,0,0,0,0,0,1,0,0,0,0,false,false,false,0,701.76,17.01,-0.003347471,0.0033528658,0.7070959,0.70710164,0,1064.4409,8.321,-0.00071,0,0
161.25,2000,0,91.24,0.000002697398,0.000002697398,0.000002697398,0.99999994,0,0,0,0,0,0,1,0,0,0,0,false,false,false,0,710.63,17.01,-0.003347471,0.0033528658,0.7070959,0.70710164,0,1068.651,8.321,-0.00071,0,0
161.25833,2000,0,91.24,0.000002697398,0.000002697398,0.000002697398,0.99999994,0,0,0,0,0,0,1,0,0,0,0,false,false,false,0,719.54,17.01,-0.003347471,0.0033528658,0.7070959,0.70710164,0,1072.8209,8.321,-0.00071,0,0
161.26666,2000,0,91.24,0.000002697398,0.000002697398,0.000002697398,0.99999994,0,0,0,0,0,0,1,0,0,0,0,false,false,false,0,728.48,17.01,-0.003347471,0.0033528658,0.7070959,0.70710164,0,1076.9509,8.321,-0.00071,0,0
161.275,2000,0,91.24,0.000002697398,0.000002697398,0.000002697398,0.99999994,0,0,0,0,0,0,1,0,0,0,0,false,false,false,0,737.45,17.01,-0.003347471,0.0033528658,0.7070959,0.70710164,0,1081.0509,8.321,-0.00071,0,0
161.28334,2000,0,91.24,0.000002697398,0.000002697398,0.000002697398,0.99999994,0,0,0,0,0,0,1,0,0,0,0,false,false,false,0,746.45996,17.01,-0.003347471,0.0033528658,0.7070959,0.70710164,0,1085.111,8.321,-0.00071,0,0
161.29167,2000,0,91.24,0.000002697398,0.000002697398,0.000002697398,0.99999994,0,0,0,0,0,0,1,0,0,0,0,false,false,false,0,755.5,17.01,-0.003347471,0.0033528658,0.7070959,0.70710164,0,1089.141,8.321,-0.00071,0,0
161.3,2000,0,91.24,0.000002697398,0.000002697398,0.000002697398,0.99999994,0,0,0,0,0,0,1,0,0,0,0,false,false,false,0,764.57996,17.01,-0.003347471,0.0033528658,0.7070959,0.70710164,0,1093.131,8.321,-0.00071,0,0
161.30833,2000,0,91.24,0.000002697398,0.000002697398,0.000002697398,0.99999994,0,0,0,0,0,0,1,0,0,0,0,false,false,false,0,773.69,17.01,-0.003347471,0.0033528658,0.7070959,0.70710164,0,1097.091,8.321,-0.00071,0,0
161.31667,2000,0,91.24,0.000002697398,0.000002697398,0.000002697398,0.99999994,0,0,0,0,0,0,1,0,0,0,0,false,false,false,0,782.82996,17.01,-0.003347471,0.0033528658,0.7070959,0.70710164,0,1101.021,8.321,-0.00071,0,0
161.325,2000,0,91.24,0.000002697398,0.000002697398,0.000002697398,0.99999994,0,0,0,0,0,0,1,0,0,0,0,false,false,false,0,792.01,17.01,-0.003347471,0.0033528658,0.7070959,0.70710164,0,1104.911,8.321,-0.00071,0,0
161.33333,2000,0,91.24,0.000002697398,0.000002697398,0.000002697398,0.99999994,0,0,0,0,0,0,1,0,0,0,0,false,false,false,0,801.22,17.01,-0.003347471,0.0033528658,0.7070959,0.70710164,0,1108.771,8.321,-0.00071,0,0
161.34166,2000,0,91.24,0.000002697398,0.000002697398,0.000002697398,0.99999994,0,0,0,0,0,0,1,0,0,0,0,false,false,false,0,810.45996,17.01,-0.003347471,0.0033528658,0.7070959,0.70710164,0,1112.601,8.321,-0.00071,0,0
161.35,2000,0,91.24,0.000002697398,0.000002697398,0.000002697398,0.99999994,0,0,0,0,0,0,1,0,0,0,0,false,false,false,0,819.73,17.01,-0.003347471,0.0033528658,0.7070959,0.70710164,0,1116.391,8.321,-0.00071,0,0
161.35834,2000,0,91.24,0.000002697398,0.000002697398,0.000002697398,0.99999994,0,0,0,0,0,0,1,0,0,0,0,false,false,false,0,829.02997,17.01,-0.003347471,0.0033528658,0.7070959,0.70710164,0,1120.151,8.321,-0.00071,0,0
161.36667,2000,0,91.24,0.000002697398,0.000002697398,0.000002697398,0.99999994,0,0,0,0,0,0,1,0,0,0,0,false,false,false,0,838.36,17.01,-0.003347471,0.0033528658,0.7070959,0.70710164,0,1123.881,8.321,-0.00071,0,0
161.375,2000,0,91.24,0.000002697398,0.000002697398,0.000002697398,0.99999994,0,0,0,0,0,0,1,0,0,0,0,false,false,false,0,847.73,17.01,-0.003347471,0.0033528658,0.7070959,0.70710164,0,1127.5809,8.321,-0.00071,0,0
161.38333,2000,0,91.24,0.000002697398,0.000002697398,0.000002697398,0.99999994,0,0,0,0,0,0,1,0,0,0,0,false,false,false,0,857.13,17.01,-0.003347471,0.0033528658,0.7070959,0.70710164,0,1131.241,8.321,-0.00071,0,0
161.39166,2000,0,91.24,0.000002697398,0.000002697398,0.000002697398,0.99999994,0,0,0,0,0,0,1,0,0,0,0,false,false,false,0,866.56,17.01,-0.003347471,0.0033528658,0.7070959,0.70710164,0,1134.871,8.321,-0.00071,0,0
161.4,2000,0,91.24,0.000002697398,0.000002697398,0.000002697398,0.99999994,0,0,0,0,0,0,1,0,0,0,0,false,false,false,0,876.01996,17.01,-0.003347471,0.0033528658,0.7070959,0.70710164,0,1138.471,8.321,-0.00071,0,0
161.40834,2000,0,91.24,0.000002697398,0.000002697398,0.000002697398,0.99999994,0,0,0,0,0,0,1,0,0,0,0,false,false,false,0,885.51,17.01,-0.003347471,0.0033528658,0.7070959,0.70710164,0,1142.0409,8.321,-0.00071,0,0
161.41667,2000,0,91.24,0.000002697398,0.000002697398,0.000002697398,0.99999994,0,0,0,0,0,0,1,0,0,0,0,false,false,false,0,895.02997,17.01,-0.003347471,0.0033528658,0.7070959,0.70710164,0,1145.5809,8.321,-0.00071,0,0
161.425,2000,0,91.24,0.000002697398,0.000002697398,0.000002697398,0.99999994,0,0,0,0,0,0,1,0,0,0,0,false,false,false,0,904.57996,17.01,-0.003347471,0.0033528658,0.7070959,0.70710164,0,1149.091,8.321,-0.00071,0,0
161.43333,2000,0,91.24,0.000002697398,0.000002697398,0.000002697398,0.99999994,0,0,0,0,0,0,1,0,0,0,0,false,false,false,0,914.16,17.01,-0.003347471,0.0033528658,0.7070959,0.70710164,0,1152.5709,8.321,-0.00071,0,0
161.44167,2000,0,91.24,0.000002697398,0.000002697398,0.000002697398,0.99999994,0,0,0,0,0,0,1,0,0,0,0,false,false,false,0,923.76,17.01,-0.003347471,0.0033528658,0.7070959,0.70710164,0,1156.021,8.321,-0.00071,0,0
161.45,2000,0,91.24,0.000002697398,0.000002697398,0.000002697398,0.99999994,0,0,0,0,0,0,1,0,0,0,0,false,false,false,0,933.38995,17.01,-0.003347471,0.0033528658,0.7070959,0.70710164,0,1159.4409,8.321,-0.00071,0,0
161.45833,2000,0,91.24,0.000002697398,0.000002697398,0.000002697398,0.99999994,0,0,0,0,0,0,1,0,0,0,0,false,false,false,0,943.05,17.01,-0.003347471,0.0033528658,0.7070959,0.70710164,0,1162.8309,8.321,-0.00071,0,0
161.46666,2000,0,91.24,0.000002697398,0.000002697398,0.000002697398,0.99999994,0,0,0,0,0,0,1,0,0,0,0,false,false,false,0,952.74,17.01,-0.003347471,0.0033528658,0.7070959,0.70710164,0,1166.1909,8.321,-0.00071,0,0
161.475,2000,0,91.24,0.000002697398,0.000002697398,0.000002697398,0.99999994,0,0,0,0,0,0,1,0,0,0,0,false,false,false,0,962.45996,17.01,-0.003347471,0.0033528658,0.7070959,0.70710164,0,1169.521,8.321,-0.00071,0,0
161.48334,2000,0,91.24,0.000002697398,0.000002697398,0.000002697398,0.99999994,0,0,0,0,0,0,1,0,0,0,0,false,false,false,0,972.20996,17.01,-0.003347471,0.0033528658,0.7070959,0.70710164,0,1172.8309,8.321,-0.00081,0,0
161.49167,2000,0,91.24,0.000002697398,0.000002697398,0.000002697398,0.99999994,0,0,0,0,0,0,1,0,0,0,0,false,false,false,0,981.98,17.01,-0.003347471,0.0033528658,0.7070959,0.70710164,0,1176.111,8.321,-0.00081,0,0
161.5,2000,0,91.24,0.000002697398,0.000002697398,0.000002697398,0.99999994,0,0,0,0,0,0,1,0,0,0,0,false,false,false,0,991.77997,17.01,-0.003347471,0.0033528658,0.7070959,0.70710164,0,1179.361,8.321,-0.00081,0,0
161.50833,2000,0,91.24,0.000002697398,0.000002697398,0.000002697398,0.99999994,0,0,0,0,0,0,1,0,0,0,0,false,false,false,0,1001.61,17.01,-0.003347471,0.0033528658,0.7070959,0.70710164,0,1182.5809,8.321,-0.00081,0,0
161.51666,2000,0,91.24,0.000002697398,0.000002697398,0.000002697398,0.99999994,0,0,0,0,0,0,1,0,0,0,0,false,false,false,0,1011.45996,17.01,-0.003347471,0.0033528658,0.7070959,0.70710164,0,1185.771,8.321,-0.00081,0,0
161.525,2000,0,91.24,0.000002697398,0.000002697398,0.000002697398,0.99999994,0,0,0,0,0,0,1,0,0,0,0,false,false,false,0,1021.33997,17.01,-0.003347471,0.0033528658,0.7070959,0.70710164,0,1188.9409,8.321,-0.00081,0,0
161.53334,2000,0,91.24,0.000002697398,0.000002697398,0.000002697398,0.99999994,0,0,0,0,0,0,1,0,0,0,0,false,false,false,0,1031.25,17.01,-0.003347471,0.0033528658,0.7070959,0.70710164,0,1192.0809,8.321,-0.00081,0,0
161.54167,2000,0,91.24,0.000002697398,0.000002697398,0.000002697398,0.99999994,0,0,0,0,0,0,1,0,0,0,0,false,false,false,0,1041.1799,17.01,-0.003347471,0.0033528658,0.7070959,0.70710164,0,1195.1909,8.321,-0.00081,0,0
161.55,2000,0,91.24,0.000002697398,0.000002697398,0.000002697398,0.99999994,0,0,0,0,0,0,1,0,0,0,0,false,false,false,0,1051.14,17.01,-0.003347471,0.0033528658,0.7070959,0.70710164,0,1198.281,8.321,-0.00081,0,0
161.55833,2000,0,91.24,0.000002697398,0.000002697398,0.000002697398,0.99999994,0,0,0,0,0,0,1,0,0,0,0,false,false,false,0,1061.13,17.01,-0.003347471,0.0033528658,0.7070959,0.70710164,0,1201.341,8.321,-0.00081,0,0
161.56667,2000,0,91.24,0.000002697398,0.000002697398,0.000002697398,0.99999994,0,0,0,0,0,0,1,0,0,0,0,false,false,false,0,1071.14,17.01,-0.003347471,0.0033528658,0.7070959,0.70710164,0,1204.371,8.321,-0.00081,0,0
161.575,2000,0,91.24,0.000002697398,0.000002697398,0.000002697398,0.99999994,0,0,0,0,0,0,1,0,0,0,0,false,false,false,0,1081.1799,17.01,-0.003347471,0.0033528658,0.7070959,0.70710164,0,1207.381,8.321,-0.00081,0,0
161.58333,2000,0,91.24,0.000002697398,0.000002697398,0.000002697398,0.99999994,0,0,0,0,0,0,1,0,0,0,0,false,false,false,0,1091.24,17.01,-0.003347471,0.0033528658,0.7070959,0.70710164,0,1210.361,8.321,-0.00081,0,0
161.59166,2000,0,91.24,0.000002697398,0.000002697398,0.000002697398,0.99999994,0,0,0,0,0,0,1,0,0,0,0,false,false,false,0,1101.33,17.01,-0.003347471,0.0033528658,0.7070959,0.70710164,0,1213.3209,8.321,-0.00081,0,0
161.6,2000,0,91.24,0.000002697398,0.000002697398,0.000002697398,0.99999994,0,0,0,0,0,0,1,0,0,0,0,false,false,false,0,1111.44,17.01,-0.003347471,0.0033528658,0.7070959,0.70710164,0,1216.251,8.321,-0.00081,0,0
161.60834,2000,0,91.24,0.000002697398,0.000002697398,0.000002697398,0.99999994,0,0,0,0,0,0,1,0,0,0,0,false,false,false,0,1121.58,17.01,-0.003347471,0.0033528658,0.7070959,0.70710164,0,1219.151,8.321,-0.00081,0,0
161.61667,2000,0,91.24,0.000002697398,0.000002697398,0.000002697398,0.99999994,0,0,0,0,0,0,1,0,0,0,0,false,false,false,0,1131.74,17.01,-0.003347471,0.0033528658,0.7070959,0.70710164,0,1222.031,8.321,-0.00081,0,0
161.625,2000,0,91.24,0.000002697398,0.000002697398,0.000002697398,0.99999994,0,0,0,0,0,0,1,0,0,0,0,false,false,false,0,1141.9199,17.01,-0.003347471,0.0033528658,0.7070959,0.70710164,0,1224.891,8.321,-0.00081,0,0
161.63333,2000,0,91.24,0.000002697398,0.000002697398,0.000002697398,0.99999994,0,0,0,0,0,0,1,0,0,0,0,false,false,false,0,1152.13,17.01,-0.003347471,0.0033528658,0.7070959,0.70710164,0,1227.721,8.321,-0.00081,0,0
161.64166,2000,0,91.24,0.000002697398,0.000002697398,0.000002697398,0.99999994,0,0,0,0,0,0,1,0,0,0,0,false,false,false,0,1162.36,17.01,-0.003347471,0.0033528658,0.7070959,0.70710164,0,1230.531,8.321,-0.00081,0,0
161.65,2000,0,91.24,0.000002697398,0.000002697398,0.000002697398,0.99999994,0,0,0,0,0,0,1,0,0,0,0,false,false,false,0,1172.61,17.01,-0.003347471,0.0033528658,0.7070959,0.70710164,0,1233.3109,8.321,-0.00081,0,0
161.65834,2000,0,91.24,0.000002697398,0.000002697398,0.000002697398,0.99999994,0,0,0,0,0,0,1,0,0,0,0,false,false,false,0,1182.89,17.01,-0.003347471,0.0033528658,0.7070959,0.70710164,0,1236.0709,8.321,-0.00081,0,0
161.66667,2000,0,91.24,0.000002697398,0.000002697398,0.000002697398,0.99999994,0,0,0,0,0,0,1,0,0,0,0,false,false,false,0,1193.19,17.01,-0.003347471,0.0033528658,0.7070959,0.70710164,0,1238.8009,8.321,-0.00081,0,0
161.675,2000,0,91.24,0.000002697398,0.000002697398,0.000002697398,0.99999994,0,0,0,0,0,0,1,0,0,0,0,false,false,false,0,1203.51,17.01,-0.003347471,0.0033528658,0.7070959,0.70710164,0,1241.511,8.321,-0.00081,0,0
161.68333,2000,0,91.24,0.000002697398,0.000002697398,0.000002697398,0.99999994,0,0,0,0,0,0,1,0,0,0,0,false,false,false,0,1213.86,17.01,-0.003347471,0.0033528658,0.7070959,0.70710164,0,1244.2009,8.321,-0.00081,0,0
161.69167,2000,0,91.24,0.000002697398,0.000002697398,0.000002697398,0.99999994,0,0,0,0,0,0,1,0,0,0,0,false,false,false,0,1224.23,17.01,-0.003347471,0.0033528658,0.7070959,0.70710164,0,1246.871,8.321,-0.00081,0,0
161.7,2000,0,91.24,0.000002697398,0.000002697398,0.000002697398,0.99999994,0,0,0,0,0,0,1,0,0,0,0,false,false,false,0,1234.62,17.01,-0.003347471,0.0033528658,0.7070959,0.70710164,0,1249.511,8.321,-0.00081,0,0
161.70833,2000,0,91.24,0.000002697398,0.000002697398,0.000002697398,0.99999994,0,0,0,0,0,0,1,0,0,0,0,false,false,false,0,1245.03,17.01,-0.003347471,0.0033528658,0.7070959,0.70710164,0,1252.131,8.321,-0.00081,0,0
161.71666,2000,0,91.24,0.000002697398,0.000002697398,0.000002697398,0.99999994,0,0,0,0,0,0,1,0,0,0,0,false,false,false,0,1255.46,17.01,-0.003347471,0.0033528658,0.7070959,0.70710164,0,1254.731,8.321,-0.00081,0,0
161.725,2000,0,91.24,0.000002697398,0.000002697398,0.000002697398,0.99999994,0,0,0,0,0,0,1,0,0,0,0,false,false,false,0,1265.9199,17.01,-0.003347471,0.0033528658,0.7070959,0.70710164,0,1257.3109,8.321,-0.00081,0,0
161.73334,2000,0,91.24,0.000002697398,0.000002697398,0.000002697398,0.99999994,0,0,0,0,0,0,1,0,0,0,0,false,false,false,0,1276.4,17.01,-0.003347471,0.0033528658,0.7070959,0.70710164,0,1259.861,8.321,-0.00081,0,0
161.74167,2000,0,91.24,0.000002697398,0.000002697398,0.000002697398,0.99999994,0,0,0,0,0,0,1,0,0,0,0,false,false,false,0,1286.9,17.01,-0.003347471,0.0033528658,0.7070959,0.70710164,0,1262.391,8.321,-0.00091,0,0
161.75,2000,0,91.24,0.000002697398,0.000002697398,0.000002697398,0.99999994,0,0,0,0,0,0,1,0,0,0,0,false,false,false,0,1297.4199,17.01,-0.003347471,0.0033582605,0.7070959,0.70710164,0,1264.901,8.321,-0.00091,0,0
161.75833,2000,0,91.24,0.000002697398,0.000002697398,0.000002697398,0.99999994,0,0,0,0,0,0,1,0,0,0,0,false,false,false,0,1307.96,17.01,-0.0033474711,0.0033636556,0.707096,0.70710164,0,1267.391,8.321,-0.00091,0,0
161.76666,2000,0,91.24,0.000002697398,0.000002697398,0.000002697398,0.99999994,0,0,0,0,0,0,1,0,0,0,0,false,false,false,0,1318.52,17.01,-0.003347471,0.00336905,0.7070959,0.7071016,0,1269.861,8.321,-0.00081,0,0
161.775,2000,0,91.24,0.000002697398,0.000002697398,0.000002697398,0.99999994,0,0,0,0,0,0,1,0,0,0,0,false,false,false,0,1329.1,17.01,-0.003347471,0.00336905,0.7070959,0.7071016,0,1272.3109,8.321,-0.00071,-0.00010999999,0
161.78334,2000,0,91.24,0.000002697398,0.000002697398,0.000002697398,0.99999994,0,0,0,0,0,0,1,0,0,0,0,false,false,false,0,1339.7,17.01,-0.003347471,0.00336905,0.7070959,0.7071016,0,1274.731,8.321,-0.00071,-0.00010999999,0
161.79167,2000,0,91.24,0.000002697398,0.000002697398,0.000002697398,0.99999994,0,0,0,0,0,0,1,0,0,0,0,false,false,false,0,1350.32,17.01,-0.003347471,0.00336905,0.7070959,0.7071016,0,1277.131,8.321,-0.00071,-0.00010999999,0
161.8,2000,0,91.24,0.000002697398,0.000002697398,0.000002697398,0.99999994,0,0,0,0,0,0,1,0,0,0,0,false,false,false,0,1360.96,17.01,-0.003347471,0.00336905,0.7070959,0.7071016,0,1279.511,8.321,-0.00071,-0.00010999999,0
161.80833,2000,0,91.24,0.000002697398,0.000002697398,0.000002697398,0.99999994,0,0,0,0,0,0,1,0,0,0,0,false,false,false,0,1371.62,17.01,-0.003347471,0.00336905,0.7070959,0.7071016,0,1281.871,8.321,-0.00071,-0.00010999999,0
161.81667,2000,0,91.24,0.000002697398,0.000002697398,0.000002697398,0.99999994,0,0,0,0,0,0,1,0,0,0,0,false,false,false,0,1382.2999,17.01,-0.003347471,0.00336905,0.7070959,0.7071016,0,1284.2109,8.321,-0.00071,-0.00010999999,0
161.825,2000,0,91.24,0.000002697398,0.000002697398,0.000002697398,0.99999994,0,0,0,0,0,0,1,0,0,0,0,false,false,false,0,1393,17.01,-0.003347471,0.00336905,0.7070959,0.7071016,0,1286.531,8.321,-0.00071,-0.00010999999,0
161.83333,2000,0,91.24,0.000002697398,0.000002697398,0.000002697398,0.99999994,0,0,0,0,0,0,1,0,0,0,0,false,false,false,0,1403.72,17.01,-0.003347471,0.00336905,0.7070959,0.7071016,0,1288.8309,8.321,-0.00071,-0.00010999999,0
161.84166,2000,0,91.24,0.000002697398,0.000002697398,0.000002697398,0.99999994,0,0,0,0,0,0,1,0,0,0,0,false,false,false,0,1414.46,17.01,-0.003347471,0.00336905,0.7070959,0.7071016,0,1291.111,8.321,-0.00071,-0.00010999999,0
161.85,2000,0,91.24,0.000002697398,0.000002697398,0.000002697398,0.99999994,0,0,0,0,0,0,1,0,0,0,0,false,false,false,0,1425.22,17.01,-0.003347471,0.00336905,0.7070959,0.7071016,0,1293.371,8.321,-0.00071,-0.00010999999,0
161.85834,2000,0,91.24,0.000002697398,0.000002697398,0.000002697398,0.99999994,0,0,0,0,0,0,1,0,0,0,0,false,false,false,0,1436,17.01,-0.003347471,0.00336905,0.7070959,0.7071016,0,1295.611,8.321,-0.00071,-0.00010999999,0
161.86667,2000,0,91.24,0.000002697398,0.000002697398,0.000002697398,0.99999994,0,0,0,0,0,0,1,0,0,0,0,false,false,false,0,1446.7999,17.01,-0.003347471,0.00336905,0.7070959,0.7071016,0,1297.8309,8.321,-0.00071,-0.00010999999,0
161.875,2000,0,91.24,0.000002697398,0.000002697398,0.000002697398,0.99999994,0,0,0,0,0,0,1,0,0,0,0,false,false,false,0,1457.62,17.01,-0.003347471,0.00336905,0.7070959,0.7071016,0,1300.0409,8.321,-0.00071,-0.00010999999,0
161.88333,2000,0,91.24,0.000002697398,0.000002697398,0.000002697398,0.99999994,0,0,0,0,0,0,0,1,0,0,0,false,false,true,0,1468.45,17.01,-0.003347471,0.00336905,0.7070959,0.7071016,-12.641,1298.241,8.331,-0.00081,0.00311,0.35111
161.89166,2000,0,91.24,0.000002697398,0.000002697398,0.000002697398,0.99999994,0,0,0,0,0,0,0,1,0,0,0,false,false,true,-0.11,1479.27,17.01,-0.003347471,0.003374445,0.7081304,0.70606554,-22.821,1296.751,8.341001,-0.00091,0.0043099998,0.62081
161.9,2000,0,91.24,0.000002697398,0.000002697398,0.000002697398,0.99999994,0,0,0,0,0,0,0,1,0,0,0,false,false,true,-0.29999998,1490.08,17.01,-0.0033474711,0.00337984,0.7099546,0.7042313,-32.531,1295.3009,8.341001,-0.00091,0.00461,0.85491
161.90834,2000,0,91.24,0.000002697398,0.000002697398,0.000002697398,0.99999994,0,0,0,0,0,0,0,1,0,0,0,false,false,true,-0.57,1500.87,17.01,-0.0033474711,0.0033852349,0.71246076,0.7016958,-42.150997,1293.841,8.341001,-0.00091,0.00441,1.05951
161.91667,2000,0,91.24,0.000002697398,0.000002697398,0.000002697398,0.99999994,0,0,0,0,0,0,0,1,0,0,0,false,false,true,-0.91999996,1511.65,17.01,-0.0033528658,0.0033852346,0.71555,0.69854516,-51.931,1292.3209,8.341001,-0.00081,0.00381,1.2395099
161.925,2000,0,91.24,0.000002697398,0.000002697398,0.000002697398,0.99999994,0,0,0,0,0,0,0,1,0,0,0,false,false,true,-1.35,1522.4199,17.01,-0.0033636554,0.0033798397,0.71914953,0.6948389,-62.010998,1290.7009,8.341001,-0.00071,0.00311,1.39911
161.93333,2000,0,91.24,0.000002697398,0.000002697398,0.000002697398,0.99999994,0,0,0,0,0,0,0,1,0,0,0,false,false,true,-1.87,1533.1799,17.01,-0.003374445,0.00336905,0.72318643,0.69063634,-72.471,1288.9509,8.341001,-0.00061,0.00241,1.54171
161.94167,2000,0,91.24,0.000002697398,0.000002697398,0.000002697398,0.99999994,0,0,0,0,0,0,0,1,0,0,0,false,false,true,-2.47,1543.9199,17.01,-0.0033906293,0.0033582605,0.72760916,0.6859752,-83.321,1287.021,8.341001,-0.00061,0.0017099999,1.66991
161.95,2000,0,91.24,0.000002697398,0.000002697398,0.000002697398,0.99999994,0,0,0,0,0,0,0,1,0,0,0,false,false,true,-3.1599998,1554.65,17.01,-0.0034122085,0.0033420762,0.732367,0.6808933,-94.531,1284.901,8.341001,-0.00051,0.00111,1.78601
161.95833,2000,0,91.24,0.000002697398,0.000002697398,0.000002697398,0.99999994,0,0,0,0,0,0,0,1,0,0,0,false,false,true,-3.9499998,1565.36,17.01,-0.0034337877,0.003320497,0.73741496,0.67542297,-106.061,1282.5609,8.341001,-0.00040999998,0.00061,1.8916099
161.96666,2000,0,91.24,0.000002697398,0.000002697398,0.000002697398,0.99999994,0,0,0,0,0,0,0,1,0,0,0,false,false,true,-4.83,1576.0499,17.01,-0.0034607616,0.0032989178,0.7427144,0.6695911,-117.840996,1279.981,8.341001,-0.00040999998,0.00010999999,1.98811
161.975,2000,0,91.24,0.000002697398,0.000002697398,0.000002697398,0.99999994,0,0,0,0,0,0,0,1,0,0,0,false,false,true,-5.81,1586.72,17.01,-0.0034877358,0.003271944,0.7482371,0.66341406,-129.77101,1277.1709,8.341001,-0.00030999997,-0.00021,2.07651
161.98334,2000,0,91.24,0.000002697398,0.000002697398,0.000002697398,0.99999994,0,0,0,0,0,0,0,1,0,0,0,false,false,true,-6.89,1597.36,17.01,-0.0035147096,0.003239575,0.75395083,0.65691334,-141.761,1274.121,8.341001,-0.00021,-0.00040999998,2.15761
161.99167,2000,0,91.24,0.000002697398,0.000002697398,0.000002697398,0.99999994,0,0,0,0,0,0,0,1,0,0,0,false,false,true,-8.07,1607.98,17.01,-0.0035470785,0.0032072063,0.7598246,0.6501104,-153.711,1270.851,8.341001,-0.00021,-0.00061,2.23201
162,2000,0,91.24,0.000002697398,0.000002697398,0.000002697398,0.99999994,0,0,0,0,0,0,0,1,0,0,0,false,false,true,-9.349999,1618.57,17.01,-0.0035794473,0.0031748374,0.76583743,0.6430163,-165.491,1267.381,8.341001,-0.00010999999,-0.00081,2.30021
162.00833,2000,0,91.24,0.000002697398,0.000002697398,0.000002697398,0.99999994,0,0,0,0,0,0,0,1,0,0,0,false,false,true,-10.73,1629.13,17.01,-0.003611816,0.003137074,0.7719649,0.635647,-176.991,1263.741,8.341001,0,-0.0010099999,2.36251
162.01666,2000,0,91.24,0.000002697398,0.000002697398,0.000002697398,0.99999994,0,0,0,0,0,0,0,1,0,0,0,false,false,true,-12.2,1639.6599,17.01,-0.003644185,0.0030993104,0.77818346,0.6280187,-188.071,1259.971,8.341001,0,-0.00111,2.41911
162.025,2000,0,91.24,0.000002697398,0.000002697398,0.000002697398,0.99999994,0,0,0,0,0,0,0,1,0,0,0,false,false,true,-13.7699995,1650.1599,17.01,-0.0036765537,0.003061547,0.7844747,0.62014234,-198.61101,1256.131,8.341001,0,-0.0012099999,2.47011
162.03334,2000,0,91.24,0.000002697398,0.000002697398,0.000002697398,0.99999994,0,0,0,0,0,0,0,1,0,0,0,false,false,true,-15.429999,1660.63,17.01,-0.0037143175,0.0030183888,0.790817,0.6120339,-208.481,1252.2909,8.341001,0,-0.00131,2.51561
162.04167,2000,0,91.24,0.000002697398,0.000002697398,0.000002697398,0.99999994,0,0,0,0,0,0,0,1,0,0,0,false,false,true,-17.17,1671.07,17.01,-0.0037520807,0.00297523,0.7971898,0.60370964,-217.531,1248.521,8.341001,0,-0.00131,2.55551
162.05,2000,0,91.24,0.000002697398,0.000002697398,0.000002697398,0.99999994,0,0,0,0,0,0,0,1,0,0,0,false,false,true,-18.98,1681.47,17.01,-0.0037898442,0.0029320717,0.8035737,0.5951858,-225.631,1244.9309,8.341001,0,-0.00131,2.58981
162.05833,2000,0,91.24,0.000002697398,0.000002697398,0.000002697398,0.99999994,0,0,0,0,0,0,0,1,0,0,0,false,false,true,-20.859999,1691.84,17.01,-0.003827608,0.0028889133,0.80995035,0.58647865,-232.641,1241.631,8.341001,0.00010999999,-0.00131,2.6184099
162.06667,2000,0,91.24,0.000002697398,0.000002697398,0.000002697398,0.99999994,0,0,0,0,0,0,0,1,0,0,0,false,false,true,-22.8,1702.19,17.01,-0.0038653715,0.0028457548,0.816299,0.5776095,-238.411,1238.741,8.341001,0.00021,-0.00131,2.64111
162.075,2000,0,91.24,0.000002697398,0.000002697398,0.000002697398,0.99999994,0,0,0,0,0,0,0,1,0,0,0,false,false,true,-24.789999,1712.51,17.01,-0.0038977403,0.0027972017,0.8226074,0.5685894,-242.791,1236.4109,8.341001,0.00030999997,-0.00131,2.65781
162.08333,2000,0,91.24,0.000002697398,0.000002697398,0.000002697398,0.99999994,0,0,0,0,0,0,0,1,0,0,0,false,false,true,-26.81,1722.8099,17.01,-0.0039301086,0.0027486486,0.8288534,0.55944514,-247.341,1233.871,8.341001,0.00040999998,-0.00131,2.67381
162.09166,2000,0,91.24,0.000002697398,0.000002697398,0.000002697398,0.99999994,0,0,0,0,0,0,0,1,0,0,0,false,false,true,-28.869999,1733.09,17.01,-0.0039624777,0.0027000955,0.8350343,0.55017686,-252.051,1231.111,8.341001,0.00040999998,-0.0012099999,2.68941
162.1,2000,0,91.24,0.000002697398,0.000002697398,0.000002697398,0.99999994,0,0,0,0,0,0,0,1,0,0,0,false,false,true,-30.97,1743.35,17.01,-0.0039948463,0.0026515422,0.8411474,0.5407845,-256.901,1228.121,8.341001,0.00040999998,-0.00111,2.70451
162.10834,2000,0,91.24,0.000002697398,0.000002697398,0.000002697398,0.99999994,0,0,0,0,0,0,0,1,0,0,0,false,false,true,-33.11,1753.58,17.01,-0.0040272153,0.002602989,0.84718674,0.5312734,-261.871,1224.901,8.341001,0.00040999998,-0.0010099999,2.71911
162.11667,2000,0,91.24,0.000002697398,0.000002697398,0.000002697398,0.99999994,0,0,0,0,0,0,0,1,0,0,0,false,false,true,-35.29,1763.7899,17.01,-0.0040595834,0.0025544357,0.8531498,0.52164364,-266.951,1221.4509,8.341001,0.00040999998,-0.0010099999,2.7332098
162.125,2000,0,91.24,0.000002697398,0.000002697398,0.000002697398,0.99999994,0,0,0,0,0,0,0,1,0,0,0,false,false,true,-37.51,1773.97,17.01,-0.0040919525,0.0025058826,0.8590344,0.51189524,-272.121,1217.771,8.341001,0.00040999998,-0.00091,2.74681
162.13333,2000,0,91.24,0.000002697398,0.000002697398,0.000002697398,0.99999994,0,0,0,0,0,0,0,1,0,0,0,false,false,true,-39.78,1784.12,17.01,-0.0041243215,0.0024573295,0.8648379,0.50202817,-277.371,1213.861,8.341001,0.00040999998,-0.00081,2.7599099
162.14166,2000,0,91.24,0.000002697398,0.000002697398,0.000002697398,0.99999994,0,0,0,0,0,0,0,1,0,0,0,false,false,true,-42.09,1794.24,17.01,-0.0041566906,0.0024087767,0.8705549,0.49204776,-282.681,1209.7109,8.341001,0.00040999998,-0.00071,2.77251
162.15,2000,0,91.24,0.000002697398,0.000002697398,0.000002697398,0.99999994,0,0,0,0,0,0,0,1,0,0,0,false,false,true,-44.45,1804.32,17.01,-0.0041836645,0.0023602233,0.8761803,0.48195946,-288.031,1205.3309,8.341001,0.00040999998,-0.00061,2.78451
162.15834,2000,0,91.24,0.000002697398,0.000002697398,0.000002697398,0.99999994,0,0,0,0,0,0,0,1,0,0,0,false,false,true,-46.85,1814.36,17.01,-0.0042106383,0.0023062753,0.88171214,0.47176322,-293.411,1200.7109,8.341001,0.00040999998,-0.00061,2.79601
162.16667,2000,0,91.24,0.000002697398,0.000002697398,0.000002697398,0.99999994,0,0,0,0,0,0,0,1,0,0,0,false,false,true,-49.3,1824.37,17.01,-0.004237612,0.002252327,0.8871483,0.4614591,-298.801,1195.861,8.341001,0.00040999998,-0.00051,2.80691
162.175,2000,0,91.24,0.000002697398,0.000002697398,0.000002697398,0.99999994,0,0,0,0,0,0,0,1,0,0,0,false,false,true,-51.789997,1834.34,17.01,-0.004264586,0.0021983793,0.8924845,0.4510525,-304.191,1190.781,8.341001,0.00040999998,-0.00051,2.8173099
162.18333,2000,0,91.24,0.000002697398,0.000002697398,0.000002697398,0.99999994,0,0,0,0,0,0,0,1,0,0,0,false,false,true,-54.32,1844.26,17.01,-0.0042915605,0.0021444317,0.8977184,0.44054347,-309.561,1185.471,8.341001,0.00030999997,-0.00040999998,2.82711
162.19167,2000,0,91.24,0.000002697398,0.000002697398,0.000002697398,0.99999994,0,0,0,0,0,0,0,1,0,0,0,false,false,true,-56.899998,1854.14,17.01,-0.004318534,0.0020904834,0.902846,0.42993718,-314.901,1179.9409,8.341001,0.00030999997,-0.00040999998,2.83631
162.2,2000,0,91.24,0.000002697398,0.000002697398,0.000002697398,0.99999994,0,0,0,0,0,0,0,1,0,0,0,false,false,true,-59.52,1863.97,17.01,-0.0043455088,0.0020365356,0.907863,0.41923934,-320.191,1174.1909,8.341001,0.00030999997,-0.00030999997,2.84491
162.20833,2000,0,91.24,0.000002697398,0.000002697398,0.000002697398,0.99999994,0,0,0,0,0,0,0,1,0,0,0,false,false,true,-62.19,1873.75,17.01,-0.0043724827,0.0019825876,0.9127682,0.40844965,-325.421,1168.231,8.341001,0.00030999997,-0.00021,2.85291
162.21666,2000,0,91.24,0.000002697398,0.000002697398,0.000002697398,0.99999994,0,0,0,0,0,0,0,1,0,0,0,false,false,true,-64.9,1883.49,17.01,-0.0043940614,0.0019286396,0.91756,0.39756832,-330.581,1162.0609,8.341001,0.00021,-0.00021,2.86021
162.225,2000,0,91.24,0.000002697398,0.000002697398,0.000002697398,0.99999994,0,0,0,0,0,0,0,1,0,0,0,false,false,true,-67.65,1893.1699,17.01,-0.004415641,0.0018746918,0.92223245,0.38660604,-335.651,1155.6909,8.341001,0.00021,-0.00021,2.86691
162.23334,2000,0,91.24,0.000002697398,0.000002697398,0.000002697398,0.99999994,0,0,0,0,0,0,0,1,0,0,0,false,false,true,-70.45,1902.7999,17.01,-0.00443722,0.0018207437,0.92678446,0.37556285,-340.621,1149.131,8.341001,0.00021,-0.00021,2.87291
162.24167,2000,0,91.24,0.000002697398,0.000002697398,0.000002697398,0.99999994,0,0,0,0,0,0,0,1,0,0,0,false,false,true,-73.29,1912.38,17.01,-0.004458799,0.0017667958,0.93121284,0.3644441,-345.481,1142.391,8.341001,0.00021,-0.00021,2.8782098
162.25,2000,0,91.24,0.000002697398,0.000002697398,0.000002697398,0.99999994,0,0,0,0,0,0,0,1,0,0,0,false,false,true,-76.17,1921.8999,17.01,-0.0044803787,0.0017128479,0.93551666,0.35324994,-350.221,1135.471,8.341001,0.00021,-0.00021,2.8828099
162.25833,2000,0,91.24,0.000002697398,0.000002697398,0.000002697398,0.99999994,0,0,0,0,0,0,0,1,0,0,0,false,false,true,-79.09,1931.36,17.01,-0.0045019574,0.0016588998,0.9396929,0.34198546,-354.821,1128.391,8.341001,0.00021,-0.00021,2.88671
162.26666,2000,0,91.24,0.000002697398,0.000002697398,0.000002697398,0.99999994,0,0,0,0,0,0,0,1,0,0,0,false,false,true,-82.049995,1940.76,17.01,-0.004523536,0.0016049518,0.94373894,0.3306564,-359.281,1121.151,8.341001,0.00021,-0.00021,2.8898098
162.275,2000,0,91.24,0.000002697398,0.000002697398,0.000002697398,0.99999994,0,0,0,0,0,0,0,1,0,0,0,false,false,true,-85.04,1950.1,17.01,-0.0045451154,0.0015510039,0.9476523,0.3192679,-363.581,1113.771,8.341001,0.00021,-0.00010999999,2.89221
162.28334,2000,0,91.24,0.000002697398,0.000002697398,0.000002697398,0.99999994,0,0,0,0,0,0,0,1,0,0,0,false,false,true,-88.07,1959.38,17.01,-0.0045613,0.0014970559,0.9514306,0.30782554,-367.721,1106.251,8.341001,0.00021,-0.00010999999,2.89381
162.29167,2000,0,91.24,0.000002697398,0.000002697398,0.000002697398,0.99999994,0,0,0,0,0,0,0,1,0,0,0,false,false,true,-91.13,1968.6,17.01,-0.004577485,0.0014431081,0.9550738,0.29632917,-371.691,1098.611,8.341001,0.00021,-0.00010999999,2.89461
162.3,2000,0,91.24,0.000002697398,0.000002697398,0.000002697398,0.99999994,0,0,0,0,0,0,0,1,0,0,0,false,false,true,-94.229996,1977.76,17.01,-0.0045936694,0.00138916,0.958578,0.2847897,-375.481,1090.861,8.341001,0.00021,-0.00010999999,2.89461
162.30833,2000,0,91.24,0.000002697398,0.000002697398,0.000002697398,0.99999994,0,0,0,0,0,0,0,1,0,0,0,false,false,true,-97.36,1986.85,17.01,-0.0046098535,0.0013352121,0.96194327,0.273207,-379.081,1083.011,8.341001,0.00030999997,-0.00010999999,2.89371
162.31667,2000,0,91.24,0.000002697398,0.000002697398,0.000002697398,0.99999994,0,0,0,0,0,0,0,1,0,0,0,false,false,true,-100.52,1995.88,17.01,-0.004626038,0.0012758693,0.96516806,0.2615866,-382.491,1075.0809,8.341001,0.00030999997,-0.00010999999,2.89201
162.325,2000,0,91.24,0.000002697398,0.000002697398,0.000002697398,0.99999994,0,0,0,0,0,0,0,1,0,0,0,false,false,true,-103.71,2004.84,17.01,-0.0046422225,0.0012165266,0.9682496,0.24993916,-385.701,1067.0809,8.341001,0.00030999997,-0.00010999999,2.88941
162.33333,2000,0,91.24,0.000002697398,0.000002697398,0.000002697398,0.99999994,0,0,0,0,0,0,0,1,0,0,0,false,false,true,-106.92,2013.73,17.01,-0.004658406,0.0011571838,0.9711883,0.2382648,-388.711,1059.021,8.341001,0.00030999997,-0.00010999999,2.88591
162.34166,2000,0,91.24,0.000002697398,0.000002697398,0.000002697398,0.99999994,0,0,0,0,0,0,0,1,0,0,0,false,false,true,-110.159996,2022.5599,17.01,-0.0046745907,0.001097841,0.9739833,0.22656879,-391.511,1050.911,8.341001,0.00030999997,-0.00010999999,2.88151
162.35,2000,0,91.24,0.000002697398,0.000002697398,0.000002697398,0.99999994,0,0,0,0,0,0,0,1,0,0,0,false,false,true,-113.42,2031.32,17.01,-0.00468538,0.0010384981,0.97663367,0.21485665,-394.111,1042.771,8.341001,0.00030999997,0,2.8761098
162.35834,2000,0,91.24,0.000002697398,0.000002697398,0.000002697398,0.99999994,0,0,0,0,0,0,0,1,0,0,0,false,false,true,-116.7,2040.01,17.01,-0.00469617,0.0009791554,0.9791381,0.20313911,-396.501,1034.611,8.341001,0.00030999997,0,2.8698099
162.36667,2000,0,91.24,0.000002697398,0.000002697398,0.000002697398,0.99999994,0,0,0,0,0,0,0,1,0,0,0,false,false,true,-120,2048.63,17.01,-0.0047069597,0.00091981277,0.98149717,0.19141622,-398.681,1026.4509,8.341001,0.00021,0,2.86251
162.375,2000,0,91.24,0.000002697398,0.000002697398,0.000002697398,0.99999994,0,0,0,0,0,0,0,1,0,0,0,false,false,true,-123.32,2057.18,17.01,-0.0047177486,0.0008604699,0.9837099,0.17969862,-400.651,1018.30096,8.341001,0.00021,0,2.85421
