time,ball_loc_x,ball_loc_y,ball_loc_z,ball_rot_x,ball_rot_y,ball_rot_z,ball_rot_w,ball_vel_x,ball_vel_y,ball_vel_z,ball_ang_x,ball_ang_y,ball_ang_z,player0_throttle,player0_steer,player0_pitch,player0_yaw,player0_roll,player0_jump,player0_boost,player0_handbrake,player0_loc_x,player0_loc_y,player0_loc_z,player0_rot_x,player0_rot_y,player0_rot_z,player0_rot_w,player0_vel_x,player0_vel_y,player0_vel_z,player0_ang_x,player0_ang_y,player0_ang_z
134.76666,2000,0,91.24,0.000002697398,0.000002697398,0.000002697398,0.99999994,0,0,0,0,0,0,1,0,0,0,0,false,false,false,0,-4217.12,17.01,-0.003347471,0.0033528658,0.70708513,0.70711243,0,1101.031,8.321,-0.00071,0,0
134.775,2000,0,91.24,0.000002697398,0.000002697398,0.000002697398,0.99999994,0,0,0,0,0,0,0,1,0,0,0,false,false,true,0,-4207.94,17.01,-0.003347471,0.0033528658,0.70708513,0.70711243,-12.981,1098.781,8.341001,-0.0010099999,0.00331,0.35971
134.78334,2000,0,91.24,0.000002697398,0.000002697398,0.000002697398,0.99999994,0,0,0,0,0,0,0,1,0,0,0,false,false,true,-0.11,-4198.78,17.01,-0.003347471,0.0033582605,0.70814663,0.7060493,-23.071,1096.991,8.351,-0.00111,0.00451,0.62871
134.79167,2000,0,91.24,0.000002697398,0.000002697398,0.000002697398,0.99999994,0,0,0,0,0,0,0,1,0,0,0,false,false,true,-0.29999998,-4189.64,17.01,-0.003347471,0.0033636554,0.7099921,0.70419353,-32.510998,1095.3009,8.351,-0.00111,0.00481,0.86081
134.8,2000,0,91.24,0.000002697398,0.000002697398,0.000002697398,0.99999994,0,0,0,0,0,0,0,1,0,0,0,false,false,true,-0.57,-4180.51,17.01,-0.003347471,0.00336905,0.7125139,0.7016418,-41.661,1093.641,8.351,-0.00111,0.00451,1.06211
134.80833,2000,0,91.24,0.000002697398,0.000002697398,0.000002697398,0.99999994,0,0,0,0,0,0,0,1,0,0,0,false,false,true,-0.91999996,-4171.4,17.01,-0.0033528658,0.00336905,0.71561325,0.6984804,-50.760998,1091.971,8.351,-0.00111,0.00391,1.23771
134.81667,2000,0,91.24,0.000002697398,0.000002697398,0.000002697398,0.99999994,0,0,0,0,0,0,0,1,0,0,0,false,false,true,-1.3399999,-4162.3,17.01,-0.0033636554,0.00336905,0.7192069,0.6947795,-59.961,1090.251,8.351,-0.0010099999,0.00321,1.3918099
134.825,2000,0,91.24,0.000002697398,0.000002697398,0.000002697398,0.99999994,0,0,0,0,0,0,0,1,0,0,0,false,false,true,-1.8399999,-4153.21,17.01,-0.003374445,0.0033636554,0.7232225,0.69059855,-69.340996,1088.4409,8.351,-0.00091,0.00251,1.52801
134.83333,2000,0,91.24,0.000002697398,0.000002697398,0.000002697398,0.99999994,0,0,0,0,0,0,0,1,0,0,0,false,false,true,-2.4199998,-4144.14,17.01,-0.0033906295,0.003352866,0.7276041,0.6859807,-78.921,1086.521,8.351,-0.00081,0.0018099999,1.64911
134.84166,2000,0,91.24,0.000002697398,0.000002697398,0.000002697398,0.99999994,0,0,0,0,0,0,0,1,0,0,0,false,false,true,-3.08,-4135.09,17.01,-0.0034122085,0.0033366815,0.7323017,0.68096346,-88.711,1084.4609,8.351,-0.00071,0.00111,1.7574099
134.85,2000,0,91.24,0.000002697398,0.000002697398,0.000002697398,0.99999994,0,0,0,0,0,0,0,1,0,0,0,false,false,true,-3.82,-4126.05,17.01,-0.0034337877,0.0033151023,0.7372667,0.67558485,-98.671,1082.241,8.351,-0.00061,0.00051,1.85481
134.85834,2000,0,91.24,0.000002697398,0.000002697398,0.000002697398,0.99999994,0,0,0,0,0,0,0,1,0,0,0,false,false,true,-4.64,-4117.03,17.01,-0.0034607612,0.0032935226,0.7424663,0.6698662,-108.751,1079.851,8.351,-0.00051,0,1.9428099
134.86667,2000,0,91.24,0.000002697398,0.000002697398,0.000002697398,0.99999994,0,0,0,0,0,0,0,1,0,0,0,false,false,true,-5.5499997,-4108.03,17.01,-0.0034877358,0.003266549,0.7478638,0.66383487,-118.90099,1077.281,8.351,-0.00040999998,-0.00030999997,2.02251
134.875,2000,0,91.24,0.000002697398,0.000002697398,0.000002697398,0.99999994,0,0,0,0,0,0,0,1,0,0,0,false,false,true,-6.54,-4099.05,17.01,-0.0035147099,0.0032395753,0.7534334,0.6575068,-129.031,1074.5409,8.351,-0.00030999997,-0.00051,2.09491
134.88333,2000,0,91.24,0.000002697398,0.000002697398,0.000002697398,0.99999994,0,0,0,0,0,0,0,1,0,0,0,false,false,true,-7.62,-4090.0999,17.01,-0.0035470785,0.0032072063,0.7591453,0.65090346,-139.071,1071.641,8.351,-0.00021,-0.00071,2.1607099
134.89166,2000,0,91.24,0.000002697398,0.000002697398,0.000002697398,0.99999994,0,0,0,0,0,0,0,1,0,0,0,false,false,true,-8.78,-4081.17,17.01,-0.0035794473,0.0031748374,0.76497567,0.6440413,-148.921,1068.601,8.351,-0.00010999999,-0.00091,2.2204099
134.9,2000,0,91.24,0.000002697398,0.000002697398,0.000002697398,0.99999994,0,0,0,0,0,0,0,1,0,0,0,false,false,true,-10.0199995,-4072.26,17.01,-0.0036118163,0.0031370742,0.77090144,0.6369364,-158.501,1065.4509,8.351,0,-0.0010099999,2.27451
134.90834,2000,0,91.24,0.000002697398,0.000002697398,0.000002697398,0.99999994,0,0,0,0,0,0,0,1,0,0,0,false,false,true,-11.34,-4063.38,17.01,-0.003644185,0.0030993104,0.7769052,0.62959933,-167.701,1062.221,8.351,0,-0.00111,2.32331
134.91667,2000,0,91.24,0.000002697398,0.000002697398,0.000002697398,0.99999994,0,0,0,0,0,0,0,1,0,0,0,false,false,true,-12.74,-4054.53,17.01,-0.0036765537,0.003061547,0.78296554,0.62204665,-176.431,1058.9509,8.351,0,-0.0012099999,2.36691
134.925,2000,0,91.24,0.000002697398,0.000002697398,0.000002697398,0.99999994,0,0,0,0,0,0,0,1,0,0,0,false,false,true,-14.21,-4045.71,17.01,-0.0037089225,0.0030237834,0.78906244,0.61429435,-184.58101,1055.7109,8.351,0,-0.00131,2.40551
134.93333,2000,0,91.24,0.000002697398,0.000002697398,0.000002697398,0.99999994,0,0,0,0,0,0,0,1,0,0,0,false,false,true,-15.75,-4036.91,17.01,-0.0037412914,0.002980625,0.7951811,0.6063531,-192.05101,1052.5509,8.351,0,-0.00131,2.43921
134.94167,2000,0,91.24,0.000002697398,0.000002697398,0.000002697398,0.99999994,0,0,0,0,0,0,0,1,0,0,0,false,false,true,-17.35,-4028.14,17.01,-0.00377366,0.0029374664,0.8013031,0.5982393,-198.72101,1049.5609,8.351,0,-0.00131,2.46801
134.95,2000,0,91.24,0.000002697398,0.000002697398,0.000002697398,0.99999994,0,0,0,0,0,0,0,1,0,0,0,false,false,true,-19.01,-4019.39,17.01,-0.0038060287,0.0028943082,0.80741155,0.5899691,-204.481,1046.8209,8.341001,0,-0.00131,2.49191
134.95833,2000,0,91.24,0.000002697398,0.000002697398,0.000002697398,0.99999994,0,0,0,0,0,0,0,1,0,0,0,false,false,true,-20.71,-4010.67,17.01,-0.0038383976,0.0028511498,0.8134943,0.5815531,-209.22101,1044.4409,8.341001,0,-0.0014099999,2.51081
134.96666,2000,0,91.24,0.000002697398,0.000002697398,0.000002697398,0.99999994,0,0,0,0,0,0,0,1,0,0,0,false,false,true,-22.449999,-4001.97,17.01,-0.0038707664,0.0028079913,0.81953216,0.5730131,-212.821,1042.521,8.331,0,-0.0014099999,2.52471
134.975,2000,0,91.24,0.000002697398,0.000002697398,0.000002697398,0.99999994,0,0,0,0,0,0,0,1,0,0,0,false,false,true,-24.22,-3993.28,17.01,-0.003903135,0.002764833,0.8255149,0.5643599,-216.561,1040.4409,8.331,0,-0.0014099999,2.53801
134.98334,2000,0,91.24,0.000002697398,0.000002697398,0.000002697398,0.99999994,0,0,0,0,0,0,0,1,0,0,0,false,false,true,-26.019999,-3984.6099,17.01,-0.003935504,0.0027216745,0.83143675,0.5555987,-220.431,1038.1809,8.331,0.00010999999,-0.0014099999,2.55091
134.99167,2000,0,91.24,0.000002697398,0.000002697398,0.000002697398,0.99999994,0,0,0,0,0,0,0,1,0,0,0,false,false,true,-27.859999,-3975.96,17.01,-0.0039678724,0.0026785163,0.8372954,0.5467296,-224.421,1035.741,8.331,0.00010999999,-0.00131,2.56341
135,2000,0,91.24,0.000002697398,0.000002697398,0.000002697398,0.99999994,0,0,0,0,0,0,0,1,0,0,0,false,false,true,-29.73,-3967.3298,17.01,-0.0040002405,0.0026299627,0.84308547,0.53775793,-228.511,1033.121,8.331,0.00021,-0.0012099999,2.57541
135.00833,2000,0,91.24,0.000002697398,0.000002697398,0.000002697398,0.99999994,0,0,0,0,0,0,0,1,0,0,0,false,false,true,-31.63,-3958.72,17.01,-0.00403261,0.0025814099,0.8488085,0.52867854,-232.691,1030.3209,8.331,0.00021,-0.00111,2.58701
135.01666,2000,0,91.24,0.000002697398,0.000002697398,0.000002697398,0.99999994,0,0,0,0,0,0,0,1,0,0,0,false,false,true,-33.57,-3950.13,17.01,-0.0040649786,0.0025328568,0.854459,0.5194966,-236.951,1027.341,8.331,0.00021,-0.0010099999,2.5982099
135.025,2000,0,91.24,0.000002697398,0.000002697398,0.000002697398,0.99999994,0,0,0,0,0,0,0,1,0,0,0,false,false,true,-35.54,-3941.5698,17.01,-0.0040973476,0.0024843037,0.860032,0.5102174,-241.281,1024.1709,8.331,0.00021,-0.00091,2.60901
135.03334,2000,0,91.24,0.000002697398,0.000002697398,0.000002697398,0.99999994,0,0,0,0,0,0,0,1,0,0,0,false,false,true,-37.55,-3933.03,17.01,-0.004124322,0.0024357506,0.86552894,0.50083596,-245.671,1020.821,8.331,0.00021,-0.00081,2.61931
135.04167,2000,0,91.24,0.000002697398,0.000002697398,0.000002697398,0.99999994,0,0,0,0,0,0,0,1,0,0,0,false,false,true,-39.6,-3924.52,17.01,-0.004151296,0.0023871975,0.8709419,0.49136263,-250.101,1017.28094,8.331,0.00021,-0.00071,2.62921
135.05,2000,0,91.24,0.000002697398,0.000002697398,0.000002697398,0.99999994,0,0,0,0,0,0,0,1,0,0,0,false,false,true,-41.68,-3916.0398,17.01,-0.0041782693,0.0023386441,0.8762723,0.4817922,-254.561,1013.561,8.331,0.00010999999,-0.00061,2.63861
135.05833,2000,0,91.24,0.000002697398,0.000002697398,0.000002697398,0.99999994,0,0,0,0,0,0,0,1,0,0,0,false,false,true,-43.8,-3907.5898,17.01,-0.004205243,0.0022900908,0.8815158,0.47213006,-259.04102,1009.65094,8.331,0.00010999999,-0.00061,2.64761
135.06667,2000,0,91.24,0.000002697398,0.000002697398,0.000002697398,0.99999994,0,0,0,0,0,0,0,1,0,0,0,false,false,true,-45.96,-3899.18,17.01,-0.004232218,0.002241538,0.8866708,0.4623763,-263.531,1005.561,8.331,0.00010999999,-0.00051,2.65611
135.075,2000,0,91.24,0.000002697398,0.000002697398,0.000002697398,0.99999994,0,0,0,0,0,0,0,1,0,0,0,false,false,true,-48.16,-3890.7998,17.01,-0.0042591915,0.0021929846,0.89173317,0.45253608,-268.021,1001.29095,8.331,0.00010999999,-0.00051,2.66411
135.08333,2000,0,91.24,0.000002697398,0.000002697398,0.000002697398,0.99999994,0,0,0,0,0,0,0,1,0,0,0,false,false,true,-50.39,-3882.46,17.01,-0.004286166,0.0021444317,0.8967016,0.44260967,-272.501,996.84094,8.331,0.00010999999,-0.00040999998,2.6716099
135.09166,2000,0,91.24,0.000002697398,0.000002697398,0.000002697398,0.99999994,0,0,0,0,0,0,0,1,0,0,0,false,false,true,-52.66,-3874.15,17.01,-0.004313139,0.002095878,0.9015719,0.43260223,-276.951,992.21094,8.331,0.00010999999,-0.00030999997,2.6786098
135.1,2000,0,91.24,0.000002697398,0.000002697398,0.000002697398,0.99999994,0,0,0,0,0,0,0,1,0,0,0,false,false,true,-54.969997,-3865.88,17.01,-0.0043347185,0.002047325,0.9063437,0.42251393,-281.371,987.41095,8.331,0.00010999999,-0.00030999997,2.6851099
135.10834,2000,0,91.24,0.000002697398,0.000002697398,0.000002697398,0.99999994,0,0,0,0,0,0,0,1,0,0,0,false,false,true,-57.309998,-3857.65,17.01,-0.0043562977,0.001998772,0.91101277,0.41235015,-285.741,982.441,8.331,0.00010999999,-0.00030999997,2.69111
135.11667,2000,0,91.24,0.000002697398,0.000002697398,0.000002697398,0.99999994,0,0,0,0,0,0,0,1,0,0,0,false,false,true,-59.69,-3849.46,17.01,-0.0043778773,0.0019502189,0.9155784,0.40211076,-290.051,977.311,8.331,0.00010999999,-0.00030999997,2.69661
135.125,2000,0,91.24,0.000002697398,0.000002697398,0.000002697398,0.99999994,0,0,0,0,0,0,0,1,0,0,0,false,false,true,-62.109997,-3841.3198,17.01,-0.0043994565,0.0019016658,0.92003965,0.3917959,-294.301,972.02094,8.331,0.00010999999,-0.00030999997,2.7016098
135.13333,2000,0,91.24,0.000002697398,0.000002697398,0.000002697398,0.99999994,0,0,0,0,0,0,0,1,0,0,0,false,false,true,-64.56,-3833.22,17.01,-0.0044210353,0.0018531125,0.9243909,0.3814162,-298.471,966.58093,8.331,0.00010999999,-0.00030999997,2.7060099
135.14166,2000,0,91.24,0.000002697398,0.000002697398,0.000002697398,0.99999994,0,0,0,0,0,0,0,1,0,0,0,false,false,true,-67.049995,-3825.17,17.01,-0.004442614,0.0018045591,0.92863154,0.37097186,-302.561,960.99097,8.331,0.00010999999,-0.00030999997,2.70991
135.15,2000,0,91.24,0.000002697398,0.000002697398,0.000002697398,0.99999994,0,0,0,0,0,0,0,1,0,0,0,false,false,true,-69.57,-3817.16,17.01,-0.0044641937,0.0017560062,0.9327612,0.36046275,-306.561,955.2609,8.331,0.00021,-0.00030999997,2.7132099
135.15834,2000,0,91.24,0.000002697398,0.000002697398,0.000002697398,0.99999994,0,0,0,0,0,0,0,1,0,0,0,false,false,true,-72.119995,-3809.2,17.01,-0.0044857734,0.0017020582,0.9367768,0.34989437,-310.461,949.40094,8.331,0.00021,-0.00030999997,2.71591
135.16667,2000,0,91.24,0.000002697398,0.000002697398,0.000002697398,0.99999994,0,0,0,0,0,0,0,1,0,0,0,false,false,true,-74.71,-3801.2898,17.01,-0.0045073526,0.0016481103,0.9406761,0.33927193,-314.251,943.41095,8.331,0.00021,-0.00030999997,2.7181098
135.175,2000,0,91.24,0.000002697398,0.000002697398,0.000002697398,0.99999994,0,0,0,0,0,0,0,1,0,0,0,false,false,true,-77.33,-3793.43,17.01,-0.004528932,0.0015941623,0.9444585,0.3285956,-317.921,937.30096,8.331,0.00021,-0.00021,2.7197099
135.18333,2000,0,91.24,0.000002697398,0.000002697398,0.000002697398,0.99999994,0,0,0,0,0,0,0,1,0,0,0,false,false,true,-79.979996,-3785.6199,17.01,-0.004545116,0.0015402144,0.9481219,0.31787068,-321.471,931.08093,8.331,0.00021,-0.00010999999,2.72071
135.19167,2000,0,91.24,0.000002697398,0.000002697398,0.000002697398,0.99999994,0,0,0,0,0,0,0,1,0,0,0,false,false,true,-82.659996,-3777.8599,17.01,-0.0045613004,0.0014862665,0.95166427,0.30710268,-324.891,924.751,8.331,0.00021,-0.00010999999,2.72101
135.2,2000,0,91.24,0.000002697398,0.000002697398,0.000002697398,0.99999994,0,0,0,0,0,0,0,1,0,0,0,false,false,true,-85.369995,-3770.15,17.01,-0.004577484,0.0014323182,0.9550854,0.29629135,-328.171,918.33093,8.331,0.00021,-0.00010999999,2.72071
135.20833,2000,0,91.24,0.000002697398,0.000002697398,0.000002697398,0.99999994,0,0,0,0,0,0,0,1,0,0,0,false,false,true,-88.1,-3762.5,17.01,-0.004593669,0.0013783704,0.9583822,0.28544784,-331.311,911.821,8.331,0.00021,-0.00010999999,2.71981
135.21666,2000,0,91.24,0.000002697398,0.000002697398,0.000002697398,0.99999994,0,0,0,0,0,0,0,1,0,0,0,false,false,true,-90.86,-3754.9,17.01,-0.004609853,0.0013244224,0.9615561,0.27456644,-334.311,905.24097,8.331,0.00010999999,-0.00010999999,2.71821
135.225,2000,0,91.24,0.000002697398,0.000002697398,0.000002697398,0.99999994,0,0,0,0,0,0,0,1,0,0,0,false,false,true,-93.65,-3747.3599,17.01,-0.0046260376,0.0012704745,0.9646042,0.26365817,-337.161,898.59094,8.331,0.00010999999,-0.00010999999,2.7160099
135.23334,2000,0,91.24,0.000002697398,0.000002697398,0.000002697398,0.99999994,0,0,0,0,0,0,0,1,0,0,0,false,false,true,-96.46,-3739.8699,17.01,-0.0046422225,0.0012165266,0.9675268,0.25272286,-339.861,891.881,8.331,0.00010999999,-0.00010999999,2.71311
135.24167,2000,0,91.24,0.000002697398,0.000002697398,0.000002697398,0.99999994,0,0,0,0,0,0,0,1,0,0,0,false,false,true,-99.29,-3732.44,17.01,-0.004658406,0.0011625786,0.9703213,0.24177141,-342.401,885.121,8.331,0.00010999999,0,2.7095098
135.25,2000,0,91.24,0.000002697398,0.000002697398,0.000002697398,0.99999994,0,0,0,0,0,0,0,1,0,0,0,false,false,true,-102.14,-3725.0598,17.01,-0.0046691964,0.0011086307,0.9729885,0.23080373,-344.781,878.321,8.331,0.00010999999,0,2.70521
135.25833,2000,0,91.24,0.000002697398,0.000002697398,0.000002697398,0.99999994,0,0,0,0,0,0,0,1,0,0,0,false,false,true,-105.009995,-3717.74,17.01,-0.004679985,0.0010546825,0.97552854,0.21981987,-347.001,871.49097,8.331,0.00010999999,0,2.7002099
135.26666,2000,0,91.24,0.000002697398,0.000002697398,0.000002697398,0.99999994,0,0,0,0,0,0,0,1,0,0,0,false,false,true,-107.899994,-3710.48,17.01,-0.004690775,0.0010007346,0.97794,0.20883062,-349.061,864.6409,8.331,0.00010999999,0,2.69451
135.275,2000,0,91.24,0.000002697398,0.000002697398,0.000002697398,0.99999994,0,0,0,0,0,0,0,1,0,0,0,false,false,true,-110.81,-3703.27,17.01,-0.004701564,0.0009467866,0.98022324,0.19783601,-350.951,857.78094,8.331,0.00010999999,0,2.6881099
135.28334,2000,0,91.24,0.000002697398,0.000002697398,0.000002697398,0.99999994,0,0,0,0,0,0,0,1,0,0,0,false,false,true,-113.729996,-3696.1199,17.01,-0.004712355,0.0008928388,0.98237735,0.18684675,-352.681,850.92096,8.331,0.00010999999,0,2.6809099
135.29167,2000,0,91.24,0.000002697398,0.000002697398,0.000002697398,0.99999994,0,0,0,0,0,0,0,1,0,0,0,false,false,true,-116.67,-3689.03,17.01,-0.004723144,0.00083889085,0.98440295,0.17586295,-354.251,844.071,8.331,0.00010999999,0,2.6730099
135.3,2000,0,91.24,0.000002697398,0.000002697398,0.000002697398,0.99999994,0,0,0,0,0,0,0,1,0,0,0,false,false,true,-119.619995,-3682,17.01,-0.004733933,0.00078494276,0.9863002,0.16488981,-355.651,837.24097,8.331,0.00010999999,0,2.66431
135.30833,2000,0,91.24,0.000002697398,0.000002697398,0.000002697398,0.99999994,0,0,0,0,0,0,0,1,0,0,0,false,false,true,-122.579994,-3675.02,17.01,-0.0047447225,0.0007309948,0.9880695,0.15393299,-356.891,830.43097,8.331,0.00010999999,0,2.6549098
135.31667,2000,0,91.24,0.000002697398,0.000002697398,0.000002697398,0.99999994,0,0,0,0,0,0,0,1,0,0,0,false,false,true,-125.549995,-3668.0999,17.01,-0.0047501177,0.0006770469,0.9897121,0.14299227,-357.971,823.66095,8.331,0.00010999999,0,2.64471
135.325,2000,0,91.24,0.000002697398,0.000002697398,0.000002697398,0.99999994,0,0,0,0,0,0,0,1,0,0,0,false,false,true,-128.53,-3661.24,17.01,-0.004755513,0.0006230989,0.99122757,0.1320786,-358.891,816.941,8.331,0,0,2.63371
135.33333,2000,0,91.24,0.000002697398,0.000002697398,0.000002697398,0.99999994,0,0,0,0,0,0,0,1,0,0,0,false,false,true,-131.52,-3654.43,17.01,-0.0047609075,0.00056915096,0.9926175,0.12119182,-359.661,810.28094,8.331,0,0,2.6219099
135.34166,2000,0,91.24,0.000002697398,0.000002697398,0.000002697398,0.99999994,0,0,0,0,0,0,0,1,0,0,0,false,false,true,-134.52,-3647.68,17.01,-0.0047663017,0.00051520293,0.9938819,0.11034287,-360.281,803.68097,8.331,0,0,2.60931
135.35,2000,0,91.24,0.000002697398,0.000002697398,0.000002697398,0.99999994,0,0,0,0,0,0,0,1,0,0,0,false,false,true,-137.52,-3640.98,17.01,-0.004771697,0.00046125508,0.9950228,0.09953171,-360.751,797.16095,8.331,0,0,2.59581
135.35834,2000,0,91.24,0.000002697398,0.000002697398,0.000002697398,0.99999994,0,0,0,0,0,0,0,1,0,0,0,false,false,true,-140.53,-3634.3398,17.01,-0.004777092,0.00040730712,0.9960411,0.08876362,-361.081,790.72095,8.331,0,0,2.58151
135.36667,2000,0,91.24,0.000002697398,0.000002697398,0.000002697398,0.99999994,0,0,0,0,0,0,0,1,0,0,0,false,false,true,-143.54,-3627.75,17.01,-0.004782487,0.00035335918,0.99693835,0.07804416,-361.271,784.371,8.331,0,0,2.56631
135.375,2000,0,91.24,0.000002697398,0.000002697398,0.000002697398,0.99999994,0,0,0,0,0,0,0,1,0,0,0,false,false,true,-146.55,-3621.21,17.01,-0.0047878814,0.000304806,0.9977159,0.06737856,-361.331,778.121,8.331,0,0,2.55031
135.38333,2000,0,91.24,0.000002697398,0.000002697398,0.000002697398,0.99999994,0,0,0,0,0,0,0,1,0,0,0,false,false,true,-149.56,-3614.73,17.01,-0.004793276,0.0002562528,0.99837554,0.05677239,-361.261,771.97095,8.331,0,0,2.5334098
135.39166,2000,0,91.24,0.000002697398,0.000002697398,0.000002697398,0.99999994,0,0,0,0,0,0,0,1,0,0,0,false,false,true,-152.56999,-3608.2998,17.01,-0.004793276,0.00020769965,0.9989192,0.046230875,-361.07098,765.941,8.331,0,0,2.51561
135.4,2000,0,91.24,0.000002697398,0.000002697398,0.000002697398,0.99999994,0,0,0,0,0,0,0,1,0,0,0,false,false,true,-155.58,-3601.92,17.01,-0.004793276,0.00015914648,0.9993489,0.035759572,-360.761,760.03094,8.331,0,0,2.4969099
135.40834,2000,0,91.24,0.000002697398,0.000002697398,0.000002697398,0.99999994,0,0,0,0,0,0,0,1,0,0,0,false,false,true,-158.59,-3595.5898,17.01,-0.0047932756,0.000110593304,0.9996668,0.025358321,-360.351,754.251,8.331,0,0,2.47721
135.41667,2000,0,91.24,0.000002697398,0.000002697398,0.000002697398,0.99999994,0,0,0,0,0,0,0,1,0,0,0,false,false,true,-161.59,-3589.2998,17.01,-0.004793276,0.000062040155,0.99987537,0.015038079,-359.831,748.60095,8.331,0.00010999999,0,2.45661
135.425,2000,0,91.24,0.000002697398,0.000002697398,0.000002697398,0.99999994,0,0,0,0,0,0,0,1,0,0,0,false,false,true,-164.59,-3583.0598,17.01,-0.004793276,0.000013486991,0.99997693,0.004804066,-359.221,743.09094,8.331,0.00010999999,0,2.43501
135.43333,2000,0,91.24,0.000002697398,0.000002697398,0.000002697398,0.99999994,0,0,0,0,0,0,0,1,0,0,0,false,false,true,-167.58,-3576.8699,17.01,-0.004793276,-0.000035066172,0.9999742,-0.0053435457,-358.531,737.73096,8.331,0.00021,0,2.41241
135.44167,2000,0,91.24,0.000002697398,0.000002697398,0.000002697398,0.99999994,0,0,0,0,0,0,0,1,0,0,0,false,false,true,-170.56999,-3570.72,17.01,-0.004793276,-0.000083619336,0.99986994,-0.0153940935,-357.761,732.52094,8.331,0.00021,0,2.38881
135.45,2000,0,91.24,0.000002697398,0.000002697398,0.000002697398,0.99999994,0,0,0,0,0,0,0,1,0,0,0,false,false,true,-173.55,-3564.6199,17.01,-0.0047932756,-0.00013217248,0.99966705,-0.025347533,-356.921,727.46094,8.331,0.00021,0,2.36411
135.45833,2000,0,91.24,0.000002697398,0.000002697398,0.000002697398,0.99999994,0,0,0,0,0,0,0,1,0,0,0,false,false,true,-176.51999,-3558.5598,17.01,-0.004793276,-0.00018072566,0.99936897,-0.03519308,-356.021,722.561,8.331,0.00021,0,2.33841
135.46666,2000,0,91.24,0.000002697398,0.000002697398,0.000002697398,0.99999994,0,0,0,0,0,0,0,1,0,0,0,false,false,true,-179.48999,-3552.54,17.01,-0.0047932756,-0.00022927881,0.99897844,-0.044930723,-355.061,717.821,8.331,0.00021,0,2.3115098
135.475,2000,0,91.24,0.000002697398,0.000002697398,0.000002697398,0.99999994,0,0,0,0,0,0,0,1,0,0,0,false,false,true,-182.45,-3546.5598,17.01,-0.0047932756,-0.00027783198,0.9984994,-0.054549683,-354.031,713.21094,8.331,0.00021,0,2.28511
135.48334,2000,0,91.24,0.000002697398,0.000002697398,0.000002697398,0.99999994,0,0,0,0,0,0,0,1,0,0,0,false,false,true,-185.4,-3540.6199,17.01,-0.0047878814,-0.00032638517,0.99793476,-0.06405536,-352.931,708.701,8.331,0.00021,0,2.26001
135.49167,2000,0,91.24,0.000002697398,0.000002697398,0.000002697398,0.99999994,0,0,0,0,0,0,0,1,0,0,0,false,false,true,-188.34,-3534.71,17.01,-0.004782487,-0.00037493836,0.9972875,-0.07344775,-351.761,704.30096,8.331,0.00010999999,0,2.23601
135.5,2000,0,91.24,0.000002697398,0.000002697398,0.000002697398,0.99999994,0,0,0,0,0,0,0,1,0,0,0,false,false,true,-191.26999,-3528.8398,17.01,-0.004777092,-0.0004180967,0.99655974,-0.08273759,-350.531,700.011,8.331,0,0,2.21311
135.50833,2000,0,91.24,0.000002697398,0.000002697398,0.000002697398,0.99999994,0,0,0,0,0,0,0,1,0,0,0,false,false,true,-194.19,-3523.01,17.01,-0.0047716973,-0.0004612551,0.99575436,-0.09192497,-349.251,695.84094,8.331,0,0,2.19131
135.51666,2000,0,91.24,0.000002697398,0.000002697398,0.000002697398,0.99999994,0,0,0,0,0,0,0,1,0,0,0,false,false,true,-197.09999,-3517.21,17.01,-0.004766302,-0.00050441345,0.9948733,-0.10101524,-347.921,691.79095,8.331,0,0,2.17051
135.525,2000,0,91.24,0.000002697398,0.000002697398,0.000002697398,0.99999994,0,0,0,0,0,0,0,1,0,0,0,false,false,true,-200,-3511.45,17.01,-0.0047609075,-0.0005475718,0.9939191,-0.1100084,-346.551,687.871,8.331,0,0,2.15061
135.53334,2000,0,91.24,0.000002697398,0.000002697398,0.000002697398,0.99999994,0,0,0,0,0,0,0,1,0,0,0,false,false,true,-202.89,-3505.72,17.01,-0.004755513,-0.00059073017,0.99289346,-0.118909866,-345.121,684.04095,8.331,0,0,2.13251
135.54167,2000,0,91.24,0.000002697398,0.000002697398,0.000002697398,0.99999994,0,0,0,0,0,0,0,1,0,0,0,false,false,true,-205.76999,-3500.02,17.01,-0.0047501177,-0.0006338885,0.991798,-0.12772499,-343.611,680.261,8.331,0,0,2.1175098
135.55,2000,0,91.24,0.000002697398,0.000002697398,0.000002697398,0.99999994,0,0,0,0,0,0,0,1,0,0,0,false,false,true,-208.62999,-3494.3499,17.01,-0.0047447234,-0.00067704695,0.9906326,-0.13646998,-342.011,676.54095,8.331,0,0,2.10551
135.55833,2000,0,91.24,0.000002697398,0.000002697398,0.000002697398,0.99999994,0,0,0,0,0,0,0,1,0,0,0,false,false,true,-211.48,-3488.71,17.01,-0.0047393288,-0.0007202053,0.98939717,-0.14515564,-340.331,672.881,8.331,0,0,2.09631
135.56667,2000,0,91.24,0.000002697398,0.000002697398,0.000002697398,0.99999994,0,0,0,0,0,0,0,1,0,0,0,false,false,true,-214.31999,-3483.0999,17.01,-0.004733934,-0.0007633637,0.98809147,-0.15379275,-338.581,669.29095,8.331,-0.00010999999,0,2.08991
135.575,2000,0,91.24,0.000002697398,0.000002697398,0.000002697398,0.99999994,0,0,0,0,0,0,0,1,0,0,0,false,false,true,-217.14,-3477.52,17.01,-0.0047285384,-0.00080652203,0.9867146,-0.16239208,-336.761,665.78094,8.331,-0.00021,0,2.08631
135.58333,2000,0,91.24,0.000002697398,0.000002697398,0.000002697398,0.99999994,0,0,0,0,0,0,0,1,0,0,0,false,false,true,-219.95,-3471.97,17.01,-0.004723144,-0.00084428565,0.9852655,-0.17096443,-334.881,662.35095,8.331,-0.00030999997,0,2.0854099
135.59166,2000,0,91.24,0.000002697398,0.000002697398,0.000002697398,0.99999994,0,0,0,0,0,0,0,1,0,0,0,false,false,true,-222.73999,-3466.45,17.01,-0.004717749,-0.00088204915,0.9837425,-0.1795206,-332.941,659.011,8.331,-0.00030999997,0,2.08711
135.6,2000,0,91.24,0.000002697398,0.000002697398,0.000002697398,0.99999994,0,0,0,0,0,0,0,1,0,0,0,false,false,true,-225.51,-3460.96,17.01,-0.0047069592,-0.00091981265,0.98214453,-0.18806599,-330.951,655.761,8.331,-0.00030999997,0,2.09141
135.60834,2000,0,91.24,0.000002697398,0.000002697398,0.000002697398,0.99999994,0,0,0,0,0,0,0,1,0,0,0,false,false,true,-228.26999,-3455.5,17.01,-0.00469617,-0.0009575763,0.98046863,-0.1966168,-328.911,652.61096,8.331,-0.00030999997,-0.00010999999,2.09831
135.61667,2000,0,91.24,0.000002697398,0.000002697398,0.000002697398,0.99999994,0,0,0,0,0,0,0,1,0,0,0,false,false,true,-231.01,-3450.0598,17.01,-0.004685381,-0.00099534,0.9787117,-0.20518379,-326.801,649.511,8.331,-0.00030999997,-0.00021,2.10641
135.625,2000,0,91.24,0.000002697398,0.000002697398,0.000002697398,0.99999994,0,0,0,0,0,0,0,1,0,0,0,false,false,true,-233.73,-3444.65,17.01,-0.004674591,-0.0010331036,0.9768729,-0.21376692,-324.621,646.42096,8.331,-0.00030999997,-0.00021,2.11511
135.63333,2000,0,91.24,0.000002697398,0.000002697398,0.000002697398,0.99999994,0,0,0,0,0,0,0,1,0,0,0,false,false,true,-236.43999,-3439.26,17.01,-0.0046638013,-0.001070867,0.9749514,-0.22236624,-322.361,643.35095,8.331,-0.00021,-0.00021,2.12431
135.64166,2000,0,91.24,0.000002697398,0.000002697398,0.000002697398,0.99999994,0,0,0,0,0,0,0,1,0,0,0,false,false,true,-239.12999,-3433.9,17.01,-0.0046530114,-0.0011086306,0.972945,-0.23098718,-320.031,640.311,8.331,-0.00021,-0.00030999997,2.13401
135.65,2000,0,91.24,0.000002697398,0.000002697398,0.000002697398,0.99999994,0,0,0,0,0,0,0,1,0,0,0,false,false,true,-241.79999,-3428.5598,17.01,-0.0046422225,-0.0011463943,0.97085255,-0.2396297,-317.631,637.30096,8.331,-0.00010999999,-0.00030999997,2.1442099
135.65834,2000,0,91.24,0.000002697398,0.000002697398,0.000002697398,0.99999994,0,0,0,0,0,0,0,1,0,0,0,false,false,true,-244.45,-3423.25,17.01,-0.0046314322,-0.0011895525,0.96867293,-0.24829373,-315.181,634.33093,8.331,0,-0.00030999997,2.15481
135.66667,2000,0,91.24,0.000002697398,0.000002697398,0.000002697398,0.99999994,0,0,0,0,0,0,0,1,0,0,0,false,false,true,-247.08,-3417.96,17.01,-0.004620643,-0.0012327109,0.966405,-0.25697938,-312.681,631.41095,8.331,0,-0.00030999997,2.1658099
135.675,2000,0,91.24,0.000002697398,0.000002697398,0.000002697398,0.99999994,0,0,0,0,0,0,0,1,0,0,0,false,false,true,-249.68999,-3412.7,17.01,-0.004609853,-0.0012758692,0.964046,-0.26569203,-310.131,628.54095,8.331,0,-0.00030999997,2.17731
135.68333,2000,0,91.24,0.000002697398,0.000002697398,0.000002697398,0.99999994,0,0,0,0,0,0,0,1,0,0,0,false,false,true,-252.26999,-3407.46,17.01,-0.0045990637,-0.0013190276,0.9615962,-0.27442622,-307.531,625.73096,8.331,0,-0.00030999997,2.18921
135.69167,2000,0,91.24,0.000002697398,0.000002697398,0.000002697398,0.99999994,0,0,0,0,0,0,0,1,0,0,0,false,false,true,-254.83,-3402.25,17.01,-0.0045882743,-0.0013621862,0.9590526,-0.28318745,-304.881,622.96094,8.331,0,-0.00030999997,2.20111
135.7,2000,0,91.24,0.000002697398,0.000002697398,0.000002697398,0.99999994,0,0,0,0,0,0,0,1,0,0,0,false,false,true,-257.37,-3397.0598,17.01,-0.0045774844,-0.0014053443,0.95641536,-0.29197016,-302.141,620.17096,8.331,0,-0.00030999997,2.21151
135.70833,2000,0,91.24,0.000002697398,0.000002697398,0.000002697398,0.99999994,0,0,0,0,0,0,0,1,0,0,0,false,false,true,-259.88998,-3391.89,17.01,-0.0045666946,-0.0014485028,0.95368487,-0.30076912,-299.311,617.371,8.331,0,-0.00030999997,2.22051
135.71666,2000,0,91.24,0.000002697398,0.000002697398,0.000002697398,0.99999994,0,0,0,0,0,0,0,1,0,0,0,false,false,true,-262.38,-3386.74,17.01,-0.004555905,-0.001491661,0.9508615,-0.30957884,-296.391,614.571,8.331,0,-0.00030999997,2.22811
135.725,2000,0,91.24,0.000002697398,0.000002697398,0.000002697398,0.99999994,0,0,0,0,0,0,0,1,0,0,0,false,false,true,-264.85,-3381.6199,17.01,-0.004545116,-0.0015348196,0.9479463,-0.31839404,-293.391,611.77094,8.331,0,-0.00021,2.23431
135.73334,2000,0,91.24,0.000002697398,0.000002697398,0.000002697398,0.99999994,0,0,0,0,0,0,0,1,0,0,0,false,false,true,-267.29,-3376.52,17.01,-0.0045289313,-0.0015779779,0.9449416,-0.32720372,-290.311,608.98096,8.331,0,-0.00010999999,2.23911
135.74167,2000,0,91.24,0.000002697398,0.000002697398,0.000002697398,0.99999994,0,0,0,0,0,0,0,1,0,0,0,false,false,true,-269.71,-3371.44,17.01,-0.004512747,-0.0016211362,0.94184875,-0.33600265,-287.151,606.21094,8.331,0,-0.00010999999,2.2425098
135.75,2000,0,91.24,0.000002697398,0.000002697398,0.000002697398,0.99999994,0,0,0,0,0,0,0,1,0,0,0,false,false,true,-272.1,-3366.39,17.01,-0.0044965623,-0.0016642946,0.93866724,-0.34479082,-283.921,603.46094,8.331,0,-0.00010999999,2.24461
135.75833,2000,0,91.24,0.000002697398,0.000002697398,0.000002697398,0.99999994,0,0,0,0,0,0,0,1,0,0,0,false,false,true,-274.47,-3361.3599,17.01,-0.0044803782,-0.0017074529,0.9354025,-0.353552,-280.621,600.74097,8.331,0,-0.00010999999,2.24541
135.76666,2000,0,91.24,0.000002697398,0.000002697398,0.000002697398,0.99999994,0,0,0,0,0,0,0,1,0,0,0,false,false,true,-276.81,-3356.3499,17.01,-0.0044641937,-0.0017506114,0.9320545,-0.3622862,-277.261,598.05096,8.331,0,-0.00010999999,2.24491
135.775,2000,0,91.24,0.000002697398,0.000002697398,0.000002697398,0.99999994,0,0,0,0,0,0,0,1,0,0,0,false,false,true,-279.12,-3351.3699,17.01,-0.004448009,-0.0017937698,0.92862517,-0.37098807,-273.841,595.40094,8.331,0,-0.00010999999,2.24311
135.78334,2000,0,91.24,0.000002697398,0.000002697398,0.000002697398,0.99999994,0,0,0,0,0,0,0,1,0,0,0,false,false,true,-281.4,-3346.41,17.01,-0.004431825,-0.0018369282,0.92511684,-0.37965214,-270.361,592.79095,8.331,0,-0.00010999999,2.24001
135.79167,2000,0,91.24,0.000002697398,0.000002697398,0.000002697398,0.99999994,0,0,0,0,0,0,0,1,0,0,0,false,false,true,-283.65,-3341.47,17.01,-0.0044156406,-0.0018800865,0.9215341,-0.38826764,-266.831,590.23096,8.331,0,-0.00010999999,2.23561
135.8,2000,0,91.24,0.000002697398,0.000002697398,0.000002697398,0.99999994,0,0,0,0,0,0,0,1,0,0,0,false,false,true,-285.87,-3336.5498,17.01,-0.004399456,-0.0019232448,0.9178775,-0.39683464,-263.261,587.73096,8.331,0,-0.00010999999,2.23001
135.80833,2000,0,91.24,0.000002697398,0.000002697398,0.000002697398,0.99999994,0,0,0,0,0,0,0,1,0,0,0,false,false,true,-288.06,-3331.65,17.01,-0.0043832716,-0.001966403,0.91414994,-0.40534762,-259.651,585.28094,8.331,0,-0.00010999999,2.2232099
135.81667,2000,0,91.24,0.000002697398,0.000002697398,0.000002697398,0.99999994,0,0,0,0,0,0,0,1,0,0,0,false,false,true,-290.22,-3326.77,17.01,-0.0043670875,-0.0020041666,0.91035694,-0.41379595,-256.001,582.891,8.331,-0.00010999999,0,2.21521
135.825,2000,0,91.24,0.000002697398,0.000002697398,0.000002697398,0.99999994,0,0,0,0,0,0,0,1,0,0,0,false,false,true,-292.35,-3321.91,17.01,-0.0043455088,-0.0020419306,0.9064995,-0.4221795,-252.33101,580.571,8.331,-0.00010999999,0,2.2060099
135.83333,2000,0,91.24,0.000002697398,0.000002697398,0.000002697398,0.99999994,0,0,0,0,0,0,0,1,0,0,0,false,false,true,-294.44998,-3317.0698,17.01,-0.004323929,-0.0020796938,0.90258116,-0.43049288,-248.631,578.311,8.331,-0.00010999999,0,2.19561
135.84166,2000,0,91.24,0.000002697398,0.000002697398,0.000002697398,0.99999994,0,0,0,0,0,0,0,1,0,0,0,false,false,true,-296.52,-3312.25,17.01,-0.0043023503,-0.0021174576,0.8986057,-0.4387308,-244.921,576.121,8.331,0,0,2.18401
135.85,2000,0,91.24,0.000002697398,0.000002697398,0.000002697398,0.99999994,0,0,0,0,0,0,0,1,0,0,0,false,false,true,-298.56,-3307.45,17.01,-0.0042807707,-0.002155221,0.89457715,-0.44688773,-241.201,574.001,8.331,0,0,2.17131
135.85834,2000,0,91.24,0.000002697398,0.000002697398,0.000002697398,0.99999994,0,0,0,0,0,0,0,1,0,0,0,false,false,true,-300.57,-3302.67,17.01,-0.0042591915,-0.0021929846,0.89049697,-0.45496377,-237.47101,571.951,8.331,0,0,2.15751
135.86667,2000,0,91.24,0.000002697398,0.000002697398,0.000002697398,0.99999994,0,0,0,0,0,0,0,1,0,0,0,false,false,true,-302.55,-3297.9,17.01,-0.0042376122,-0.002230748,0.8863724,-0.4629481,-233.741,569.98096,8.331,0,0,2.14261
135.875,2000,0,91.24,0.000002697398,0.000002697398,0.000002697398,0.99999994,0,0,0,0,0,0,0,1,0,0,0,false,false,true,-304.5,-3293.15,17.01,-0.004216033,-0.0022685118,0.8822052,-0.4708407,-230.021,568.081,8.331,0,0,2.12661
135.88333,2000,0,91.24,0.000002697398,0.000002697398,0.000002697398,0.99999994,0,0,0,0,0,0,0,1,0,0,0,false,false,true,-306.41998,-3288.42,17.01,-0.004194454,-0.0023062753,0.8779972,-0.47864166,-226.311,566.261,8.331,0.00010999999,0,2.10951
135.89166,2000,0,91.24,0.000002697398,0.000002697398,0.000002697398,0.99999994,0,0,0,0,0,0,0,1,0,0,0,false,false,true,-308.31,-3283.7,17.01,-0.0041728746,-0.0023440388,0.87375647,-0.48634005,-222.621,564.511,8.331,0.00010999999,0,2.09131
135.9,2000,0,91.24,0.000002697398,0.000002697398,0.000002697398,0.99999994,0,0,0,0,0,0,0,1,0,0,0,false,false,true,-310.16998,-3279,17.01,-0.0041512954,-0.0023818025,0.8694851,-0.4939359,-218.951,562.84094,8.331,0.00010999999,0,2.07211
135.90834,2000,0,91.24,0.000002697398,0.000002697398,0.000002697398,0.99999994,0,0,0,0,0,0,0,1,0,0,0,false,false,true,-311.99,-3274.3098,17.01,-0.004129716,-0.002419566,0.8651884,-0.50142395,-215.311,561.24097,8.331,0.00010999999,0,2.05191
135.91667,2000,0,91.24,0.000002697398,0.000002697398,0.000002697398,0.99999994,0,0,0,0,0,0,0,1,0,0,0,false,false,true,-313.78,-3269.63,17.01,-0.004108137,-0.0024573295,0.860869,-0.508804,-211.711,559.72095,8.331,0.00010999999,0,2.03071
135.925,2000,0,91.24,0.000002697398,0.000002697398,0.000002697398,0.99999994,0,0,0,0,0,0,0,1,0,0,0,false,false,true,-315.53998,-3264.97,17.01,-0.004086558,-0.0024896984,0.8565325,-0.5160708,-208.141,558.27094,8.331,0.00010999999,0,2.0085099
135.93333,2000,0,91.24,0.000002697398,0.000002697398,0.000002697398,0.99999994,0,0,0,0,0,0,0,1,0,0,0,false,false,true,-317.27,-3260.3198,17.01,-0.0040649786,-0.0025220672,0.8521848,-0.523219,-204.621,556.90094,8.331,0.00010999999,0,1.98531
135.94167,2000,0,91.24,0.000002697398,0.000002697398,0.000002697398,0.99999994,0,0,0,0,0,0,0,1,0,0,0,false,false,true,-318.97998,-3255.68,17.01,-0.004043399,-0.0025544357,0.8478287,-0.53024834,-201.151,555.60095,8.331,0.00021,0,1.96121
135.95,2000,0,91.24,0.000002697398,0.000002697398,0.000002697398,0.99999994,0,0,0,0,0,0,0,1,0,0,0,false,false,true,-320.66,-3251.05,17.01,-0.00402182,-0.0025868048,0.8434673,-0.53715914,-197.731,554.371,8.331,0.00021,0,1.93611
135.95833,2000,0,91.24,0.000002697398,0.000002697398,0.000002697398,0.99999994,0,0,0,0,0,0,0,1,0,0,0,false,false,true,-322.31,-3246.43,17.01,-0.004000241,-0.0026191734,0.8391066,-0.54394585,-194.371,553.21094,8.321,0.00021,0,1.91011
135.96666,2000,0,91.24,0.000002697398,0.000002697398,0.000002697398,0.99999994,0,0,0,0,0,0,0,1,0,0,0,false,false,true,-323.93,-3241.8198,17.01,-0.003978662,-0.0026515422,0.8347498,-0.55060846,-191.071,552.11096,8.321,0.00030999997,0,1.88321
135.975,2000,0,91.24,0.000002697398,0.000002697398,0.000002697398,0.99999994,0,0,0,0,0,0,0,1,0,0,0,false,false,true,-325.52,-3237.22,17.01,-0.003957083,-0.002683911,0.8304036,-0.55714154,-187.83101,551.081,8.321,0.00030999997,0,1.85551
135.98334,2000,0,91.24,0.000002697398,0.000002697398,0.000002697398,0.99999994,0,0,0,0,0,0,0,1,0,0,0,false,false,true,-327.09,-3232.63,17.01,-0.003935504,-0.0027162798,0.82607126,-0.5635452,-184.661,550.11096,8.321,0.00030999997,0,1.82691
135.99167,2000,0,91.24,0.000002697398,0.000002697398,0.000002697398,0.99999994,0,0,0,0,0,0,0,1,0,0,0,false,false,true,-328.63,-3228.05,17.01,-0.0039139246,-0.0027486486,0.8217559,-0.56981945,-181.561,549.201,8.321,0.00030999997,0,1.7975099
136,2000,0,91.24,0.000002697398,0.000002697398,0.000002697398,0.99999994,0,0,0,0,0,0,0,1,0,0,0,false,false,true,-330.13998,-3223.47,17.01,-0.0038923456,-0.0027810177,0.8174647,-0.5759588,-178.531,548.35095,8.321,0.00030999997,0,1.76731
136.00833,2000,0,91.24,0.000002697398,0.000002697398,0.000002697398,0.99999994,0,0,0,0,0,0,0,1,0,0,0,false,false,true,-331.63,-3218.9,17.01,-0.0038707664,-0.0028079913,0.813201,-0.5819631,-175.58101,547.55096,8.321,0.00030999997,0,1.73631
136.01666,2000,0,91.24,0.000002697398,0.000002697398,0.000002697398,0.99999994,0,0,0,0,0,0,0,1,0,0,0,false,false,true,-333.09,-3214.3398,17.01,-0.0038491872,-0.0028349652,0.8089683,-0.5878327,-172.711,546.80096,8.321,0.00030999997,0,1.70461
136.025,2000,0,91.24,0.000002697398,0.000002697398,0.000002697398,0.99999994,0,0,0,0,0,0,0,1,0,0,0,false,false,true,-334.53,-3209.78,17.01,-0.0038276082,-0.0028619396,0.804774,-0.59356207,-169.921,546.10095,8.321,0.00030999997,0,1.67211
136.03334,2000,0,91.24,0.000002697398,0.000002697398,0.000002697398,0.99999994,0,0,0,0,0,0,0,1,0,0,0,false,false,true,-335.94998,-3205.23,17.01,-0.0038060287,-0.0028889133,0.80061764,-0.59915644,-167.211,545.451,8.321,0.00030999997,0,1.6389099
136.04167,2000,0,91.24,0.000002697398,0.000002697398,0.000002697398,0.99999994,0,0,0,0,0,0,0,1,0,0,0,false,false,true,-337.34,-3200.68,17.01,-0.0037844495,-0.0029158874,0.79650676,-0.60461056,-164.591,544.84094,8.321,0.00030999997,0,1.6050099
136.05,2000,0,91.24,0.000002697398,0.000002697398,0.000002697398,0.99999994,0,0,0,0,0,0,0,1,0,0,0,false,false,true,-338.71,-3196.14,17.01,-0.0037682652,-0.0029428613,0.792445,-0.6099245,-162.05101,544.27094,8.321,0.00030999997,0,1.57051
136.05833,2000,0,91.24,0.000002697398,0.000002697398,0.000002697398,0.99999994,0,0,0,0,0,0,0,1,0,0,0,false,false,true,-340.06,-3191.5999,17.01,-0.0037520807,-0.0029698352,0.788436,-0.6150981,-159.601,543.74097,8.321,0.00030999997,0,1.5354099
136.06667,2000,0,91.24,0.000002697398,0.000002697398,0.000002697398,0.99999994,0,0,0,0,0,0,0,1,0,0,0,false,false,true,-341.38998,-3187.0698,17.01,-0.0037358964,-0.0029968093,0.78448313,-0.6201315,-157.231,543.251,8.321,0.00030999997,0,1.49971
136.075,2000,0,91.24,0.000002697398,0.000002697398,0.000002697398,0.99999994,0,0,0,0,0,0,0,1,0,0,0,false,false,true,-342.69998,-3182.54,17.01,-0.0037197114,-0.003023783,0.7805945,-0.62501913,-154.951,542.79095,8.321,0.00021,0,1.46341
136.08333,2000,0,91.24,0.000002697398,0.000002697398,0.000002697398,0.99999994,0,0,0,0,0,0,0,1,0,0,0,false,false,true,-343.99,-3178.02,17.01,-0.0037035276,-0.0030453624,0.7767695,-0.6297666,-152.761,542.36096,8.321,0.00010999999,0,1.42661
136.09166,2000,0,91.24,0.000002697398,0.000002697398,0.000002697398,0.99999994,0,0,0,0,0,0,0,1,0,0,0,false,false,true,-345.25998,-3173.5,17.01,-0.003687343,-0.0030669416,0.77301145,-0.6343738,-150.66101,541.96094,8.321,0.00010999999,0,1.38921
136.1,2000,0,91.24,0.000002697398,0.000002697398,0.000002697398,0.99999994,0,0,0,0,0,0,0,1,0,0,0,false,false,true,-346.52,-3168.98,17.01,-0.0036711588,-0.0030885208,0.7693285,-0.6388353,-148.641,541.581,8.321,0,0,1.35141
136.10834,2000,0,91.24,0.000002697398,0.000002697398,0.000002697398,0.99999994,0,0,0,0,0,0,0,1,0,0,0,false,false,true,-347.75998,-3164.47,17.01,-0.0036549745,-0.0031101,0.7657196,-0.6431565,-146.711,541.22095,8.321,0,0.00010999999,1.31321
136.11667,2000,0,91.24,0.000002697398,0.000002697398,0.000002697398,0.99999994,0,0,0,0,0,0,0,1,0,0,0,false,false,true,-348.97998,-3159.96,17.01,-0.00363879,-0.0031316793,0.7621882,-0.64733756,-144.86101,540.881,8.321,0,0.00010999999,1.2746099
136.125,2000,0,91.24,0.000002697398,0.000002697398,0.000002697398,0.99999994,0,0,0,0,0,0,0,1,0,0,0,false,false,true,-350.19,-3155.45,17.01,-0.0036226057,-0.0031532582,0.75873786,-0.6513783,-143.091,540.561,8.321,0,0.00010999999,1.23571
136.13333,2000,0,91.24,0.000002697398,0.000002697398,0.000002697398,0.99999994,0,0,0,0,0,0,0,1,0,0,0,false,false,true,-351.38,-3150.95,17.01,-0.0036064212,-0.0031748374,0.7553718,-0.6552787,-141.401,540.261,8.321,0,0.00010999999,1.19661
136.14166,2000,0,91.24,0.000002697398,0.000002697398,0.000002697398,0.99999994,0,0,0,0,0,0,0,1,0,0,0,false,false,true,-352.56,-3146.45,17.01,-0.003590237,-0.003191022,0.75209343,-0.6590389,-139.791,539.97095,8.321,0,0.00010999999,1.15731
136.15,2000,0,91.24,0.000002697398,0.000002697398,0.000002697398,0.99999994,0,0,0,0,0,0,0,1,0,0,0,false,false,true,-353.72,-3141.95,17.01,-0.0035740524,-0.0032072063,0.7489059,-0.6626588,-138.251,539.701,8.311,0,0.00010999999,1.11791
136.15834,2000,0,91.24,0.000002697398,0.000002697398,0.000002697398,0.99999994,0,0,0,0,0,0,0,1,0,0,0,false,false,true,-354.87,-3137.45,17.01,-0.003557868,-0.0032233908,0.74581254,-0.66613847,-136.781,539.441,8.311,0,0.00010999999,1.0785099
136.16667,2000,0,91.24,0.000002697398,0.000002697398,0.000002697398,0.99999994,0,0,0,0,0,0,0,1,0,0,0,false,false,true,-356.00998,-3132.95,17.01,-0.0035416838,-0.003239575,0.74281156,-0.66948324,-135.381,539.191,8.311,0,0.00010999999,1.03911
136.175,2000,0,91.24,0.000002697398,0.000002697398,0.000002697398,0.99999994,0,0,0,0,0,0,0,1,0,0,0,false,false,true,-357.13998,-3128.46,17.01,-0.0035254995,-0.0032557596,0.7399059,-0.67269325,-134.05101,538.951,8.311,0,0.00010999999,0.99970996
136.18333,2000,0,91.24,0.000002697398,0.000002697398,0.000002697398,0.99999994,0,0,0,0,0,0,0,1,0,0,0,false,false,true,-358.25998,-3123.97,17.01,-0.003509315,-0.003271944,0.73709846,-0.6757682,-132.781,538.72095,8.311,0,0.00010999999,0.96041
136.19167,2000,0,91.24,0.000002697398,0.000002697398,0.000002697398,0.99999994,0,0,0,0,0,0,0,1,0,0,0,false,false,true,-359.37,-3119.48,17.01,-0.003498525,-0.0032881277,0.73438704,-0.67871374,-131.571,538.49097,8.311,0,0.00010999999,0.92121
136.2,2000,0,91.24,0.000002697398,0.000002697398,0.000002697398,0.99999994,0,0,0,0,0,0,0,1,0,0,0,false,false,true,-360.47,-3114.99,17.01,-0.0034877358,-0.0033043127,0.7317744,-0.6815299,-130.421,538.27094,8.311,0,0.00010999999,0.88211
136.20833,2000,0,91.24,0.000002697398,0.000002697398,0.000002697398,0.99999994,0,0,0,0,0,0,0,1,0,0,0,false,false,true,-361.56,-3110.5,17.01,-0.0034769461,-0.0033151023,0.729263,-0.6842165,-129.33101,538.05096,8.311,0,0.00010999999,0.84321
136.21666,2000,0,91.24,0.000002697398,0.000002697398,0.000002697398,0.99999994,0,0,0,0,0,0,0,1,0,0,0,false,false,true,-362.63998,-3106.02,17.01,-0.0034661565,-0.003325892,0.72685534,-0.68677366,-128.30101,537.84094,8.311,0,0.00010999999,0.80451
136.225,2000,0,91.24,0.000002697398,0.000002697398,0.000002697398,0.99999994,0,0,0,0,0,0,0,1,0,0,0,false,false,true,-363.71,-3101.54,17.01,-0.003455367,-0.0033366815,0.72454876,-0.6892067,-127.321,537.631,8.311,0,0.00010999999,0.76601
136.23334,2000,0,91.24,0.000002697398,0.000002697398,0.000002697398,0.99999994,0,0,0,0,0,0,0,1,0,0,0,false,false,true,-364.77,-3097.0598,17.01,-0.0034445773,-0.003347471,0.72234535,-0.6915157,-126.391,537.43097,8.311,0,0.00010999999,0.72771
136.24167,2000,0,91.24,0.000002697398,0.000002697398,0.000002697398,0.99999994,0,0,0,0,0,0,0,1,0,0,0,false,false,true,-365.81998,-3092.5798,17.01,-0.0034337877,-0.0033582605,0.7202473,-0.6937006,-125.510994,537.23096,8.311,0,0.00010999999,0.68971
136.25,2000,0,91.24,0.000002697398,0.000002697398,0.000002697398,0.99999994,0,0,0,0,0,0,0,1,0,0,0,false,false,true,-366.87,-3088.0999,17.01,-0.0034229981,-0.00336905,0.7182516,-0.6957668,-124.671,537.03094,8.311,0,0.00010999999,0.65201
136.25833,2000,0,91.24,0.000002697398,0.000002697398,0.000002697398,0.99999994,0,0,0,0,0,0,0,1,0,0,0,false,false,true,-367.91,-3083.6199,17.01,-0.0034122085,-0.0033798397,0.71635985,-0.6977143,-123.870995,536.831,8.311,0,0.00010999999,0.61461
136.26666,2000,0,91.24,0.000002697398,0.000002697398,0.000002697398,0.99999994,0,0,0,0,0,0,0,1,0,0,0,false,false,true,-368.94,-3079.15,17.01,-0.003401419,-0.0033906293,0.7145688,-0.69954854,-123.120995,536.631,8.311,0,0,0.57751
136.275,2000,0,91.24,0.000002697398,0.000002697398,0.000002697398,0.99999994,0,0,0,0,0,0,0,1,0,0,0,false,false,true,-369.97,-3074.68,17.01,-0.0033906293,-0.003401419,0.7128853,-0.7012641,-122.40099,536.43097,8.311,0,0,0.54071
136.28334,2000,0,91.24,0.000002697398,0.000002697398,0.000002697398,0.99999994,0,0,0,0,0,0,0,1,0,0,0,false,false,true,-370.99,-3070.21,17.01,-0.0033852346,-0.0034068138,0.71130556,-0.7028664,-121.72099,536.24097,8.311,0,0,0.50431
136.29167,2000,0,91.24,0.000002697398,0.000002697398,0.000002697398,0.99999994,0,0,0,0,0,0,0,1,0,0,0,false,false,true,-372,-3065.74,17.01,-0.00337984,-0.0034122088,0.7098258,-0.70436084,-121.071,536.05096,8.311,0,0,0.46821
136.3,2000,0,91.24,0.000002697398,0.000002697398,0.000002697398,0.99999994,0,0,0,0,0,0,0,1,0,0,0,false,false,true,-373.00998,-3061.27,17.01,-0.003374445,-0.0034176034,0.7084527,-0.7057418,-120.461,535.86096,8.311,0,0,0.43251
136.30833,2000,0,91.24,0.000002697398,0.000002697398,0.000002697398,0.99999994,0,0,0,0,0,0,0,1,0,0,0,false,false,true,-374.00998,-3056.8,17.01,-0.00336905,-0.0034229981,0.70718217,-0.707015,-119.881,535.67096,8.311,0,0,0.39711002
136.31667,2000,0,91.24,0.000002697398,0.000002697398,0.000002697398,0.99999994,0,0,0,0,0,0,0,1,0,0,0,false,false,true,-375.00998,-3052.3398,17.01,0.0033636556,0.0034283933,-0.70601165,0.7081839,-119.321,535.48096,8.311,0,0,0.36211002
136.325,2000,0,91.24,0.000002697398,0.000002697398,0.000002697398,0.99999994,0,0,0,0,0,0,0,1,0,0,0,false,false,true,-376,-3047.88,17.01,0.0033582605,0.0034337877,-0.7049434,0.7092472,-118.791,535.29095,8.311,0,0,0.32751
136.33333,2000,0,91.24,0.000002697398,0.000002697398,0.000002697398,0.99999994,0,0,0,0,0,0,0,1,0,0,0,false,false,true,-376.99,-3043.42,17.01,0.0033528658,0.0034391826,-0.70397234,0.71021104,-118.281,535.10095,8.311,0,0,0.29321
136.34166,2000,0,91.24,0.000002697398,0.000002697398,0.000002697398,0.99999994,0,0,0,0,0,0,0,1,0,0,0,false,false,true,-377.97998,-3038.96,17.01,0.003347471,0.0034445773,-0.7031038,0.7110709,-117.791,534.91095,8.311,0,0,0.25931
136.35,2000,0,91.24,0.000002697398,0.000002697398,0.000002697398,0.99999994,0,0,0,0,0,0,0,1,0,0,0,false,false,true,-378.96,-3034.5,17.01,0.0033420762,0.0034499723,-0.7023377,0.7118276,-117.321,534.72095,8.311,0,0,0.22580999
136.35834,2000,0,91.24,0.000002697398,0.000002697398,0.000002697398,0.99999994,0,0,0,0,0,0,0,1,0,0,0,false,false,true,-379.94,-3030.04,17.01,0.0033366815,0.003455367,-0.70166874,0.71248704,-116.870995,534.53094,8.311,0,0,0.19271
136.36667,2000,0,91.24,0.000002697398,0.000002697398,0.000002697398,0.99999994,0,0,0,0,0,0,0,1,0,0,0,false,false,true,-380.91,-3025.5898,17.01,0.0033312861,0.0034607612,-0.70109683,0.7130497,-116.440994,534.34094,8.311,0,0,0.16001
136.375,2000,0,91.24,0.000002697398,0.000002697398,0.000002697398,0.99999994,0,0,0,0,0,0,0,1,0,0,0,false,false,true,-381.88,-3021.14,17.01,0.0033312866,0.0034607616,-0.70062214,0.7135162,-116.020996,534.15094,8.311,0,-0.00010999999,0.12771
136.38333,2000,0,91.24,0.000002697398,0.000002697398,0.000002697398,0.99999994,0,0,0,0,0,0,0,1,0,0,0,false,false,true,-382.85,-3016.69,17.01,0.0033312866,0.0034607616,-0.7002445,0.71388686,-115.611,533.97095,8.311,0,-0.00010999999,0.095709994
136.39166,2000,0,91.24,0.000002697398,0.000002697398,0.000002697398,0.99999994,0,0,0,0,0,0,0,1,0,0,0,false,false,true,-383.81,-3012.24,17.01,0.0033312866,0.0034607616,-0.69995856,0.7141672,-115.211,533.79095,8.311,0,-0.00010999999,0.064109996
136.4,2000,0,91.24,0.000002697398,0.000002697398,0.000002697398,0.99999994,0,0,0,0,0,0,0,1,0,0,0,false,false,true,-384.77,-3007.79,17.01,0.0033312866,0.0034607616,-0.69976974,0.71435225,-114.821,533.61096,8.311,0,-0.00010999999,0.032909997
136.40834,2000,0,91.24,0.000002697398,0.000002697398,0.000002697398,0.99999994,0,0,0,0,0,0,0,1,0,0,0,false,false,true,-385.72998,-3003.3398,17.01,0.0033312866,0.0034607616,-0.69967264,0.7144473,-114.440994,533.43097,8.311,0,-0.00010999999,0.00211
136.41667,2000,0,91.24,0.000002697398,0.000002697398,0.000002697398,0.99999994,0,0,0,0,0,0,0,1,0,0,0,false,false,true,-386.68,-2998.89,17.01,0.0033312866,0.0034607616,-0.6996672,0.7144526,-114.061,533.251,8.311,0,-0.00010999999,-0.02821
136.425,2000,0,91.24,0.000002697398,0.000002697398,0.000002697398,0.99999994,0,0,0,0,0,0,0,1,0,0,0,false,false,true,-387.63,-2994.45,17.01,0.0033312868,0.0034607619,-0.69975364,0.71436805,-113.681,533.081,8.311,0,-0.00010999999,-0.05811
136.43333,2000,0,91.24,0.000002697398,0.000002697398,0.000002697398,0.99999994,0,0,0,0,0,0,0,1,0,0,0,false,false,true,-388.58,-2990.01,17.01,0.0033312866,0.0034607616,-0.6999262,0.7141989,-113.300995,532.91095,8.311,0,-0.00010999999,-0.08770999
136.44167,2000,0,91.24,0.000002697398,0.000002697398,0.000002697398,0.99999994,0,0,0,0,0,0,0,1,0,0,0,false,false,true,-389.52,-2985.5698,17.01,0.0033312866,0.0034607616,-0.7001851,0.7139451,-112.921,532.74097,8.311,0,-0.00010999999,-0.116909996
136.45,2000,0,91.24,0.000002697398,0.000002697398,0.000002697398,0.99999994,0,0,0,0,0,0,0,1,0,0,0,false,false,true,-390.46,-2981.13,17.01,0.0033312866,0.0034607616,-0.7005304,0.71360624,-112.541,532.571,8.311,0,-0.00010999999,-0.14570999
136.45833,2000,0,91.24,0.000002697398,0.000002697398,0.000002697398,0.99999994,0,0,0,0,0,0,0,1,0,0,0,false,false,true,-391.4,-2976.69,17.01,0.0033312866,0.0034607616,-0.700962,0.71318233,-112.15099,532.41095,8.311,0,-0.00010999999,-0.17411
136.46666,2000,0,91.24,0.000002697398,0.000002697398,0.000002697398,0.99999994,0,0,0,0,0,0,0,1,0,0,0,false,false,true,-392.33,-2972.25,17.01,0.0033366815,0.003455367,-0.7014799,0.7126729,-111.760994,532.251,8.311,0,-0.00021,-0.20210999
136.475,2000,0,91.24,0.000002697398,0.000002697398,0.000002697398,0.99999994,0,0,0,0,0,0,0,1,0,0,0,false,false,true,-393.25998,-2967.8098,17.01,0.0033420762,0.0034499723,-0.70207876,0.712083,-111.361,532.09094,8.311,0,-0.00021,-0.22981
136.48334,2000,0,91.24,0.000002697398,0.000002697398,0.000002697398,0.99999994,0,0,0,0,0,0,0,1,0,0,0,false,false,true,-394.19,-2963.38,17.01,0.003347471,0.0034445773,-0.7027585,0.71141213,-110.951,531.941,8.311,0,-0.00021,-0.25711
136.49167,2000,0,91.24,0.000002697398,0.000002697398,0.000002697398,0.99999994,0,0,0,0,0,0,0,1,0,0,0,false,false,true,-395.11,-2958.95,17.01,0.0033528658,0.0034391826,-0.70351917,0.71066,-110.531,531.79095,8.311,0,-0.00021,-0.28401
136.5,2000,0,91.24,0.000002697398,0.000002697398,0.000002697398,0.99999994,0,0,0,0,0,0,0,1,0,0,0,false,false,true,-396.03,-2954.52,17.01,0.0033582607,0.003433788,-0.70436084,0.7098258,-110.101,531.65094,8.311,0,-0.00010999999,-0.31051
136.50833,2000,0,91.24,0.000002697398,0.000002697398,0.000002697398,0.99999994,0,0,0,0,0,0,0,1,0,0,0,false,false,true,-396.94998,-2950.0898,17.01,0.0033636554,0.003428393,-0.70527786,0.70891464,-109.65099,531.511,8.311,0,-0.00010999999,-0.33671
136.51666,2000,0,91.24,0.000002697398,0.000002697398,0.000002697398,0.99999994,0,0,0,0,0,0,0,1,0,0,0,false,false,true,-397.86,-2945.66,17.01,0.00336905,0.0034229981,-0.7062705,0.7079257,-109.190994,531.371,8.311,0,-0.00010999999,-0.36251
136.525,2000,0,91.24,0.000002697398,0.000002697398,0.000002697398,0.99999994,0,0,0,0,0,0,0,1,0,0,0,false,false,true,-398.77,-2941.23,17.01,-0.003374445,-0.0034176034,0.7073385,-0.7068586,-108.711,531.24097,8.311,0,0,-0.38791
136.53334,2000,0,91.24,0.000002697398,0.000002697398,0.000002697398,0.99999994,0,0,0,0,0,0,0,1,0,0,0,false,false,true,-399.68,-2936.8,17.01,-0.00337984,-0.0034122088,0.7084796,-0.70571494,-108.211,531.11096,8.311,0,0,-0.41291
136.54167,2000,0,91.24,0.000002697398,0.000002697398,0.000002697398,0.99999994,0,0,0,0,0,0,0,1,0,0,0,false,false,true,-400.58,-2932.3699,17.01,-0.0033852346,-0.0034068138,0.709692,-0.7044956,-107.690994,530.98096,8.311,0,0,-0.43751
136.55,2000,0,91.24,0.000002697398,0.000002697398,0.000002697398,0.99999994,0,0,0,0,0,0,0,1,0,0,0,false,false,true,-401.47998,-2927.94,17.01,-0.0033906293,-0.003401419,0.71097493,-0.7032009,-107.15099,530.86096,8.311,0,0,-0.46181
136.55833,2000,0,91.24,0.000002697398,0.000002697398,0.000002697398,0.99999994,0,0,0,0,0,0,0,1,0,0,0,false,false,true,-402.37,-2923.52,17.01,-0.0033960242,-0.0033960242,0.71232754,-0.7018306,-106.590996,530.74097,8.311,0,0,-0.48571
136.56667,2000,0,91.24,0.000002697398,0.000002697398,0.000002697398,0.99999994,0,0,0,0,0,0,0,1,0,0,0,false,false,true,-403.25998,-2919.0999,17.01,-0.003401419,-0.0033906293,0.71374923,-0.70038474,-106.010994,530.631,8.311,0,0,-0.50921
136.575,2000,0,91.24,0.000002697398,0.000002697398,0.000002697398,0.99999994,0,0,0,0,0,0,0,1,0,0,0,false,false,true,-404.13998,-2914.68,17.01,-0.0034068138,-0.0033852346,0.7152336,-0.6988688,-105.40099,530.52094,8.311,0,0,-0.53231
136.58333,2000,0,91.24,0.000002697398,0.000002697398,0.000002697398,0.99999994,0,0,0,0,0,0,0,1,0,0,0,false,false,true,-405.02,-2910.26,17.01,-0.0034122085,-0.0033798397,0.71678,-0.69728273,-104.770996,530.41095,8.311,0,-0.00010999999,-0.55501
136.59166,2000,0,91.24,0.000002697398,0.000002697398,0.000002697398,0.99999994,0,0,0,0,0,0,0,1,0,0,0,false,false,true,-405.88998,-2905.8398,17.01,-0.0034229981,-0.00336905,0.71839267,-0.69562113,-104.111,530.30096,8.311,0,-0.00021,-0.57731
136.6,2000,0,91.24,0.000002697398,0.000002697398,0.000002697398,0.99999994,0,0,0,0,0,0,0,1,0,0,0,false,false,true,-406.75998,-2901.42,17.01,-0.0034337877,-0.0033582605,0.7200654,-0.69388944,-103.421,530.201,8.311,0,-0.00021,-0.59921
136.60834,2000,0,91.24,0.000002697398,0.000002697398,0.000002697398,0.99999994,0,0,0,0,0,0,0,1,0,0,0,false,false,true,-407.62,-2897,17.01,-0.0034445773,-0.003347471,0.72179747,-0.69208753,-102.701,530.10095,8.311,0,-0.00021,-0.62071
136.61667,2000,0,91.24,0.000002697398,0.000002697398,0.000002697398,0.99999994,0,0,0,0,0,0,0,1,0,0,0,false,false,true,-408.47998,-2892.5798,17.01,-0.003455367,-0.0033366815,0.7235827,-0.6902209,-101.951,530.001,8.311,0,-0.00010999999,-0.64181
136.625,2000,0,91.24,0.000002697398,0.000002697398,0.000002697398,0.99999994,0,0,0,0,0,0,0,1,0,0,0,false,false,true,-409.33,-2888.16,17.01,-0.0034661568,-0.0033258921,0.7254252,-0.6882842,-101.171,529.90094,8.311,0,-0.00010999999,-0.66251
136.63333,2000,0,91.24,0.000002697398,0.000002697398,0.000002697398,0.99999994,0,0,0,0,0,0,0,1,0,0,0,false,false,true,-410.16998,-2883.74,17.01,-0.0034769461,-0.0033151023,0.727324,-0.68627733,-100.361,529.811,8.311,0,0,-0.68281
136.64166,2000,0,91.24,0.000002697398,0.000002697398,0.000002697398,0.99999994,0,0,0,0,0,0,0,1,0,0,0,false,false,true,-411.00998,-2879.3198,17.01,-0.0034877358,-0.0033043127,0.72927314,-0.6842057,-99.520996,529.72095,8.311,0,0,-0.70271
136.65,2000,0,91.24,0.000002697398,0.000002697398,0.000002697398,0.99999994,0,0,0,0,0,0,0,1,0,0,0,false,false,true,-411.84,-2874.91,17.01,-0.0034985254,-0.003293523,0.73127156,-0.68206936,-98.641,529.631,8.311,0,0,-0.72221
136.65834,2000,0,91.24,0.000002697398,0.000002697398,0.000002697398,0.99999994,0,0,0,0,0,0,0,1,0,0,0,false,false,true,-412.66,-2870.5,17.01,-0.003509315,-0.0032827335,0.7333184,-0.6798683,-97.730995,529.54095,8.311,0,0,-0.74121
136.66667,2000,0,91.24,0.000002697398,0.000002697398,0.000002697398,0.99999994,0,0,0,0,0,0,0,1,0,0,0,false,false,true,-413.47,-2866.0898,17.01,-0.0035201048,-0.0032719441,0.7354126,-0.6776025,-96.781,529.451,8.311,0,0,-0.75981
136.675,2000,0,91.24,0.000002697398,0.000002697398,0.000002697398,0.99999994,0,0,0,0,0,0,0,1,0,0,0,false,false,true,-414.28,-2861.68,17.01,-0.0035308937,-0.0032611538,0.7375531,-0.6752718,-95.800995,529.36096,8.311,0,0,-0.77801
136.68333,2000,0,91.24,0.000002697398,0.000002697398,0.000002697398,0.99999994,0,0,0,0,0,0,0,1,0,0,0,false,false,true,-415.08,-2857.27,17.01,-0.0035416838,-0.0032503647,0.739739,-0.6728766,-94.781,529.27094,8.311,0,0,-0.79581
136.69167,2000,0,91.24,0.000002697398,0.000002697398,0.000002697398,0.99999994,0,0,0,0,0,0,0,1,0,0,0,false,false,true,-415.87,-2852.8599,17.01,-0.0035524734,-0.003239575,0.74196434,-0.67042196,-93.721,529.17096,8.311,-0.00010999999,0,-0.81321
136.7,2000,0,91.24,0.000002697398,0.000002697398,0.000002697398,0.99999994,0,0,0,0,0,0,0,1,0,0,0,false,false,true,-416.65,-2848.45,17.01,-0.0035632628,-0.0032287855,0.74423313,-0.6679025,-92.620995,529.071,8.311,-0.00010999999,0,-0.83011
136.70833,2000,0,91.24,0.000002697398,0.000002697398,0.000002697398,0.99999994,0,0,0,0,0,0,0,1,0,0,0,false,false,true,-417.41998,-2844.04,17.01,-0.0035740526,-0.003217996,0.7465393,-0.6653239,-91.491,528.97095,8.311,-0.00010999999,0,-0.84661
136.71666,2000,0,91.24,0.000002697398,0.000002697398,0.000002697398,0.99999994,0,0,0,0,0,0,0,1,0,0,0,false,false,true,-418.18,-2839.63,17.01,-0.0035848422,-0.0032072065,0.748882,-0.6626859,-90.321,528.86096,8.311,-0.00010999999,0,-0.86271
136.725,2000,0,91.24,0.000002697398,0.000002697398,0.000002697398,0.99999994,0,0,0,0,0,0,0,1,0,0,0,false,false,true,-418.93,-2835.22,17.01,-0.0035956316,-0.0031964167,0.7512603,-0.6599884,-89.111,528.751,8.311,-0.00010999999,0,-0.87841
136.73334,2000,0,91.24,0.000002697398,0.000002697398,0.000002697398,0.99999994,0,0,0,0,0,0,0,1,0,0,0,false,false,true,-419.66998,-2830.81,17.01,-0.0036064212,-0.0031802324,0.7536685,-0.65723705,-87.861,528.631,8.311,-0.00021,0,-0.89371
136.74167,2000,0,91.24,0.000002697398,0.000002697398,0.000002697398,0.99999994,0,0,0,0,0,0,0,1,0,0,0,false,false,true,-420.4,-2826.4,17.01,-0.003617211,-0.003164048,0.7561104,-0.6544264,-86.581,528.511,8.311,-0.00021,0,-0.90861
136.75,2000,0,91.24,0.000002697398,0.000002697398,0.000002697398,0.99999994,0,0,0,0,0,0,0,1,0,0,0,false,false,true,-421.12,-2822,17.01,-0.0036280004,-0.0031478636,0.75858504,-0.65155625,-85.260994,528.381,8.311,-0.00021,0,-0.92320997
136.75833,2000,0,91.24,0.000002697398,0.000002697398,0.000002697398,0.99999994,0,0,0,0,0,0,0,1,0,0,0,false,false,true,-421.83,-2817.5999,17.01,-0.00363879,-0.0031316793,0.7610867,-0.6486323,-83.901,528.24097,8.311,-0.00010999999,0,-0.93741
136.76666,2000,0,91.24,0.000002697398,0.000002697398,0.000002697398,0.99999994,0,0,0,0,0,0,0,1,0,0,0,false,false,true,-422.53,-2813.2,17.01,-0.0036495796,-0.0031154947,0.76361465,-0.6456543,-82.510994,528.09094,8.311,0,0,-0.95120996
136.775,2000,0,91.24,0.000002697398,0.000002697398,0.000002697398,0.99999994,0,0,0,0,0,0,0,1,0,0,0,false,false,true,-423.22,-2808.8,17.01,-0.0036603692,-0.0030993104,0.7661678,-0.6426225,-81.081,527.93097,8.311,0,0,-0.96471
136.78334,2000,0,91.24,0.000002697398,0.000002697398,0.000002697398,0.99999994,0,0,0,0,0,0,0,1,0,0,0,false,false,true,-423.9,-2804.4,17.01,-0.0036711583,-0.0030831257,0.76874554,-0.63953656,-79.611,527.761,8.311,0,0,-0.97780997
136.79167,2000,0,91.24,0.000002697398,0.000002697398,0.000002697398,0.99999994,0,0,0,0,0,0,0,1,0,0,0,false,false,true,-424.56,-2800,17.01,-0.0036819484,-0.0030669416,0.7713468,-0.6363969,-78.111,527.581,8.311,0,0,-0.99061
136.8,2000,0,91.24,0.000002697398,0.000002697398,0.000002697398,0.99999994,0,0,0,0,0,0,0,1,0,0,0,false,false,true,-425.21,-2795.5999,17.01,-0.003692738,-0.003050757,0.7739663,-0.6332085,-76.571,527.391,8.311,0,0,-1.00301
136.80833,2000,0,91.24,0.000002697398,0.000002697398,0.000002697398,0.99999994,0,0,0,0,0,0,0,1,0,0,0,false,false,true,-425.84998,-2791.2,17.01,-0.0037035276,-0.0030345728,0.7766077,-0.6299662,-74.991,527.191,8.311,0,0,-1.01511
136.81667,2000,0,91.24,0.000002697398,0.000002697398,0.000002697398,0.99999994,0,0,0,0,0,0,0,1,0,0,0,false,false,true,-426.47,-2786.81,17.01,-0.0037143175,-0.0030183888,0.77926564,-0.6266754,-73.381,526.97095,8.311,0,-0.00010999999,-1.02691
136.825,2000,0,91.24,0.000002697398,0.000002697398,0.000002697398,0.99999994,0,0,0,0,0,0,0,1,0,0,0,false,false,true,-427.08,-2782.42,17.01,-0.003725107,-0.0030022042,0.78193945,-0.623336,-71.730995,526.74097,8.311,0,-0.00010999999,-1.03841
136.83333,2000,0,91.24,0.000002697398,0.000002697398,0.000002697398,0.99999994,0,0,0,0,0,0,0,1,0,0,0,false,false,true,-427.68,-2778.03,17.01,-0.0037358967,-0.00298602,0.7846282,-0.6199481,-70.050995,526.49097,8.311,0.00010999999,-0.00021,-1.04961
136.84166,2000,0,91.24,0.000002697398,0.000002697398,0.000002697398,0.99999994,0,0,0,0,0,0,0,1,0,0,0,false,false,true,-428.25998,-2773.64,17.01,-0.0037520807,-0.0029698352,0.7873312,-0.6165116,-68.340996,526.23096,8.311,0.00010999999,-0.00021,-1.06041
