time,ball_loc_x,ball_loc_y,ball_loc_z,ball_rot_x,ball_rot_y,ball_rot_z,ball_rot_w,ball_vel_x,ball_vel_y,ball_vel_z,ball_ang_x,ball_ang_y,ball_ang_z,player0_throttle,player0_steer,player0_pitch,player0_yaw,player0_roll,player0_jump,player0_boost,player0_handbrake,player0_loc_x,player0_loc_y,player0_loc_z,player0_rot_x,player0_rot_y,player0_rot_z,player0_rot_w,player0_vel_x,player0_vel_y,player0_vel_z,player0_ang_x,player0_ang_y,player0_ang_z
242.9,2000,0,91.24,0.000002697398,0.000002697398,0.000002697398,0.99999994,0,0,0,0,0,0,1,0,0,0,0,false,true,false,0,-3526.1099,16.99,-0.00336905,0.003374445,0.70711225,0.70708513,-0.031,1906.341,8.411,-0.00061,0,0
242.90834,2000,0,91.24,0.000002697398,0.000002697398,0.000002697398,0.99999994,0,0,0,0,0,0,1,1,0,0,0,false,false,true,0,-3510.22,16.99,-0.00336905,0.003374445,0.70711225,0.70708513,-10.991,1905.4209,8.461,-0.00061,0.00281,0.30511
242.91667,2000,0,91.24,0.000002697398,0.000002697398,0.000002697398,0.99999994,0,0,0,0,0,0,1,1,0,0,0,false,false,true,-0.089999996,-3494.3398,16.99,-0.00336905,0.0033798397,0.708012,0.7061842,-20.550999,1904.5809,8.501,-0.00061,0.00401,0.55341
242.925,2000,0,91.24,0.000002697398,0.000002697398,0.000002697398,0.99999994,0,0,0,0,0,0,1,1,0,0,0,false,false,true,-0.26,-3478.47,16.99,-0.0033690496,0.0033852342,0.7096386,0.7045495,-30.140999,1903.7109,8.521,-0.00051,0.00441,0.77221
242.93333,2000,0,91.24,0.000002697398,0.000002697398,0.000002697398,0.99999994,0,0,0,0,0,0,1,1,0,0,0,false,false,true,-0.51,-3462.6099,16.99,-0.00336905,0.0033906293,0.71190226,0.70226216,-40.190998,1902.7709,8.531,-0.00051,0.0043099998,0.96711
242.94167,2000,0,91.24,0.000002697398,0.000002697398,0.000002697398,0.99999994,0,0,0,0,0,0,1,1,0,0,0,false,false,true,-0.84,-3446.75,16.99,-0.00336905,0.0033906293,0.71472734,0.6993868,-50.961,1901.7009,8.541,-0.00040999998,0.00391,1.14231
242.95,2000,0,91.24,0.000002697398,0.000002697398,0.000002697398,0.99999994,0,0,0,0,0,0,1,1,0,0,0,false,false,true,-1.26,-3430.9,16.99,-0.003374445,0.0033852346,0.7180479,0.69597715,-62.580997,1900.471,8.551001,-0.00040999998,0.00331,1.3012099
242.95833,2000,0,91.24,0.000002697398,0.000002697398,0.000002697398,0.99999994,0,0,0,0,0,0,1,1,0,0,0,false,false,true,-1.78,-3415.0598,16.99,-0.0033852349,0.00337984,0.7218132,0.6920714,-75.101,1899.0309,8.561,-0.00040999998,0.00271,1.44661
242.96666,2000,0,91.24,0.000002697398,0.000002697398,0.000002697398,0.99999994,0,0,0,0,0,0,1,1,0,0,0,false,false,true,-2.4099998,-3399.23,16.99,-0.0033960238,0.0033690496,0.72597253,0.6877069,-88.501,1897.3309,8.561,-0.00030999997,0.00211,1.5806099
242.975,2000,0,91.24,0.000002697398,0.000002697398,0.000002697398,0.99999994,0,0,0,0,0,0,1,1,0,0,0,false,false,true,-3.1499999,-3383.42,16.99,-0.0034122088,0.003352866,0.73048586,0.68291104,-102.721,1895.351,8.561,-0.00030999997,0.00151,1.70471
242.98334,2000,0,91.24,0.000002697398,0.000002697398,0.000002697398,0.99999994,0,0,0,0,0,0,1,1,0,0,0,false,false,true,-4.0099998,-3367.6199,16.99,-0.0034337877,0.0033312866,0.73531824,0.677705,-117.660995,1893.0509,8.561,-0.00030999997,0.0010099999,1.82031
242.99167,2000,0,91.24,0.000002697398,0.000002697398,0.000002697398,0.99999994,0,0,0,0,0,0,1,1,0,0,0,false,false,true,-4.99,-3351.8398,16.99,-0.0034553672,0.0033097076,0.7404353,0.67211056,-133.201,1890.4109,8.571,-0.00030999997,0.00061,1.9283099
243,2000,0,91.24,0.000002697398,0.000002697398,0.000002697398,0.99999994,0,0,0,0,0,0,1,1,0,0,0,false,false,true,-6.1,-3336.0898,16.99,-0.0034823408,0.0032827335,0.74581265,0.66613847,-149.201,1887.4109,8.571,-0.00021,0.00021,2.02931
243.00833,2000,0,91.24,0.000002697398,0.000002697398,0.000002697398,0.99999994,0,0,0,0,0,0,1,1,0,0,0,false,false,true,-7.3399997,-3320.3599,16.99,-0.003509315,0.0032557594,0.7514168,0.65981036,-165.511,1884.0509,8.571,-0.00021,0,2.12391
243.01666,2000,0,91.24,0.000002697398,0.000002697398,0.000002697398,0.99999994,0,0,0,0,0,0,1,1,0,0,0,false,false,true,-8.72,-3304.66,16.99,-0.0035362884,0.0032233906,0.75722456,0.6531369,-181.951,1880.3309,8.571,-0.00010999999,-0.00021,2.21241
243.025,2000,0,91.24,0.000002697398,0.000002697398,0.000002697398,0.99999994,0,0,0,0,0,0,1,1,0,0,0,false,false,true,-10.24,-3288.99,16.99,-0.0035686577,0.003191022,0.76321304,0.6461291,-198.341,1876.2809,8.571,-0.00010999999,-0.00040999998,2.2950099
243.03334,2000,0,91.24,0.000002697398,0.000002697398,0.000002697398,0.99999994,0,0,0,0,0,0,1,1,0,0,0,false,false,true,-11.889999,-3273.3499,16.99,-0.0036010265,0.0031586532,0.76935536,0.63880295,-214.501,1871.9309,8.571,0,-0.00061,2.37171
243.04167,2000,0,91.24,0.000002697398,0.000002697398,0.000002697398,0.99999994,0,0,0,0,0,0,1,1,0,0,0,false,false,true,-13.679999,-3257.75,16.99,-0.0036333948,0.0031208894,0.7756302,0.63116926,-230.22101,1867.341,8.571,0,-0.00071,2.44261
243.05,2000,0,91.24,0.000002697398,0.000002697398,0.000002697398,0.99999994,0,0,0,0,0,0,1,1,0,0,0,false,false,true,-15.599999,-3242.19,16.99,-0.003665764,0.003083126,0.78201246,0.6232443,-245.301,1862.5709,8.571,0,-0.00081,2.50751
243.05833,2000,0,91.24,0.000002697398,0.000002697398,0.000002697398,0.99999994,0,0,0,0,0,0,1,1,0,0,0,false,false,true,-17.64,-3226.67,16.99,-0.0036981327,0.0030399675,0.78848225,0.61503875,-259.521,1857.7109,8.571,0,-0.00091,2.56631
243.06667,2000,0,91.24,0.000002697398,0.000002697398,0.000002697398,0.99999994,0,0,0,0,0,0,1,1,0,0,0,false,false,true,-19.8,-3211.19,16.99,-0.0037358964,0.0029968093,0.7950123,0.60657424,-272.671,1852.871,8.571,0,-0.0010099999,2.61871
243.075,2000,0,91.24,0.000002697398,0.000002697398,0.000002697398,0.99999994,0,0,0,0,0,0,1,1,0,0,0,false,false,true,-22.07,-3195.75,16.99,-0.00377366,0.002953651,0.8015849,0.59786165,-284.511,1848.1909,8.571,0,-0.00111,2.6644099
243.08333,2000,0,91.24,0.000002697398,0.000002697398,0.000002697398,0.99999994,0,0,0,0,0,0,1,1,0,0,0,false,false,true,-24.439999,-3180.3499,16.99,-0.0038114234,0.0029104925,0.8081713,0.58892787,-294.811,1843.8209,8.571,0.00010999999,-0.0012099999,2.7030098
243.09166,2000,0,91.24,0.000002697398,0.000002697398,0.000002697398,0.99999994,0,0,0,0,0,0,1,1,0,0,0,false,false,true,-26.9,-3164.98,16.99,-0.0038491872,0.0028619394,0.81475246,0.579789,-303.331,1839.9509,8.571,0.00021,-0.00131,2.7341099
243.1,2000,0,91.24,0.000002697398,0.000002697398,0.000002697398,0.99999994,0,0,0,0,0,0,1,1,0,0,0,false,false,true,-29.429998,-3149.65,16.99,-0.003886951,0.0028133865,0.82130283,0.57047224,-309.841,1836.7909,8.561,0.00030999997,-0.00131,2.75731
243.10834,2000,0,91.24,0.000002697398,0.000002697398,0.000002697398,0.99999994,0,0,0,0,0,0,1,1,0,0,0,false,false,true,-32.01,-3134.3398,16.99,-0.0039247135,0.0027648327,0.82780254,0.5609988,-316.631,1833.3109,8.561,0.00040999998,-0.00131,2.77981
243.11667,2000,0,91.24,0.000002697398,0.000002697398,0.000002697398,0.99999994,0,0,0,0,0,0,1,1,0,0,0,false,false,true,-34.649998,-3119.0598,16.99,-0.0039624777,0.0027162798,0.8342439,0.55137455,-323.681,1829.501,8.561,0.00040999998,-0.0012099999,2.80191
243.125,2000,0,91.24,0.000002697398,0.000002697398,0.000002697398,0.99999994,0,0,0,0,0,0,1,1,0,0,0,false,false,true,-37.35,-3103.8098,16.99,-0.0039948463,0.0026677267,0.8406231,0.54159915,-330.961,1825.341,8.561,0.00051,-0.00111,2.82351
243.13333,2000,0,91.24,0.000002697398,0.000002697398,0.000002697398,0.99999994,0,0,0,0,0,0,1,1,0,0,0,false,false,true,-40.11,-3088.5999,16.99,-0.0040272153,0.0026137787,0.8469362,0.53167266,-338.451,1820.8209,8.561,0.00051,-0.0010099999,2.8447099
243.14166,2000,0,91.24,0.000002697398,0.000002697398,0.000002697398,0.99999994,0,0,0,0,0,0,1,1,0,0,0,false,false,true,-42.93,-3073.43,16.99,-0.004059584,0.0025598307,0.8531795,0.5215952,-346.121,1815.9409,8.561,0.00051,-0.00091,2.8654099
243.15,2000,0,91.24,0.000002697398,0.000002697398,0.000002697398,0.99999994,0,0,0,0,0,0,1,1,0,0,0,false,false,true,-45.809998,-3058.3,16.99,-0.0040919525,0.0025058826,0.85934603,0.51137197,-353.941,1810.7009,8.561,0.00040999998,-0.00081,2.8856099
243.15834,2000,0,91.24,0.000002697398,0.000002697398,0.000002697398,0.99999994,0,0,0,0,0,0,1,1,0,0,0,false,false,true,-48.76,-3043.21,16.99,-0.0041243215,0.0024519349,0.8654321,0.50100315,-361.891,1805.091,8.561,0.00040999998,-0.00071,2.90531
243.16667,2000,0,91.24,0.000002697398,0.000002697398,0.000002697398,0.99999994,0,0,0,0,0,0,1,1,0,0,0,false,false,true,-51.78,-3028.17,16.99,-0.00415669,0.0023979868,0.87143433,0.49048862,-369.941,1799.111,8.561,0.00040999998,-0.00061,2.92451
243.175,2000,0,91.24,0.000002697398,0.000002697398,0.000002697398,0.99999994,0,0,0,0,0,0,1,1,0,0,0,false,false,true,-54.86,-3013.18,16.99,-0.0041890587,0.0023440386,0.87734604,0.47983384,-378.07098,1792.751,8.561,0.00030999997,-0.00051,2.94311
243.18333,2000,0,91.24,0.000002697398,0.000002697398,0.000002697398,0.99999994,0,0,0,0,0,0,1,1,0,0,0,false,false,true,-58.01,-2998.24,16.99,-0.004216033,0.0022900908,0.88316447,0.46903884,-386.241,1786.021,8.561,0.00030999997,-0.00040999998,2.9611099
243.19167,2000,0,91.24,0.000002697398,0.000002697398,0.000002697398,0.99999994,0,0,0,0,0,0,1,1,0,0,0,false,false,true,-61.23,-2983.3599,16.99,-0.004243007,0.002236143,0.888883,0.458109,-394.441,1778.9209,8.561,0.00030999997,-0.00040999998,2.97851
243.2,2000,0,91.24,0.000002697398,0.000002697398,0.000002697398,0.99999994,0,0,0,0,0,0,1,1,0,0,0,false,false,true,-64.52,-2968.54,16.99,-0.004269981,0.002182195,0.89449894,0.44704416,-402.631,1771.4509,8.561,0.00030999997,-0.00040999998,2.9953098
243.20833,2000,0,91.24,0.000002697398,0.000002697398,0.000002697398,0.99999994,0,0,0,0,0,0,1,1,0,0,0,false,false,true,-67.88,-2953.78,16.99,-0.004296955,0.002128247,0.9000091,0.43584457,-410.791,1763.621,8.561,0.00021,-0.00040999998,3.01141
243.21666,2000,0,91.24,0.000002697398,0.000002697398,0.000002697398,0.99999994,0,0,0,0,0,0,1,1,0,0,0,false,false,true,-71.299995,-2939.0798,16.99,-0.004323929,0.002074299,0.9054079,0.42451543,-418.901,1755.4309,8.561,0.00021,-0.00040999998,3.02681
243.225,2000,0,91.24,0.000002697398,0.000002697398,0.000002697398,0.99999994,0,0,0,0,0,0,1,1,0,0,0,false,false,true,-74.79,-2924.45,16.99,-0.0043509034,0.0020203514,0.9106901,0.41306227,-426.931,1746.891,8.561,0.00021,-0.00040999998,3.0415099
243.23334,2000,0,91.24,0.000002697398,0.000002697398,0.000002697398,0.99999994,0,0,0,0,0,0,1,1,0,0,0,false,false,true,-78.35,-2909.89,16.99,-0.0043778773,0.0019610086,0.91585064,0.40149036,-434.861,1738.011,8.561,0.00021,-0.00040999998,3.05541
243.24167,2000,0,91.24,0.000002697398,0.000002697398,0.000002697398,0.99999994,0,0,0,0,0,0,1,1,0,0,0,false,false,true,-81.97,-2895.41,16.99,-0.0044048512,0.0019016658,0.92088705,0.38979983,-442.661,1728.8009,8.561,0.00021,-0.00030999997,3.0685098
243.25,2000,0,91.24,0.000002697398,0.000002697398,0.000002697398,0.99999994,0,0,0,0,0,0,1,1,0,0,0,false,false,true,-85.659996,-2881,16.99,-0.004431825,0.001842323,0.9257948,0.37799594,-450.311,1719.271,8.561,0.00021,-0.00030999997,3.08071
243.25833,2000,0,91.24,0.000002697398,0.000002697398,0.000002697398,0.99999994,0,0,0,0,0,0,1,1,0,0,0,false,false,true,-89.409996,-2866.67,16.99,-0.004453404,0.0017829802,0.93057144,0.3660788,-457.781,1709.4309,8.561,0.00021,-0.00021,3.09201
243.26666,2000,0,91.24,0.000002697398,0.000002697398,0.000002697398,0.99999994,0,0,0,0,0,0,1,1,0,0,0,false,false,true,-93.22,-2852.42,16.99,-0.0044749826,0.0017236371,0.9352106,0.3540591,-465.061,1699.3009,8.561,0.00021,-0.00021,3.1024098
243.275,2000,0,91.24,0.000002697398,0.000002697398,0.000002697398,0.99999994,0,0,0,0,0,0,1,1,0,0,0,false,false,true,-97.1,-2838.26,16.99,-0.0044965623,0.0016642946,0.93970865,0.3419423,-472.121,1688.891,8.561,0.00021,-0.00021,3.11181
243.28334,2000,0,91.24,0.000002697398,0.000002697398,0.000002697398,0.99999994,0,0,0,0,0,0,1,1,0,0,0,false,false,true,-101.03,-2824.19,16.99,-0.004518141,0.0016049517,0.9440635,0.32972848,-478.951,1678.231,8.561,0.00021,-0.00021,3.12011
243.29167,2000,0,91.24,0.000002697398,0.000002697398,0.000002697398,0.99999994,0,0,0,0,0,0,1,1,0,0,0,false,false,true,-105.02,-2810.2,16.99,-0.0045397207,0.0015456091,0.9482701,0.3174283,-486.35098,1667.8009,8.561,0.00021,-0.00010999999,3.1305099
243.3,2000,0,91.24,0.000002697398,0.000002697398,0.000002697398,0.99999994,0,0,0,0,0,0,1,1,0,0,0,false,false,true,-109.07,-2796.3,16.99,-0.0045613,0.0014862664,0.9523303,0.30503103,-493.651,1657.2109,8.561,0.00021,0,3.14031
243.30833,2000,0,91.24,0.000002697398,0.000002697398,0.000002697398,0.99999994,0,0,0,0,0,0,1,1,0,0,0,false,false,true,-113.18,-2782.49,16.99,-0.0045774844,0.0014269236,0.9562406,0.292542,-500.841,1646.4609,8.561,0.00021,0,3.14961
243.31667,2000,0,91.24,0.000002697398,0.000002697398,0.000002697398,0.99999994,0,0,0,0,0,0,1,1,0,0,0,false,false,true,-117.35,-2768.77,16.99,-0.004593669,0.0013675808,0.95999765,0.27996674,-507.911,1635.5809,8.561,0.00021,0,3.15831
243.325,2000,0,91.24,0.000002697398,0.000002697398,0.000002697398,0.99999994,0,0,0,0,0,0,1,1,0,0,0,false,false,true,-121.579994,-2755.14,16.99,-0.004609853,0.001308238,0.9635985,0.26731044,-514.86096,1624.5709,8.561,0.00021,0,3.16641
243.33333,2000,0,91.24,0.000002697398,0.000002697398,0.000002697398,0.99999994,0,0,0,0,0,0,1,1,0,0,0,false,false,true,-125.869995,-2741.5999,16.99,-0.0046260376,0.0012488953,0.96704155,0.25457335,-521.68097,1613.4509,8.561,0.00021,0,3.17391
243.34166,2000,0,91.24,0.000002697398,0.000002697398,0.000002697398,0.99999994,0,0,0,0,0,0,1,1,0,0,0,false,false,true,-130.22,-2728.15,16.99,-0.0046422225,0.0011841578,0.97032404,0.24176064,-528.381,1602.231,8.561,0.00030999997,0,3.18081
243.35,2000,0,91.24,0.000002697398,0.000002697398,0.000002697398,0.99999994,0,0,0,0,0,0,1,1,0,0,0,false,false,true,-134.62,-2714.8,16.99,-0.004658406,0.0011194202,0.9734433,0.22887777,-534.951,1590.9209,8.561,0.00030999997,0,3.18701
243.35834,2000,0,91.24,0.000002697398,0.000002697398,0.000002697398,0.99999994,0,0,0,0,0,0,1,1,0,0,0,false,false,true,-139.08,-2701.54,16.99,-0.0046745907,0.0010546827,0.976397,0.21593025,-541.391,1579.5409,8.561,0.00030999997,0,3.19251
243.36667,2000,0,91.24,0.000002697398,0.000002697398,0.000002697398,0.99999994,0,0,0,0,0,0,1,1,0,0,0,false,false,true,-143.59,-2688.38,16.99,-0.00468538,0.0009899449,0.9791828,0.2029233,-547.701,1568.111,8.561,0.00030999997,0,3.1974099
243.375,2000,0,91.24,0.000002697398,0.000002697398,0.000002697398,0.99999994,0,0,0,0,0,0,1,1,0,0,0,false,false,true,-148.15,-2675.31,16.99,-0.0046961694,0.00092520745,0.9817989,0.1898625,-553.881,1556.631,8.561,0.00030999997,0,3.2016098
243.38333,2000,0,91.24,0.000002697398,0.000002697398,0.000002697398,0.99999994,0,0,0,0,0,0,1,1,0,0,0,false,false,true,-152.76999,-2662.3398,16.99,-0.0047069597,0.00086047,0.9842445,0.17674768,-559.941,1545.121,8.561,0.00030999997,0,3.20501
243.39166,2000,0,91.24,0.000002697398,0.000002697398,0.000002697398,0.99999994,0,0,0,0,0,0,1,1,0,0,0,false,false,true,-157.44,-2649.46,16.99,-0.0047177495,0.0007957325,0.98651683,0.1635897,-565.881,1533.591,8.561,0.00021,0,3.20771
243.4,2000,0,91.24,0.000002697398,0.000002697398,0.000002697398,0.99999994,0,0,0,0,0,0,1,1,0,0,0,false,false,true,-162.16,-2636.68,16.99,-0.0047285384,0.00073099486,0.98861533,0.15038861,-571.701,1522.0509,8.561,0.00021,0,3.20961
243.40834,2000,0,91.24,0.000002697398,0.000002697398,0.000002697398,0.99999994,0,0,0,0,0,0,1,1,0,0,0,false,false,true,-166.92,-2624,16.99,-0.0047393288,0.00066625734,0.990538,0.13715512,-577.41095,1510.511,8.561,0.00021,0,3.21081
243.41667,2000,0,91.24,0.000002697398,0.000002697398,0.000002697398,0.99999994,0,0,0,0,0,0,1,1,0,0,0,false,false,true,-171.73,-2611.41,16.99,-0.0047501177,0.0006015198,0.9922844,0.123889305,-583.02094,1498.991,8.561,0.00021,0.00010999999,3.21121
243.425,2000,0,91.24,0.000002697398,0.000002697398,0.000002697398,0.99999994,0,0,0,0,0,0,1,1,0,0,0,false,false,true,-176.59,-2598.92,16.99,-0.004755513,0.0005367822,0.9938532,0.110601835,-588.54095,1487.491,8.561,0.00021,0.00021,3.21071
243.43333,2000,0,91.24,0.000002697398,0.000002697398,0.000002697398,0.99999994,0,0,0,0,0,0,1,1,0,0,0,false,false,true,-181.48999,-2586.52,16.99,-0.0047609075,0.00047204466,0.9952437,0.09729818,-593.97095,1476.0309,8.561,0.00021,0.00021,3.20941
243.44167,2000,0,91.24,0.000002697398,0.000002697398,0.000002697398,0.99999994,0,0,0,0,0,0,1,1,0,0,0,false,false,true,-186.44,-2574.22,16.99,-0.004766302,0.00040730712,0.996456,0.08397843,-599.331,1464.611,8.561,0.00021,0.00021,3.20731
243.45,2000,0,91.24,0.000002697398,0.000002697398,0.000002697398,0.99999994,0,0,0,0,0,0,1,1,0,0,0,false,false,true,-191.43,-2562.01,16.99,-0.004771697,0.00034256955,0.9974894,0.0706532,-604.631,1453.241,8.561,0.00010999999,0.00021,3.20431
243.45833,2000,0,91.24,0.000002697398,0.000002697398,0.000002697398,0.99999994,0,0,0,0,0,0,1,1,0,0,0,false,false,true,-196.47,-2549.9,16.99,-0.004777092,0.000277832,0.9983439,0.057328053,-609.871,1441.9309,8.561,0.00010999999,0.00021,3.20041
243.46666,2000,0,91.24,0.000002697398,0.000002697398,0.000002697398,0.99999994,0,0,0,0,0,0,1,1,0,0,0,false,false,true,-201.55,-2537.88,16.99,-0.0047770925,0.00021309446,0.9990197,0.04400822,-615.071,1430.6809,8.561,0.00010999999,0.00030999997,3.19561
243.475,2000,0,91.24,0.000002697398,0.000002697398,0.000002697398,0.99999994,0,0,0,0,0,0,1,1,0,0,0,false,false,true,-206.68,-2525.96,16.99,-0.004777092,0.00014835689,0.999517,0.030704567,-620.251,1419.501,8.561,0.00010999999,0.00030999997,3.18981
243.48334,2000,0,91.24,0.000002697398,0.000002697398,0.000002697398,0.99999994,0,0,0,0,0,0,1,1,0,0,0,false,false,true,-211.84999,-2514.13,16.99,-0.0047770925,0.00008361934,0.99983686,0.017417185,-625.41095,1408.391,8.561,0.00010999999,0.00030999997,3.1830099
243.49167,2000,0,91.24,0.000002697398,0.000002697398,0.000002697398,0.99999994,0,0,0,0,0,0,1,1,0,0,0,false,false,true,-217.06,-2502.39,16.99,-0.0047770925,0.000018881788,0.9999799,0.0041566906,-630.571,1397.361,8.561,0.00010999999,0.00030999997,3.17521
243.5,2000,0,91.24,0.000002697398,0.000002697398,0.000002697398,0.99999994,0,0,0,0,0,0,1,1,0,0,0,false,false,true,-222.31,-2490.75,16.99,-0.004777092,-0.000045855766,0.99994737,-0.009071392,-635.751,1386.4109,8.561,0,0.00030999997,3.16641
243.50833,2000,0,91.24,0.000002697398,0.000002697398,0.000002697398,0.99999994,0,0,0,0,0,0,1,1,0,0,0,false,false,true,-227.61,-2479.2,16.99,-0.0047770925,-0.000110593326,0.9997407,-0.022261713,-640.951,1375.5409,8.561,0,0.00030999997,3.1565099
243.51666,2000,0,91.24,0.000002697398,0.000002697398,0.000002697398,0.99999994,0,0,0,0,0,0,1,1,0,0,0,false,false,true,-232.95,-2467.74,16.99,-0.0047716964,-0.00017533086,0.99936134,-0.035408866,-646.201,1364.751,8.561,0,0.00040999998,3.14551
243.525,2000,0,91.24,0.000002697398,0.000002697398,0.000002697398,0.99999994,0,0,0,0,0,0,1,1,0,0,0,false,false,true,-238.33,-2456.3699,16.99,-0.004766302,-0.00024006843,0.9988116,-0.048502084,-651.511,1354.0409,8.561,0,0.00040999998,3.13341
243.53334,2000,0,91.24,0.000002697398,0.000002697398,0.000002697398,0.99999994,0,0,0,0,0,0,1,1,0,0,0,false,false,true,-243.76,-2445.0898,16.99,-0.0047609075,-0.000304806,0.9980934,-0.061535995,-656.86096,1343.381,8.561,0,0.00040999998,3.12131
243.54167,2000,0,91.24,0.000002697398,0.000002697398,0.000002697398,0.99999994,0,0,0,0,0,0,1,1,0,0,0,false,false,true,-249.23,-2433.89,16.99,-0.0047555123,-0.0003641487,0.99720865,-0.074510515,-662.18097,1332.6609,8.561,0,0.00040999998,3.11361
243.55,2000,0,91.24,0.000002697398,0.000002697398,0.000002697398,0.99999994,0,0,0,0,0,0,1,1,0,0,0,false,false,true,-254.75,-2422.78,16.99,-0.0047501177,-0.0004234915,0.9961581,-0.08744189,-667.47095,1321.891,8.561,0,0.00040999998,3.11011
243.55833,2000,0,91.24,0.000002697398,0.000002697398,0.000002697398,0.99999994,0,0,0,0,0,0,1,1,0,0,0,false,false,true,-260.31,-2411.76,16.99,-0.0047447234,-0.0004828343,0.99494165,-0.100340895,-672.74097,1311.0809,8.561,-0.00010999999,0.00040999998,3.11061
243.56667,2000,0,91.24,0.000002697398,0.000002697398,0.000002697398,0.99999994,0,0,0,0,0,0,1,1,0,0,0,false,false,true,-265.91998,-2400.8298,16.99,-0.004733934,-0.00054217706,0.99355745,-0.11322911,-678.001,1300.231,8.561,-0.00010999999,0.00040999998,3.11511
243.575,2000,0,91.24,0.000002697398,0.000002697398,0.000002697398,0.99999994,0,0,0,0,0,0,1,1,0,0,0,false,false,true,-271.57,-2389.99,16.99,-0.0047231438,-0.0006015198,0.99200386,-0.1261173,-683.15094,1289.251,8.561,-0.00021,0.00030999997,3.12581
243.58333,2000,0,91.24,0.000002697398,0.000002697398,0.000002697398,0.99999994,0,0,0,0,0,0,1,1,0,0,0,false,false,true,-277.25998,-2379.25,16.99,-0.004712355,-0.0006608626,0.9902771,-0.13902715,-688.131,1278.0809,8.561,-0.00030999997,0.00021,3.14391
243.59166,2000,0,91.24,0.000002697398,0.000002697398,0.000002697398,0.99999994,0,0,0,0,0,0,1,1,0,0,0,false,false,true,-282.99,-2368.5999,16.99,-0.0047015646,-0.00072020525,0.9883712,-0.15198548,-692.941,1266.741,8.561,-0.00040999998,0.00010999999,3.1693099
243.6,2000,0,91.24,0.000002697398,0.000002697398,0.000002697398,0.99999994,0,0,0,0,0,0,1,1,0,0,0,false,false,true,-288.75998,-2358.04,16.99,-0.0046907756,-0.0007795481,0.98627794,-0.16502476,-697.58093,1255.251,8.561,-0.00051,0,3.20181
243.60834,2000,0,91.24,0.000002697398,0.000002697398,0.000002697398,0.99999994,0,0,0,0,0,0,1,1,0,0,0,false,false,true,-294.57,-2347.5798,16.99,-0.0046799853,-0.0008388908,0.9839888,-0.17816651,-702.05096,1243.621,8.561,-0.00061,-0.00010999999,3.24131
243.61667,2000,0,91.24,0.000002697398,0.000002697398,0.000002697398,0.99999994,0,0,0,0,0,0,1,1,0,0,0,false,false,true,-300.41998,-2337.22,16.99,-0.0046691964,-0.0008982336,0.98149323,-0.19143777,-706.36096,1231.861,8.561,-0.00071,-0.00021,3.2876098
243.625,2000,0,91.24,0.000002697398,0.000002697398,0.000002697398,0.99999994,0,0,0,0,0,0,1,1,0,0,0,false,false,true,-306.31,-2326.95,16.99,-0.004658406,-0.0009575763,0.97877854,-0.20486549,-710.511,1219.981,8.561,-0.00081,-0.00030999997,3.34071
243.63333,2000,0,91.24,0.000002697398,0.000002697398,0.000002697398,0.99999994,0,0,0,0,0,0,1,1,0,0,0,false,false,true,-312.22998,-2316.78,16.99,-0.0046476168,-0.001016919,0.97583175,-0.2184712,-714.511,1208.001,8.561,-0.00081,-0.00030999997,3.40041
243.64166,2000,0,91.24,0.000002697398,0.000002697398,0.000002697398,0.99999994,0,0,0,0,0,0,1,1,0,0,0,false,false,true,-318.18,-2306.71,16.99,-0.0046314322,-0.0010816565,0.9726381,-0.23227653,-718.371,1195.9209,8.561,-0.00081,-0.00040999998,3.46681
243.65,2000,0,91.24,0.000002697398,0.000002697398,0.000002697398,0.99999994,0,0,0,0,0,0,1,1,0,0,0,false,false,true,-324.16998,-2296.74,16.99,-0.0046152477,-0.0011463941,0.96918106,-0.24630302,-722.09094,1183.761,8.561,-0.00091,-0.00051,3.53981
243.65834,2000,0,91.24,0.000002697398,0.000002697398,0.000002697398,0.99999994,0,0,0,0,0,0,1,1,0,0,0,false,false,true,-330.19,-2286.88,16.99,-0.0045990637,-0.0012111317,0.96544254,-0.26057234,-725.511,1171.341,8.561,-0.00091,-0.00061,3.61561
243.66667,2000,0,91.24,0.000002697398,0.000002697398,0.000002697398,0.99999994,0,0,0,0,0,0,1,1,0,0,0,false,false,true,-336.24,-2277.1199,16.99,-0.0045828787,-0.0012758691,0.96140814,-0.27508438,-728.58093,1158.7009,8.561,-0.00091,-0.00061,3.6937099
243.675,2000,0,91.24,0.000002697398,0.000002697398,0.000002697398,0.99999994,0,0,0,0,0,0,1,1,0,0,0,false,false,true,-342.31,-2267.46,16.99,-0.004566695,-0.001340607,0.9570602,-0.28985003,-731.05096,1146.141,8.561,-0.00081,-0.00061,3.77141
243.68333,2000,0,91.24,0.000002697398,0.000002697398,0.000002697398,0.99999994,0,0,0,0,0,0,1,1,0,0,0,false,false,true,-348.4,-2257.91,16.99,-0.0045451154,-0.0014107391,0.95238745,-0.30485302,-732.951,1133.7109,8.561,-0.00071,-0.00061,3.8482099
243.69167,2000,0,91.24,0.000002697398,0.000002697398,0.000002697398,0.99999994,0,0,0,0,0,0,1,1,0,0,0,false,false,true,-354.50998,-2248.46,16.99,-0.004523536,-0.0014808716,0.9473776,-0.32008258,-734.30096,1121.4409,8.561,-0.00061,-0.00061,3.92431
243.7,2000,0,91.24,0.000002697398,0.000002697398,0.000002697398,0.99999994,0,0,0,0,0,0,1,1,0,0,0,false,false,true,-360.63,-2239.1099,16.99,-0.004501958,-0.001551004,0.9420182,-0.33552793,-735.121,1109.371,8.561,-0.00051,-0.00061,3.9997098
243.70833,2000,0,91.24,0.000002697398,0.000002697398,0.000002697398,0.99999994,0,0,0,0,0,0,1,1,0,0,0,false,false,true,-366.75998,-2229.8599,16.99,-0.004474983,-0.0016211362,0.93629646,-0.3511783,-735.36096,1097.491,8.561,-0.00030999997,-0.00051,4.0728097
243.71666,2000,0,91.24,0.000002697398,0.000002697398,0.000002697398,0.99999994,0,0,0,0,0,0,1,1,0,0,0,false,false,true,-372.88998,-2220.71,16.99,-0.004448009,-0.0016966634,0.9302018,-0.36701745,-734.8909,1085.731,8.561,-0.00010999999,-0.00040999998,4.13971
243.725,2000,0,91.24,0.000002697398,0.000002697398,0.000002697398,0.99999994,0,0,0,0,0,0,1,1,0,0,0,false,false,true,-379.00998,-2211.66,16.99,-0.0044210353,-0.0017721906,0.9237328,-0.38300768,-733.72095,1074.131,8.561,0,-0.00030999997,4.2003098
243.73334,2000,0,91.24,0.000002697398,0.000002697398,0.000002697398,0.99999994,0,0,0,0,0,0,1,1,0,0,0,false,false,true,-385.12,-2202.71,16.99,-0.0043886667,-0.0018477177,0.91688776,-0.39911664,-731.881,1062.731,8.561,0,-0.00021,4.2547097
243.74167,2000,0,91.24,0.000002697398,0.000002697398,0.000002697398,0.99999994,0,0,0,0,0,0,1,1,0,0,0,false,false,true,-391.22,-2193.8499,16.99,-0.004356297,-0.0019232446,0.9096689,-0.41530648,-729.3909,1051.5809,8.561,0.00010999999,-0.00010999999,4.30301
243.75,2000,0,91.24,0.000002697398,0.000002697398,0.000002697398,0.99999994,0,0,0,0,0,0,1,1,0,0,0,false,false,true,-397.3,-2185.0898,16.99,-0.004323929,-0.001998772,0.90207624,-0.43155026,-726.28094,1040.7109,8.561,0.00021,0,4.3453097
243.75833,2000,0,91.24,0.000002697398,0.000002697398,0.000002697398,0.99999994,0,0,0,0,0,0,1,1,0,0,0,false,false,true,-403.35,-2176.42,16.99,-0.0042861653,-0.0020796938,0.89411587,-0.44781023,-722.59094,1030.1709,8.561,0.00030999997,0.00010999999,4.38161
243.76666,2000,0,91.24,0.000002697398,0.000002697398,0.000002697398,0.99999994,0,0,0,0,0,0,1,1,0,0,0,false,false,true,-409.37,-2167.8298,16.99,-0.0042484016,-0.0021606158,0.8857912,-0.46405944,-718.36096,1019.99097,8.561,0.00040999998,0.00021,4.41211
243.775,2000,0,91.24,0.000002697398,0.000002697398,0.000002697398,0.99999994,0,0,0,0,0,0,1,1,0,0,0,false,false,true,-415.36,-2159.3298,16.99,-0.0042106383,-0.0022415377,0.8771101,-0.4802655,-713.631,1010.2009,8.561,0.00051,0.00030999997,4.43681
243.78334,2000,0,91.24,0.000002697398,0.000002697398,0.000002697398,0.99999994,0,0,0,0,0,0,1,1,0,0,0,false,false,true,-421.31,-2150.91,16.99,-0.00416748,-0.0023224596,0.86808306,-0.49639598,-708.451,1000.83093,8.561,0.00051,0.00040999998,4.45581
243.79167,2000,0,91.24,0.000002697398,0.000002697398,0.000002697398,0.99999994,0,0,0,0,0,0,1,1,0,0,0,false,false,true,-427.21,-2142.57,16.99,-0.004124322,-0.0024033817,0.8587193,-0.512424,-702.871,991.90094,8.561,0.00051,0.00051,4.46931
243.8,2000,0,91.24,0.000002697398,0.000002697398,0.000002697398,0.99999994,0,0,0,0,0,0,1,1,0,0,0,false,false,true,-433.06998,-2134.3,16.99,-0.004075769,-0.002484304,0.8490303,-0.5283225,-696.941,983.43097,8.561,0.00051,0.00061,4.4773097
243.80833,2000,0,91.24,0.000002697398,0.000002697398,0.000002697398,0.99999994,0,0,0,0,0,0,1,1,0,0,0,false,false,true,-438.88,-2126.0999,16.99,-0.0040272153,-0.0025652256,0.8390262,-0.54406995,-690.71094,975.441,8.561,0.00051,0.00071,4.48001
243.81667,2000,0,91.24,0.000002697398,0.000002697398,0.000002697398,0.99999994,0,0,0,0,0,0,1,1,0,0,0,false,false,true,-444.63998,-2117.97,16.99,-0.003978662,-0.0026407526,0.828726,-0.55963403,-684.24097,967.93097,8.561,0.00051,0.00071,4.47751
243.825,2000,0,91.24,0.000002697398,0.000002697398,0.000002697398,0.99999994,0,0,0,0,0,0,1,1,0,0,0,false,false,true,-450.34,-2109.9,16.99,-0.0039301086,-0.0027162798,0.81814045,-0.57499844,-677.58093,960.91095,8.561,0.00051,0.00081,4.4699097
243.83333,2000,0,91.24,0.000002697398,0.000002697398,0.000002697398,0.99999994,0,0,0,0,0,0,1,1,0,0,0,false,false,true,-455.99,-2101.89,16.99,-0.003876161,-0.002791807,0.80728936,-0.5901363,-670.79095,954.381,8.561,0.00040999998,0.00091,4.4573097
243.84166,2000,0,91.24,0.000002697398,0.000002697398,0.000002697398,0.99999994,0,0,0,0,0,0,1,1,0,0,0,false,false,true,-461.58,-2093.94,16.99,-0.003822213,-0.002867334,0.7961913,-0.605026,-663.92096,948.33093,8.561,0.00040999998,0.0010099999,4.43981
243.85,2000,0,91.24,0.000002697398,0.000002697398,0.000002697398,0.99999994,0,0,0,0,0,0,1,1,0,0,0,false,false,true,-467.11,-2086.04,16.99,-0.0037682652,-0.0029428613,0.7848626,-0.6196513,-657.02094,942.751,8.561,0.00040999998,0.0010099999,4.41741
243.85834,2000,0,91.24,0.000002697398,0.000002697398,0.000002697398,0.99999994,0,0,0,0,0,0,1,1,0,0,0,false,false,true,-472.59,-2078.18,16.99,-0.0037089223,-0.0030129936,0.77332574,-0.63399076,-650.141,937.621,8.561,0.00030999997,0.00111,4.39031
243.86667,2000,0,91.24,0.000002697398,0.000002697398,0.000002697398,0.99999994,0,0,0,0,0,0,1,1,0,0,0,false,false,true,-478.00998,-2070.3699,16.99,-0.0036495796,-0.003083126,0.7616014,-0.6480281,-643.33093,932.92096,8.561,0.00030999997,0.00111,4.3586097
243.875,2000,0,91.24,0.000002697398,0.000002697398,0.000002697398,0.99999994,0,0,0,0,0,0,1,1,0,0,0,false,false,true,-483.37,-2062.5999,16.99,-0.0035902371,-0.0031532585,0.7497071,-0.6617525,-636.641,928.631,8.561,0.00030999997,0.00111,4.32231
243.88333,2000,0,91.24,0.000002697398,0.000002697398,0.000002697398,0.99999994,0,0,0,0,0,0,1,1,0,0,0,false,false,true,-488.68,-2054.8599,16.99,-0.0035308944,-0.003223391,0.7376669,-0.6751479,-630.121,924.73096,8.551001,0.00030999997,0.00111,4.28151
243.89166,2000,0,91.24,0.000002697398,0.000002697398,0.000002697398,0.99999994,0,0,0,0,0,0,1,1,0,0,0,false,false,true,-493.93,-2047.1499,16.99,-0.0034715512,-0.0032881282,0.7255072,-0.68819785,-623.80096,921.18097,8.551001,0.00021,0.00111,4.23631
243.9,2000,0,91.24,0.000002697398,0.000002697398,0.000002697398,0.99999994,0,0,0,0,0,0,1,1,0,0,0,false,false,true,-499.12997,-2039.47,16.99,-0.0034122088,-0.003352866,0.7132461,-0.70089734,-617.72095,917.9509,8.551001,0.00021,0.0012099999,4.18671
243.90834,2000,0,91.24,0.000002697398,0.000002697398,0.000002697398,0.99999994,0,0,0,0,0,0,1,1,0,0,0,false,false,true,-504.28,-2031.82,16.99,0.0033528658,0.0034176034,-0.7009134,0.71323013,-611.91095,915.001,8.551001,0.00010999999,0.0012099999,4.13271
243.91667,2000,0,91.24,0.000002697398,0.000002697398,0.000002697398,0.99999994,0,0,0,0,0,0,1,1,0,0,0,false,false,true,-509.37997,-2024.19,16.99,0.0032881282,0.0034769461,-0.6885269,0.7251949,-606.41095,912.30096,8.551001,0,0.0012099999,4.07441
243.925,2000,0,91.24,0.000002697398,0.000002697398,0.000002697398,0.99999994,0,0,0,0,0,0,1,1,0,0,0,false,false,true,-514.43,-2016.59,16.99,0.0032233908,0.0035362889,-0.67611885,0.73677695,-601.24097,909.811,8.551001,0,0.0012099999,4.01191
243.93333,2000,0,91.24,0.000002697398,0.000002697398,0.000002697398,0.99999994,0,0,0,0,0,0,1,1,0,0,0,false,false,true,-519.44,-2009.01,16.99,0.0031586532,0.0035956316,-0.6637108,0.7479739,-596.42096,907.49097,8.541,0,0.0012099999,3.9451098
243.94167,2000,0,91.24,0.000002697398,0.000002697398,0.000002697398,0.99999994,0,0,0,0,0,0,1,1,0,0,0,false,false,true,-524.41,-2001.45,16.99,0.0030939155,0.0036495796,-0.65132433,0.7587843,-591.941,905.28094,8.541,0,0.0012099999,3.87431
243.95,2000,0,91.24,0.000002697398,0.000002697398,0.000002697398,0.99999994,0,0,0,0,0,0,1,1,0,0,0,false,false,true,-529.33997,-1993.9099,16.99,0.003029178,0.0037035276,-0.6389918,0.7691986,-587.80096,903.131,8.541,0,0.0012099999,3.80031
243.95833,2000,0,91.24,0.000002697398,0.000002697398,0.000002697398,0.99999994,0,0,0,0,0,0,1,1,0,0,0,false,false,true,-534.24,-1986.38,16.99,0.0029644405,0.0037574756,-0.62673473,0.7792179,-583.98096,901.001,8.541,0,0.00111,3.72411
243.96666,2000,0,91.24,0.000002697398,0.000002697398,0.000002697398,0.99999994,0,0,0,0,0,0,1,1,0,0,0,false,false,true,-539.11,-1978.87,16.99,0.0029050978,0.0038060287,-0.6145694,0.7888481,-580.47095,898.871,8.541,0,0.0010099999,3.64621
243.975,2000,0,91.24,0.000002697398,0.000002697398,0.000002697398,0.99999994,0,0,0,0,0,0,1,1,0,0,0,false,false,true,-543.95,-1971.38,16.99,0.0028457548,0.0038545819,-0.602512,0.79809535,-577.251,896.73096,8.531,-0.00010999999,0.00091,3.56721
243.98334,2000,0,91.24,0.000002697398,0.000002697398,0.000002697398,0.99999994,0,0,0,0,0,0,1,1,0,0,0,false,false,true,-548.76,-1963.9099,16.99,0.0027864121,0.0038977403,-0.5905841,0.8069618,-574.321,894.55096,8.531,-0.00021,0.00081,3.48751
243.99167,2000,0,91.24,0.000002697398,0.000002697398,0.000002697398,0.99999994,0,0,0,0,0,0,1,1,0,0,0,false,false,true,-553.55,-1956.46,16.99,0.0027270694,0.0039408985,-0.5787964,0.81545794,-571.66095,892.321,8.531,-0.00021,0.00071,3.40741
244,2000,0,91.24,0.000002697398,0.000002697398,0.000002697398,0.99999994,0,0,0,0,0,0,1,1,0,0,0,false,false,true,-558.31,-1949.0199,16.99,0.0026677267,0.003978662,-0.5671598,0.8235938,-569.251,890.02094,8.531,-0.00030999997,0.00061,3.32741
244.00833,2000,0,91.24,0.000002697398,0.000002697398,0.000002697398,0.99999994,0,0,0,0,0,0,1,1,0,0,0,false,false,true,-563.05,-1941.6,16.99,0.0026083838,0.0040164255,-0.555685,0.83137906,-567.09094,887.631,8.531,-0.00030999997,0.00061,3.24781
244.01666,2000,0,91.24,0.000002697398,0.000002697398,0.000002697398,0.99999994,0,0,0,0,0,0,1,1,0,0,0,false,false,true,-567.77997,-1934.2,16.99,0.002549041,0.004054189,-0.5443828,0.83882314,-565.16095,885.15094,8.531,-0.00030999997,0.00051,3.16891
244.025,2000,0,91.24,0.000002697398,0.000002697398,0.000002697398,0.99999994,0,0,0,0,0,0,1,1,0,0,0,false,false,true,-572.49,-1926.82,16.99,0.0024950933,0.004086558,-0.53325874,0.84593856,-563.451,882.561,8.531,-0.00030999997,0.00040999998,3.0910099
244.03334,2000,0,91.24,0.000002697398,0.000002697398,0.000002697398,0.99999994,0,0,0,0,0,0,1,1,0,0,0,false,false,true,-577.19,-1919.47,16.99,0.0024411455,0.0041189273,-0.5223181,0.85273725,-561.941,879.84094,8.531,-0.00030999997,0.00030999997,3.01441
244.04167,2000,0,91.24,0.000002697398,0.000002697398,0.000002697398,0.99999994,0,0,0,0,0,0,1,1,0,0,0,false,false,true,-581.87,-1912.14,16.99,0.0023871972,0.0041512954,-0.51156616,0.85923046,-560.621,876.99097,8.531,-0.00030999997,0.00021,2.93921
244.05,2000,0,91.24,0.000002697398,0.000002697398,0.000002697398,0.99999994,0,0,0,0,0,0,1,1,0,0,0,false,false,true,-586.54,-1904.83,16.99,0.0023332492,0.0041782693,-0.50100315,0.86543214,-559.48096,874.001,8.531,-0.00030999997,0.00010999999,2.86571
244.05833,2000,0,91.24,0.000002697398,0.000002697398,0.000002697398,0.99999994,0,0,0,0,0,0,1,1,0,0,0,false,false,true,-591.2,-1897.5499,16.99,0.0022793014,0.004205243,-0.4906343,0.8713524,-558.501,870.86096,8.531,-0.00021,0.00010999999,2.79411
244.06667,2000,0,91.24,0.000002697398,0.000002697398,0.000002697398,0.99999994,0,0,0,0,0,0,1,1,0,0,0,false,false,true,-595.85,-1890.2899,16.99,0.002230748,0.0042322176,-0.4804543,0.87700665,-557.67096,867.571,8.531,-0.00010999999,0,2.72451
244.075,2000,0,91.24,0.000002697398,0.000002697398,0.000002697398,0.99999994,0,0,0,0,0,0,1,1,0,0,0,false,false,true,-600.5,-1883.0599,16.99,0.0021821947,0.004259191,-0.4704684,0.8824037,-556.98096,864.121,8.531,-0.00010999999,0,2.65711
244.08333,2000,0,91.24,0.000002697398,0.000002697398,0.000002697398,0.99999994,0,0,0,0,0,0,1,1,0,0,0,false,false,true,-605.14,-1875.86,16.99,0.0021336419,0.0042807707,-0.4606715,0.88755774,-556.42096,860.511,8.531,-0.00010999999,0,2.59201
244.09166,2000,0,91.24,0.000002697398,0.000002697398,0.000002697398,0.99999994,0,0,0,0,0,0,1,1,0,0,0,false,false,true,-609.77997,-1868.69,16.99,0.0020850888,0.0043023503,-0.45105797,0.8924818,-555.97095,856.74097,8.531,0,0,2.52941
244.1,2000,0,91.24,0.000002697398,0.000002697398,0.000002697398,0.99999994,0,0,0,0,0,0,1,1,0,0,0,false,false,true,-614.41,-1861.5499,16.99,0.0020419303,0.004323929,-0.4416278,0.8971855,-555.621,852.80096,8.531,0,-0.00010999999,2.46931
244.10834,2000,0,91.24,0.000002697398,0.000002697398,0.000002697398,0.99999994,0,0,0,0,0,0,1,1,0,0,0,false,false,true,-619.04,-1854.44,16.99,0.0019987721,0.0043455088,-0.4323757,0.9016808,-555.371,848.691,8.521,0,-0.00010999999,2.41191
244.11667,2000,0,91.24,0.000002697398,0.000002697398,0.000002697398,0.99999994,0,0,0,0,0,0,1,1,0,0,0,false,false,true,-623.67,-1847.37,16.99,0.0019556135,0.0043670875,-0.4232908,0.9059812,-555.17096,844.3909,8.521,0,-0.00021,2.35711
244.125,2000,0,91.24,0.000002697398,0.000002697398,0.000002697398,0.99999994,0,0,0,0,0,0,1,1,0,0,0,false,false,true,-628.3,-1840.33,16.99,0.0019124552,0.0043832716,-0.4143732,0.91009444,-555.001,839.91095,8.521,0,-0.00030999997,2.30471
244.13333,2000,0,91.24,0.000002697398,0.000002697398,0.000002697398,0.99999994,0,0,0,0,0,0,1,1,0,0,0,false,false,true,-632.92,-1833.33,16.99,0.001869297,0.0043994565,-0.405612,0.9140328,-554.84094,835.251,8.521,0,-0.00030999997,2.25461
244.14166,2000,0,91.24,0.000002697398,0.000002697398,0.000002697398,0.99999994,0,0,0,0,0,0,1,1,0,0,0,false,false,true,-637.54,-1826.37,16.99,0.0018261382,0.00441564,-0.39700723,0.9178029,-554.68097,830.43097,8.521,0,-0.00030999997,2.20661
244.15,2000,0,91.24,0.000002697398,0.000002697398,0.000002697398,0.99999994,0,0,0,0,0,0,1,1,0,0,0,false,false,true,-642.16,-1819.45,16.99,0.001788375,0.0044318247,-0.38855356,0.92141366,-554.501,825.4509,8.521,0.00010999999,-0.00030999997,2.1607099
244.15834,2000,0,91.24,0.000002697398,0.000002697398,0.000002697398,0.99999994,0,0,0,0,0,0,1,1,0,0,0,false,false,true,-646.77997,-1812.57,16.99,0.0017506114,0.004448009,-0.38024014,0.9248754,-554.28094,820.321,8.521,0.00010999999,-0.00030999997,2.1168098
244.16667,2000,0,91.24,0.000002697398,0.000002697398,0.000002697398,0.99999994,0,0,0,0,0,0,1,1,0,0,0,false,false,true,-651.39996,-1805.73,16.99,0.0017128477,0.0044641937,-0.37206703,0.9281935,-554.02094,815.05096,8.521,0.00010999999,-0.00030999997,2.07481
244.175,2000,0,91.24,0.000002697398,0.000002697398,0.000002697398,0.99999994,0,0,0,0,0,0,1,1,0,0,0,false,false,true,-656.01996,-1798.94,16.99,0.0016750843,0.0044803787,-0.36402878,0.9313754,-553.71094,809.65094,8.521,0.00010999999,-0.00030999997,2.03471
244.18333,2000,0,91.24,0.000002697398,0.000002697398,0.000002697398,0.99999994,0,0,0,0,0,0,1,1,0,0,0,false,false,true,-660.63,-1792.19,16.99,0.0016373206,0.0044911676,-0.35611993,0.934428,-553.331,804.131,8.521,0.00010999999,-0.00040999998,1.99641
244.19167,2000,0,91.24,0.000002697398,0.000002697398,0.000002697398,0.99999994,0,0,0,0,0,0,1,1,0,0,0,false,false,true,-665.24,-1785.49,16.99,0.001599557,0.0045019574,-0.34833524,0.9373578,-552.881,798.49097,8.521,0.00021,-0.00040999998,1.95981
244.2,2000,0,91.24,0.000002697398,0.000002697398,0.000002697398,0.99999994,0,0,0,0,0,0,1,1,0,0,0,false,false,true,-669.85,-1778.84,16.99,0.0015617936,0.0045127473,-0.3406692,0.94017106,-552.35095,792.74097,8.521,0.00021,-0.00040999998,1.92491
244.20833,2000,0,91.24,0.000002697398,0.000002697398,0.000002697398,0.99999994,0,0,0,0,0,0,1,1,0,0,0,false,false,true,-674.45,-1772.23,16.99,0.0015294247,0.004523536,-0.33311644,0.94287354,-551.73096,786.8909,8.521,0.00030999997,-0.00040999998,1.8916099
244.21666,2000,0,91.24,0.000002697398,0.000002697398,0.000002697398,0.99999994,0,0,0,0,0,0,1,1,0,0,0,false,false,true,-679.05,-1765.6699,16.99,0.0014970559,0.004534326,-0.32567698,0.94546896,-551.011,780.951,8.521,0.00030999997,-0.00040999998,1.85991
244.225,2000,0,91.24,0.000002697398,0.000002697398,0.000002697398,0.99999994,0,0,0,0,0,0,1,1,0,0,0,false,false,true,-683.64,-1759.1599,16.99,0.0014646873,0.004545116,-0.31834006,0.94796455,-550.191,774.93097,8.521,0.00030999997,-0.00040999998,1.82971
244.23334,2000,0,91.24,0.000002697398,0.000002697398,0.000002697398,0.99999994,0,0,0,0,0,0,1,1,0,0,0,false,false,true,-688.22,-1752.7,16.99,0.0014323182,0.004555905,-0.31110555,0.9503632,-549.261,768.83093,8.521,0.00030999997,-0.00030999997,1.80101
244.24167,2000,0,91.24,0.000002697398,0.000002697398,0.000002697398,0.99999994,0,0,0,0,0,0,1,1,0,0,0,false,false,true,-692.8,-1746.2899,16.99,0.0013999497,0.004566695,-0.3039629,0.9526719,-548.22095,762.66095,8.521,0.00030999997,-0.00030999997,1.7738099
244.25,2000,0,91.24,0.000002697398,0.000002697398,0.000002697398,0.99999994,0,0,0,0,0,0,1,1,0,0,0,false,false,true,-697.37,-1739.9299,16.99,0.0013675808,0.0045774844,-0.29691184,0.9548929,-547.061,756.42096,8.521,0.00030999997,-0.00030999997,1.7481099
244.25833,2000,0,91.24,0.000002697398,0.000002697398,0.000002697398,0.99999994,0,0,0,0,0,0,1,1,0,0,0,false,false,true,-701.93,-1733.63,16.99,0.0013352119,0.0045882734,-0.28994706,0.9570306,-545.78094,750.131,8.521,0.00030999997,-0.00030999997,1.72381
244.26666,2000,0,91.24,0.000002697398,0.000002697398,0.000002697398,0.99999994,0,0,0,0,0,0,1,1,0,0,0,false,false,true,-706.48,-1727.38,16.99,0.0013028431,0.004599063,-0.28306332,0.95908916,-544.381,743.78094,8.521,0.00030999997,-0.00030999997,1.70091
244.275,2000,0,91.24,0.000002697398,0.000002697398,0.000002697398,0.99999994,0,0,0,0,0,0,1,1,0,0,0,false,false,true,-711.01996,-1721.1799,16.99,0.0012704746,0.0046098535,-0.2762605,0.9610709,-542.85095,737.3909,8.521,0.00030999997,-0.00030999997,1.67941
244.28334,2000,0,91.24,0.000002697398,0.000002697398,0.000002697398,0.99999994,0,0,0,0,0,0,1,1,0,0,0,false,false,true,-715.54,-1715.0299,16.99,0.0012381056,0.0046152477,-0.26952767,0.9629806,-541.18097,730.96094,8.521,0.00030999997,-0.00040999998,1.65921
244.29167,2000,0,91.24,0.000002697398,0.000002697398,0.000002697398,0.99999994,0,0,0,0,0,0,1,1,0,0,0,false,false,true,-720.05,-1708.94,16.99,0.001205737,0.0046206433,-0.26286516,0.96482074,-539.381,724.501,8.521,0.00030999997,-0.00040999998,1.64041
244.3,2000,0,91.24,0.000002697398,0.000002697398,0.000002697398,0.99999994,0,0,0,0,0,0,1,1,0,0,0,false,false,true,-724.54,-1702.8999,16.99,0.001173368,0.004626037,-0.25626183,0.9665955,-537.441,718.011,8.521,0.00030999997,-0.00040999998,1.62291
244.30833,2000,0,91.24,0.000002697398,0.000002697398,0.000002697398,0.99999994,0,0,0,0,0,0,1,1,0,0,0,false,false,true,-729.01996,-1696.9199,16.99,0.0011463942,0.0046314322,-0.249718,0.9683068,-535.36096,711.501,8.521,0.00040999998,-0.00040999998,1.60671
244.31667,2000,0,91.24,0.000002697398,0.000002697398,0.000002697398,0.99999994,0,0,0,0,0,0,1,1,0,0,0,false,false,true,-733.48,-1690.99,16.99,0.0011194202,0.004636827,-0.243228,0.96995735,-533.141,704.98096,8.521,0.00040999998,-0.00030999997,1.59191
244.325,2000,0,91.24,0.000002697398,0.000002697398,0.000002697398,0.99999994,0,0,0,0,0,0,1,1,0,0,0,false,false,true,-737.92,-1685.11,16.99,0.0010924462,0.004642222,-0.23678657,0.9715499,-530.77094,698.451,8.521,0.00040999998,-0.00030999997,1.57841
244.33333,2000,0,91.24,0.000002697398,0.000002697398,0.000002697398,0.99999994,0,0,0,0,0,0,1,1,0,0,0,false,false,true,-742.33997,-1679.2899,16.99,0.0010654721,0.0046476168,-0.23039375,0.97308576,-528.251,691.92096,8.521,0.00040999998,-0.00021,1.56621
244.34166,2000,0,91.24,0.000002697398,0.000002697398,0.000002697398,0.99999994,0,0,0,0,0,0,1,1,0,0,0,false,false,true,-746.74,-1673.52,16.99,0.0010384982,0.0046530114,-0.22403863,0.97456855,-525.59094,685.391,8.521,0.00030999997,-0.00021,1.55531
244.35,2000,0,91.24,0.000002697398,0.000002697398,0.000002697398,0.99999994,0,0,0,0,0,0,1,1,0,0,0,false,false,true,-751.12,-1667.8099,16.99,0.0010115242,0.004658406,-0.21771593,0.9760005,-522.77094,678.871,8.521,0.00030999997,-0.00021,1.54561
244.35834,2000,0,91.24,0.000002697398,0.000002697398,0.000002697398,0.99999994,0,0,0,0,0,0,1,1,0,0,0,false,false,true,-755.48,-1662.1499,16.99,0.0009845502,0.0046638013,-0.21142556,0.9773824,-519.80096,672.371,8.521,0.00030999997,-0.00010999999,1.53721
244.36667,2000,0,91.24,0.000002697398,0.000002697398,0.000002697398,0.99999994,0,0,0,0,0,0,1,1,0,0,0,false,false,true,-759.81,-1656.5499,16.99,0.0009575763,0.004669196,-0.2051622,0.9787163,-516.68097,665.891,8.521,0.00021,-0.00010999999,1.53011
244.375,2000,0,91.24,0.000002697398,0.000002697398,0.000002697398,0.99999994,0,0,0,0,0,0,1,1,0,0,0,false,false,true,-764.12,-1651,16.99,0.0009306024,0.004674591,-0.1989204,0.980004,-513.40094,659.43097,8.521,0.00021,-0.00010999999,1.52431
244.38333,2000,0,91.24,0.000002697398,0.000002697398,0.000002697398,0.99999994,0,0,0,0,0,0,1,1,0,0,0,false,false,true,-768.39996,-1645.5,16.99,0.00090362836,0.0046799853,-0.19269474,0.9812471,-509.961,653.001,8.521,0.00021,-0.00010999999,1.51981
244.39166,2000,0,91.24,0.000002697398,0.000002697398,0.000002697398,0.99999994,0,0,0,0,0,0,1,1,0,0,0,false,false,true,-772.64996,-1640.0599,16.99,0.0008766544,0.004685381,-0.18647456,0.9824482,-506.371,646.61096,8.521,0.00010999999,-0.00010999999,1.51661
244.4,2000,0,91.24,0.000002697398,0.000002697398,0.000002697398,0.99999994,0,0,0,0,0,0,1,1,0,0,0,false,false,true,-776.87,-1634.6699,16.99,0.0008496804,0.004690775,-0.18026508,0.98360646,-502.621,640.261,8.521,0.00010999999,-0.00010999999,1.51471
244.40834,2000,0,91.24,0.000002697398,0.000002697398,0.000002697398,0.99999994,0,0,0,0,0,0,1,1,0,0,0,false,false,true,-781.06,-1629.33,16.99,0.00082270644,0.00469617,-0.17405568,0.9847242,-498.701,633.96094,8.521,0.00010999999,-0.00010999999,1.51421
244.41667,2000,0,91.24,0.000002697398,0.000002697398,0.000002697398,0.99999994,0,0,0,0,0,0,1,1,0,0,0,false,false,true,-785.22,-1624.0499,16.99,0.0007957324,0.0047015646,-0.16784082,0.98580253,-494.621,627.71094,8.521,0.00010999999,-0.00010999999,1.51501
244.425,2000,0,91.24,0.000002697398,0.000002697398,0.000002697398,0.99999994,0,0,0,0,0,0,1,1,0,0,0,false,false,true,-789.33997,-1618.82,16.99,0.0007687585,0.0047069597,-0.16161524,0.9868423,-490.38098,621.52094,8.521,0,-0.00010999999,1.51711
244.43333,2000,0,91.24,0.000002697398,0.000002697398,0.000002697398,0.99999994,0,0,0,0,0,0,1,1,0,0,0,false,false,true,-793.43,-1613.64,16.99,0.00074178446,0.0047123544,-0.15537341,0.9878442,-485.971,615.391,8.521,0,-0.00010999999,1.52061
244.44167,2000,0,91.24,0.000002697398,0.000002697398,0.000002697398,0.99999994,0,0,0,0,0,0,1,1,0,0,0,false,false,true,-797.48,-1608.51,16.99,0.0007094157,0.004717749,-0.14911,0.98880905,-481.401,609.33093,8.521,0,-0.00010999999,1.52551
244.45,2000,0,91.24,0.000002697398,0.000002697398,0.000002697398,0.99999994,0,0,0,0,0,0,1,1,0,0,0,false,false,true,-801.49,-1603.4299,16.99,0.0006770469,0.0047231438,-0.14281967,0.98973715,-476.661,603.35095,8.521,0,-0.00010999999,1.5318099
244.45833,2000,0,91.24,0.000002697398,0.000002697398,0.000002697398,0.99999994,0,0,0,0,0,0,1,1,0,0,0,false,false,true,-805.45996,-1598.4,16.99,0.00064467813,0.0047285384,-0.13650233,0.9906282,-471.751,597.451,8.521,0,-0.00021,1.53951
244.46666,2000,0,91.24,0.000002697398,0.000002697398,0.000002697398,0.99999994,0,0,0,0,0,0,1,1,0,0,0,false,false,true,-809.38995,-1593.4199,16.99,0.00061230926,0.004733933,-0.13014725,0.99148303,-466.671,591.641,8.521,0,-0.00021,1.54871
244.475,2000,0,91.24,0.000002697398,0.000002697398,0.000002697398,0.99999994,0,0,0,0,0,0,1,1,0,0,0,false,false,true,-813.27997,-1588.49,16.99,0.00057994056,0.0047393283,-0.123748995,0.992302,-461.421,585.93097,8.521,0.00010999999,-0.00030999997,1.55931
244.48334,2000,0,91.24,0.000002697398,0.000002697398,0.000002697398,0.99999994,0,0,0,0,0,0,1,1,0,0,0,false,false,true,-817.13,-1583.61,16.99,0.0005475718,0.0047393283,-0.11729682,0.9930854,-455.991,580.321,8.521,0.00021,-0.00030999997,1.57141
244.49167,2000,0,91.24,0.000002697398,0.000002697398,0.000002697398,0.99999994,0,0,0,0,0,0,1,1,0,0,0,false,false,true,-820.93,-1578.77,16.99,0.000515203,0.0047393283,-0.110790655,0.9938323,-450.391,574.821,8.521,0.00030999997,-0.00030999997,1.58511
244.5,2000,0,91.24,0.000002697398,0.000002697398,0.000002697398,0.99999994,0,0,0,0,0,0,1,1,0,0,0,false,false,true,-824.68,-1573.98,16.99,0.00048283426,0.0047393283,-0.104225144,0.99454224,-444.611,569.441,8.521,0.00030999997,-0.00030999997,1.60041
244.50833,2000,0,91.24,0.000002697398,0.000002697398,0.000002697398,0.99999994,0,0,0,0,0,0,1,1,0,0,0,false,false,true,-828.38995,-1569.23,16.99,0.00045046548,0.0047393283,-0.097589545,0.9952153,-438.651,564.191,8.521,0.00040999998,-0.00030999997,1.6173099
244.51666,2000,0,91.24,0.000002697398,0.000002697398,0.000002697398,0.99999994,0,0,0,0,0,0,1,1,0,0,0,false,false,true,-832.05,-1564.5299,16.99,0.0004180967,0.0047393283,-0.090878375,0.99585056,-432.521,559.071,8.521,0.00051,-0.00021,1.6359099
244.525,2000,0,91.24,0.000002697398,0.000002697398,0.000002697398,0.99999994,0,0,0,0,0,0,1,1,0,0,0,false,false,true,-835.64996,-1559.87,16.99,0.0003857279,0.0047393283,-0.08408633,0.9964471,-426.211,554.09094,8.521,0.00051,-0.00021,1.65621
244.53334,2000,0,91.24,0.000002697398,0.000002697398,0.000002697398,0.99999994,0,0,0,0,0,0,1,1,0,0,0,false,false,true,-839.19995,-1555.25,16.99,0.00035335915,0.0047393283,-0.077207915,0.9970036,-419.721,549.27094,8.521,0.00061,-0.00010999999,1.6783099
244.54167,2000,0,91.24,0.000002697398,0.000002697398,0.000002697398,0.99999994,0,0,0,0,0,0,1,1,0,0,0,false,false,true,-842.69995,-1550.6699,16.99,0.0003209904,0.0047393288,-0.07023241,0.9975193,-413.041,544.61096,8.521,0.00061,-0.00010999999,1.70231
244.55,2000,0,91.24,0.000002697398,0.000002697398,0.000002697398,0.99999994,0,0,0,0,0,0,1,1,0,0,0,false,false,true,-846.13995,-1546.13,16.99,0.00028862158,0.0047393283,-0.06315443,0.9979924,-406.181,540.121,8.521,0.00061,0,1.72821
244.55833,2000,0,91.24,0.000002697398,0.000002697398,0.000002697398,0.99999994,0,0,0,0,0,0,1,1,0,0,0,false,false,true,-849.51996,-1541.63,16.99,0.0002562528,0.0047393283,-0.055968523,0.9984212,-399.141,535.821,8.521,0.00061,0,1.75611
244.56667,2000,0,91.24,0.000002697398,0.000002697398,0.000002697398,0.99999994,0,0,0,0,0,0,1,1,0,0,0,false,false,true,-852.85,-1537.1599,16.99,0.00022388405,0.0047393288,-0.04866393,0.9988039,-391.911,531.71094,8.521,0.00071,0,1.78601
244.575,2000,0,91.24,0.000002697398,0.000002697398,0.000002697398,0.99999994,0,0,0,0,0,0,1,1,0,0,0,false,false,true,-856.12,-1532.73,16.99,0.00019151528,0.0047393288,-0.0412299,0.9991384,-384.501,527.811,8.521,0.00071,0,1.81811
244.58333,2000,0,91.24,0.000002697398,0.000002697398,0.000002697398,0.99999994,0,0,0,0,0,0,1,1,0,0,0,false,false,true,-859.32,-1528.33,16.99,0.00015914648,0.0047393283,-0.033660956,0.999422,-376.901,524.131,8.521,0.00071,0,1.85251
244.59166,2000,0,91.24,0.000002697398,0.000002697398,0.000002697398,0.99999994,0,0,0,0,0,0,1,1,0,0,0,false,false,true,-862.45996,-1523.96,16.99,0.0001267777,0.0047393283,-0.025946356,0.999652,-369.111,520.691,8.521,0.00071,0,1.88921
244.6,2000,0,91.24,0.000002697398,0.000002697398,0.000002697398,0.99999994,0,0,0,0,0,0,1,1,0,0,0,false,false,true,-865.54,-1519.62,16.99,0.000094408926,0.004739328,-0.018075347,0.99982524,-361.141,517.501,8.521,0.00071,0,1.9284099
244.60834,2000,0,91.24,0.000002697398,0.000002697398,0.000002697398,0.99999994,0,0,0,0,0,0,1,1,0,0,0,false,false,true,-868.55,-1515.3099,16.99,0.000056645364,0.0047393288,-0.010042456,0.9999383,-352.981,514.581,8.521,0.00071,0,1.97031
244.61667,2000,0,91.24,0.000002697398,0.000002697398,0.000002697398,0.99999994,0,0,0,0,0,0,1,1,0,0,0,false,false,true,-871.49,-1511.02,16.99,0.000018881788,0.0047393288,-0.0018315334,0.99998707,-344.631,511.951,8.521,0.00071,0,2.0150099
244.625,2000,0,91.24,0.000002697398,0.000002697398,0.000002697398,0.99999994,0,0,0,0,0,0,1,1,0,0,0,false,false,true,-874.36,-1506.75,16.99,-0.000018881788,0.0047393288,0.00656277,0.9999672,-336.101,509.63098,8.521,0.00071,0,2.06261
244.63333,2000,0,91.24,0.000002697398,0.000002697398,0.000002697398,0.99999994,0,0,0,0,0,0,1,1,0,0,0,false,false,true,-877.16,-1502.5,16.99,-0.000056645364,0.0047393288,0.0151567655,0.9998739,-327.381,507.641,8.521,0.00071,0,2.11341
244.64166,2000,0,91.24,0.000002697398,0.000002697398,0.000002697398,0.99999994,0,0,0,0,0,0,1,1,0,0,0,false,false,true,-879.88995,-1498.27,16.99,-0.00009440893,0.0047393283,0.02396107,0.9997016,-318.481,506.001,8.521,0.00071,0,2.16761
244.65,2000,0,91.24,0.000002697398,0.000002697398,0.000002697398,0.99999994,0,0,0,0,0,0,1,1,0,0,0,false,false,true,-882.54,-1494.0499,16.99,-0.0001321725,0.0047393283,0.032986563,0.9994445,-309.401,504.741,8.521,0.00071,0,2.22551
244.65834,2000,0,91.24,0.000002697398,0.000002697398,0.000002697398,0.99999994,0,0,0,0,0,0,1,1,0,0,0,false,false,true,-885.12,-1489.84,16.99,-0.00017533088,0.0047393283,0.04225491,0.99909556,-300.141,503.721,8.521,0.00071,0,2.28251
244.66667,2000,0,91.24,0.000002697398,0.000002697398,0.000002697398,0.99999994,0,0,0,0,0,0,1,1,0,0,0,false,false,true,-887.62,-1485.64,16.99,-0.00021848925,0.0047393283,0.051755145,0.99864846,-290.701,502.951,8.521,0.00061,0,2.33851
244.675,2000,0,91.24,0.000002697398,0.000002697398,0.000002697398,0.99999994,0,0,0,0,0,0,1,1,0,0,0,false,false,true,-890.04,-1481.45,16.99,-0.0002616476,0.0047393283,0.06148205,0.9980968,-281.071,502.471,8.521,0.00061,0,2.39361
244.68333,2000,0,91.24,0.000002697398,0.000002697398,0.000002697398,0.99999994,0,0,0,0,0,0,1,1,0,0,0,false,false,true,-892.38,-1477.26,16.99,-0.00030480602,0.004733934,0.07143545,0.9974339,-271.261,502.301,8.521,0.00061,0,2.44791
244.69167,2000,0,91.24,0.000002697398,0.000002697398,0.000002697398,0.99999994,0,0,0,0,0,0,1,1,0,0,0,false,false,true,-894.63995,-1473.07,16.99,-0.00034796435,0.0047285384,0.08160472,0.99665344,-261.271,502.471,8.521,0.00051,0,2.50161
244.7,2000,0,91.24,0.000002697398,0.000002697398,0.000002697398,0.99999994,0,0,0,0,0,0,1,1,0,0,0,false,false,true,-896.82,-1468.88,16.99,-0.00039651754,0.004723144,0.09198971,0.99574864,-251.11101,502.921,8.521,0.00040999998,0,2.55251
244.70833,2000,0,91.24,0.000002697398,0.000002697398,0.000002697398,0.99999994,0,0,0,0,0,0,1,1,0,0,0,false,false,true,-898.91,-1464.69,16.99,-0.00044507062,0.0047177486,0.10257437,0.9947139,-240.781,503.641,8.521,0.00030999997,0,2.59971
244.71666,2000,0,91.24,0.000002697398,0.000002697398,0.000002697398,0.99999994,0,0,0,0,0,0,1,1,0,0,0,false,false,true,-900.92,-1460.49,16.99,-0.00049362384,0.0047123544,0.11334239,0.99354464,-230.281,504.661,8.521,0.00010999999,0,2.64341
244.725,2000,0,91.24,0.000002697398,0.000002697398,0.000002697398,0.99999994,0,0,0,0,0,0,1,1,0,0,0,false,false,true,-902.83997,-1456.2799,16.99,-0.00054757186,0.00470696,0.12427773,0.99223614,-219.61101,506.021,8.521,0,0.00010999999,2.6835098
244.73334,2000,0,91.24,0.000002697398,0.000002697398,0.000002697398,0.99999994,0,0,0,0,0,0,1,1,0,0,0,false,false,true,-904.67,-1452.0599,16.99,-0.0006015198,0.0047015646,0.13536403,0.9907845,-208.781,507.751,8.521,-0.00010999999,0.00010999999,2.7202098
244.74167,2000,0,91.24,0.000002697398,0.000002697398,0.000002697398,0.99999994,0,0,0,0,0,0,1,1,0,0,0,false,false,true,-906.41,-1447.83,16.99,-0.0006554677,0.0046961694,0.14658527,0.9891865,-197.851,509.721,8.521,-0.00010999999,0.00010999999,2.75431
244.75,2000,0,91.24,0.000002697398,0.000002697398,0.000002697398,0.99999994,0,0,0,0,0,0,1,1,0,0,0,false,false,true,-908.06,-1443.58,16.99,-0.0007094157,0.004690775,0.15792514,0.98743963,-186.851,511.911,8.521,-0.00010999999,0.00010999999,2.78621
244.75833,2000,0,91.24,0.000002697398,0.000002697398,0.000002697398,0.99999994,0,0,0,0,0,0,1,1,0,0,0,false,false,true,-909.62,-1439.3099,16.99,-0.00076336367,0.0046853805,0.16937838,0.9855396,-175.781,514.35095,8.521,-0.00010999999,0.00010999999,2.81581
244.76666,2000,0,91.24,0.000002697398,0.000002697398,0.000002697398,0.99999994,0,0,0,0,0,0,1,1,0,0,0,false,false,true,-911.07996,-1435.02,16.99,-0.0008173117,0.004674591,0.18092866,0.98348475,-164.851,516.91095,8.521,-0.00010999999,0.00010999999,2.84111
244.775,2000,0,91.24,0.000002697398,0.000002697398,0.000002697398,0.99999994,0,0,0,0,0,0,1,1,0,0,0,false,false,true,-912.44995,-1430.71,16.99,-0.00087125966,0.0046638018,0.19255993,0.9812737,-154.131,519.571,8.521,-0.00010999999,0.00010999999,2.86181
244.78334,2000,0,91.24,0.000002697398,0.000002697398,0.000002697398,0.99999994,0,0,0,0,0,0,1,1,0,0,0,false,false,true,-913.73,-1426.38,16.99,-0.00092520757,0.0046530114,0.20424505,0.97890824,-143.621,522.36096,8.521,-0.00021,0.00021,2.87801
244.79167,2000,0,91.24,0.000002697398,0.000002697398,0.000002697398,0.99999994,0,0,0,0,0,0,1,1,0,0,0,false,false,true,-914.93,-1422.0299,16.99,-0.0009791555,0.0046422225,0.21596803,0.9763889,-133.311,525.30096,8.521,-0.00030999997,0.00021,2.88961
244.8,2000,0,91.24,0.000002697398,0.000002697398,0.000002697398,0.99999994,0,0,0,0,0,0,1,1,0,0,0,false,false,true,-916.04,-1417.65,16.99,-0.0010384982,0.0046314322,0.2277071,0.97371805,-123.241,528.23096,8.521,-0.00030999997,0.00021,2.9007099
244.80833,2000,0,91.24,0.000002697398,0.000002697398,0.000002697398,0.99999994,0,0,0,0,0,0,1,1,0,0,0,false,false,true,-917.07,-1413.25,16.99,-0.001097841,0.004620643,0.23945704,0.9708953,-113.410995,531.121,8.521,-0.00030999997,0.00021,2.91241
244.81667,2000,0,91.24,0.000002697398,0.000002697398,0.000002697398,0.99999994,0,0,0,0,0,0,1,1,0,0,0,false,false,true,-918.01996,-1408.82,16.99,-0.0011571837,0.0046098526,0.25122306,0.9679174,-103.811,533.99097,8.521,-0.00030999997,0.00021,2.92461
244.825,2000,0,91.24,0.000002697398,0.000002697398,0.000002697398,0.99999994,0,0,0,0,0,0,1,1,0,0,0,false,false,true,-918.88,-1404.37,16.99,-0.0012165266,0.004599064,0.26300004,0.9647841,-94.440994,536.85095,8.521,-0.00021,0.00010999999,2.9372098
244.83333,2000,0,91.24,0.000002697398,0.000002697398,0.000002697398,0.99999994,0,0,0,0,0,0,1,1,0,0,0,false,false,true,-919.67,-1399.9,16.99,-0.0012758692,0.004582879,0.27478763,0.96149313,-85.291,539.71094,8.521,-0.00021,0,2.9500098
244.84166,2000,0,91.24,0.000002697398,0.000002697398,0.000002697398,0.99999994,0,0,0,0,0,0,1,1,0,0,0,false,false,true,-920.38,-1395.4,16.99,-0.001335212,0.0045666946,0.28658614,0.9580426,-76.370995,542.581,8.521,-0.00010999999,0,2.9630098
244.85,2000,0,91.24,0.000002697398,0.000002697398,0.000002697398,0.99999994,0,0,0,0,0,0,1,1,0,0,0,false,false,true,-921.01996,-1390.88,16.99,-0.0013945547,0.0045505106,0.29839003,0.9544321,-67.671,545.48096,8.521,-0.00010999999,0,2.97611
244.85834,2000,0,91.24,0.000002697398,0.000002697398,0.000002697398,0.99999994,0,0,0,0,0,0,1,1,0,0,0,false,false,true,-921.57996,-1386.33,16.99,-0.0014538975,0.0045343256,0.31020463,0.9506577,-59.190998,548.41095,8.521,0,0,2.98931
244.86667,2000,0,91.24,0.000002697398,0.000002697398,0.000002697398,0.99999994,0,0,0,0,0,0,1,1,0,0,0,false,false,true,-922.07,-1381.76,16.99,-0.0015078455,0.0045181415,0.32201934,0.9467211,-50.931,551.381,8.521,0,0,3.0025098
244.875,2000,0,91.24,0.000002697398,0.000002697398,0.000002697398,0.99999994,0,0,0,0,0,0,1,1,0,0,0,false,false,true,-922.49,-1377.1699,16.99,-0.0015617936,0.0044965628,0.33383936,0.94261795,-42.900997,554.40094,8.521,0,0,3.0157099
244.88333,2000,0,91.24,0.000002697398,0.000002697398,0.000002697398,0.99999994,0,0,0,0,0,0,1,1,0,0,0,false,false,true,-922.85,-1372.5499,16.99,-0.0016157414,0.004474983,0.3456594,0.93834794,-35.100998,557.48096,8.521,0,0,3.02891
244.89166,2000,0,91.24,0.000002697398,0.000002697398,0.000002697398,0.99999994,0,0,0,0,0,0,1,1,0,0,0,false,false,true,-923.13995,-1367.9,16.99,-0.0016696894,0.004453404,0.35747403,0.9339109,-27.530998,560.621,8.521,0,0,3.0420098
244.90834,2000,0,91.24,0.000002697398,0.000002697398,0.000002697398,0.99999994,0,0,0,0,0,0,1,1,0,0,0,false,false,true,-923.54,-1358.53,16.99,-0.0017829799,0.004410245,0.3810817,0.92452896,-13.101,567.10095,8.521,-0.00021,0,3.06791
244.91667,2000,0,91.24,0.000002697398,0.000002697398,0.000002697398,0.99999994,0,0,0,0,0,0,1,1,0,0,0,false,false,true,-923.64996,-1353.7999,16.99,-0.0018423229,0.0043886667,0.39286944,0.9195819,-6.2609997,570.451,8.521,-0.00021,0,3.08061
244.925,2000,0,91.24,0.000002697398,0.000002697398,0.000002697398,0.99999994,0,0,0,0,0,0,1,1,0,0,0,false,false,true,-923.69995,-1349.0499,16.99,-0.0019016658,0.004367088,0.4046409,0.9144632,0.32099998,573.871,8.521,-0.00021,0,3.09321
244.93333,2000,0,91.24,0.000002697398,0.000002697398,0.000002697398,0.99999994,0,0,0,0,0,0,1,1,0,0,0,false,false,true,-923.69995,-1344.27,16.99,-0.0019610086,0.0043401136,0.41639087,0.9091732,6.641,577.36096,8.521,-0.00010999999,0,3.10561
244.94167,2000,0,91.24,0.000002697398,0.000002697398,0.000002697398,0.99999994,0,0,0,0,0,0,1,1,0,0,0,false,false,true,-923.63995,-1339.46,16.99,-0.0020149562,0.0043131392,0.42811912,0.9037097,12.691,580.93097,8.521,-0.00010999999,0,3.11781
