time,ball_loc_x,ball_loc_y,ball_loc_z,ball_rot_x,ball_rot_y,ball_rot_z,ball_rot_w,ball_vel_x,ball_vel_y,ball_vel_z,ball_ang_x,ball_ang_y,ball_ang_z,player0_throttle,player0_steer,player0_pitch,player0_yaw,player0_roll,player0_jump,player0_boost,player0_handbrake,player0_loc_x,player0_loc_y,player0_loc_z,player0_rot_x,player0_rot_y,player0_rot_z,player0_rot_w,player0_vel_x,player0_vel_y,player0_vel_z,player0_ang_x,player0_ang_y,player0_ang_z
81.683334,2000,0,91.24,0.000002697398,0.000002697398,0.000002697398,0.99999994,0,0,0,0,0,0,0,0,0,0,0,false,false,false,0,0.14,17.01,-0.00336905,0.0033798397,0.7071014,0.7070959,0,0.011,8.321,-0.00051,0,0
81.691666,2000,0,73,0.000002697398,0.000002697398,0.000002697398,0.99999994,0,0,0,0,0,0,0.5984252,0,0,0,0,false,false,false,0,0,16.94,0.0000026973983,0.0000026973983,0.70710677,0.70710677,0,0,2.041,-0.050809998,0,0
81.7,2000,0,87.6,0.000002697398,0.000002697398,0.000002697398,0.99999994,0,0,0,0,0,0,0.5984252,0,0,0,0,false,false,false,0,0,16.89,-0.00014835689,0.00015375168,0.7071067,0.7071067,0,7.9709997,3.8809998,-0.085609995,0,0
81.708336,2000,0,90.52,0.000002697398,0.000002697398,0.000002697398,0.99999994,0,0,0,0,0,0,0.5984252,0,0,0,0,false,false,false,0,0.07,16.85,-0.00040191234,0.00040730715,0.70710653,0.70710677,0,15.901,5.481,-0.107209995,0,0
81.71667,2000,0,91.1,0.000002697398,0.000002697398,0.000002697398,0.99999994,0,0,0,0,0,0,0.5984252,0,0,0,0,false,false,false,0,0.19999999,16.83,-0.00072020525,0.00072560005,0.7071067,0.707106,0,23.790998,6.791,-0.11630999,0,0
81.725,2000,0,91.22,0.000002697398,0.000002697398,0.000002697398,0.99999994,0,0,0,0,0,0,0.5984252,0,0,0,0,false,false,false,0,0.39999998,16.82,-0.0010654721,0.001070867,0.70710516,0.7071067,0,31.640999,7.7409997,-0.114609994,0,0
81.73333,2000,0,91.24,0.000002697398,0.000002697398,0.000002697398,0.99999994,0,0,0,0,0,0,0.5984252,0,0,0,0,false,false,false,0,0.65999997,16.82,-0.0014053443,0.0014107391,0.7071067,0.70710397,0,39.451,8.431,-0.10660999,0,0
81.74167,2000,0,91.24,0.000002697398,0.000002697398,0.000002697398,0.99999994,0,0,0,0,0,0,0.5984252,0,0,0,0,false,false,false,0,0.98999995,16.82,-0.0017182427,0.0017236375,0.707108,0.70710135,0,47.220997,8.9210005,-0.09511,0,0
81.75,2000,0,91.24,0.000002697398,0.000002697398,0.000002697398,0.99999994,0,0,0,0,0,0,0.5984252,0,0,0,0,false,false,false,0,1.38,16.83,-0.001998772,0.0020041666,0.70710653,0.7071013,0,54.950996,9.281,-0.08231,0,0
81.75833,2000,0,91.24,0.000002697398,0.000002697398,0.000002697398,0.99999994,0,0,0,0,0,0,0.5984252,0,0,0,0,false,false,false,0,1.8399999,16.84,-0.0022415377,0.0022469326,0.70710504,0.7071013,0,62.641,9.521,-0.069409996,0,0
81.76667,2000,0,91.24,0.000002697398,0.000002697398,0.000002697398,0.99999994,0,0,0,0,0,0,0.5984252,0,0,0,0,false,false,false,0,2.36,16.85,-0.00244654,0.0024519349,0.70710367,0.7071013,0,70.291,9.6710005,-0.057309996,0,0
81.775,2000,0,91.24,0.000002697398,0.000002697398,0.000002697398,0.99999994,0,0,0,0,0,0,0.5984252,0,0,0,0,false,false,false,0,2.95,16.859999,-0.0026137787,0.0026191734,0.7071025,0.7071013,0,77.901,9.771,-0.046409998,0,0
81.78333,2000,0,91.24,0.000002697398,0.000002697398,0.000002697398,0.99999994,0,0,0,0,0,0,0.5984252,0,0,0,0,false,false,false,0,3.6,16.869999,-0.0027486486,0.0027540433,0.70710146,0.7071013,0,85.480995,9.821,-0.036909997,0,0
81.791664,2000,0,91.24,0.000002697398,0.000002697398,0.000002697398,0.99999994,0,0,0,0,0,0,0.5984252,0,0,0,0,false,false,false,0,4.31,16.88,-0.0028565445,0.0028619394,0.70710063,0.7071013,0,93.020996,9.841001,-0.02881,0,0
81.8,2000,0,91.24,0.000002697398,0.000002697398,0.000002697398,0.99999994,0,0,0,0,0,0,0.5984252,0,0,0,0,false,false,false,0,5.0899997,16.89,-0.0029428613,0.002948256,0.7071013,0.7070999,0,100.520996,9.821,-0.02261,0,0
81.808334,2000,0,91.24,0.000002697398,0.000002697398,0.000002697398,0.99999994,0,0,0,0,0,0,0.5984252,0,0,0,0,false,false,false,0,5.93,16.9,-0.003007599,0.0030129936,0.7070993,0.7071013,0,107.980995,9.761001,-0.01811,0,0
81.816666,2000,0,91.24,0.000002697398,0.000002697398,0.000002697398,0.99999994,0,0,0,0,0,0,0.5984252,0,0,0,0,false,false,false,0,6.83,16.91,-0.0030615467,0.0030669416,0.7071013,0.7070989,0,115.40099,9.681,-0.014709999,0,0
81.825,2000,0,91.24,0.000002697398,0.000002697398,0.000002697398,0.99999994,0,0,0,0,0,0,0.5984252,0,0,0,0,false,false,false,0,7.79,16.92,-0.0031047051,0.0031101,0.7070985,0.7071013,0,122.781,9.591001,-0.01211,0,0
81.833336,2000,0,91.24,0.000002697398,0.000002697398,0.000002697398,0.99999994,0,0,0,0,0,0,0.5984252,0,0,0,0,false,false,false,0,8.809999,16.93,-0.0031424686,0.0031478636,0.7070959,0.70710355,0,130.131,9.491,-0.010109999,0,0
81.84167,2000,0,91.24,0.000002697398,0.000002697398,0.000002697398,0.99999994,0,0,0,0,0,0,0.5984252,0,0,0,0,false,false,false,0,9.889999,16.94,-0.0031748374,0.0031802324,0.7070959,0.70710325,0,137.44101,9.391,-0.008509999,0,0
81.85,2000,0,91.24,0.000002697398,0.000002697398,0.000002697398,0.99999994,0,0,0,0,0,0,0.5984252,0,0,0,0,false,false,false,0,11.04,16.949999,-0.0032018116,0.0032072063,0.7070959,0.707103,0,144.711,9.281,-0.00721,0,0
81.85833,2000,0,91.24,0.000002697398,0.000002697398,0.000002697398,0.99999994,0,0,0,0,0,0,0.5984252,0,0,0,0,false,false,false,0,12.25,16.96,-0.0032233908,0.0032287855,0.7070959,0.70710284,0,151.94101,9.1710005,-0.00611,0,0
81.86667,2000,0,91.24,0.000002697398,0.000002697398,0.000002697398,0.99999994,0,0,0,0,0,0,0.5984252,0,0,0,0,false,false,false,0,13.5199995,16.97,-0.003239575,0.0032449698,0.7070959,0.70710266,0,159.141,9.061,-0.00521,0,0
81.875,2000,0,91.24,0.000002697398,0.000002697398,0.000002697398,0.99999994,0,0,0,0,0,0,0.5984252,0,0,0,0,false,false,false,0,14.849999,16.98,-0.0032557594,0.0032611543,0.7070959,0.70710254,0,166.30101,8.951,-0.00451,0,0
81.88333,2000,0,91.24,0.000002697398,0.000002697398,0.000002697398,0.99999994,0,0,0,0,0,0,0.5984252,0,0,0,0,false,false,false,0,16.24,16.99,-0.003266549,0.003271944,0.7070959,0.7071024,0,173.421,8.841001,-0.00391,0,0
81.89167,2000,0,91.24,0.000002697398,0.000002697398,0.000002697398,0.99999994,0,0,0,0,0,0,0.5984252,0,0,0,0,false,false,false,0,17.69,17,-0.0032773386,0.0032827335,0.7070959,0.7071023,0,180.511,8.731,-0.00341,0,0
81.9,2000,0,91.24,0.000002697398,0.000002697398,0.000002697398,0.99999994,0,0,0,0,0,0,0.5984252,0,0,0,0,false,false,false,0,19.189999,17.01,-0.0032881282,0.003293523,0.7070959,0.70710224,0,187.561,8.621,-0.00301,0,0
81.90833,2000,0,91.24,0.000002697398,0.000002697398,0.000002697398,0.99999994,0,0,0,0,0,0,0.5984252,0,0,0,0,false,false,false,0,20.75,17.01,-0.0032989178,0.0033043127,0.7070959,0.7071021,0,194.571,8.511001,-0.00261,0,0
81.916664,2000,0,91.24,0.000002697398,0.000002697398,0.000002697398,0.99999994,0,0,0,0,0,0,0.5984252,0,0,0,0,false,false,false,0,22.369999,17.01,-0.0033043127,0.0033097074,0.7070959,0.70710206,0,201.55101,8.441,-0.00221,0,0
81.925,2000,0,91.24,0.000002697398,0.000002697398,0.000002697398,0.99999994,0,0,0,0,0,0,0.5984252,0,0,0,0,false,false,false,0,24.05,17.01,-0.0033097074,0.0033151023,0.7070959,0.707102,0,208.491,8.391,-0.00201,0,0
81.933334,2000,0,91.24,0.000002697398,0.000002697398,0.000002697398,0.99999994,0,0,0,0,0,0,0.5984252,0,0,0,0,false,false,false,0,25.789999,17.01,-0.0033151023,0.003320497,0.7070959,0.707102,0,215.401,8.361,-0.0018099999,0,0
81.941666,2000,0,91.24,0.000002697398,0.000002697398,0.000002697398,0.99999994,0,0,0,0,0,0,0.5984252,0,0,0,0,false,false,false,0,27.59,17.01,-0.0033204972,0.0033258921,0.707096,0.70710194,0,222.271,8.341001,-0.0016099999,0,0
81.95,2000,0,91.24,0.000002697398,0.000002697398,0.000002697398,0.99999994,0,0,0,0,0,0,0.5984252,0,0,0,0,false,false,false,0,29.439999,17.01,-0.003325892,0.0033312866,0.7070959,0.7071019,0,229.101,8.331,-0.0014099999,0,0
81.958336,2000,0,91.24,0.000002697398,0.000002697398,0.000002697398,0.99999994,0,0,0,0,0,0,0.5984252,0,0,0,0,false,false,false,0,31.349998,17.01,-0.0033312866,0.0033366815,0.7070959,0.7071018,0,235.901,8.321,-0.0012099999,0,0
81.96667,2000,0,91.24,0.000002697398,0.000002697398,0.000002697398,0.99999994,0,0,0,0,0,0,0.5984252,0,0,0,0,false,false,false,0,33.32,17.01,-0.0033366815,0.0033420762,0.7070959,0.70710176,0,242.671,8.321,-0.0010099999,0,0
81.975,2000,0,91.24,0.000002697398,0.000002697398,0.000002697398,0.99999994,0,0,0,0,0,0,0.5984252,0,0,0,0,false,false,false,0,35.34,17.01,-0.0033420762,0.003347471,0.7070959,0.7071017,0,249.401,8.321,-0.00091,0,0
81.98333,2000,0,91.24,0.000002697398,0.000002697398,0.000002697398,0.99999994,0,0,0,0,0,0,0.5984252,0,0,0,0,false,false,false,0,37.42,17.01,-0.0033420762,0.0033528658,0.7070959,0.7071017,0,256.101,8.321,-0.00071,0,0
81.99167,2000,0,91.24,0.000002697398,0.000002697398,0.000002697398,0.99999994,0,0,0,0,0,0,0.5984252,0,0,0,0,false,false,false,0,39.55,17.01,-0.0033420762,0.0033528658,0.7070959,0.7071017,0,262.761,8.321,-0.00061,0,0
82,2000,0,91.24,0.000002697398,0.000002697398,0.000002697398,0.99999994,0,0,0,0,0,0,0.5984252,0,0,0,0,false,false,false,0,41.739998,17.01,-0.0033420762,0.0033528658,0.7070959,0.7071017,0,269.391,8.321,-0.00051,0,0
82.00833,2000,0,91.24,0.000002697398,0.000002697398,0.000002697398,0.99999994,0,0,0,0,0,0,0.5984252,0,0,0,0,false,false,false,0,43.98,17.01,-0.0033420762,0.0033528658,0.7070959,0.7071017,0,275.981,8.321,-0.00051,0,0
82.01667,2000,0,91.24,0.000002697398,0.000002697398,0.000002697398,0.99999994,0,0,0,0,0,0,0.5984252,0,0,0,0,false,false,false,0,46.28,17.01,-0.0033420762,0.0033528658,0.7070959,0.7071017,0,282.54102,8.321,-0.00051,0,0
82.025,2000,0,91.24,0.000002697398,0.000002697398,0.000002697398,0.99999994,0,0,0,0,0,0,0.5984252,0,0,0,0,false,false,false,0,48.629997,17.01,-0.0033420762,0.0033528658,0.7070959,0.7071017,0,289.071,8.321,-0.00051,0,0
82.03333,2000,0,91.24,0.000002697398,0.000002697398,0.000002697398,0.99999994,0,0,0,0,0,0,0.5984252,0,0,0,0,false,false,false,0,51.039997,17.01,-0.0033420762,0.0033528658,0.7070959,0.7071017,0,295.561,8.321,-0.00051,0,0
82.041664,2000,0,91.24,0.000002697398,0.000002697398,0.000002697398,0.99999994,0,0,0,0,0,0,0.5984252,0,0,0,0,false,false,false,0,53.5,17.01,-0.0033420762,0.0033528658,0.7070959,0.7071017,0,302.021,8.321,-0.00051,0,0
82.05,2000,0,91.24,0.000002697398,0.000002697398,0.000002697398,0.99999994,0,0,0,0,0,0,0.5984252,0,0,0,0,false,false,false,0,56.02,17.01,-0.0033420762,0.0033528658,0.7070959,0.7071017,0,308.451,8.321,-0.00051,0,0
82.058334,2000,0,91.24,0.000002697398,0.000002697398,0.000002697398,0.99999994,0,0,0,0,0,0,0.5984252,0,0,0,0,false,false,false,0,58.59,17.01,-0.0033420762,0.0033528658,0.7070959,0.7071017,0,314.841,8.321,-0.00051,0,0
82.066666,2000,0,91.24,0.000002697398,0.000002697398,0.000002697398,0.99999994,0,0,0,0,0,0,0.5984252,0,0,0,0,false,false,false,0,61.21,17.01,-0.0033420762,0.0033528658,0.7070959,0.7071017,0,321.201,8.321,-0.00051,0,0
82.075,2000,0,91.24,0.000002697398,0.000002697398,0.000002697398,0.99999994,0,0,0,0,0,0,0.5984252,0,0,0,0,false,false,false,0,63.89,17.01,-0.0033420762,0.0033528658,0.7070959,0.7071017,0,327.531,8.321,-0.00051,0,0
82.083336,2000,0,91.24,0.000002697398,0.000002697398,0.000002697398,0.99999994,0,0,0,0,0,0,0.5984252,0,0,0,0,false,false,false,0,66.619995,17.01,-0.0033420762,0.0033528658,0.7070959,0.7071017,0,333.831,8.321,-0.00051,0,0
82.09167,2000,0,91.24,0.000002697398,0.000002697398,0.000002697398,0.99999994,0,0,0,0,0,0,0.5984252,0,0,0,0,false,false,false,0,69.4,17.01,-0.0033420762,0.0033528658,0.7070959,0.7071017,0,340.091,8.321,-0.00051,0,0
82.1,2000,0,91.24,0.000002697398,0.000002697398,0.000002697398,0.99999994,0,0,0,0,0,0,0.5984252,0,0,0,0,false,false,false,0,72.229996,17.01,-0.0033420762,0.0033528658,0.7070959,0.7071017,0,346.321,8.321,-0.00051,0,0
82.10833,2000,0,91.24,0.000002697398,0.000002697398,0.000002697398,0.99999994,0,0,0,0,0,0,0.5984252,0,0,0,0,false,false,false,0,75.119995,17.01,-0.0033420762,0.0033528658,0.7070959,0.7071017,0,352.521,8.321,-0.00051,0,0
82.11667,2000,0,91.24,0.000002697398,0.000002697398,0.000002697398,0.99999994,0,0,0,0,0,0,0.5984252,0,0,0,0,false,false,false,0,78.06,17.01,-0.0033420762,0.0033528658,0.7070959,0.7071017,0,358.691,8.321,-0.00051,0,0
82.125,2000,0,91.24,0.000002697398,0.000002697398,0.000002697398,0.99999994,0,0,0,0,0,0,0.5984252,0,0,0,0,false,false,false,0,81.049995,17.01,-0.0033420762,0.0033528658,0.7070959,0.7071017,0,364.831,8.321,-0.00051,0,0
82.13333,2000,0,91.24,0.000002697398,0.000002697398,0.000002697398,0.99999994,0,0,0,0,0,0,0.5984252,0,0,0,0,false,false,false,0,84.09,17.01,-0.0033420762,0.0033528658,0.7070959,0.7071017,0,370.931,8.321,-0.00051,0,0
82.14167,2000,0,91.24,0.000002697398,0.000002697398,0.000002697398,0.99999994,0,0,0,0,0,0,0.5984252,0,0,0,0,false,false,false,0,87.18,17.01,-0.0033420762,0.0033528658,0.7070959,0.7071017,0,377.001,8.321,-0.00051,0,0
82.15,2000,0,91.24,0.000002697398,0.000002697398,0.000002697398,0.99999994,0,0,0,0,0,0,0.5984252,0,0,0,0,false,false,false,0,90.32,17.01,-0.0033420762,0.0033528658,0.7070959,0.7071017,0,383.041,8.321,-0.00051,0,0
82.15833,2000,0,91.24,0.000002697398,0.000002697398,0.000002697398,0.99999994,0,0,0,0,0,0,0.5984252,0,0,0,0,false,false,false,0,93.509995,17.01,-0.0033420762,0.0033528658,0.7070959,0.7071017,0,389.051,8.321,-0.00051,0,0
82.166664,2000,0,91.24,0.000002697398,0.000002697398,0.000002697398,0.99999994,0,0,0,0,0,0,0.5984252,0,0,0,0,false,false,false,0,96.75,17.01,-0.0033420762,0.0033528658,0.7070959,0.7071017,0,395.031,8.321,-0.00051,0,0
82.175,2000,0,91.24,0.000002697398,0.000002697398,0.000002697398,0.99999994,0,0,0,0,0,0,0.5984252,0,0,0,0,false,false,false,0,100.04,17.01,-0.0033420762,0.0033528658,0.7070959,0.7071017,0,400.981,8.321,-0.00051,0,0
82.183334,2000,0,91.24,0.000002697398,0.000002697398,0.000002697398,0.99999994,0,0,0,0,0,0,0.5984252,0,0,0,0,false,false,false,0,103.38,17.01,-0.0033420762,0.0033528658,0.7070959,0.7071017,0,406.901,8.321,-0.00051,0,0
82.191666,2000,0,91.24,0.000002697398,0.000002697398,0.000002697398,0.99999994,0,0,0,0,0,0,0.5984252,0,0,0,0,false,false,false,0,106.77,17.01,-0.0033420762,0.0033528658,0.7070959,0.7071017,0,412.791,8.321,-0.00051,0,0
82.2,2000,0,91.24,0.000002697398,0.000002697398,0.000002697398,0.99999994,0,0,0,0,0,0,0.5984252,0,0,0,0,false,false,false,0,110.21,17.01,-0.0033420762,0.0033528658,0.7070959,0.7071017,0,418.651,8.321,-0.00051,0,0
82.208336,2000,0,91.24,0.000002697398,0.000002697398,0.000002697398,0.99999994,0,0,0,0,0,0,0.5984252,0,0,0,0,false,false,false,0,113.7,17.01,-0.0033420762,0.0033528658,0.7070959,0.7071017,0,424.481,8.321,-0.00051,0,0
82.21667,2000,0,91.24,0.000002697398,0.000002697398,0.000002697398,0.99999994,0,0,0,0,0,0,0.5984252,0,0,0,0,false,false,false,0,117.24,17.01,-0.0033420762,0.0033528658,0.7070959,0.7071017,0,430.281,8.321,-0.00051,0,0
82.225,2000,0,91.24,0.000002697398,0.000002697398,0.000002697398,0.99999994,0,0,0,0,0,0,0.5984252,0,0,0,0,false,false,false,0,120.829994,17.01,-0.0033420762,0.0033528658,0.7070959,0.7071017,0,436.051,8.321,-0.00051,0,0
82.23333,2000,0,91.24,0.000002697398,0.000002697398,0.000002697398,0.99999994,0,0,0,0,0,0,0.5984252,0,0,0,0,false,false,false,0,124.46,17.01,-0.0033420762,0.0033528658,0.7070959,0.7071017,0,441.791,8.321,-0.00051,0,0
82.24167,2000,0,91.24,0.000002697398,0.000002697398,0.000002697398,0.99999994,0,0,0,0,0,0,0.5984252,0,0,0,0,false,false,false,0,128.14,17.01,-0.0033420762,0.0033528658,0.7070959,0.7071017,0,447.501,8.321,-0.00051,0,0
82.25,2000,0,91.24,0.000002697398,0.000002697398,0.000002697398,0.99999994,0,0,0,0,0,0,0.5984252,0,0,0,0,false,false,false,0,131.87,17.01,-0.0033420762,0.0033528658,0.7070959,0.7071017,0,453.181,8.321,-0.00051,0,0
82.25833,2000,0,91.24,0.000002697398,0.000002697398,0.000002697398,0.99999994,0,0,0,0,0,0,0.5984252,0,0,0,0,false,false,false,0,135.65,17.01,-0.0033420762,0.0033528658,0.7070959,0.7071017,0,458.831,8.321,-0.00051,0,0
82.26667,2000,0,91.24,0.000002697398,0.000002697398,0.000002697398,0.99999994,0,0,0,0,0,0,0.5984252,0,0,0,0,false,false,false,0,139.47,17.01,-0.0033420762,0.0033528658,0.7070959,0.7071017,0,464.451,8.321,-0.00051,0,0
82.275,2000,0,91.24,0.000002697398,0.000002697398,0.000002697398,0.99999994,0,0,0,0,0,0,0.5984252,0,0,0,0,false,false,false,0,143.34,17.01,-0.0033420762,0.0033528658,0.7070959,0.7071017,0,470.041,8.321,-0.00051,0,0
82.28333,2000,0,91.24,0.000002697398,0.000002697398,0.000002697398,0.99999994,0,0,0,0,0,0,0.5984252,0,0,0,0,false,false,false,0,147.26,17.01,-0.0033420762,0.0033528658,0.7070959,0.7071017,0,475.60098,8.321,-0.00051,0,0
82.291664,2000,0,91.24,0.000002697398,0.000002697398,0.000002697398,0.99999994,0,0,0,0,0,0,0.5984252,0,0,0,0,false,false,false,0,151.22,17.01,-0.0033420762,0.0033528658,0.7070959,0.7071017,0,481.141,8.321,-0.00051,0,0
82.3,2000,0,91.24,0.000002697398,0.000002697398,0.000002697398,0.99999994,0,0,0,0,0,0,0.5984252,0,0,0,0,false,false,false,0,155.23,17.01,-0.0033420762,0.0033528658,0.7070959,0.7071017,0,486.651,8.321,-0.00051,0,0
82.308334,2000,0,91.24,0.000002697398,0.000002697398,0.000002697398,0.99999994,0,0,0,0,0,0,0.5984252,0,0,0,0,false,false,false,0,159.29,17.01,-0.0033420762,0.0033528658,0.7070959,0.7071017,0,492.13098,8.321,-0.00061,0,0
82.316666,2000,0,91.24,0.000002697398,0.000002697398,0.000002697398,0.99999994,0,0,0,0,0,0,0.5984252,0,0,0,0,false,false,false,0,163.39,17.01,-0.0033420762,0.0033528658,0.7070959,0.7071017,0,497.581,8.321,-0.00061,0,0
82.325,2000,0,91.24,0.000002697398,0.000002697398,0.000002697398,0.99999994,0,0,0,0,0,0,0.5984252,0,0,0,0,false,false,false,0,167.54,17.01,-0.0033420762,0.0033528658,0.7070959,0.7071017,0,503.001,8.321,-0.00061,0,0
82.333336,2000,0,91.24,0.000002697398,0.000002697398,0.000002697398,0.99999994,0,0,0,0,0,0,0.5984252,0,0,0,0,false,false,false,0,171.73,17.01,-0.0033420762,0.0033528658,0.7070959,0.7071017,0,508.401,8.321,-0.00061,0,0
82.34167,2000,0,91.24,0.000002697398,0.000002697398,0.000002697398,0.99999994,0,0,0,0,0,0,0.5984252,0,0,0,0,false,false,false,0,175.97,17.01,-0.0033420762,0.0033528658,0.7070959,0.7071017,0,513.77094,8.321,-0.00061,0,0
82.35,2000,0,91.24,0.000002697398,0.000002697398,0.000002697398,0.99999994,0,0,0,0,0,0,0.5984252,0,0,0,0,false,false,false,0,180.25,17.01,-0.0033420762,0.0033528658,0.7070959,0.7071017,0,519.11096,8.321,-0.00061,0,0
82.35833,2000,0,91.24,0.000002697398,0.000002697398,0.000002697398,0.99999994,0,0,0,0,0,0,0.5984252,0,0,0,0,false,false,false,0,184.58,17.01,-0.0033420762,0.0033528658,0.7070959,0.7071017,0,524.42096,8.321,-0.00061,0,0
82.36667,2000,0,91.24,0.000002697398,0.000002697398,0.000002697398,0.99999994,0,0,0,0,0,0,0.5984252,0,0,0,0,false,false,false,0,188.95,17.01,-0.0033420762,0.0033528658,0.7070959,0.7071017,0,529.71094,8.321,-0.00061,0,0
82.375,2000,0,91.24,0.000002697398,0.000002697398,0.000002697398,0.99999994,0,0,0,0,0,0,0.5984252,0,0,0,0,false,false,false,0,193.36,17.01,-0.0033420762,0.0033528658,0.7070959,0.7071017,0,534.97095,8.321,-0.00061,0,0
82.38333,2000,0,91.24,0.000002697398,0.000002697398,0.000002697398,0.99999994,0,0,0,0,0,0,0.5984252,0,0,0,0,false,false,false,0,197.81999,17.01,-0.0033420762,0.0033528658,0.7070959,0.7071017,0,540.201,8.321,-0.00061,0,0
82.39167,2000,0,91.24,0.000002697398,0.000002697398,0.000002697398,0.99999994,0,0,0,0,0,0,0.5984252,0,0,0,0,false,false,false,0,202.31999,17.01,-0.0033420762,0.0033528658,0.7070959,0.7071017,0,545.40094,8.321,-0.00061,0,0
82.4,2000,0,91.24,0.000002697398,0.000002697398,0.000002697398,0.99999994,0,0,0,0,0,0,0.5984252,0,0,0,0,false,false,false,0,206.86,17.01,-0.0033420762,0.0033528658,0.7070959,0.7071017,0,550.581,8.321,-0.00061,0,0
82.40833,2000,0,91.24,0.000002697398,0.000002697398,0.000002697398,0.99999994,0,0,0,0,0,0,0.5984252,0,0,0,0,false,false,false,0,211.45,17.01,-0.0033420762,0.0033528658,0.7070959,0.7071017,0,555.73096,8.321,-0.00061,0,0
82.416664,2000,0,91.24,0.000002697398,0.000002697398,0.000002697398,0.99999994,0,0,0,0,0,0,0.5984252,0,0,0,0,false,false,false,0,216.08,17.01,-0.0033420762,0.0033528658,0.7070959,0.7071017,0,560.85095,8.321,-0.00061,0,0
82.425,2000,0,91.24,0.000002697398,0.000002697398,0.000002697398,0.99999994,0,0,0,0,0,0,0.5984252,0,0,0,0,false,false,false,0,220.75,17.01,-0.0033420762,0.0033528658,0.7070959,0.7071017,0,565.951,8.321,-0.00061,0,0
82.433334,2000,0,91.24,0.000002697398,0.000002697398,0.000002697398,0.99999994,0,0,0,0,0,0,0.5984252,0,0,0,0,false,false,false,0,225.47,17.01,-0.0033420762,0.0033528658,0.7070959,0.7071017,0,571.02094,8.321,-0.00061,0,0
82.441666,2000,0,91.24,0.000002697398,0.000002697398,0.000002697398,0.99999994,0,0,0,0,0,0,0.5984252,0,0,0,0,false,false,false,0,230.23,17.01,-0.0033420762,0.0033528658,0.7070959,0.7071017,0,576.071,8.321,-0.00061,0,0
82.45,2000,0,91.24,0.000002697398,0.000002697398,0.000002697398,0.99999994,0,0,0,0,0,0,0.5984252,0,0,0,0,false,false,false,0,235.03,17.01,-0.0033420762,0.0033528658,0.7070959,0.7071017,0,581.09094,8.321,-0.00061,0,0
82.458336,2000,0,91.24,0.000002697398,0.000002697398,0.000002697398,0.99999994,0,0,0,0,0,0,0.5984252,0,0,0,0,false,false,false,0,239.87,17.01,-0.0033420762,0.0033528658,0.7070959,0.7071017,0,586.081,8.321,-0.00061,0,0
82.46667,2000,0,91.24,0.000002697398,0.000002697398,0.000002697398,0.99999994,0,0,0,0,0,0,0.5984252,0,0,0,0,false,false,false,0,244.75,17.01,-0.0033420762,0.0033528658,0.7070959,0.7071017,0,591.05096,8.321,-0.00061,0,0
82.475,2000,0,91.24,0.000002697398,0.000002697398,0.000002697398,0.99999994,0,0,0,0,0,0,0.5984252,0,0,0,0,false,false,false,0,249.68,17.01,-0.0033420762,0.0033528658,0.7070959,0.7071017,0,595.99097,8.321,-0.00061,0,0
82.48333,2000,0,91.24,0.000002697398,0.000002697398,0.000002697398,0.99999994,0,0,0,0,0,0,0.5984252,0,0,0,0,false,false,false,0,254.65,17.01,-0.0033420762,0.0033528658,0.7070959,0.7071017,0,600.91095,8.321,-0.00061,0,0
82.49167,2000,0,91.24,0.000002697398,0.000002697398,0.000002697398,0.99999994,0,0,0,0,0,0,1,1,0,0,0,false,false,true,0,259.66,17.01,-0.0033420762,0.0033528658,0.7070959,0.7071017,-13.301,605.08093,8.351,-0.00051,0.00331,0.36371002
82.5,2000,0,91.24,0.000002697398,0.000002697398,0.000002697398,0.99999994,0,0,0,0,0,0,1,1,0,0,0,false,false,true,-0.11,264.69998,17.01,-0.0033366818,0.0033582607,0.70816827,0.7060278,-22.841,610.201,8.361,-0.00051,0.0043099998,0.62011
82.50833,2000,0,91.24,0.000002697398,0.000002697398,0.000002697398,0.99999994,0,0,0,0,0,0,1,1,0,0,0,false,false,true,-0.29999998,269.79,17.01,-0.0033366815,0.0033636554,0.7099921,0.70419353,-31.491,615.41095,8.361,-0.00051,0.00451,0.84191
82.51667,2000,0,91.24,0.000002697398,0.000002697398,0.000002697398,0.99999994,0,0,0,0,0,0,1,1,0,0,0,false,false,true,-0.56,274.91998,17.01,-0.0033366815,0.00336905,0.7124609,0.70169574,-39.521,620.631,8.361,-0.00040999998,0.00421,1.03361
82.525,2000,0,91.24,0.000002697398,0.000002697398,0.000002697398,0.99999994,0,0,0,0,0,0,1,1,0,0,0,false,false,true,-0.89,280.09,17.01,-0.0033420757,0.0033690496,0.7154764,0.6986206,-47.150997,625.80096,8.361,-0.00040999998,0.00361,1.19951
82.53333,2000,0,91.24,0.000002697398,0.000002697398,0.000002697398,0.99999994,0,0,0,0,0,0,1,1,0,0,0,false,false,true,-1.28,285.31,17.01,-0.003347471,0.0033636554,0.71896195,0.6950331,-54.521,630.881,8.361,-0.00030999997,0.00291,1.3436099
82.541664,2000,0,91.24,0.000002697398,0.000002697398,0.000002697398,0.99999994,0,0,0,0,0,0,1,1,0,0,0,false,false,true,-1.73,290.57,17.01,-0.0033582607,0.003352866,0.7228412,0.69099784,-61.751,635.83093,8.361,-0.00030999997,0.00211,1.46921
82.55,2000,0,91.24,0.000002697398,0.000002697398,0.000002697398,0.99999994,0,0,0,0,0,0,1,1,0,0,0,false,false,true,-2.24,295.87,17.01,-0.003374445,0.0033366815,0.7270596,0.6865578,-68.910995,640.61096,8.351,-0.00030999997,0.0014099999,1.5792099
82.558334,2000,0,91.24,0.000002697398,0.000002697398,0.000002697398,0.99999994,0,0,0,0,0,0,1,1,0,0,0,false,false,true,-2.81,301.21,17.01,-0.0033906293,0.003320497,0.7315636,0.6817565,-76.061,645.201,8.351,-0.00030999997,0.00081,1.67611
82.566666,2000,0,91.24,0.000002697398,0.000002697398,0.000002697398,0.99999994,0,0,0,0,0,0,1,1,0,0,0,false,false,true,-3.4399998,306.59,17.01,-0.0034122085,0.0032989178,0.7363065,0.6766314,-83.221,649.571,8.351,-0.00030999997,0.00030999997,1.76201
82.575,2000,0,91.24,0.000002697398,0.000002697398,0.000002697398,0.99999994,0,0,0,0,0,0,1,1,0,0,0,false,false,true,-4.13,312,17.01,-0.003433788,0.0032773388,0.74125236,0.67120963,-90.401,653.72095,8.351,-0.00030999997,-0.00010999999,1.8386099
82.583336,2000,0,91.24,0.000002697398,0.000002697398,0.000002697398,0.99999994,0,0,0,0,0,0,1,1,0,0,0,false,false,true,-4.88,317.44998,17.01,-0.0034607616,0.0032503647,0.7463713,0.6655127,-97.590996,657.631,8.351,-0.00030999997,-0.00040999998,1.90731
82.59167,2000,0,91.24,0.000002697398,0.000002697398,0.000002697398,0.99999994,0,0,0,0,0,0,1,1,0,0,0,false,false,true,-5.69,322.93,17.01,-0.0034877358,0.0032233908,0.7516349,0.6595622,-104.770996,661.311,8.351,-0.00030999997,-0.00071,1.9693099
82.6,2000,0,91.24,0.000002697398,0.000002697398,0.000002697398,0.99999994,0,0,0,0,0,0,1,1,0,0,0,false,false,true,-6.56,328.44,17.01,-0.0035147092,0.0031964164,0.75701994,0.6533743,-111.921,664.751,8.351,-0.00021,-0.00091,2.02551
82.60833,2000,0,91.24,0.000002697398,0.000002697398,0.000002697398,0.99999994,0,0,0,0,0,0,1,1,0,0,0,false,false,true,-7.49,333.97998,17.01,-0.0035470785,0.0031640478,0.76250917,0.64695984,-119.001,667.97095,8.341001,-0.00021,-0.00111,2.07671
82.61667,2000,0,91.24,0.000002697398,0.000002697398,0.000002697398,0.99999994,0,0,0,0,0,0,1,1,0,0,0,false,false,true,-8.48,339.55,17.01,-0.0035794475,0.0031316795,0.7680764,0.6403405,-125.97099,670.97095,8.341001,-0.00010999999,-0.0012099999,2.12351
82.625,2000,0,91.24,0.000002697398,0.000002697398,0.000002697398,0.99999994,0,0,0,0,0,0,1,1,0,0,0,false,false,true,-9.53,345.13998,17.01,-0.0036118163,0.0030993107,0.7737104,0.6335215,-132.781,673.78094,8.341001,0,-0.00131,2.16641
82.63333,2000,0,91.24,0.000002697398,0.000002697398,0.000002697398,0.99999994,0,0,0,0,0,0,1,1,0,0,0,false,false,true,-10.639999,350.75,17.01,-0.003644185,0.0030615467,0.77939594,0.6265135,-139.381,676.42096,8.341001,0,-0.00131,2.20581
82.64167,2000,0,91.24,0.000002697398,0.000002697398,0.000002697398,0.99999994,0,0,0,0,0,0,1,1,0,0,0,false,false,true,-11.8,356.38998,17.01,-0.0036765535,0.0030237832,0.7851224,0.61932224,-145.72101,678.92096,8.341001,0,-0.00131,2.2420099
82.65,2000,0,91.24,0.000002697398,0.000002697398,0.000002697398,0.99999994,0,0,0,0,0,0,1,1,0,0,0,false,false,true,-13.009999,362.05,17.01,-0.0037089225,0.00298602,0.7908756,0.6119584,-151.731,681.321,8.341001,0,-0.00131,2.27531
82.65833,2000,0,91.24,0.000002697398,0.000002697398,0.000002697398,0.99999994,0,0,0,0,0,0,1,1,0,0,0,false,false,true,-14.2699995,367.72998,17.01,-0.0037412911,0.002948256,0.796642,0.6044325,-157.341,683.66095,8.341001,0,-0.0012099999,2.3059099
82.666664,2000,0,91.24,0.000002697398,0.000002697398,0.000002697398,0.99999994,0,0,0,0,0,0,1,1,0,0,0,false,false,true,-15.58,373.43,17.01,-0.00377366,0.0029104925,0.80241275,0.5967503,-162.491,685.99097,8.331,0,-0.0012099999,2.33391
82.675,2000,0,91.24,0.000002697398,0.000002697398,0.000002697398,0.99999994,0,0,0,0,0,0,1,1,0,0,0,false,false,true,-16.93,379.15,17.01,-0.0038060287,0.002872729,0.8081793,0.5889171,-167.11101,688.381,8.331,0,-0.00111,2.35941
82.683334,2000,0,91.24,0.000002697398,0.000002697398,0.000002697398,0.99999994,0,0,0,0,0,0,1,1,0,0,0,false,false,true,-18.32,384.88998,17.01,-0.0038383978,0.0028349655,0.81392986,0.5809435,-171.121,690.891,8.331,0,-0.00111,2.38251
82.691666,2000,0,91.24,0.000002697398,0.000002697398,0.000002697398,0.99999994,0,0,0,0,0,0,1,1,0,0,0,false,false,true,-19.75,390.65,17.01,-0.0038707666,0.0027918073,0.81965667,0.57283515,-175.311,693.28094,8.331,0.00010999999,-0.0010099999,2.40541
82.7,2000,0,91.24,0.000002697398,0.000002697398,0.000002697398,0.99999994,0,0,0,0,0,0,1,1,0,0,0,false,false,true,-21.21,396.43,17.01,-0.003903135,0.0027486486,0.8253563,0.5645919,-179.681,695.53094,8.331,0.00010999999,-0.00091,2.42811
82.708336,2000,0,91.24,0.000002697398,0.000002697398,0.000002697398,0.99999994,0,0,0,0,0,0,1,1,0,0,0,false,false,true,-22.71,402.22998,17.01,-0.003935504,0.0027054902,0.8310255,0.5562137,-184.231,697.641,8.331,0.00010999999,-0.00081,2.45061
82.71667,2000,0,91.24,0.000002697398,0.000002697398,0.000002697398,0.99999994,0,0,0,0,0,0,1,1,0,0,0,false,false,true,-24.25,408.03998,17.01,-0.0039678724,0.0026623318,0.8366606,0.54770064,-188.94101,699.61096,8.331,0.00010999999,-0.00071,2.47301
82.725,2000,0,91.24,0.000002697398,0.000002697398,0.000002697398,0.99999994,0,0,0,0,0,0,1,1,0,0,0,false,false,true,-25.82,413.87,17.01,-0.0039948463,0.0026191734,0.84225833,0.5390527,-193.821,701.43097,8.331,0.00021,-0.00061,2.49521
82.73333,2000,0,91.24,0.000002697398,0.000002697398,0.000002697398,0.99999994,0,0,0,0,0,0,1,1,0,0,0,false,false,true,-27.439999,419.72,17.01,-0.00402182,0.0025760152,0.8478187,0.5302646,-198.86101,703.10095,8.331,0.00021,-0.00051,2.51721
82.74167,2000,0,91.24,0.000002697398,0.000002697398,0.000002697398,0.99999994,0,0,0,0,0,0,1,1,0,0,0,false,false,true,-29.099998,425.58,17.01,-0.0040487945,0.0025328568,0.8533346,0.5213416,-204.05101,704.61096,8.331,0.00021,-0.00040999998,2.53901
82.75,2000,0,91.24,0.000002697398,0.000002697398,0.000002697398,0.99999994,0,0,0,0,0,0,1,1,0,0,0,false,false,true,-30.8,431.44998,17.01,-0.0040757684,0.0024896984,0.8588029,0.5122837,-209.381,705.951,8.331,0.00021,-0.00040999998,2.56071
82.75833,2000,0,91.24,0.000002697398,0.000002697398,0.000002697398,0.99999994,0,0,0,0,0,0,1,1,0,0,0,false,false,true,-32.54,437.33,17.01,-0.004102742,0.0024465397,0.86422014,0.50309086,-214.86101,707.131,8.331,0.00021,-0.00040999998,2.58221
82.76667,2000,0,91.24,0.000002697398,0.000002697398,0.000002697398,0.99999994,0,0,0,0,0,0,1,1,0,0,0,false,false,true,-34.329998,443.22,17.01,-0.004129716,0.0023979868,0.8695832,0.49376327,-220.47101,708.131,8.331,0.00021,-0.00040999998,2.60351
82.775,2000,0,91.24,0.000002697398,0.000002697398,0.000002697398,0.99999994,0,0,0,0,0,0,1,1,0,0,0,false,false,true,-36.17,449.12,17.01,-0.0041566906,0.002349434,0.8748885,0.48430082,-226.211,708.96094,8.331,0.00021,-0.00030999997,2.6247098
82.78333,2000,0,91.24,0.000002697398,0.000002697398,0.000002697398,0.99999994,0,0,0,0,0,0,1,1,0,0,0,false,false,true,-38.059998,455.03,17.01,-0.004183665,0.0023008806,0.88013285,0.4747034,-232.071,709.61096,8.331,0.00021,-0.00030999997,2.64571
82.791664,2000,0,91.24,0.000002697398,0.000002697398,0.000002697398,0.99999994,0,0,0,0,0,0,1,1,0,0,0,false,false,true,-39.989998,460.94,17.01,-0.004210638,0.002252327,0.8853128,0.4649711,-238.051,710.071,8.331,0.00010999999,-0.00021,2.6665099
82.8,2000,0,91.24,0.000002697398,0.000002697398,0.000002697398,0.99999994,0,0,0,0,0,0,1,1,0,0,0,false,false,true,-41.969997,466.86,17.01,-0.0042376122,0.0022037742,0.8904254,0.45510408,-244.141,710.35095,8.331,0.00010999999,-0.00010999999,2.6872098
82.808334,2000,0,91.24,0.000002697398,0.000002697398,0.000002697398,0.99999994,0,0,0,0,0,0,1,1,0,0,0,false,false,true,-44,472.78,17.01,-0.004264586,0.002155221,0.89546436,0.44510743,-250.33101,710.441,8.331,0.00010999999,-0.00010999999,2.70771
82.816666,2000,0,91.24,0.000002697398,0.000002697398,0.000002697398,0.99999994,0,0,0,0,0,0,1,1,0,0,0,false,false,true,-46.09,478.69998,17.01,-0.0042861653,0.0021066677,0.9004293,0.434976,-256.621,710.34094,8.331,0.00010999999,0,2.7281098
82.825,2000,0,91.24,0.000002697398,0.000002697398,0.000002697398,0.99999994,0,0,0,0,0,0,1,1,0,0,0,false,false,true,-48.23,484.62,17.01,-0.004307745,0.0020581149,0.9053145,0.42471504,-263.001,710.04095,8.331,0.00010999999,0,2.7483099
82.833336,2000,0,91.24,0.000002697398,0.000002697398,0.000002697398,0.99999994,0,0,0,0,0,0,1,1,0,0,0,false,false,true,-50.42,490.53998,17.01,-0.0043293242,0.0020095618,0.91011906,0.41431928,-269.471,709.54095,8.331,0.00010999999,0,2.76841
82.84167,2000,0,91.24,0.000002697398,0.000002697398,0.000002697398,0.99999994,0,0,0,0,0,0,1,1,0,0,0,false,false,true,-52.67,496.44998,17.01,-0.0043509034,0.0019610086,0.9148375,0.40379393,-276.011,708.85095,8.331,0.00010999999,0,2.78831
82.85,2000,0,91.24,0.000002697398,0.000002697398,0.000002697398,0.99999994,0,0,0,0,0,0,1,1,0,0,0,false,false,true,-54.969997,502.36,17.01,-0.0043724817,0.001912455,0.91946644,0.39313915,-282.621,707.951,8.331,0.00010999999,0,2.80811
82.85833,2000,0,91.24,0.000002697398,0.000002697398,0.000002697398,0.99999994,0,0,0,0,0,0,1,1,0,0,0,false,false,true,-57.329998,508.25998,17.01,-0.004394062,0.0018585074,0.9240032,0.38235494,-289.301,706.85095,8.331,0.00010999999,-0.00010999999,2.82771
82.86667,2000,0,91.24,0.000002697398,0.000002697398,0.000002697398,0.99999994,0,0,0,0,0,0,1,1,0,0,0,false,false,true,-59.739998,514.14996,17.01,-0.0044156406,0.0018045594,0.92844415,0.37144125,-296.04102,705.55096,8.331,0.00010999999,-0.00010999999,2.84721
82.875,2000,0,91.24,0.000002697398,0.000002697398,0.000002697398,0.99999994,0,0,0,0,0,0,1,1,0,0,0,false,false,true,-62.21,520.02997,17.01,-0.00443722,0.0017506114,0.9327843,0.3604034,-302.831,704.04095,8.331,0.00010999999,-0.00010999999,2.86661
82.88333,2000,0,91.24,0.000002697398,0.000002697398,0.000002697398,0.99999994,0,0,0,0,0,0,1,1,0,0,0,false,false,true,-64.729996,525.89996,17.01,-0.004458799,0.0016966634,0.9370225,0.34923616,-309.661,702.33093,8.331,0.00010999999,-0.00010999999,2.88581
82.89167,2000,0,91.24,0.000002697398,0.000002697398,0.000002697398,0.99999994,0,0,0,0,0,0,1,1,0,0,0,false,false,true,-67.31,531.75,17.01,-0.0044803787,0.0016427155,0.9411538,0.3379448,-316.531,700.41095,8.331,0.00010999999,-0.00010999999,2.9049098
82.9,2000,0,91.24,0.000002697398,0.000002697398,0.000002697398,0.99999994,0,0,0,0,0,0,1,1,0,0,0,false,false,true,-69.95,537.58997,17.01,-0.0045019574,0.0015887675,0.94517493,0.32652938,-323.431,698.28094,8.331,0.00010999999,-0.00010999999,2.92381
82.90833,2000,0,91.24,0.000002697398,0.000002697398,0.000002697398,0.99999994,0,0,0,0,0,0,1,1,0,0,0,false,false,true,-72.65,543.41,17.01,-0.0045235357,0.0015348194,0.94908285,0.3149898,-330.361,695.951,8.331,0.00010999999,0,2.94261
82.916664,2000,0,91.24,0.000002697398,0.000002697398,0.000002697398,0.99999994,0,0,0,0,0,0,1,1,0,0,0,false,false,true,-75.4,549.20996,17.01,-0.0045397207,0.0014808716,0.952873,0.30333167,-337.311,693.41095,8.331,0.00010999999,0,2.96131
82.925,2000,0,91.24,0.000002697398,0.000002697398,0.000002697398,0.99999994,0,0,0,0,0,0,1,1,0,0,0,false,false,true,-78.21,554.99,17.01,-0.0045559052,0.0014269236,0.9565438,0.29154935,-344.271,690.66095,8.331,0.00010999999,0,2.97981
82.933334,2000,0,91.24,0.000002697398,0.000002697398,0.000002697398,0.99999994,0,0,0,0,0,0,1,1,0,0,0,false,false,true,-81.08,560.75,17.01,-0.00457209,0.001367581,0.9600906,0.27964845,-351.241,687.701,8.331,0.00010999999,0,2.99821
82.941666,2000,0,91.24,0.000002697398,0.000002697398,0.000002697398,0.99999994,0,0,0,0,0,0,1,1,0,0,0,false,false,true,-84.009995,566.48,17.01,-0.004588274,0.001308238,0.9635087,0.26763415,-358.211,684.54095,8.331,0.00010999999,0,3.01651
82.95,2000,0,91.24,0.000002697398,0.000002697398,0.000002697398,0.99999994,0,0,0,0,0,0,1,1,0,0,0,false,false,true,-87,572.18,17.01,-0.0046044583,0.0012488953,0.9667969,0.25550124,-365.171,681.17096,8.331,0.00010999999,0,3.03471
82.958336,2000,0,91.24,0.000002697398,0.000002697398,0.000002697398,0.99999994,0,0,0,0,0,0,1,1,0,0,0,false,false,true,-90.04,577.86,17.01,-0.0046206433,0.0011895526,0.9699506,0.243255,-372.121,677.60095,8.331,0.00010999999,0,3.0527098
82.96667,2000,0,91.24,0.000002697398,0.000002697398,0.000002697398,0.99999994,0,0,0,0,0,0,1,1,0,0,0,false,false,true,-93.14,583.51,17.01,-0.004636827,0.0011302098,0.97296554,0.23090081,-379.051,673.83093,8.331,0.00010999999,0,3.07061
82.975,2000,0,91.24,0.000002697398,0.000002697398,0.000002697398,0.99999994,0,0,0,0,0,0,1,1,0,0,0,false,false,true,-96.299995,589.13,17.01,-0.004653011,0.0010708668,0.97584003,0.21843341,-385.961,669.86096,8.331,0.00010999999,0,3.08841
82.98333,2000,0,91.24,0.000002697398,0.000002697398,0.000002697398,0.99999994,0,0,0,0,0,0,1,1,0,0,0,false,false,true,-99.52,594.70996,17.01,-0.0046638013,0.0010115242,0.97857016,0.20585808,-392.841,665.691,8.331,0.00010999999,0,3.1061099
82.99167,2000,0,91.24,0.000002697398,0.000002697398,0.000002697398,0.99999994,0,0,0,0,0,0,1,1,0,0,0,false,false,true,-102.79,600.26,17.01,-0.0046745907,0.0009521815,0.98115265,0.19317491,-399.681,661.321,8.331,0.00010999999,0,3.12371
83,2000,0,91.24,0.000002697398,0.000002697398,0.000002697398,0.99999994,0,0,0,0,0,0,1,1,0,0,0,false,false,true,-106.119995,605.76996,17.01,-0.0046853805,0.00089283875,0.9835837,0.18038917,-406.481,656.761,8.331,0.00010999999,0,3.14111
83.00833,2000,0,91.24,0.000002697398,0.000002697398,0.000002697398,0.99999994,0,0,0,0,0,0,1,1,0,0,0,false,false,true,-109.509995,611.24,17.01,-0.00469617,0.000833496,0.9858603,0.167501,-413.241,652.001,8.331,0.00010999999,0,3.1584098
83.01667,2000,0,91.24,0.000002697398,0.000002697398,0.000002697398,0.99999994,0,0,0,0,0,0,1,1,0,0,0,false,false,true,-112.95,616.67,17.01,-0.0047069597,0.0007687585,0.9879796,0.15451024,-419.951,647.05096,8.331,0.00010999999,0,3.1756098
83.025,2000,0,91.24,0.000002697398,0.000002697398,0.000002697398,0.99999994,0,0,0,0,0,0,1,1,0,0,0,false,false,true,-116.45,622.06,17.01,-0.0047177486,0.00070402084,0.9899377,0.14142238,-426.611,641.91095,8.331,0.00010999999,0,3.19271
83.03333,2000,0,91.24,0.000002697398,0.000002697398,0.000002697398,0.99999994,0,0,0,0,0,0,1,1,0,0,0,false,false,true,-120.009995,627.41,17.01,-0.004728539,0.0006392834,0.9917313,0.12824291,-433.211,636.59094,8.331,0.00010999999,0,3.20971
83.041664,2000,0,91.24,0.000002697398,0.000002697398,0.000002697398,0.99999994,0,0,0,0,0,0,1,1,0,0,0,false,false,true,-123.619995,632.70996,17.01,-0.0047339336,0.00057454576,0.9933579,0.11496623,-439.741,631.08093,8.331,0.00010999999,0,3.22661
83.05,2000,0,91.24,0.000002697398,0.000002697398,0.000002697398,0.99999994,0,0,0,0,0,0,1,1,0,0,0,false,false,true,-127.28,637.97,17.01,-0.0047393288,0.00050980825,0.99481356,0.10160332,-446.201,625.391,8.331,0,0,3.2434099
83.058334,2000,0,91.24,0.000002697398,0.000002697398,0.000002697398,0.99999994,0,0,0,0,0,0,1,1,0,0,0,false,false,true,-131,643.18,17.01,-0.004744723,0.00044507068,0.9960959,0.08814861,-452.591,619.53094,8.331,0,0,3.26011
83.066666,2000,0,91.24,0.000002697398,0.000002697398,0.000002697398,0.99999994,0,0,0,0,0,0,1,1,0,0,0,false,false,true,-134.77,648.33997,17.01,-0.004750118,0.00038033316,0.99720156,0.07460759,-458.911,613.49097,8.331,0,0,3.27671
83.075,2000,0,91.24,0.000002697398,0.000002697398,0.000002697398,0.99999994,0,0,0,0,0,0,1,1,0,0,0,false,false,true,-138.59,653.45,17.01,-0.004755513,0.00031559556,0.9981272,0.060985725,-465.151,607.28094,8.331,0,0,3.29321
83.083336,2000,0,91.24,0.000002697398,0.000002697398,0.000002697398,0.99999994,0,0,0,0,0,0,1,1,0,0,0,false,false,true,-142.47,658.51,17.01,-0.0047609075,0.00025085802,0.99887013,0.04728286,-471.311,600.90094,8.331,0,0,3.30961
83.09167,2000,0,91.24,0.000002697398,0.000002697398,0.000002697398,0.99999994,0,0,0,0,0,0,1,1,0,0,0,false,false,true,-146.4,663.51996,17.01,-0.0047663017,0.00018612045,0.999427,0.033504546,-477.38098,594.35095,8.331,0,0,3.3259099
83.1,2000,0,91.24,0.000002697398,0.000002697398,0.000002697398,0.99999994,0,0,0,0,0,0,1,1,0,0,0,false,false,true,-150.37999,668.47,17.01,-0.004766302,0.00012138292,0.9997955,0.019650629,-483.361,587.641,8.331,0,0,3.34211
83.10833,2000,0,91.24,0.000002697398,0.000002697398,0.000002697398,0.99999994,0,0,0,0,0,0,1,1,0,0,0,false,false,true,-154.41,673.37,17.01,-0.0047663026,0.000056645364,0.9999722,0.0057265763,-489.251,580.77094,8.331,0,0,3.3582098
83.11667,2000,0,91.24,0.000002697398,0.000002697398,0.000002697398,0.99999994,0,0,0,0,0,0,1,1,0,0,0,false,false,true,-158.48999,678.20996,17.01,-0.004766302,-0.000008092194,0.9999544,-0.008267567,-495.051,573.74097,8.331,0,0,3.37421
83.125,2000,0,91.24,0.000002697398,0.000002697398,0.000002697398,0.99999994,0,0,0,0,0,0,1,1,0,0,0,false,false,true,-162.62,682.99,17.01,-0.0047663026,-0.00007282975,0.99973935,-0.022326449,-500.751,566.55096,8.331,0,0,3.39021
83.13333,2000,0,91.24,0.000002697398,0.000002697398,0.000002697398,0.99999994,0,0,0,0,0,0,1,1,0,0,0,false,false,true,-166.79,687.70996,17.01,-0.004766302,-0.0001375673,0.99932426,-0.03644467,-506.35098,559.21094,8.331,0,0,3.4061098
83.14167,2000,0,91.24,0.000002697398,0.000002697398,0.000002697398,0.99999994,0,0,0,0,0,0,1,1,0,0,0,false,false,true,-171.01,692.37,17.01,-0.004766302,-0.00020769965,0.9987064,-0.05062228,-511.85098,551.72095,8.331,0,0,3.4219098
83.15,2000,0,91.24,0.000002697398,0.000002697398,0.000002697398,0.99999994,0,0,0,0,0,0,1,1,0,0,0,false,false,true,-175.28,696.97,17.01,-0.0047609075,-0.000277832,0.9978833,-0.064853795,-517.251,544.081,8.331,0,0.00010999999,3.43761
83.15833,2000,0,91.24,0.000002697398,0.000002697398,0.000002697398,0.99999994,0,0,0,0,0,0,1,1,0,0,0,false,false,true,-179.59,701.5,17.01,-0.0047555133,-0.00034796438,0.99685216,-0.07913926,-522.54095,536.29095,8.331,0,0.00010999999,3.4532099
83.166664,2000,0,91.24,0.000002697398,0.000002697398,0.000002697398,0.99999994,0,0,0,0,0,0,1,1,0,0,0,false,false,true,-183.94,705.97,17.01,-0.004750118,-0.00041809672,0.99561036,-0.09347328,-527.73096,528.36096,8.331,0,0.00010999999,3.4688098
83.175,2000,0,91.24,0.000002697398,0.000002697398,0.000002697398,0.99999994,0,0,0,0,0,0,1,1,0,0,0,false,false,true,-188.34,710.37,17.01,-0.0047447234,-0.0004882291,0.99415565,-0.1078505,-532.811,520.29095,8.331,0,0.00010999999,3.48431
83.183334,2000,0,91.24,0.000002697398,0.000002697398,0.000002697398,0.99999994,0,0,0,0,0,0,1,1,0,0,0,false,false,true,-192.78,714.70996,17.01,-0.0047393288,-0.0005583614,0.9924853,-0.12227083,-537.78094,512.071,8.331,0,0.00010999999,3.4997098
83.191666,2000,0,91.24,0.000002697398,0.000002697398,0.000002697398,0.99999994,0,0,0,0,0,0,1,1,0,0,0,false,false,true,-197.26,718.98,17.01,-0.0047285384,-0.0006284937,0.99059695,-0.13672891,-542.641,503.721,8.331,0,0.00021,3.5150099
83.2,2000,0,91.24,0.000002697398,0.000002697398,0.000002697398,0.99999994,0,0,0,0,0,0,1,1,0,0,0,false,false,true,-201.78,723.18,17.01,-0.004717749,-0.0006986261,0.9884887,-0.15121941,-547.391,495.231,8.331,0,0.00021,3.53021
83.208336,2000,0,91.24,0.000002697398,0.000002697398,0.000002697398,0.99999994,0,0,0,0,0,0,1,1,0,0,0,false,false,true,-206.34,727.31,17.01,-0.0047069592,-0.0007687584,0.9861574,-0.16574223,-552.02094,486.60098,8.331,0,0.00021,3.54541
83.21667,2000,0,91.24,0.000002697398,0.000002697398,0.000002697398,0.99999994,0,0,0,0,0,0,1,1,0,0,0,false,false,true,-210.94,731.37,17.01,-0.0046961694,-0.0008388907,0.9836014,-0.18029204,-556.54095,477.831,8.331,-0.00010999999,0.00021,3.56051
83.225,2000,0,91.24,0.000002697398,0.000002697398,0.000002697398,0.99999994,0,0,0,0,0,0,1,1,0,0,0,false,false,true,-215.58,735.35,17.01,-0.0046799853,-0.00090902316,0.98081875,-0.1948635,-560.941,468.931,8.331,-0.00010999999,0.00021,3.57551
83.23333,2000,0,91.24,0.000002697398,0.000002697398,0.000002697398,0.99999994,0,0,0,0,0,0,1,1,0,0,0,false,false,true,-220.25,739.26,17.01,-0.0046638013,-0.0009791554,0.97780746,-0.20945106,-565.23096,459.891,8.331,-0.00021,0.00021,3.59041
83.24167,2000,0,91.24,0.000002697398,0.000002697398,0.000002697398,0.99999994,0,0,0,0,0,0,1,1,0,0,0,false,false,true,-224.95999,743.08997,17.01,-0.0046476168,-0.0010492879,0.97456485,-0.22405481,-569.40094,450.721,8.331,-0.00021,0.00021,3.6052098
83.25,2000,0,91.24,0.000002697398,0.000002697398,0.000002697398,0.99999994,0,0,0,0,0,0,1,1,0,0,0,false,false,true,-229.7,746.85,17.01,-0.0046314322,-0.0011194202,0.9710891,-0.23866941,-573.451,441.411,8.331,-0.00021,0.00021,3.6198099
83.25833,2000,0,91.24,0.000002697398,0.000002697398,0.000002697398,0.99999994,0,0,0,0,0,0,1,1,0,0,0,false,false,true,-234.48,750.52997,17.01,-0.0046152486,-0.0011895526,0.9673788,-0.25328937,-577.381,431.971,8.331,-0.00030999997,0.00021,3.63431
83.26667,2000,0,91.24,0.000002697398,0.000002697398,0.000002697398,0.99999994,0,0,0,0,0,0,1,1,0,0,0,false,false,true,-239.29,754.13,17.01,-0.004593669,-0.0012596849,0.9634323,-0.2679093,-581.191,422.391,8.331,-0.00030999997,0.00021,3.64871
83.275,2000,0,91.24,0.000002697398,0.000002697398,0.000002697398,0.99999994,0,0,0,0,0,0,1,1,0,0,0,false,false,true,-244.12999,757.64996,17.01,-0.00457209,-0.0013298173,0.9592484,-0.2825239,-584.871,412.671,8.331,-0.00030999997,0.00010999999,3.66321
83.28333,2000,0,91.24,0.000002697398,0.000002697398,0.000002697398,0.99999994,0,0,0,0,0,0,1,1,0,0,0,false,false,true,-249,761.08997,17.01,-0.0045505106,-0.0013999495,0.95482415,-0.297133,-588.34094,402.831,8.331,-0.00030999997,0,3.67971
83.291664,2000,0,91.24,0.000002697398,0.000002697398,0.000002697398,0.99999994,0,0,0,0,0,0,1,1,0,0,0,false,false,true,-253.9,764.45,17.01,-0.0045289313,-0.001470082,0.9501565,-0.31173676,-591.60095,392.861,8.331,-0.00040999998,0,3.69821
83.3,2000,0,91.24,0.000002697398,0.000002697398,0.000002697398,0.99999994,0,0,0,0,0,0,1,1,0,0,0,false,false,true,-258.83,767.72,17.01,-0.004507352,-0.0015402143,0.9452402,-0.32634056,-594.65094,382.771,8.331,-0.00040999998,0,3.71871
83.308334,2000,0,91.24,0.000002697398,0.000002697398,0.000002697398,0.99999994,0,0,0,0,0,0,1,1,0,0,0,false,false,true,-263.79,770.91,17.01,-0.0044803787,-0.0016103467,0.9400714,-0.34094435,-597.49097,372.57098,8.331,-0.00040999998,0,3.7411098
83.316666,2000,0,91.24,0.000002697398,0.000002697398,0.000002697398,0.99999994,0,0,0,0,0,0,1,1,0,0,0,false,false,true,-268.77,774.01,17.01,-0.004453404,-0.001680479,0.93464375,-0.35555348,-600.11096,362.261,8.331,-0.00040999998,0,3.7655098
83.325,2000,0,91.24,0.000002697398,0.000002697398,0.000002697398,0.99999994,0,0,0,0,0,0,1,1,0,0,0,false,false,true,-273.77,777.02997,17.01,-0.0044264304,-0.0017506115,0.9289504,-0.37017348,-602.52094,351.841,8.331,-0.00040999998,0,3.79181
83.333336,2000,0,91.24,0.000002697398,0.000002697398,0.000002697398,0.99999994,0,0,0,0,0,0,1,1,0,0,0,false,false,true,-278.79,779.95996,17.01,-0.0043994565,-0.0018207438,0.9229859,-0.38480422,-604.71094,341.321,8.331,-0.00040999998,-0.00010999999,3.82001
83.34167,2000,0,91.24,0.000002697398,0.000002697398,0.000002697398,0.99999994,0,0,0,0,0,0,1,1,0,0,0,false,false,true,-283.83,782.8,17.01,-0.004367087,-0.0018908759,0.91674435,-0.39944568,-606.691,330.701,8.331,-0.00040999998,-0.00010999999,3.8501098
83.35,2000,0,91.24,0.000002697398,0.000002697398,0.000002697398,0.99999994,0,0,0,0,0,0,1,1,0,0,0,false,false,true,-288.88998,785.56,17.01,-0.0043347185,-0.0019610084,0.9102198,-0.41409805,-608.451,319.981,8.331,-0.00040999998,-0.00021,3.8821099
83.35833,2000,0,91.24,0.000002697398,0.000002697398,0.000002697398,0.99999994,0,0,0,0,0,0,1,1,0,0,0,false,false,true,-293.96,788.23,17.01,-0.0043023494,-0.0020311405,0.9034026,-0.4287665,-609.99097,309.171,8.331,-0.00040999998,-0.00030999997,3.91601
83.36667,2000,0,91.24,0.000002697398,0.000002697398,0.000002697398,0.99999994,0,0,0,0,0,0,1,1,0,0,0,false,false,true,-299.04,790.81,17.01,-0.0042699813,-0.0021012733,0.89628583,-0.44345126,-611.311,298.271,8.331,-0.00040999998,-0.00030999997,3.95181
83.375,2000,0,91.24,0.000002697398,0.000002697398,0.000002697398,0.99999994,0,0,0,0,0,0,1,1,0,0,0,false,false,true,-304.13,793.3,17.01,-0.0042376122,-0.0021714054,0.88886374,-0.45814675,-612.40094,287.281,8.331,-0.00040999998,-0.00040999998,3.9895098
83.38333,2000,0,91.24,0.000002697398,0.000002697398,0.000002697398,0.99999994,0,0,0,0,0,0,1,1,0,0,0,false,false,true,-309.22998,795.69,17.01,-0.0041998485,-0.0022415377,0.8811255,-0.4728584,-613.27094,276.211,8.331,-0.00040999998,-0.00040999998,4.02911
83.39167,2000,0,91.24,0.000002697398,0.000002697398,0.000002697398,0.99999994,0,0,0,0,0,0,1,1,0,0,0,false,false,true,-314.34,797.99,17.01,-0.0041620857,-0.0023116702,0.8730648,-0.48758087,-613.86096,265.051,8.331,-0.00040999998,-0.00040999998,4.07011
83.4,2000,0,91.24,0.000002697398,0.000002697398,0.000002697398,0.99999994,0,0,0,0,0,0,1,1,0,0,0,false,false,true,-319.46,800.2,17.01,-0.004124321,-0.0023818023,0.86467195,-0.50231403,-614.11096,253.791,8.331,-0.00040999998,-0.00040999998,4.11171
83.40833,2000,0,91.24,0.000002697398,0.000002697398,0.000002697398,0.99999994,0,0,0,0,0,0,1,1,0,0,0,false,false,true,-324.58,802.31,17.01,-0.004081163,-0.0024519349,0.8559402,-0.5170527,-614.011,242.441,8.331,-0.00040999998,-0.00040999998,4.15401
83.416664,2000,0,91.24,0.000002697398,0.000002697398,0.000002697398,0.99999994,0,0,0,0,0,0,1,1,0,0,0,false,false,true,-329.69998,804.32996,17.01,-0.0040380047,-0.0025220672,0.84686196,-0.5317913,-613.501,231.051,8.331,-0.00040999998,-0.00040999998,4.19721
83.425,2000,0,91.24,0.000002697398,0.000002697398,0.000002697398,0.99999994,0,0,0,0,0,0,1,1,0,0,0,false,false,true,-334.81,806.26,17.01,-0.0039948467,-0.0025921997,0.8374329,-0.5465193,-612.571,219.651,8.331,-0.00040999998,-0.00040999998,4.24131
83.433334,2000,0,91.24,0.000002697398,0.000002697398,0.000002697398,0.99999994,0,0,0,0,0,0,1,1,0,0,0,false,false,true,-339.91,808.08997,17.01,-0.003946293,-0.0026623318,0.82764554,-0.56123084,-611.21094,208.261,8.331,-0.00040999998,-0.00040999998,4.2863097
83.441666,2000,0,91.24,0.000002697398,0.000002697398,0.000002697398,0.99999994,0,0,0,0,0,0,1,1,0,0,0,false,false,true,-345,809.82996,17.01,-0.0038977405,-0.0027324643,0.8174915,-0.575921,-609.42096,196.891,8.331,-0.00030999997,-0.00040999998,4.33211
83.45,2000,0,91.24,0.000002697398,0.000002697398,0.000002697398,0.99999994,0,0,0,0,0,0,1,1,0,0,0,false,false,true,-350.08,811.47,17.01,-0.0038491872,-0.0028025967,0.80696195,-0.5905841,-607.21094,185.61101,8.331,-0.00021,-0.00040999998,4.37841
83.458336,2000,0,91.24,0.000002697398,0.000002697398,0.000002697398,0.99999994,0,0,0,0,0,0,1,1,0,0,0,false,false,true,-355.13998,813.01996,17.01,-0.0038006334,-0.0028727287,0.79605603,-0.605204,-604.59094,174.561,8.331,-0.00021,-0.00040999998,4.42401
83.46667,2000,0,91.24,0.000002697398,0.000002697398,0.000002697398,0.99999994,0,0,0,0,0,0,1,1,0,0,0,false,false,true,-360.18,814.47,17.01,-0.0037466856,-0.002942861,0.78476465,-0.61977535,-601.571,163.751,8.331,-0.00021,-0.00040999998,4.46901
83.475,2000,0,91.24,0.000002697398,0.000002697398,0.000002697398,0.99999994,0,0,0,0,0,0,1,1,0,0,0,false,false,true,-365.19,815.82996,17.01,-0.003692738,-0.0030129936,0.77308697,-0.63428205,-598.17096,153.201,8.331,-0.00010999999,-0.00040999998,4.51331
83.48333,2000,0,91.24,0.000002697398,0.000002697398,0.000002697398,0.99999994,0,0,0,0,0,0,1,1,0,0,0,false,false,true,-370.16998,817.11,17.01,-0.00363879,-0.003083126,0.7610225,-0.6487078,-594.41095,142.931,8.331,-0.00010999999,-0.00030999997,4.55691
83.49167,2000,0,91.24,0.000002697398,0.000002697398,0.000002697398,0.99999994,0,0,0,0,0,0,1,1,0,0,0,false,false,true,-375.12,818.3,17.01,-0.0035794475,-0.0031478638,0.7485671,-0.6630419,-590.311,132.951,8.331,-0.00010999999,-0.00030999997,4.59971
83.5,2000,0,91.24,0.000002697398,0.000002697398,0.000002697398,0.99999994,0,0,0,0,0,0,1,1,0,0,0,false,false,true,-380.03998,819.41,17.01,-0.0035201046,-0.0032126012,0.7357209,-0.67726797,-585.891,123.270996,8.331,0,-0.00021,4.64171
83.50833,2000,0,91.24,0.000002697398,0.000002697398,0.000002697398,0.99999994,0,0,0,0,0,0,1,1,0,0,0,false,false,true,-384.91998,820.44,17.01,-0.003455367,-0.0032773386,0.722485,-0.69137007,-581.17096,113.90099,8.331,0,-0.00010999999,4.68291
83.51667,2000,0,91.24,0.000002697398,0.000002697398,0.000002697398,0.99999994,0,0,0,0,0,0,1,1,0,0,0,false,false,true,-389.75998,821.38995,17.01,-0.0033906288,-0.0033420757,0.7088558,-0.70533717,-576.17096,104.851,8.331,0,0,4.72331
83.525,2000,0,91.24,0.000002697398,0.000002697398,0.000002697398,0.99999994,0,0,0,0,0,0,1,1,0,0,0,false,false,true,-394.56,822.26,17.01,0.003325892,0.0034068138,-0.6948389,0.71914953,-570.91095,96.120995,8.331,0.00010999999,0,4.7628098
83.53333,2000,0,91.24,0.000002697398,0.000002697398,0.000002697398,0.99999994,0,0,0,0,0,0,1,1,0,0,0,false,false,true,-399.31998,823.06,17.01,0.0032557594,0.0034715512,-0.68042934,0.7327981,-565.42096,87.721,8.331,0.00010999999,0,4.80131
83.541664,2000,0,91.24,0.000002697398,0.000002697398,0.000002697398,0.99999994,0,0,0,0,0,0,1,1,0,0,0,false,false,true,-404.03,823.79,17.01,0.003185627,0.0035362889,-0.6656367,0.74626064,-559.72095,79.660995,8.331,0.00021,0,4.83891
83.55,2000,0,91.24,0.000002697398,0.000002697398,0.000002697398,0.99999994,0,0,0,0,0,0,1,1,0,0,0,false,false,true,-408.69,824.44995,17.01,0.0031154947,0.0036010265,-0.6504557,0.7595291,-553.831,71.931,8.331,0.00021,0.00010999999,4.87541
83.558334,2000,0,91.24,0.000002697398,0.000002697398,0.000002697398,0.99999994,0,0,0,0,0,0,1,1,0,0,0,false,false,true,-413.31,825.05,17.01,0.0030399675,0.003665764,-0.6348917,0.7725864,-547.74097,64.561,8.331,0.00021,0.00021,4.90971
83.566666,2000,0,91.24,0.000002697398,0.000002697398,0.000002697398,0.99999994,0,0,0,0,0,0,1,1,0,0,0,false,false,true,-417.87,825.58997,17.01,0.0029644405,0.0037305015,-0.6189554,0.78541166,-541.43097,57.591,8.331,0.00021,0.00021,4.9404097
83.575,2000,0,91.24,0.000002697398,0.000002697398,0.000002697398,0.99999994,0,0,0,0,0,0,1,1,0,0,0,false,false,true,-422.38,826.07,17.01,0.0028889135,0.0037898445,-0.6026577,0.79798555,-534.93097,51.021,8.331,0.00021,0.00030999997,4.9675097
83.583336,2000,0,91.24,0.000002697398,0.000002697398,0.000002697398,0.99999994,0,0,0,0,0,0,1,1,0,0,0,false,false,true,-426.84,826.5,17.01,0.002807991,0.0038491867,-0.58601457,0.81028634,-528.27094,44.850998,8.321,0.00021,0.00040999998,4.99091
83.59167,2000,0,91.24,0.000002697398,0.000002697398,0.000002697398,0.99999994,0,0,0,0,0,0,1,1,0,0,0,false,false,true,-431.24,826.87,17.01,0.0027270694,0.0039085294,-0.5690372,0.8222979,-521.48096,39.071,8.321,0.00021,0.00051,5.01051
83.6,2000,0,91.24,0.000002697398,0.000002697398,0.000002697398,0.99999994,0,0,0,0,0,0,1,1,0,0,0,false,false,true,-435.59,827.19995,17.01,0.0026461475,0.0039678724,-0.5517468,0.83399796,-514.59094,33.681,8.321,0.00021,0.00051,5.02631
83.60833,2000,0,91.24,0.000002697398,0.000002697398,0.000002697398,0.99999994,0,0,0,0,0,0,1,1,0,0,0,false,false,true,-439.88,827.48,17.01,0.0025598307,0.0040272153,-0.53415966,0.84537005,-507.621,28.671,8.321,0.00010999999,0.00061,5.03831
83.61667,2000,0,91.24,0.000002697398,0.000002697398,0.000002697398,0.99999994,0,0,0,0,0,0,1,1,0,0,0,false,false,true,-444.11,827.72,17.01,0.0024735143,0.0040811636,-0.51629746,0.856396,-500.611,24.030998,8.321,0.00010999999,0.00061,5.04631
83.625,2000,0,91.24,0.000002697398,0.000002697398,0.000002697398,0.99999994,0,0,0,0,0,0,1,1,0,0,0,false,false,true,-448.28,827.92,17.01,0.0023871972,0.004135111,-0.49817625,0.86706257,-493.591,19.751,8.321,0,0.00061,5.05021
83.63333,2000,0,91.24,0.000002697398,0.000002697398,0.000002697398,0.99999994,0,0,0,0,0,0,1,1,0,0,0,false,false,true,-452.38998,828.07996,17.01,0.0023008804,0.004189059,-0.4798231,0.8773522,-486.581,15.811,8.321,0,0.00071,5.04991
83.64167,2000,0,91.24,0.000002697398,0.000002697398,0.000002697398,0.99999994,0,0,0,0,0,0,1,1,0,0,0,false,false,true,-456.44,828.20996,17.01,0.0022091689,0.0042376122,-0.46125954,0.88725233,-479.57098,12.1710005,8.321,0,0.00071,5.04521
83.65,2000,0,91.24,0.000002697398,0.000002697398,0.000002697398,0.99999994,0,0,0,0,0,0,1,1,0,0,0,false,false,true,-460.44,828.31,17.01,0.0021174573,0.0042861653,-0.44250715,0.8967522,-472.551,8.801001,8.321,0,0.00071,5.03601
83.65833,2000,0,91.24,0.000002697398,0.000002697398,0.000002697398,0.99999994,0,0,0,0,0,0,1,1,0,0,0,false,false,true,-464.37997,828.38,17.01,0.0020257458,0.0043347185,-0.4235929,0.90584,-465.541,5.691,8.321,0,0.00071,5.02241
83.666664,2000,0,91.24,0.000002697398,0.000002697398,0.000002697398,0.99999994,0,0,0,0,0,0,1,1,0,0,0,false,false,true,-468.25998,828.43,17.01,0.0019340345,0.0043778773,-0.40454382,0.9145061,-458.561,2.8209999,8.321,-0.00010999999,0.00061,5.0043097
83.675,2000,0,91.24,0.000002697398,0.000002697398,0.000002697398,0.99999994,0,0,0,0,0,0,1,1,0,0,0,false,false,true,-472.08,828.44995,17.01,0.0018423229,0.0044210353,-0.38538682,0.9227426,-451.651,0.191,8.311,-0.00010999999,0.00061,4.98131
83.683334,2000,0,91.24,0.000002697398,0.000002697398,0.000002697398,0.99999994,0,0,0,0,0,0,1,1,0,0,0,false,false,true,-475.84,828.44995,17.01,0.0017506114,0.004458799,-0.36615428,0.93054175,-444.661,-2.261,8.311,-0.00021,0.00051,4.9573097
83.691666,2000,0,91.24,0.000002697398,0.000002697398,0.000002697398,0.99999994,0,0,0,0,0,0,1,1,0,0,0,false,false,true,-479.55,828.43,17.01,0.0016588998,0.0044965623,-0.346857,0.9379057,-437.60098,-4.541,8.311,-0.00030999997,0.00040999998,4.9327097
83.7,2000,0,91.24,0.000002697398,0.000002697398,0.000002697398,0.99999994,0,0,0,0,0,0,1,1,0,0,0,false,false,true,-483.19998,828.38995,17.01,0.0015617936,0.004528932,-0.3275059,0.944837,-430.471,-6.641,8.311,-0.00040999998,0.00030999997,4.90771
83.708336,2000,0,91.24,0.000002697398,0.000002697398,0.000002697398,0.99999994,0,0,0,0,0,0,1,1,0,0,0,false,false,true,-486.78998,828.32996,17.01,0.0014646872,0.0045613,-0.30811685,0.9513364,-423.281,-8.561,8.311,-0.00051,0.00021,4.88231
83.71667,2000,0,91.24,0.000002697398,0.000002697398,0.000002697398,0.99999994,0,0,0,0,0,0,1,1,0,0,0,false,false,true,-490.31998,828.26,17.01,0.0013675808,0.004588274,-0.2887009,0.9574073,-416.041,-10.291,8.311,-0.00051,0.00010999999,4.85671
83.725,2000,0,91.24,0.000002697398,0.000002697398,0.000002697398,0.99999994,0,0,0,0,0,0,1,1,0,0,0,false,false,true,-493.78998,828.17,17.01,0.0012704745,0.004615248,-0.26926875,0.9630531,-408.751,-11.841001,8.311,-0.00051,0.00010999999,4.83111
83.73333,2000,0,91.24,0.000002697398,0.000002697398,0.000002697398,0.99999994,0,0,0,0,0,0,1,1,0,0,0,false,false,true,-497.19998,828.07,17.01,0.0011733682,0.0046422225,-0.2498313,0.9682775,-401.421,-13.201,8.311,-0.00051,0,4.8056097
83.74167,2000,0,91.24,0.000002697398,0.000002697398,0.000002697398,0.99999994,0,0,0,0,0,0,1,1,0,0,0,false,false,true,-500.55,827.95996,17.01,0.0010762617,0.0046638013,-0.23039375,0.97308564,-394.051,-14.371,8.311,-0.00040999998,0,4.78041
83.75,2000,0,91.24,0.000002697398,0.000002697398,0.000002697398,0.99999994,0,0,0,0,0,0,1,1,0,0,0,false,false,true,-503.83,827.83997,17.01,0.0009791554,0.0046853805,-0.210967,0.9774814,-386.641,-15.341,8.311,-0.00040999998,0,4.75571
83.75833,2000,0,91.24,0.000002697398,0.000002697398,0.000002697398,0.99999994,0,0,0,0,0,0,1,1,0,0,0,false,false,true,-507.05,827.70996,17.01,0.00088204915,0.0047015646,-0.19155644,0.98146987,-379.201,-16.120998,8.311,-0.00030999997,-0.00010999999,4.73161
83.76667,2000,0,91.24,0.000002697398,0.000002697398,0.000002697398,0.99999994,0,0,0,0,0,0,1,1,0,0,0,false,false,true,-510.21,827.57996,17.01,0.0007903376,0.004717749,-0.17217289,0.9850551,-371.731,-16.700998,8.311,-0.00021,-0.00010999999,4.70831
83.775,2000,0,91.24,0.000002697398,0.000002697398,0.000002697398,0.99999994,0,0,0,0,0,0,1,1,0,0,0,false,false,true,-513.31,827.44,17.01,0.0006986261,0.0047339336,-0.15281628,0.988243,-364.231,-17.081,8.311,-0.00021,-0.00021,4.68601
83.78333,2000,0,91.24,0.000002697398,0.000002697398,0.000002697398,0.99999994,0,0,0,0,0,0,1,1,0,0,0,false,false,true,-516.35,827.3,17.01,0.00060691463,0.0047447234,-0.13349205,0.9910383,-356.701,-17.261,8.311,-0.00021,-0.00030999997,4.6648097
83.791664,2000,0,91.24,0.000002697398,0.000002697398,0.000002697398,0.99999994,0,0,0,0,0,0,1,1,0,0,0,false,false,true,-519.32,827.16,17.01,0.000515203,0.004755513,-0.11420556,0.9934456,-349.141,-17.230999,8.311,-0.00021,-0.00030999997,4.64491
83.8,2000,0,91.24,0.000002697398,0.000002697398,0.000002697398,0.99999994,0,0,0,0,0,0,1,1,0,0,0,false,false,true,-522.23,827.01996,17.01,0.0004234915,0.0047609075,-0.09495688,0.99546987,-341.561,-16.991,8.311,-0.00021,-0.00030999997,4.6265097
83.808334,2000,0,91.24,0.000002697398,0.000002697398,0.000002697398,0.99999994,0,0,0,0,0,0,1,1,0,0,0,false,false,true,-525.08,826.88,17.01,0.00033177994,0.0047663017,-0.07575131,0.99711514,-333.951,-16.530998,8.311,-0.00010999999,-0.00030999997,4.6097097
83.816666,2000,0,91.24,0.000002697398,0.000002697398,0.000002697398,0.99999994,0,0,0,0,0,0,1,1,0,0,0,false,false,true,-527.86,826.74,17.01,0.00024006843,0.004771697,-0.056588925,0.9983861,-326.321,-15.851,8.311,-0.00010999999,-0.00030999997,4.59481
