time,ball_loc_x,ball_loc_y,ball_loc_z,ball_rot_x,ball_rot_y,ball_rot_z,ball_rot_w,ball_vel_x,ball_vel_y,ball_vel_z,ball_ang_x,ball_ang_y,ball_ang_z,player0_throttle,player0_steer,player0_pitch,player0_yaw,player0_roll,player0_jump,player0_boost,player0_handbrake,player0_loc_x,player0_loc_y,player0_loc_z,player0_rot_x,player0_rot_y,player0_rot_z,player0_rot_w,player0_vel_x,player0_vel_y,player0_vel_z,player0_ang_x,player0_ang_y,player0_ang_z
294.93332,2000,0,91.24,0.000002697398,0.000002697398,0.000002697398,0.99999994,0,0,0,0,0,0,0,0,0,0,0,false,false,false,0,0.19,17,-0.00336905,0.0033798397,0.7071014,0.7070959,0,0.011,8.431,-0.00051,0,0
294.94168,2000,0,73,0.000002697398,0.000002697398,0.000002697398,0.99999994,0,0,0,0,0,0,1,0,0,0,0,false,true,false,0,0,16.94,0.0000026973983,0.0000026973983,0.70710677,0.70710677,0,0,2.041,-0.050809998,0,0
294.95,2000,0,87.6,0.000002697398,0.000002697398,0.000002697398,0.99999994,0,0,0,0,0,0,1,0,0,0,0,false,true,false,0,0.07,16.89,-0.00014835689,0.00015375168,0.7071067,0.7071067,0,21.521,3.8809998,-0.085609995,0,0
294.95834,2000,0,90.52,0.000002697398,0.000002697398,0.000002697398,0.99999994,0,0,0,0,0,0,1,0,0,0,0,false,true,false,0,0.32,16.85,-0.00040191234,0.00040730715,0.70710653,0.70710677,0,42.861,5.481,-0.107209995,0,0
294.96667,2000,0,91.1,0.000002697398,0.000002697398,0.000002697398,0.99999994,0,0,0,0,0,0,1,0,0,0,0,false,true,false,0,0.75,16.83,-0.00072020525,0.00072560005,0.7071067,0.707106,0,64.011,6.7809997,-0.11630999,0,0
294.975,2000,0,91.22,0.000002697398,0.000002697398,0.000002697398,0.99999994,0,0,0,0,0,0,1,0,0,0,0,false,true,false,0,1.35,16.82,-0.0010654721,0.001070867,0.70710516,0.7071067,0,84.980995,7.7209997,-0.114609994,0,0
294.98334,2000,0,91.24,0.000002697398,0.000002697398,0.000002697398,0.99999994,0,0,0,0,0,0,1,0,0,0,0,false,true,false,0,2.1299999,16.82,-0.0014053443,0.0014107391,0.7071067,0.70710397,0,105.770996,8.401,-0.10651,0,0
294.99167,2000,0,91.24,0.000002697398,0.000002697398,0.000002697398,0.99999994,0,0,0,0,0,0,1,0,0,0,0,false,true,false,0,3.08,16.82,-0.0017182427,0.0017236375,0.707108,0.70710135,0,126.391,8.8810005,-0.09501,0,0
295,2000,0,91.24,0.000002697398,0.000002697398,0.000002697398,0.99999994,0,0,0,0,0,0,1,0,0,0,0,false,true,false,0,4.2,16.83,-0.001998772,0.0020041666,0.70710653,0.7071013,0,146.83101,9.231,-0.08221,0,0
295.00833,2000,0,91.24,0.000002697398,0.000002697398,0.000002697398,0.99999994,0,0,0,0,0,0,1,0,0,0,0,false,true,false,0,5.49,16.84,-0.0022415377,0.0022469326,0.70710504,0.7071013,0,167.091,9.451,-0.069409996,0,0
295.01666,2000,0,91.24,0.000002697398,0.000002697398,0.000002697398,0.99999994,0,0,0,0,0,0,1,0,0,0,0,false,true,false,0,6.95,16.85,-0.00244654,0.0024519349,0.70710367,0.7071013,0,187.181,9.591001,-0.057309996,0,0
295.025,2000,0,91.24,0.000002697398,0.000002697398,0.000002697398,0.99999994,0,0,0,0,0,0,1,0,0,0,0,false,true,false,0,8.58,16.859999,-0.0026137787,0.0026191734,0.7071025,0.7071013,0,207.101,9.6710005,-0.046409998,0,0
295.03333,2000,0,91.24,0.000002697398,0.000002697398,0.000002697398,0.99999994,0,0,0,0,0,0,1,0,0,0,0,false,true,false,0,10.37,16.869999,-0.0027486486,0.0027540433,0.70710146,0.7071013,0,226.851,9.711,-0.03701,0,0
295.04166,2000,0,91.24,0.000002697398,0.000002697398,0.000002697398,0.99999994,0,0,0,0,0,0,1,0,0,0,0,false,true,false,0,12.33,16.88,-0.0028565445,0.0028619394,0.70710063,0.7071013,0,246.431,9.721,-0.02911,0,0
295.05,2000,0,91.24,0.000002697398,0.000002697398,0.000002697398,0.99999994,0,0,0,0,0,0,1,0,0,0,0,false,true,false,0,14.45,16.89,-0.0029428613,0.002948256,0.7071013,0.7070999,0,265.841,9.701,-0.02261,0,0
295.05832,2000,0,91.24,0.000002697398,0.000002697398,0.000002697398,0.99999994,0,0,0,0,0,0,1,0,0,0,0,false,true,false,0,16.73,16.9,-0.003007599,0.0030129936,0.7070993,0.7071013,0,285.081,9.641,-0.01791,0,0
295.06668,2000,0,91.24,0.000002697398,0.000002697398,0.000002697398,0.99999994,0,0,0,0,0,0,1,0,0,0,0,false,true,false,0,19.17,16.91,-0.0030615467,0.0030669416,0.7071013,0.7070989,0,304.161,9.561,-0.014409999,0,0
295.075,2000,0,91.24,0.000002697398,0.000002697398,0.000002697398,0.99999994,0,0,0,0,0,0,1,0,0,0,0,false,true,false,0,21.77,16.92,-0.0031047051,0.0031101,0.7070985,0.7071013,0,323.081,9.471,-0.011809999,0,0
295.08334,2000,0,91.24,0.000002697398,0.000002697398,0.000002697398,0.99999994,0,0,0,0,0,0,1,0,0,0,0,false,true,false,0,24.529999,16.93,-0.003137074,0.0031424686,0.7070959,0.7071036,0,341.831,9.371,-0.00981,0,0
295.09167,2000,0,91.24,0.000002697398,0.000002697398,0.000002697398,0.99999994,0,0,0,0,0,0,1,0,0,0,0,false,true,false,0,27.449999,16.94,-0.003164048,0.003169443,0.707096,0.7071034,0,360.421,9.271,-0.0083099995,0,0
295.1,2000,0,91.24,0.000002697398,0.000002697398,0.000002697398,0.99999994,0,0,0,0,0,0,1,0,0,0,0,false,true,false,0,30.519999,16.949999,-0.003191022,0.0031964167,0.7070959,0.70710313,0,378.851,9.161,-0.00711,0,0
295.10834,2000,0,91.24,0.000002697398,0.000002697398,0.000002697398,0.99999994,0,0,0,0,0,0,1,0,0,0,0,false,true,false,0,33.75,16.96,-0.0032126014,0.003217996,0.707096,0.70710295,0,397.131,9.051001,-0.00601,0,0
295.11667,2000,0,91.24,0.000002697398,0.000002697398,0.000002697398,0.99999994,0,0,0,0,0,0,1,0,0,0,0,false,true,false,0,37.13,16.97,-0.0032287855,0.0032341804,0.7070959,0.7071028,0,415.251,8.941,-0.00521,0,0
295.125,2000,0,91.24,0.000002697398,0.000002697398,0.000002697398,0.99999994,0,0,0,0,0,0,1,0,0,0,0,false,true,false,0,40.66,16.98,-0.00324497,0.003250365,0.707096,0.70710266,0,433.211,8.831,-0.00451,0,0
295.13333,2000,0,91.24,0.000002697398,0.000002697398,0.000002697398,0.99999994,0,0,0,0,0,0,1,0,0,0,0,false,true,false,0,44.34,16.99,-0.0032557594,0.0032611543,0.7070959,0.70710254,0,451.021,8.721001,-0.00391,0,0
295.14166,2000,0,91.24,0.000002697398,0.000002697398,0.000002697398,0.99999994,0,0,0,0,0,0,1,0,0,0,0,false,true,false,0,48.17,16.99,-0.003266549,0.003271944,0.7070959,0.7071024,0,468.681,8.601,-0.00341,0,0
295.15,2000,0,91.24,0.000002697398,0.000002697398,0.000002697398,0.99999994,0,0,0,0,0,0,1,0,0,0,0,false,true,false,0,52.14,16.99,-0.0032773386,0.0032827335,0.7070959,0.7071023,0,486.191,8.531,-0.00301,0,0
295.15833,2000,0,91.24,0.000002697398,0.000002697398,0.000002697398,0.99999994,0,0,0,0,0,0,1,0,0,0,0,false,true,false,0,56.26,16.99,-0.0032881282,0.003293523,0.7070959,0.70710224,0,503.541,8.481,-0.00271,0,0
295.16666,2000,0,91.24,0.000002697398,0.000002697398,0.000002697398,0.99999994,0,0,0,0,0,0,1,0,0,0,0,false,true,false,0,60.53,16.99,-0.0032935233,0.003298918,0.707096,0.7071022,0,520.751,8.451,-0.00241,0,0
295.175,2000,0,91.24,0.000002697398,0.000002697398,0.000002697398,0.99999994,0,0,0,0,0,0,1,0,0,0,0,false,true,false,0,64.939995,16.99,-0.0032989178,0.0033043127,0.7070959,0.7071021,0,537.811,8.431,-0.00211,0,0
295.18332,2000,0,91.24,0.000002697398,0.000002697398,0.000002697398,0.99999994,0,0,0,0,0,0,1,0,0,0,0,false,true,false,0,69.49,16.99,-0.0033043127,0.0033097074,0.7070959,0.70710206,0,554.72095,8.4210005,-0.0019099999,0,0
295.19168,2000,0,91.24,0.000002697398,0.000002697398,0.000002697398,0.99999994,0,0,0,0,0,0,1,0,0,0,0,false,true,false,0,74.18,16.99,-0.0033097074,0.0033151023,0.7070959,0.707102,0,571.49097,8.411,-0.0017099999,0,0
295.2,2000,0,91.24,0.000002697398,0.000002697398,0.000002697398,0.99999994,0,0,0,0,0,0,1,0,0,0,0,false,true,false,0,79.009995,16.99,-0.0033151023,0.003320497,0.7070959,0.707102,0,588.11096,8.411,-0.00151,0,0
295.20834,2000,0,91.24,0.000002697398,0.000002697398,0.000002697398,0.99999994,0,0,0,0,0,0,1,0,0,0,0,false,true,false,0,83.979996,16.99,-0.0033204972,0.0033258921,0.707096,0.70710194,0,604.59094,8.411,-0.0014099999,0,0
295.21667,2000,0,91.24,0.000002697398,0.000002697398,0.000002697398,0.99999994,0,0,0,0,0,0,1,0,0,0,0,false,true,false,0,89.09,16.99,-0.003325892,0.0033312866,0.7070959,0.7071019,0,620.93097,8.411,-0.0012099999,0,0
295.23334,2000,0,91.24,0.000002697398,0.000002697398,0.000002697398,0.99999994,0,0,0,0,0,0,1,0,0,0,0,false,true,false,0,99.71,16.99,-0.0033366815,0.0033420762,0.7070959,0.70710176,0,653.191,8.411,-0.00091,0,0
295.24167,2000,0,91.24,0.000002697398,0.000002697398,0.000002697398,0.99999994,0,0,0,0,0,0,1,0,0,0,0,false,true,false,0,105.22,16.99,-0.0033366818,0.0033474711,0.707096,0.70710176,0,669.11096,8.411,-0.00081,0,0
295.25,2000,0,91.24,0.000002697398,0.000002697398,0.000002697398,0.99999994,0,0,0,0,0,0,1,0,0,0,0,false,true,false,0,110.86,16.99,-0.0033366818,0.0033474711,0.707096,0.70710176,0,684.90094,8.411,-0.00071,0,0
295.25833,2000,0,91.24,0.000002697398,0.000002697398,0.000002697398,0.99999994,0,0,0,0,0,0,1,0,0,0,0,false,true,false,0,116.64,16.99,-0.0033366818,0.0033474711,0.707096,0.70710176,0,700.55096,8.411,-0.00061,0,0
295.26666,2000,0,91.24,0.000002697398,0.000002697398,0.000002697398,0.99999994,0,0,0,0,0,0,1,0,0,0,0,false,true,false,0,122.549995,16.99,-0.0033366818,0.0033474711,0.707096,0.70710176,0,716.071,8.411,-0.00061,0,0
295.275,2000,0,91.24,0.000002697398,0.000002697398,0.000002697398,0.99999994,0,0,0,0,0,0,1,0,0,0,0,false,true,false,0,128.59,16.99,-0.0033366818,0.0033474711,0.707096,0.70710176,0,731.451,8.411,-0.00061,0,0
295.28333,2000,0,91.24,0.000002697398,0.000002697398,0.000002697398,0.99999994,0,0,0,0,0,0,1,0,0,0,0,false,true,false,0,134.75,16.99,-0.0033366818,0.0033474711,0.707096,0.70710176,0,746.701,8.411,-0.00061,0,0
295.29166,2000,0,91.24,0.000002697398,0.000002697398,0.000002697398,0.99999994,0,0,0,0,0,0,1,0,0,0,0,false,true,false,0,141.04,16.99,-0.0033366818,0.0033474711,0.707096,0.70710176,0,761.821,8.411,-0.00061,0,0
295.3,2000,0,91.24,0.000002697398,0.000002697398,0.000002697398,0.99999994,0,0,0,0,0,0,1,0,0,0,0,false,true,false,0,147.45999,16.99,-0.0033366818,0.0033474711,0.707096,0.70710176,0,776.811,8.411,-0.00061,0,0
295.30832,2000,0,91.24,0.000002697398,0.000002697398,0.000002697398,0.99999994,0,0,0,0,0,0,1,0,0,0,0,false,true,false,0,154,16.99,-0.0033366818,0.0033474711,0.707096,0.70710176,0,791.67096,8.411,-0.00061,0,0
295.31668,2000,0,91.24,0.000002697398,0.000002697398,0.000002697398,0.99999994,0,0,0,0,0,0,1,0,0,0,0,false,true,false,0,160.67,16.99,-0.0033366818,0.0033474711,0.707096,0.70710176,0,806.41095,8.411,-0.00061,0,0
295.325,2000,0,91.24,0.000002697398,0.000002697398,0.000002697398,0.99999994,0,0,0,0,0,0,1,0,0,0,0,false,true,false,0,167.45999,16.99,-0.0033366818,0.0033474711,0.707096,0.70710176,0,821.02094,8.411,-0.00061,0,0
295.33334,2000,0,91.24,0.000002697398,0.000002697398,0.000002697398,0.99999994,0,0,0,0,0,0,1,0,0,0,0,false,true,false,0,174.37,16.99,-0.0033366818,0.0033474711,0.707096,0.70710176,0,835.501,8.411,-0.00061,0,0
295.34167,2000,0,91.24,0.000002697398,0.000002697398,0.000002697398,0.99999994,0,0,0,0,0,0,1,0,0,0,0,false,true,false,0,181.4,16.99,-0.0033366818,0.0033474711,0.707096,0.70710176,0,849.86096,8.411,-0.00071,0,0
295.35,2000,0,91.24,0.000002697398,0.000002697398,0.000002697398,0.99999994,0,0,0,0,0,0,1,0,0,0,0,false,true,false,0,188.55,16.99,-0.0033366818,0.0033474711,0.707096,0.70710176,0,864.10095,8.411,-0.00071,0,0
295.35834,2000,0,91.24,0.000002697398,0.000002697398,0.000002697398,0.99999994,0,0,0,0,0,0,1,0,0,0,0,false,true,false,0,195.81999,16.99,-0.0033366818,0.0033474711,0.707096,0.70710176,0,878.22095,8.411,-0.00071,0,0
295.36667,2000,0,91.24,0.000002697398,0.000002697398,0.000002697398,0.99999994,0,0,0,0,0,0,1,0,0,0,0,false,true,false,0,203.20999,16.99,-0.0033366818,0.0033474711,0.707096,0.70710176,0,892.21094,8.411,-0.00071,0,0
295.375,2000,0,91.24,0.000002697398,0.000002697398,0.000002697398,0.99999994,0,0,0,0,0,0,1,0,0,0,0,false,true,false,0,210.70999,16.99,-0.0033366818,0.0033474711,0.707096,0.70710176,0,906.08093,8.411,-0.00071,0,0
295.38333,2000,0,91.24,0.000002697398,0.000002697398,0.000002697398,0.99999994,0,0,0,0,0,0,1,0,0,0,0,false,true,false,0,218.33,16.99,-0.0033366818,0.0033474711,0.707096,0.70710176,0,919.84094,8.411,-0.00071,0,0
295.39166,2000,0,91.24,0.000002697398,0.000002697398,0.000002697398,0.99999994,0,0,0,0,0,0,1,0,0,0,0,false,true,false,0,226.06,16.99,-0.0033366818,0.0033474711,0.707096,0.70710176,0,933.48096,8.411,-0.00081,0,0
295.4,2000,0,91.24,0.000002697398,0.000002697398,0.000002697398,0.99999994,0,0,0,0,0,0,1,0,0,0,0,false,true,false,0,233.90999,16.99,-0.0033366818,0.0033474711,0.707096,0.70710176,0,947.001,8.411,-0.00081,0,0
295.40833,2000,0,91.24,0.000002697398,0.000002697398,0.000002697398,0.99999994,0,0,0,0,0,0,1,0,0,0,0,false,true,false,0,241.87,16.99,-0.0033366818,0.0033474711,0.707096,0.70710176,0,960.41095,8.411,-0.00081,0,0
295.41666,2000,0,91.24,0.000002697398,0.000002697398,0.000002697398,0.99999994,0,0,0,0,0,0,1,0,0,0,0,false,true,false,0,249.93999,16.99,-0.0033366818,0.0033474711,0.707096,0.70710176,0,973.7009,8.411,-0.00081,0,0
295.425,2000,0,91.24,0.000002697398,0.000002697398,0.000002697398,0.99999994,0,0,0,0,0,0,1,0,0,0,0,false,true,false,0,258.12,16.99,-0.0033366818,0.0033474711,0.707096,0.70710176,0,986.881,8.411,-0.00081,0,0
295.43332,2000,0,91.24,0.000002697398,0.000002697398,0.000002697398,0.99999994,0,0,0,0,0,0,1,0,0,0,0,false,true,false,0,266.41,16.99,-0.0033366818,0.0033474711,0.707096,0.70710176,0,999.941,8.411,-0.00081,0,0
295.44168,2000,0,91.24,0.000002697398,0.000002697398,0.000002697398,0.99999994,0,0,0,0,0,0,1,0,0,0,0,false,true,false,0,274.81,16.99,-0.0033366818,0.0033474711,0.707096,0.70710176,0,1012.8909,8.411,-0.00081,0,0
295.45,2000,0,91.24,0.000002697398,0.000002697398,0.000002697398,0.99999994,0,0,0,0,0,0,1,0,0,0,0,false,true,false,0,283.32,16.99,-0.0033366818,0.0033474711,0.707096,0.70710176,0,1025.731,8.411,-0.00091,0,0
295.45834,2000,0,91.24,0.000002697398,0.000002697398,0.000002697398,0.99999994,0,0,0,0,0,0,1,0,0,0,0,false,true,false,0,291.94,16.99,-0.0033366815,0.0033528658,0.7070959,0.7071017,0,1038.4609,8.411,-0.00091,0,0
295.46667,2000,0,91.24,0.000002697398,0.000002697398,0.000002697398,0.99999994,0,0,0,0,0,0,1,0,0,0,0,false,true,false,0,300.66,16.99,-0.0033366815,0.0033582605,0.7070959,0.7071017,0,1051.0809,8.411,-0.00091,0,0
295.475,2000,0,91.24,0.000002697398,0.000002697398,0.000002697398,0.99999994,0,0,0,0,0,0,1,0,0,0,0,false,true,false,0,309.49,16.99,-0.0033366815,0.0033636554,0.7070959,0.70710164,0,1063.591,8.411,-0.00081,-0.00010999999,0
295.48334,2000,0,91.24,0.000002697398,0.000002697398,0.000002697398,0.99999994,0,0,0,0,0,0,1,0,0,0,0,false,true,false,0,318.41998,16.99,-0.0033366815,0.0033636554,0.7070959,0.70710164,0,1076.001,8.411,-0.00081,-0.00021,0
295.49167,2000,0,91.24,0.000002697398,0.000002697398,0.000002697398,0.99999994,0,0,0,0,0,0,1,0,0,0,0,false,true,false,0,327.46,16.99,-0.0033420762,0.0033636554,0.7070959,0.70710164,0,1088.3009,8.411,-0.00081,-0.00021,0
295.5,2000,0,91.24,0.000002697398,0.000002697398,0.000002697398,0.99999994,0,0,0,0,0,0,1,0,0,0,0,false,true,false,0,336.6,16.99,-0.0033474711,0.0033636556,0.707096,0.70710164,0,1100.491,8.411,-0.00071,-0.00021,0
295.50833,2000,0,91.24,0.000002697398,0.000002697398,0.000002697398,0.99999994,0,0,0,0,0,0,1,0,0,0,0,false,true,false,0,345.84,16.99,-0.0033474711,0.0033636556,0.707096,0.70710164,0,1112.5809,8.411,-0.00061,-0.00021,0
295.51666,2000,0,91.24,0.000002697398,0.000002697398,0.000002697398,0.99999994,0,0,0,0,0,0,1,0,0,0,0,false,true,false,0,355.18,16.99,-0.0033474711,0.0033636556,0.707096,0.70710164,0,1124.5709,8.411,-0.00061,-0.00021,0
295.525,2000,0,91.24,0.000002697398,0.000002697398,0.000002697398,0.99999994,0,0,0,0,0,0,1,0,0,0,0,false,true,false,0,364.62,16.99,-0.0033474711,0.0033636556,0.707096,0.70710164,0,1136.4509,8.411,-0.00061,-0.00021,0
295.53333,2000,0,91.24,0.000002697398,0.000002697398,0.000002697398,0.99999994,0,0,0,0,0,0,1,0,0,0,0,false,true,false,0,374.16,16.99,-0.0033474711,0.0033636556,0.707096,0.70710164,0,1148.231,8.411,-0.00061,-0.00021,0
295.54166,2000,0,91.24,0.000002697398,0.000002697398,0.000002697398,0.99999994,0,0,0,0,0,0,1,0,0,0,0,false,true,false,0,383.8,16.99,-0.0033474711,0.0033636556,0.707096,0.70710164,0,1159.911,8.411,-0.00061,-0.00021,0
295.55,2000,0,91.24,0.000002697398,0.000002697398,0.000002697398,0.99999994,0,0,0,0,0,0,1,0,0,0,0,false,true,false,0,393.53,16.99,-0.0033474711,0.0033636556,0.707096,0.70710164,0,1171.491,8.411,-0.00061,-0.00021,0
295.55832,2000,0,91.24,0.000002697398,0.000002697398,0.000002697398,0.99999994,0,0,0,0,0,0,1,0,0,0,0,false,true,false,0,403.36,16.99,-0.0033474711,0.0033636556,0.707096,0.70710164,0,1182.971,8.411,-0.00061,-0.00021,0
295.56668,2000,0,91.24,0.000002697398,0.000002697398,0.000002697398,0.99999994,0,0,0,0,0,0,1,0,0,0,0,false,true,false,0,413.28998,16.99,-0.0033474711,0.0033636556,0.707096,0.70710164,0,1194.351,8.411,-0.00061,-0.00021,0
295.575,2000,0,91.24,0.000002697398,0.000002697398,0.000002697398,0.99999994,0,0,0,0,0,0,1,0,0,0,0,false,true,false,0,423.31,16.99,-0.0033474711,0.0033636556,0.707096,0.70710164,0,1205.641,8.411,-0.00061,-0.00021,0
295.58334,2000,0,91.24,0.000002697398,0.000002697398,0.000002697398,0.99999994,0,0,0,0,0,0,1,0,0,0,0,false,true,false,0,433.43,16.99,-0.0033474711,0.0033636556,0.707096,0.70710164,0,1216.8309,8.411,-0.00061,-0.00021,0
295.59167,2000,0,91.24,0.000002697398,0.000002697398,0.000002697398,0.99999994,0,0,0,0,0,0,1,0,0,0,0,false,true,false,0,443.63998,16.99,-0.0033474711,0.0033636556,0.707096,0.70710164,0,1227.9209,8.411,-0.00071,-0.00021,0
295.6,2000,0,91.24,0.000002697398,0.000002697398,0.000002697398,0.99999994,0,0,0,0,0,0,1,0,0,0,0,false,true,false,0,453.94,16.99,-0.0033474711,0.0033636556,0.707096,0.70710164,0,1238.9209,8.411,-0.00071,-0.00021,0
295.60834,2000,0,91.24,0.000002697398,0.000002697398,0.000002697398,0.99999994,0,0,0,0,0,0,1,0,0,0,0,false,true,false,0,464.33,16.99,-0.0033474711,0.0033636556,0.707096,0.70710164,0,1249.8209,8.411,-0.00071,-0.00021,0
295.61667,2000,0,91.24,0.000002697398,0.000002697398,0.000002697398,0.99999994,0,0,0,0,0,0,1,0,0,0,0,false,true,false,0,474.81,16.99,-0.0033474711,0.0033636556,0.707096,0.70710164,0,1260.631,8.411,-0.00071,-0.00021,0
295.625,2000,0,91.24,0.000002697398,0.000002697398,0.000002697398,0.99999994,0,0,0,0,0,0,1,0,0,0,0,false,true,false,0,485.37997,16.99,-0.0033474711,0.0033636556,0.707096,0.70710164,0,1271.351,8.411,-0.00071,-0.00021,0
295.63333,2000,0,91.24,0.000002697398,0.000002697398,0.000002697398,0.99999994,0,0,0,0,0,0,1,0,0,0,0,false,true,false,0,496.03998,16.99,-0.0033474711,0.0033636556,0.707096,0.70710164,0,1281.981,8.411,-0.00071,-0.00021,0
295.64166,2000,0,91.24,0.000002697398,0.000002697398,0.000002697398,0.99999994,0,0,0,0,0,0,1,0,0,0,0,false,true,false,0,506.78998,16.99,-0.0033474711,0.0033636556,0.707096,0.70710164,0,1292.511,8.411,-0.00071,-0.00021,0
295.65,2000,0,91.24,0.000002697398,0.000002697398,0.000002697398,0.99999994,0,0,0,0,0,0,1,0,0,0,0,false,true,false,0,517.63,16.99,-0.0033474711,0.0033636556,0.707096,0.70710164,0,1302.9509,8.411,-0.00071,-0.00021,0
295.65833,2000,0,91.24,0.000002697398,0.000002697398,0.000002697398,0.99999994,0,0,0,0,0,0,1,0,0,0,0,false,true,false,0,528.56,16.99,-0.0033474711,0.0033636556,0.707096,0.70710164,0,1313.3009,8.411,-0.00081,-0.00021,0
295.66666,2000,0,91.24,0.000002697398,0.000002697398,0.000002697398,0.99999994,0,0,0,0,0,0,1,0,0,0,0,false,true,false,0,539.57,16.99,-0.0033528658,0.0033636554,0.7070959,0.7071016,0,1323.5709,8.411,-0.00081,-0.00021,0
295.675,2000,0,91.24,0.000002697398,0.000002697398,0.000002697398,0.99999994,0,0,0,0,0,0,1,0,0,0,0,false,true,false,0,550.67,16.99,-0.0033582605,0.0033636554,0.7070959,0.7071016,0,1333.751,8.411,-0.00081,-0.00010999999,0
295.68332,2000,0,91.24,0.000002697398,0.000002697398,0.000002697398,0.99999994,0,0,0,0,0,0,1,0,0,0,0,false,true,false,0,561.85,16.99,-0.0033582605,0.0033636554,0.7070959,0.7071016,0,1343.841,8.411,-0.00071,0,0
295.69168,2000,0,91.24,0.000002697398,0.000002697398,0.000002697398,0.99999994,0,0,0,0,0,0,1,0,0,0,0,false,true,false,0,573.12,16.99,-0.0033582605,0.0033636554,0.7070959,0.7071016,0,1353.841,8.411,-0.00071,0,0
295.7,2000,0,91.24,0.000002697398,0.000002697398,0.000002697398,0.99999994,0,0,0,0,0,0,1,0,0,0,0,false,true,false,0,584.47,16.99,-0.0033582605,0.0033636554,0.7070959,0.7071016,0,1363.761,8.411,-0.00071,0,0
295.70834,2000,0,91.24,0.000002697398,0.000002697398,0.000002697398,0.99999994,0,0,0,0,0,0,1,0,0,0,0,false,true,false,0,595.89996,16.99,-0.0033582605,0.0033636554,0.7070959,0.7071016,0,1373.591,8.411,-0.00071,0,0
295.71667,2000,0,91.24,0.000002697398,0.000002697398,0.000002697398,0.99999994,0,0,0,0,0,0,1,0,0,0,0,false,true,false,0,607.42,16.99,-0.0033582605,0.0033636554,0.7070959,0.7071016,0,1383.341,8.411,-0.00071,0,0
295.725,2000,0,91.24,0.000002697398,0.000002697398,0.000002697398,0.99999994,0,0,0,0,0,0,1,0,0,0,0,false,true,false,0,619.01996,16.99,-0.0033582605,0.0033636554,0.7070959,0.7071016,0,1393.011,8.411,-0.00071,0,0
295.73334,2000,0,91.24,0.000002697398,0.000002697398,0.000002697398,0.99999994,0,0,0,0,0,0,1,0,0,0,0,false,true,false,0,630.7,16.99,-0.0033582605,0.0033636554,0.7070959,0.7071016,0,1402.4409,8.411,-0.00071,0,0
295.74167,2000,0,91.24,0.000002697398,0.000002697398,0.000002697398,0.99999994,0,0,0,0,0,0,1,0,0,0,0,false,true,false,0,642.45996,16.99,-0.0033582605,0.0033636554,0.7070959,0.7071016,0,1410.7009,8.411,-0.00081,0,0
295.75,2000,0,91.24,0.000002697398,0.000002697398,0.000002697398,0.99999994,0,0,0,0,0,0,1,0,0,0,0,false,true,false,0,654.27997,16.99,-0.0033582605,0.0033636554,0.7070959,0.7071016,0,1418.9609,8.411,-0.00091,0,0
295.75833,2000,0,91.24,0.000002697398,0.000002697398,0.000002697398,0.99999994,0,0,0,0,0,0,1,0,0,0,0,false,true,false,0,666.17,16.99,-0.0033582605,0.00336905,0.7070959,0.7071016,0,1427.221,8.411,-0.00091,0,0
295.76666,2000,0,91.24,0.000002697398,0.000002697398,0.000002697398,0.99999994,0,0,0,0,0,0,1,0,0,0,0,false,true,false,0,678.13,16.99,-0.0033582605,0.003374445,0.7070959,0.7071015,0,1435.481,8.411,-0.00091,0,0
295.775,2000,0,91.24,0.000002697398,0.000002697398,0.000002697398,0.99999994,0,0,0,0,0,0,1,0,0,0,0,false,true,false,0,690.16,16.99,-0.0033582605,0.0033798397,0.7070959,0.70710146,0,1443.741,8.411,-0.00081,0,0
295.78333,2000,0,91.24,0.000002697398,0.000002697398,0.000002697398,0.99999994,0,0,0,0,0,0,1,0,0,0,0,false,true,false,0,702.26,16.99,-0.0033582605,0.0033798397,0.7070959,0.70710146,0,1452.001,8.411,-0.00071,-0.00010999999,0
295.79166,2000,0,91.24,0.000002697398,0.000002697398,0.000002697398,0.99999994,0,0,0,0,0,0,1,0,0,0,0,false,true,false,0,714.43,16.99,-0.0033582605,0.0033798397,0.7070959,0.70710146,0,1460.261,8.411,-0.00071,-0.00010999999,0
295.8,2000,0,91.24,0.000002697398,0.000002697398,0.000002697398,0.99999994,0,0,0,0,0,0,1,0,0,0,0,false,true,false,0,726.67,16.99,-0.0033582605,0.0033798397,0.7070959,0.70710146,0,1468.521,8.411,-0.00071,-0.00010999999,0
295.80832,2000,0,91.24,0.000002697398,0.000002697398,0.000002697398,0.99999994,0,0,0,0,0,0,1,0,0,0,0,false,true,false,0,738.98,16.99,-0.0033582605,0.0033798397,0.7070959,0.70710146,0,1476.7809,8.411,-0.00071,-0.00010999999,0
295.81668,2000,0,91.24,0.000002697398,0.000002697398,0.000002697398,0.99999994,0,0,0,0,0,0,1,0,0,0,0,false,true,false,0,751.36,16.99,-0.0033582605,0.0033798397,0.7070959,0.70710146,0,1485.0409,8.411,-0.00071,-0.00010999999,0
295.825,2000,0,91.24,0.000002697398,0.000002697398,0.000002697398,0.99999994,0,0,0,0,0,0,1,0,0,0,0,false,true,false,0,763.8,16.99,-0.0033582605,0.0033798397,0.7070959,0.70710146,0,1493.3009,8.411,-0.00071,-0.00010999999,0
295.83334,2000,0,91.24,0.000002697398,0.000002697398,0.000002697398,0.99999994,0,0,0,0,0,0,1,0,0,0,0,false,true,false,0,776.31,16.99,-0.0033582605,0.0033798397,0.7070959,0.70710146,0,1501.5609,8.411,-0.00071,-0.00010999999,0
295.84167,2000,0,91.24,0.000002697398,0.000002697398,0.000002697398,0.99999994,0,0,0,0,0,0,1,0,0,0,0,false,true,false,0,788.88995,16.99,-0.0033582605,0.0033798397,0.7070959,0.70710146,0,1509.8209,8.411,-0.00071,-0.00010999999,0
295.85,2000,0,91.24,0.000002697398,0.000002697398,0.000002697398,0.99999994,0,0,0,0,0,0,1,0,0,0,0,false,true,false,0,801.54,16.99,-0.0033582605,0.0033798397,0.7070959,0.70710146,0,1518.0809,8.411,-0.00071,-0.00010999999,0
295.85834,2000,0,91.24,0.000002697398,0.000002697398,0.000002697398,0.99999994,0,0,0,0,0,0,1,0,0,0,0,false,true,false,0,814.26,16.99,-0.0033582605,0.0033798397,0.7070959,0.70710146,0,1526.341,8.411,-0.00071,-0.00010999999,0
295.86667,2000,0,91.24,0.000002697398,0.000002697398,0.000002697398,0.99999994,0,0,0,0,0,0,1,0,0,0,0,false,true,false,0,827.05,16.99,-0.0033582605,0.0033798397,0.7070959,0.70710146,0,1534.601,8.411,-0.00071,-0.00010999999,0
295.875,2000,0,91.24,0.000002697398,0.000002697398,0.000002697398,0.99999994,0,0,0,0,0,0,1,0,0,0,0,false,true,false,0,839.91,16.99,-0.0033582605,0.0033798397,0.7070959,0.70710146,0,1542.861,8.411,-0.00071,-0.00010999999,0
295.88333,2000,0,91.24,0.000002697398,0.000002697398,0.000002697398,0.99999994,0,0,0,0,0,0,1,0,0,0,0,false,true,false,0,852.83997,16.99,-0.0033582605,0.0033798397,0.7070959,0.70710146,0,1551.121,8.411,-0.00071,-0.00010999999,0
295.89166,2000,0,91.24,0.000002697398,0.000002697398,0.000002697398,0.99999994,0,0,0,0,0,0,1,0,0,0,0,false,true,false,0,865.82996,16.99,-0.0033582605,0.0033798397,0.7070959,0.70710146,0,1559.381,8.411,-0.00071,-0.00010999999,0
295.9,2000,0,91.24,0.000002697398,0.000002697398,0.000002697398,0.99999994,0,0,0,0,0,0,1,0,0,0,0,false,true,false,0,878.88995,16.99,-0.0033582605,0.0033798397,0.7070959,0.70710146,0,1567.641,8.411,-0.00071,-0.00010999999,0
295.90833,2000,0,91.24,0.000002697398,0.000002697398,0.000002697398,0.99999994,0,0,0,0,0,0,1,0,0,0,0,false,true,false,0,892.01996,16.99,-0.0033582605,0.0033798397,0.7070959,0.70710146,0,1575.901,8.411,-0.00071,-0.00010999999,0
295.91666,2000,0,91.24,0.000002697398,0.000002697398,0.000002697398,0.99999994,0,0,0,0,0,0,1,0,0,0,0,false,true,false,0,905.22,16.99,-0.0033582605,0.0033798397,0.7070959,0.70710146,0,1584.1609,8.411,-0.00071,-0.00010999999,0
295.925,2000,0,91.24,0.000002697398,0.000002697398,0.000002697398,0.99999994,0,0,0,0,0,0,1,0,0,0,0,false,true,false,0,918.49,16.99,-0.0033582605,0.0033798397,0.7070959,0.70710146,0,1592.4209,8.411,-0.00071,-0.00010999999,0
295.93332,2000,0,91.24,0.000002697398,0.000002697398,0.000002697398,0.99999994,0,0,0,0,0,0,1,0,0,0,0,false,true,false,0,931.82996,16.99,-0.0033582605,0.0033798397,0.7070959,0.70710146,0,1600.6809,8.411,-0.00071,-0.00010999999,0
295.94168,2000,0,91.24,0.000002697398,0.000002697398,0.000002697398,0.99999994,0,0,0,0,0,0,1,0,0,0,0,false,true,false,0,945.24,16.99,-0.0033582605,0.0033798397,0.7070959,0.70710146,0,1608.9409,8.411,-0.00071,-0.00010999999,0
295.95,2000,0,91.24,0.000002697398,0.000002697398,0.000002697398,0.99999994,0,0,0,0,0,0,1,0,0,0,0,false,true,false,0,958.72,16.99,-0.0033582605,0.0033798397,0.7070959,0.70710146,0,1617.2009,8.411,-0.00071,-0.00010999999,0
295.95834,2000,0,91.24,0.000002697398,0.000002697398,0.000002697398,0.99999994,0,0,0,0,0,0,1,0,0,0,0,false,true,false,0,972.26996,16.99,-0.0033582605,0.0033798397,0.7070959,0.70710146,0,1625.4609,8.411,-0.00071,-0.00010999999,0
295.96667,2000,0,91.24,0.000002697398,0.000002697398,0.000002697398,0.99999994,0,0,0,0,0,0,1,0,0,0,0,false,true,false,0,985.88,16.99,-0.0033582605,0.0033798397,0.7070959,0.70710146,0,1633.721,8.411,-0.00071,-0.00010999999,0
295.975,2000,0,91.24,0.000002697398,0.000002697398,0.000002697398,0.99999994,0,0,0,0,0,0,1,0,0,0,0,false,true,false,0,999.56,16.99,-0.0033582605,0.0033798397,0.7070959,0.70710146,0,1641.981,8.411,-0.00071,-0.00010999999,0
295.98334,2000,0,91.24,0.000002697398,0.000002697398,0.000002697398,0.99999994,0,0,0,0,0,0,1,0,0,0,0,false,true,false,0,1013.31,16.99,-0.0033582605,0.0033798397,0.7070959,0.70710146,0,1650.241,8.411,-0.00071,-0.00010999999,0
295.99167,2000,0,91.24,0.000002697398,0.000002697398,0.000002697398,0.99999994,0,0,0,0,0,0,1,0,0,0,0,false,true,false,0,1027.13,16.99,-0.0033582605,0.0033798397,0.7070959,0.70710146,0,1658.501,8.411,-0.00071,-0.00010999999,0
296,2000,0,91.24,0.000002697398,0.000002697398,0.000002697398,0.99999994,0,0,0,0,0,0,1,0,0,0,0,false,true,false,0,1041.02,16.99,-0.0033582605,0.0033798397,0.7070959,0.70710146,0,1666.761,8.411,-0.00071,-0.00010999999,0
296.00833,2000,0,91.24,0.000002697398,0.000002697398,0.000002697398,0.99999994,0,0,0,0,0,0,1,0,0,0,0,false,true,false,0,1054.98,16.99,-0.0033582605,0.0033798397,0.7070959,0.70710146,0,1675.021,8.411,-0.00071,-0.00010999999,0
296.01666,2000,0,91.24,0.000002697398,0.000002697398,0.000002697398,0.99999994,0,0,0,0,0,0,1,0,0,0,0,false,true,false,0,1069.01,16.99,-0.0033582605,0.0033798397,0.7070959,0.70710146,0,1683.2809,8.411,-0.00071,-0.00010999999,0
296.025,2000,0,91.24,0.000002697398,0.000002697398,0.000002697398,0.99999994,0,0,0,0,0,0,1,0,0,0,0,false,true,false,0,1083.11,16.99,-0.0033582605,0.0033798397,0.7070959,0.70710146,0,1691.5409,8.411,-0.00071,-0.00010999999,0
296.03333,2000,0,91.24,0.000002697398,0.000002697398,0.000002697398,0.99999994,0,0,0,0,0,0,1,0,0,0,0,false,true,false,0,1097.28,16.99,-0.0033582605,0.0033798397,0.7070959,0.70710146,0,1699.8009,8.411,-0.00071,-0.00010999999,0
296.04166,2000,0,91.24,0.000002697398,0.000002697398,0.000002697398,0.99999994,0,0,0,0,0,0,1,0,0,0,0,false,true,false,0,1111.51,16.99,-0.0033582605,0.0033798397,0.7070959,0.70710146,0,1708.0609,8.411,-0.00071,-0.00010999999,0
296.05,2000,0,91.24,0.000002697398,0.000002697398,0.000002697398,0.99999994,0,0,0,0,0,0,1,0,0,0,0,false,true,false,0,1125.8099,16.99,-0.0033582605,0.0033798397,0.7070959,0.70710146,0,1716.3209,8.411,-0.00071,-0.00010999999,0
296.05832,2000,0,91.24,0.000002697398,0.000002697398,0.000002697398,0.99999994,0,0,0,0,0,0,1,0,0,0,0,false,true,false,0,1140.1799,16.99,-0.0033582605,0.0033798397,0.7070959,0.70710146,0,1724.5809,8.411,-0.00071,-0.00010999999,0
296.06668,2000,0,91.24,0.000002697398,0.000002697398,0.000002697398,0.99999994,0,0,0,0,0,0,1,0,0,0,0,false,true,false,0,1154.62,16.99,-0.0033582605,0.0033798397,0.7070959,0.70710146,0,1732.841,8.411,-0.00071,-0.00010999999,0
296.075,2000,0,91.24,0.000002697398,0.000002697398,0.000002697398,0.99999994,0,0,0,0,0,0,1,0,0,0,0,false,true,false,0,1169.13,16.99,-0.0033582605,0.0033798397,0.7070959,0.70710146,0,1741.101,8.411,-0.00071,-0.00010999999,0
296.08334,2000,0,91.24,0.000002697398,0.000002697398,0.000002697398,0.99999994,0,0,0,0,0,0,1,0,0,0,0,false,true,false,0,1183.71,16.99,-0.0033582605,0.0033798397,0.7070959,0.70710146,0,1749.361,8.411,-0.00071,-0.00010999999,0
296.09167,2000,0,91.24,0.000002697398,0.000002697398,0.000002697398,0.99999994,0,0,0,0,0,0,1,0,0,0,0,false,true,false,0,1198.36,16.99,-0.0033582605,0.0033798397,0.7070959,0.70710146,0,1757.621,8.411,-0.00071,-0.00010999999,0
296.1,2000,0,91.24,0.000002697398,0.000002697398,0.000002697398,0.99999994,0,0,0,0,0,0,1,0,0,0,0,false,true,false,0,1213.08,16.99,-0.0033582605,0.0033798397,0.7070959,0.70710146,0,1765.881,8.411,-0.00071,-0.00010999999,0
296.10834,2000,0,91.24,0.000002697398,0.000002697398,0.000002697398,0.99999994,0,0,0,0,0,0,1,0,0,0,0,false,true,false,0,1227.86,16.99,-0.0033582605,0.0033798397,0.7070959,0.70710146,0,1774.141,8.411,-0.00071,-0.00010999999,0
296.11667,2000,0,91.24,0.000002697398,0.000002697398,0.000002697398,0.99999994,0,0,0,0,0,0,1,0,0,0,0,false,true,false,0,1242.71,16.99,-0.0033582605,0.0033798397,0.7070959,0.70710146,0,1782.4009,8.411,-0.00071,-0.00010999999,0
296.125,2000,0,91.24,0.000002697398,0.000002697398,0.000002697398,0.99999994,0,0,0,0,0,0,1,0,0,0,0,false,true,false,0,1257.63,16.99,-0.0033582605,0.0033798397,0.7070959,0.70710146,0,1790.6609,8.411,-0.00071,-0.00010999999,0
296.13333,2000,0,91.24,0.000002697398,0.000002697398,0.000002697398,0.99999994,0,0,0,0,0,0,1,0,0,0,0,false,true,false,0,1272.62,16.99,-0.0033582605,0.0033798397,0.7070959,0.70710146,0,1798.9209,8.411,-0.00071,-0.00010999999,0
296.14166,2000,0,91.24,0.000002697398,0.000002697398,0.000002697398,0.99999994,0,0,0,0,0,0,1,0,0,0,0,false,true,false,0,1287.6799,16.99,-0.0033582605,0.0033798397,0.7070959,0.70710146,0,1807.1809,8.411,-0.00071,-0.00010999999,0
296.15,2000,0,91.24,0.000002697398,0.000002697398,0.000002697398,0.99999994,0,0,0,0,0,0,1,0,0,0,0,false,true,false,0,1302.8099,16.99,-0.0033582605,0.0033798397,0.7070959,0.70710146,0,1815.4409,8.411,-0.00071,-0.00010999999,0
296.15833,2000,0,91.24,0.000002697398,0.000002697398,0.000002697398,0.99999994,0,0,0,0,0,0,1,0,0,0,0,false,true,false,0,1318.01,16.99,-0.0033582605,0.0033798397,0.7070959,0.70710146,0,1823.7009,8.411,-0.00071,-0.00010999999,0
296.16666,2000,0,91.24,0.000002697398,0.000002697398,0.000002697398,0.99999994,0,0,0,0,0,0,1,0,0,0,0,false,true,false,0,1333.28,16.99,-0.0033582605,0.0033798397,0.7070959,0.70710146,0,1831.9609,8.411,-0.00071,-0.00010999999,0
296.175,2000,0,91.24,0.000002697398,0.000002697398,0.000002697398,0.99999994,0,0,0,0,0,0,1,0,0,0,0,false,true,false,0,1348.62,16.99,-0.0033582605,0.0033798397,0.7070959,0.70710146,0,1840.221,8.411,-0.00071,-0.00010999999,0
296.18332,2000,0,91.24,0.000002697398,0.000002697398,0.000002697398,0.99999994,0,0,0,0,0,0,1,0,0,0,0,false,true,false,0,1364.02,16.99,-0.0033582605,0.0033798397,0.7070959,0.70710146,0,1848.481,8.411,-0.00071,-0.00010999999,0
296.19168,2000,0,91.24,0.000002697398,0.000002697398,0.000002697398,0.99999994,0,0,0,0,0,0,1,0,0,0,0,false,true,false,0,1379.49,16.99,-0.0033582605,0.0033798397,0.7070959,0.70710146,0,1856.741,8.411,-0.00071,-0.00010999999,0
296.2,2000,0,91.24,0.000002697398,0.000002697398,0.000002697398,0.99999994,0,0,0,0,0,0,1,0,0,0,0,false,true,false,0,1395.03,16.99,-0.0033582605,0.0033798397,0.7070959,0.70710146,0,1865.001,8.411,-0.00071,-0.00010999999,0
296.20834,2000,0,91.24,0.000002697398,0.000002697398,0.000002697398,0.99999994,0,0,0,0,0,0,1,0,0,0,0,false,true,false,0,1410.64,16.99,-0.0033582605,0.0033798397,0.7070959,0.70710146,0,1873.261,8.411,-0.00071,-0.00010999999,0
296.21667,2000,0,91.24,0.000002697398,0.000002697398,0.000002697398,0.99999994,0,0,0,0,0,0,1,0,0,0,0,false,true,false,0,1426.32,16.99,-0.0033582605,0.0033798397,0.7070959,0.70710146,0,1881.5209,8.411,-0.00071,-0.00010999999,0
296.225,2000,0,91.24,0.000002697398,0.000002697398,0.000002697398,0.99999994,0,0,0,0,0,0,1,0,0,0,0,false,true,false,0,1442.07,16.99,-0.0033582605,0.0033798397,0.7070959,0.70710146,0,1889.7809,8.411,-0.00071,-0.00010999999,0
296.23334,2000,0,91.24,0.000002697398,0.000002697398,0.000002697398,0.99999994,0,0,0,0,0,0,1,0,0,0,0,false,true,false,0,1457.89,16.99,-0.0033582605,0.0033798397,0.7070959,0.70710146,0,1898.0409,8.411,-0.00071,-0.00010999999,0
296.24167,2000,0,91.24,0.000002697398,0.000002697398,0.000002697398,0.99999994,0,0,0,0,0,0,1,0,0,0,0,false,true,false,0,1473.7799,16.99,-0.0033582605,0.0033798397,0.7070959,0.70710146,0,1906.3009,8.411,-0.00071,-0.00010999999,0
296.25,2000,0,91.24,0.000002697398,0.000002697398,0.000002697398,0.99999994,0,0,0,0,0,0,1,0,0,0,0,false,true,false,0,1489.73,16.99,-0.0033582605,0.0033798397,0.7070959,0.70710146,0,1914.5609,8.411,-0.00071,-0.00010999999,0
296.25833,2000,0,91.24,0.000002697398,0.000002697398,0.000002697398,0.99999994,0,0,0,0,0,0,1,0,0,0,0,false,true,false,0,1505.75,16.99,-0.0033582605,0.0033798397,0.7070959,0.70710146,0,1922.8209,8.411,-0.00071,-0.00010999999,0
296.26666,2000,0,91.24,0.000002697398,0.000002697398,0.000002697398,0.99999994,0,0,0,0,0,0,1,0,0,0,0,false,true,false,0,1521.84,16.99,-0.0033582605,0.0033798397,0.7070959,0.70710146,0,1931.0809,8.411,-0.00071,-0.00010999999,0
296.275,2000,0,91.24,0.000002697398,0.000002697398,0.000002697398,0.99999994,0,0,0,0,0,0,1,0,0,0,0,false,true,false,0,1538,16.99,-0.0033582605,0.0033798397,0.7070959,0.70710146,0,1939.341,8.411,-0.00071,-0.00010999999,0
296.28333,2000,0,91.24,0.000002697398,0.000002697398,0.000002697398,0.99999994,0,0,0,0,0,0,1,0,0,0,0,false,true,false,0,1554.23,16.99,-0.0033582605,0.0033798397,0.7070959,0.70710146,0,1947.601,8.411,-0.00071,-0.00010999999,0
296.29166,2000,0,91.24,0.000002697398,0.000002697398,0.000002697398,0.99999994,0,0,0,0,0,0,1,0,0,0,0,false,true,false,0,1570.5299,16.99,-0.0033582605,0.0033798397,0.7070959,0.70710146,0,1955.861,8.411,-0.00071,-0.00010999999,0
296.3,2000,0,91.24,0.000002697398,0.000002697398,0.000002697398,0.99999994,0,0,0,0,0,0,1,0,0,0,0,false,true,false,0,1586.9,16.99,-0.0033582605,0.0033798397,0.7070959,0.70710146,0,1964.121,8.411,-0.00071,-0.00010999999,0
296.30832,2000,0,91.24,0.000002697398,0.000002697398,0.000002697398,0.99999994,0,0,0,0,0,0,1,0,0,0,0,false,true,false,0,1603.34,16.99,-0.0033582605,0.0033798397,0.7070959,0.70710146,0,1972.381,8.411,-0.00071,-0.00010999999,0
296.31668,2000,0,91.24,0.000002697398,0.000002697398,0.000002697398,0.99999994,0,0,0,0,0,0,1,0,0,0,0,false,true,false,0,1619.85,16.99,-0.0033582605,0.0033798397,0.7070959,0.70710146,0,1980.641,8.411,-0.00071,-0.00010999999,0
296.325,2000,0,91.24,0.000002697398,0.000002697398,0.000002697398,0.99999994,0,0,0,0,0,0,1,0,0,0,0,false,true,false,0,1636.4199,16.99,-0.0033582605,0.0033798397,0.7070959,0.70710146,0,1988.9009,8.411,-0.00071,-0.00010999999,0
296.33334,2000,0,91.24,0.000002697398,0.000002697398,0.000002697398,0.99999994,0,0,0,0,0,0,1,0,0,0,0,false,true,false,0,1653.0599,16.99,-0.0033582605,0.0033798397,0.7070959,0.70710146,0,1997.1609,8.411,-0.00071,-0.00010999999,0
296.34167,2000,0,91.24,0.000002697398,0.000002697398,0.000002697398,0.99999994,0,0,0,0,0,0,1,0,0,0,0,false,true,false,0,1669.77,16.99,-0.0033582605,0.0033798397,0.7070959,0.70710146,0,2005.4209,8.411,-0.00071,-0.00010999999,0
296.35,2000,0,91.24,0.000002697398,0.000002697398,0.000002697398,0.99999994,0,0,0,0,0,0,1,0,0,0,0,false,true,false,0,1686.5499,16.99,-0.0033582605,0.0033798397,0.7070959,0.70710146,0,2013.6809,8.411,-0.00071,-0.00010999999,0
296.35834,2000,0,91.24,0.000002697398,0.000002697398,0.000002697398,0.99999994,0,0,0,0,0,0,1,0,0,0,0,false,true,false,0,1703.3999,16.99,-0.0033582605,0.0033798397,0.7070959,0.70710146,0,2021.9409,8.411,-0.00071,-0.00010999999,0
296.36667,2000,0,91.24,0.000002697398,0.000002697398,0.000002697398,0.99999994,0,0,0,0,0,0,1,0,0,0,0,false,true,false,0,1720.32,16.99,-0.0033582605,0.0033798397,0.7070959,0.70710146,0,2030.2009,8.411,-0.00071,-0.00010999999,0
296.375,2000,0,91.24,0.000002697398,0.000002697398,0.000002697398,0.99999994,0,0,0,0,0,0,1,0,0,0,0,false,true,false,0,1737.3099,16.99,-0.0033582605,0.0033798397,0.7070959,0.70710146,0,2038.4609,8.411,-0.00071,-0.00010999999,0
296.38333,2000,0,91.24,0.000002697398,0.000002697398,0.000002697398,0.99999994,0,0,0,0,0,0,1,0,0,0,0,false,true,false,0,1754.37,16.99,-0.0033582605,0.0033798397,0.7070959,0.70710146,0,2046.721,8.411,-0.00071,-0.00010999999,0
296.39166,2000,0,91.24,0.000002697398,0.000002697398,0.000002697398,0.99999994,0,0,0,0,0,0,1,0,0,0,0,false,true,false,0,1771.49,16.99,-0.0033582605,0.0033798397,0.7070959,0.70710146,0,2054.981,8.411,-0.00071,-0.00010999999,0
296.4,2000,0,91.24,0.000002697398,0.000002697398,0.000002697398,0.99999994,0,0,0,0,0,0,1,0,0,0,0,false,true,false,0,1788.6799,16.99,-0.0033582605,0.0033798397,0.7070959,0.70710146,0,2063.241,8.411,-0.00071,-0.00010999999,0
296.40833,2000,0,91.24,0.000002697398,0.000002697398,0.000002697398,0.99999994,0,0,0,0,0,0,1,0,0,0,0,false,true,false,0,1805.94,16.99,-0.0033582605,0.0033798397,0.7070959,0.70710146,0,2071.501,8.411,-0.00071,-0.00010999999,0
296.41666,2000,0,91.24,0.000002697398,0.000002697398,0.000002697398,0.99999994,0,0,0,0,0,0,1,0,0,0,0,false,true,false,0,1823.27,16.99,-0.0033582605,0.0033798397,0.7070959,0.70710146,0,2079.761,8.411,-0.00071,-0.00010999999,0
296.425,2000,0,91.24,0.000002697398,0.000002697398,0.000002697398,0.99999994,0,0,0,0,0,0,1,0,0,0,0,false,true,false,0,1840.6699,16.99,-0.0033582605,0.0033798397,0.7070959,0.70710146,0,2088.021,8.411,-0.00071,-0.00010999999,0
296.43332,2000,0,91.24,0.000002697398,0.000002697398,0.000002697398,0.99999994,0,0,0,0,0,0,1,0,0,0,0,false,true,false,0,1858.14,16.99,-0.0033582605,0.0033798397,0.7070959,0.70710146,0,2096.281,8.411,-0.00071,-0.00010999999,0
296.44168,2000,0,91.24,0.000002697398,0.000002697398,0.000002697398,0.99999994,0,0,0,0,0,0,1,0,0,0,0,false,true,false,0,1875.6799,16.99,-0.0033582605,0.0033798397,0.7070959,0.70710146,0,2104.541,8.411,-0.00071,-0.00010999999,0
296.45,2000,0,91.24,0.000002697398,0.000002697398,0.000002697398,0.99999994,0,0,0,0,0,0,1,0,0,0,0,false,true,false,0,1893.2899,16.99,-0.0033582605,0.0033798397,0.7070959,0.70710146,0,2112.801,8.411,-0.00071,-0.00010999999,0
296.45834,2000,0,91.24,0.000002697398,0.000002697398,0.000002697398,0.99999994,0,0,0,0,0,0,1,0,0,0,0,false,true,false,0,1910.97,16.99,-0.0033582605,0.0033798397,0.7070959,0.70710146,0,2121.061,8.411,-0.00071,-0.00010999999,0
296.46667,2000,0,91.24,0.000002697398,0.000002697398,0.000002697398,0.99999994,0,0,0,0,0,0,1,0,0,0,0,false,true,false,0,1928.71,16.99,-0.0033582605,0.0033798397,0.7070959,0.70710146,0,2129.321,8.411,-0.00071,-0.00010999999,0
296.475,2000,0,91.24,0.000002697398,0.000002697398,0.000002697398,0.99999994,0,0,0,0,0,0,1,0,0,0,0,false,true,false,0,1946.5199,16.99,-0.0033582605,0.0033798397,0.7070959,0.70710146,0,2137.5808,8.411,-0.00071,-0.00010999999,0
296.48334,2000,0,91.24,0.000002697398,0.000002697398,0.000002697398,0.99999994,0,0,0,0,0,0,1,0,0,0,0,false,true,false,0,1964.3999,16.99,-0.0033582605,0.0033798397,0.7070959,0.70710146,0,2145.8408,8.411,-0.00071,-0.00010999999,0
296.49167,2000,0,91.24,0.000002697398,0.000002697398,0.000002697398,0.99999994,0,0,0,0,0,0,1,0,0,0,0,false,true,false,0,1982.35,16.99,-0.0033582605,0.0033798397,0.7070959,0.70710146,0,2154.1008,8.411,-0.00071,-0.00010999999,0
296.5,2000,0,91.24,0.000002697398,0.000002697398,0.000002697398,0.99999994,0,0,0,0,0,0,1,0,0,0,0,false,true,false,0,2000.37,16.99,-0.0033582605,0.0033798397,0.7070959,0.70710146,0,2162.3608,8.411,-0.00071,-0.00010999999,0
296.50833,2000,0,91.24,0.000002697398,0.000002697398,0.000002697398,0.99999994,0,0,0,0,0,0,1,0,0,0,0,false,true,false,0,2018.46,16.99,-0.0033582605,0.0033798397,0.7070959,0.70710146,0,2170.6208,8.411,-0.00071,-0.00010999999,0
296.51666,2000,0,91.24,0.000002697398,0.000002697398,0.000002697398,0.99999994,0,0,0,0,0,0,1,0,0,0,0,false,true,false,0,2036.62,16.99,-0.0033582605,0.0033798397,0.7070959,0.70710146,0,2178.8809,8.411,-0.00071,-0.00010999999,0
296.525,2000,0,91.24,0.000002697398,0.000002697398,0.000002697398,0.99999994,0,0,0,0,0,0,1,0,0,0,0,false,true,false,0,2054.8499,16.99,-0.0033582605,0.0033798397,0.7070959,0.70710146,0,2187.1409,8.411,-0.00071,-0.00010999999,0
296.53333,2000,0,91.24,0.000002697398,0.000002697398,0.000002697398,0.99999994,0,0,0,0,0,0,1,0,0,0,0,false,true,false,0,2073.15,16.99,-0.0033582605,0.0033798397,0.7070959,0.70710146,0,2195.401,8.411,-0.00071,-0.00010999999,0
296.54166,2000,0,91.24,0.000002697398,0.000002697398,0.000002697398,0.99999994,0,0,0,0,0,0,1,0,0,0,0,false,true,false,0,2091.51,16.99,-0.0033582605,0.0033798397,0.7070959,0.70710146,0,2203.661,8.411,-0.00071,-0.00010999999,0
296.55,2000,0,91.24,0.000002697398,0.000002697398,0.000002697398,0.99999994,0,0,0,0,0,0,1,0,0,0,0,false,true,false,0,2109.94,16.99,-0.0033582605,0.0033798397,0.7070959,0.70710146,0,2211.921,8.411,-0.00071,-0.00010999999,0
296.55832,2000,0,91.24,0.000002697398,0.000002697398,0.000002697398,0.99999994,0,0,0,0,0,0,1,0,0,0,0,false,true,false,0,2128.44,16.99,-0.0033582605,0.0033798397,0.7070959,0.70710146,0,2220.181,8.411,-0.00071,-0.00010999999,0
296.56668,2000,0,91.24,0.000002697398,0.000002697398,0.000002697398,0.99999994,0,0,0,0,0,0,1,0,0,0,0,false,true,false,0,2147.01,16.99,-0.0033582605,0.0033798397,0.7070959,0.70710146,0,2228.441,8.411,-0.00071,-0.00010999999,0
296.575,2000,0,91.24,0.000002697398,0.000002697398,0.000002697398,0.99999994,0,0,0,0,0,0,1,0,0,0,0,false,true,false,0,2165.65,16.99,-0.0033582605,0.0033798397,0.7070959,0.70710146,0,2236.701,8.411,-0.00071,-0.00010999999,0
296.58334,2000,0,91.24,0.000002697398,0.000002697398,0.000002697398,0.99999994,0,0,0,0,0,0,1,0,0,0,0,false,true,false,0,2184.3599,16.99,-0.0033582605,0.0033798397,0.7070959,0.70710146,0,2244.961,8.411,-0.00071,-0.00010999999,0
296.59167,2000,0,91.24,0.000002697398,0.000002697398,0.000002697398,0.99999994,0,0,0,0,0,0,1,0,0,0,0,false,true,false,0,2203.14,16.99,-0.0033582605,0.0033798397,0.7070959,0.70710146,0,2253.221,8.411,-0.00071,-0.00010999999,0
296.6,2000,0,91.24,0.000002697398,0.000002697398,0.000002697398,0.99999994,0,0,0,0,0,0,1,0,0,0,0,false,true,false,0,2221.99,16.99,-0.0033582605,0.0033798397,0.7070959,0.70710146,0,2261.481,8.411,-0.00071,-0.00010999999,0
296.60834,2000,0,91.24,0.000002697398,0.000002697398,0.000002697398,0.99999994,0,0,0,0,0,0,1,0,0,0,0,false,true,false,0,2240.9,16.99,-0.0033582605,0.0033798397,0.7070959,0.70710146,0,2269.741,8.411,-0.00071,-0.00010999999,0
296.61667,2000,0,91.24,0.000002697398,0.000002697398,0.000002697398,0.99999994,0,0,0,0,0,0,1,0,0,0,0,false,true,false,0,2259.88,16.99,-0.0033582605,0.0033798397,0.7070959,0.70710146,0,2278.001,8.411,-0.00071,-0.00010999999,0
296.625,2000,0,91.24,0.000002697398,0.000002697398,0.000002697398,0.99999994,0,0,0,0,0,0,1,0,0,0,0,false,true,false,0,2278.93,16.99,-0.0033582605,0.0033798397,0.7070959,0.70710146,0,2286.261,8.411,-0.00071,-0.00010999999,0
296.63333,2000,0,91.24,0.000002697398,0.000002697398,0.000002697398,0.99999994,0,0,0,0,0,0,1,0,0,0,0,false,true,false,0,2298.05,16.99,-0.0033582605,0.0033798397,0.7070959,0.70710146,0,2294.521,8.411,-0.00071,-0.00010999999,0
296.64166,2000,0,91.24,0.000002697398,0.000002697398,0.000002697398,0.99999994,0,0,0,0,0,0,1,0,0,0,0,false,true,false,0,2317.24,16.99,-0.0033582605,0.0033798397,0.7070959,0.70710146,0,2299.981,8.401,-0.00071,-0.00010999999,0
296.65,2000,0,91.24,0.000002697398,0.000002697398,0.000002697398,0.99999994,0,0,0,0,0,0,1,1,0,0,0,false,false,true,0,2336.48,16.99,-0.0033582605,0.0033798397,0.7070959,0.70710146,0,2299.981,8.371,-0.00071,-0.00010999999,0
296.65833,2000,0,91.24,0.000002697398,0.000002697398,0.000002697398,0.99999994,0,0,0,0,0,0,1,1,0,0,0,false,false,true,0,2355.65,16.99,-0.0033582605,0.0033798397,0.7070959,0.70710146,-10.511001,2299.281,8.441,-0.00071,0.00261,0.29321
296.66666,2000,0,91.24,0.000002697398,0.000002697398,0.000002697398,0.99999994,0,0,0,0,0,0,1,1,0,0,0,false,false,true,-0.089999996,2374.81,16.99,-0.0033582605,0.0033852346,0.70795816,0.70623815,-19.911,2298.6309,8.481,-0.00071,0.00371,0.53391
296.675,2000,0,91.24,0.000002697398,0.000002697398,0.000002697398,0.99999994,0,0,0,0,0,0,1,1,0,0,0,false,false,true,-0.26,2393.97,16.99,-0.0033582605,0.0033906293,0.7095261,0.70466286,-29.530998,2297.941,8.511001,-0.00061,0.00401,0.74531
296.68332,2000,0,91.24,0.000002697398,0.000002697398,0.000002697398,0.99999994,0,0,0,0,0,0,1,1,0,0,0,false,false,true,-0.51,2413.1199,16.99,-0.0033582605,0.0033960242,0.71171063,0.7024564,-39.850998,2297.171,8.531,-0.00051,0.00391,0.93301
296.69168,2000,0,91.24,0.000002697398,0.000002697398,0.000002697398,0.99999994,0,0,0,0,0,0,1,1,0,0,0,false,false,true,-0.84,2432.26,16.99,-0.0033636554,0.0033960242,0.7144368,0.6996835,-51.141,2296.271,8.541,-0.00051,0.00351,1.1015099
296.7,2000,0,91.24,0.000002697398,0.000002697398,0.000002697398,0.99999994,0,0,0,0,0,0,1,1,0,0,0,false,false,true,-1.27,2451.4,16.99,-0.00336905,0.0033906293,0.71763974,0.696398,-63.551,2295.201,8.551001,-0.00040999998,0.00291,1.25421
296.70834,2000,0,91.24,0.000002697398,0.000002697398,0.000002697398,0.99999994,0,0,0,0,0,0,1,1,0,0,0,false,false,true,-1.8,2470.53,16.99,-0.0033798397,0.0033852346,0.7212696,0.6926378,-77.101,2293.901,8.551001,-0.00040999998,0.0023100001,1.39381
296.71667,2000,0,91.24,0.000002697398,0.000002697398,0.000002697398,0.99999994,0,0,0,0,0,0,1,1,0,0,0,false,false,true,-2.44,2489.65,16.99,-0.0033960242,0.003374445,0.7252819,0.68843526,-91.770996,2292.3408,8.561,-0.00030999997,0.0017099999,1.5225099
296.725,2000,0,91.24,0.000002697398,0.000002697398,0.000002697398,0.99999994,0,0,0,0,0,0,1,1,0,0,0,false,false,true,-3.1999998,2508.75,16.99,-0.0034122085,0.0033582605,0.7296324,0.6838227,-107.480995,2290.471,8.561,-0.00021,0.0012099999,1.6418099
296.73334,2000,0,91.24,0.000002697398,0.000002697398,0.000002697398,0.99999994,0,0,0,0,0,0,1,1,0,0,0,false,false,true,-4.1,2527.8398,16.99,-0.0034337877,0.0033366815,0.7342924,0.6788163,-124.101,2288.261,8.561,-0.00021,0.00081,1.7530099
296.74167,2000,0,91.24,0.000002697398,0.000002697398,0.000002697398,0.99999994,0,0,0,0,0,0,1,1,0,0,0,false,false,true,-5.13,2546.91,16.99,-0.003455367,0.0033151023,0.7392334,0.67343223,-141.491,2285.681,8.561,-0.00021,0.00040999998,1.85711
296.75,2000,0,91.24,0.000002697398,0.000002697398,0.000002697398,0.99999994,0,0,0,0,0,0,1,1,0,0,0,false,false,true,-6.31,2565.96,16.99,-0.0034823408,0.0032881282,0.74442196,0.6676922,-159.491,2282.711,8.561,-0.00010999999,0.00010999999,1.95481
296.75833,2000,0,91.24,0.000002697398,0.000002697398,0.000002697398,0.99999994,0,0,0,0,0,0,1,1,0,0,0,false,false,true,-7.64,2584.98,16.99,-0.003509315,0.0032611543,0.7498355,0.66160685,-177.911,2279.3508,8.571,-0.00010999999,0,2.04651
296.76666,2000,0,91.24,0.000002697398,0.000002697398,0.000002697398,0.99999994,0,0,0,0,0,0,1,1,0,0,0,false,false,true,-9.12,2603.97,16.99,-0.0035362889,0.0032341804,0.75545144,0.655187,-196.55101,2275.6008,8.571,0,-0.00021,2.1326098
296.775,2000,0,91.24,0.000002697398,0.000002697398,0.000002697398,0.99999994,0,0,0,0,0,0,1,1,0,0,0,false,false,true,-10.76,2622.93,16.99,-0.0035632628,0.0032018116,0.7612431,0.6484488,-215.211,2271.471,8.571,0,-0.00040999998,2.2132099
296.78333,2000,0,91.24,0.000002697398,0.000002697398,0.000002697398,0.99999994,0,0,0,0,0,0,1,1,0,0,0,false,false,true,-12.55,2641.8599,16.99,-0.0035956316,0.0031694428,0.76718885,0.64140326,-233.661,2267.001,8.571,0,-0.00061,2.2885098
296.79166,2000,0,91.24,0.000002697398,0.000002697398,0.000002697398,0.99999994,0,0,0,0,0,0,1,1,0,0,0,false,false,true,-14.5,2660.75,16.99,-0.0036280006,0.0031316795,0.77326816,0.634061,-251.681,2262.251,8.571,0,-0.00071,2.35841
296.8,2000,0,91.24,0.000002697398,0.000002697398,0.000002697398,0.99999994,0,0,0,0,0,0,1,1,0,0,0,false,false,true,-16.6,2679.5999,16.99,-0.0036603692,0.0030939155,0.7794607,0.6264326,-269.021,2257.281,8.571,0,-0.00081,2.42271
296.80832,2000,0,91.24,0.000002697398,0.000002697398,0.000002697398,0.99999994,0,0,0,0,0,0,1,1,0,0,0,false,false,true,-18.84,2698.41,16.99,-0.0036927382,0.0030561523,0.7857428,0.6185347,-285.421,2252.191,8.571,0,-0.00091,2.48131
296.81668,2000,0,91.24,0.000002697398,0.000002697398,0.000002697398,0.99999994,0,0,0,0,0,0,1,1,0,0,0,false,false,true,-21.22,2717.18,16.99,-0.0037251068,0.0030129936,0.79209596,0.61037767,-300.621,2247.1008,8.571,0,-0.0010099999,2.53381
296.825,2000,0,91.24,0.000002697398,0.000002697398,0.000002697398,0.99999994,0,0,0,0,0,0,1,1,0,0,0,false,false,true,-23.73,2735.91,16.99,-0.0037574756,0.0029698352,0.7984942,0.6019833,-314.351,2242.151,8.571,0,-0.00111,2.57991
296.83334,2000,0,91.24,0.000002697398,0.000002697398,0.000002697398,0.99999994,0,0,0,0,0,0,1,1,0,0,0,false,false,true,-26.349998,2754.5898,16.99,-0.0037952394,0.002926677,0.8049211,0.59336245,-326.341,2237.511,8.571,0.00010999999,-0.0012099999,2.61921
296.84167,2000,0,91.24,0.000002697398,0.000002697398,0.000002697398,0.99999994,0,0,0,0,0,0,1,1,0,0,0,false,false,true,-29.07,2773.24,16.99,-0.0038330026,0.0028835186,0.81134933,0.5845418,-336.291,2233.3809,8.571,0.00021,-0.0012099999,2.65111
296.85,2000,0,91.24,0.000002697398,0.000002697398,0.000002697398,0.99999994,0,0,0,0,0,0,1,1,0,0,0,false,false,true,-31.869999,2791.8499,16.99,-0.0038707666,0.0028349655,0.8177572,0.57554334,-343.921,2230.001,8.561,0.00030999997,-0.00131,2.6751099
296.85834,2000,0,91.24,0.000002697398,0.000002697398,0.000002697398,0.99999994,0,0,0,0,0,0,1,1,0,0,0,false,false,true,-34.739998,2810.43,16.99,-0.003903135,0.0027864121,0.82412076,0.56639373,-351.911,2226.241,8.561,0.00030999997,-0.0012099999,2.69871
296.86667,2000,0,91.24,0.000002697398,0.000002697398,0.000002697398,0.99999994,0,0,0,0,0,0,1,1,0,0,0,false,false,true,-37.67,2828.98,16.99,-0.003935504,0.002737859,0.83043617,0.557093,-360.231,2222.1008,8.561,0.00030999997,-0.0012099999,2.72211
296.875,2000,0,91.24,0.000002697398,0.000002697398,0.000002697398,0.99999994,0,0,0,0,0,0,1,1,0,0,0,false,false,true,-40.67,2847.5,16.99,-0.0039678724,0.002689306,0.83670294,0.5476359,-368.851,2217.561,8.561,0.00030999997,-0.00111,2.7453098
296.88333,2000,0,91.24,0.000002697398,0.000002697398,0.000002697398,0.99999994,0,0,0,0,0,0,1,1,0,0,0,false,false,true,-43.739998,2865.98,16.99,-0.004000241,0.0026407526,0.84291345,0.5380277,-377.751,2212.6008,8.561,0.00030999997,-0.0010099999,2.76821
296.89166,2000,0,91.24,0.000002697398,0.000002697398,0.000002697398,0.99999994,0,0,0,0,0,0,1,1,0,0,0,false,false,true,-46.89,2884.42,16.99,-0.0040326104,0.0025921997,0.84906375,0.5282686,-386.901,2207.221,8.561,0.00030999997,-0.00091,2.79091
296.9,2000,0,91.24,0.000002697398,0.000002697398,0.000002697398,0.99999994,0,0,0,0,0,0,1,1,0,0,0,false,false,true,-50.11,2902.8098,16.99,-0.004064979,0.0025436466,0.85515004,0.5183583,-396.261,2201.411,8.561,0.00030999997,-0.00091,2.81341
296.90833,2000,0,91.24,0.000002697398,0.000002697398,0.000002697398,0.99999994,0,0,0,0,0,0,1,1,0,0,0,false,false,true,-53.41,2921.15,16.99,-0.0040973476,0.0024950933,0.86116844,0.5082969,-405.811,2195.171,8.561,0.00030999997,-0.00081,2.83561
296.91666,2000,0,91.24,0.000002697398,0.000002697398,0.000002697398,0.99999994,0,0,0,0,0,0,1,1,0,0,0,false,false,true,-56.789997,2939.44,16.99,-0.004129716,0.0024411452,0.86711514,0.49808457,-415.511,2188.491,8.561,0.00030999997,-0.00071,2.8575099
296.925,2000,0,91.24,0.000002697398,0.000002697398,0.000002697398,0.99999994,0,0,0,0,0,0,1,1,0,0,0,false,false,true,-60.25,2957.68,16.99,-0.0041620857,0.0023871975,0.8729832,0.48772654,-425.331,2181.3608,8.561,0.00030999997,-0.00061,2.8791099
296.93332,2000,0,91.24,0.000002697398,0.000002697398,0.000002697398,0.99999994,0,0,0,0,0,0,1,1,0,0,0,false,false,true,-63.789997,2975.8599,16.99,-0.004194454,0.0023332492,0.8787721,0.47721744,-435.251,2173.791,8.561,0.00030999997,-0.00051,2.90031
296.94168,2000,0,91.24,0.000002697398,0.000002697398,0.000002697398,0.99999994,0,0,0,0,0,0,1,1,0,0,0,false,false,true,-67.42,2993.97,16.99,-0.0042214277,0.0022793014,0.8844751,0.46656263,-445.231,2165.771,8.561,0.00030999997,-0.00040999998,2.92111
296.95,2000,0,91.24,0.000002697398,0.000002697398,0.000002697398,0.99999994,0,0,0,0,0,0,1,1,0,0,0,false,false,true,-71.13,3012.02,16.99,-0.0042484016,0.0022253534,0.89008856,0.45576224,-455.241,2157.301,8.561,0.00030999997,-0.00040999998,2.94151
296.95834,2000,0,91.24,0.000002697398,0.000002697398,0.000002697398,0.99999994,0,0,0,0,0,0,1,1,0,0,0,false,false,true,-74.92,3030,16.99,-0.004275376,0.0021714054,0.89560634,0.4448215,-465.251,2148.3909,8.561,0.00021,-0.00040999998,2.96141
296.96667,2000,0,91.24,0.000002697398,0.000002697398,0.000002697398,0.99999994,0,0,0,0,0,0,1,1,0,0,0,false,false,true,-78.799995,3047.9,16.99,-0.00430235,0.0021174573,0.90102756,0.4337352,-475.221,2139.041,8.561,0.00021,-0.00030999997,2.98081
296.975,2000,0,91.24,0.000002697398,0.000002697398,0.000002697398,0.99999994,0,0,0,0,0,0,1,1,0,0,0,false,false,true,-82.759995,3065.73,16.99,-0.004329324,0.0020635095,0.9063462,0.42250854,-485.13098,2129.251,8.561,0.00021,-0.00030999997,2.99961
296.98334,2000,0,91.24,0.000002697398,0.000002697398,0.000002697398,0.99999994,0,0,0,0,0,0,1,1,0,0,0,false,false,true,-86.799995,3083.47,16.99,-0.0043562977,0.0020095615,0.9115563,0.41114712,-494.951,2119.041,8.561,0.00021,-0.00030999997,3.0178099
296.99167,2000,0,91.24,0.000002697398,0.000002697398,0.000002697398,0.99999994,0,0,0,0,0,0,1,1,0,0,0,false,false,true,-90.92,3101.13,16.99,-0.0043832716,0.0019556135,0.9166549,0.39965072,-504.651,2108.411,8.561,0.00021,-0.00030999997,3.03531
297,2000,0,91.24,0.000002697398,0.000002697398,0.000002697398,0.99999994,0,0,0,0,0,0,1,1,0,0,0,false,false,true,-95.13,3118.7,16.99,-0.0044102455,0.0018962709,0.92163634,0.38802493,-514.191,2097.3809,8.561,0.00021,-0.00030999997,3.0520098
297.00833,2000,0,91.24,0.000002697398,0.000002697398,0.000002697398,0.99999994,0,0,0,0,0,0,1,1,0,0,0,false,false,true,-99.409996,3136.18,16.99,-0.00443722,0.0018369281,0.9264955,0.37627497,-523.55096,2085.961,8.561,0.00021,-0.00021,3.06791
297.01666,2000,0,91.24,0.000002697398,0.000002697398,0.000002697398,0.99999994,0,0,0,0,0,0,1,1,0,0,0,false,false,true,-103.77,3153.5598,16.99,-0.004458799,0.0017775854,0.9312297,0.36440095,-532.71094,2074.161,8.561,0.00021,-0.00010999999,3.08301
297.025,2000,0,91.24,0.000002697398,0.000002697398,0.000002697398,0.99999994,0,0,0,0,0,0,1,1,0,0,0,false,false,true,-108.21,3170.8398,16.99,-0.0044803787,0.0017182427,0.935834,0.35240835,-541.631,2062.001,8.561,0.00021,-0.00010999999,3.09711
297.03333,2000,0,91.24,0.000002697398,0.000002697398,0.000002697398,0.99999994,0,0,0,0,0,0,1,1,0,0,0,false,false,true,-112.72,3188.02,16.99,-0.0045019574,0.0016588998,0.9403038,0.3403023,-550.29095,2049.501,8.561,0.00021,-0.00010999999,3.11021
297.04166,2000,0,91.24,0.000002697398,0.000002697398,0.000002697398,0.99999994,0,0,0,0,0,0,1,1,0,0,0,false,false,true,-117.31,3205.0999,16.99,-0.0045235367,0.0015995571,0.9446348,0.32808852,-558.67096,2036.6809,8.561,0.00021,-0.00010999999,3.12221
297.05,2000,0,91.24,0.000002697398,0.000002697398,0.000002697398,0.99999994,0,0,0,0,0,0,1,1,0,0,0,false,false,true,-121.96999,3222.0698,16.99,-0.004545116,0.0015402144,0.9488229,0.31577212,-566.74097,2023.5709,8.561,0.00021,-0.00010999999,3.13311
297.05832,2000,0,91.24,0.000002697398,0.000002697398,0.000002697398,0.99999994,0,0,0,0,0,0,1,1,0,0,0,false,false,true,-126.689995,3238.93,16.99,-0.0045666946,0.0014808716,0.9528643,0.30335864,-574.48096,2010.1809,8.571,0.00021,-0.00010999999,3.14271
297.06668,2000,0,91.24,0.000002697398,0.000002697398,0.000002697398,0.99999994,0,0,0,0,0,0,1,1,0,0,0,false,false,true,-131.48,3255.68,16.99,-0.004588274,0.0014215288,0.9567555,0.29085344,-581.871,1996.5509,8.571,0.00021,-0.00010999999,3.15101
297.075,2000,0,91.24,0.000002697398,0.000002697398,0.000002697398,0.99999994,0,0,0,0,0,0,1,1,0,0,0,false,false,true,-136.33,3272.3198,16.99,-0.0046044583,0.001362186,0.9604916,0.27826735,-588.90094,1982.6909,8.571,0.00021,0,3.1579099
297.08334,2000,0,91.24,0.000002697398,0.000002697398,0.000002697398,0.99999994,0,0,0,0,0,0,1,1,0,0,0,false,false,true,-141.23999,3288.8398,16.99,-0.004620643,0.0013028432,0.9640697,0.2656057,-595.54095,1968.641,8.571,0.00021,0,3.16331
297.09167,2000,0,91.24,0.000002697398,0.000002697398,0.000002697398,0.99999994,0,0,0,0,0,0,1,1,0,0,0,false,false,true,-146.2,3305.25,16.99,-0.004636827,0.0012435005,0.9674873,0.2528739,-601.79095,1954.4309,8.571,0.00030999997,0,3.16711
297.1,2000,0,91.24,0.000002697398,0.000002697398,0.000002697398,0.99999994,0,0,0,0,0,0,1,1,0,0,0,false,false,true,-151.20999,3321.54,16.99,-0.004653011,0.0011787628,0.9707404,0.24008282,-607.631,1940.091,8.571,0.00040999998,0,3.1693099
297.10834,2000,0,91.24,0.000002697398,0.000002697398,0.000002697398,0.99999994,0,0,0,0,0,0,1,1,0,0,0,false,false,true,-156.26999,3337.71,16.99,-0.0046691955,0.0011140252,0.97382605,0.22724311,-613.631,1925.851,8.571,0.00040999998,0,3.17181
297.11667,2000,0,91.24,0.000002697398,0.000002697398,0.000002697398,0.99999994,0,0,0,0,0,0,1,1,0,0,0,false,false,true,-161.37999,3353.76,16.99,-0.00468538,0.0010492877,0.9767439,0.21435495,-619.751,1911.6909,8.571,0.00040999998,0,3.1744099
297.125,2000,0,91.24,0.000002697398,0.000002697398,0.000002697398,0.99999994,0,0,0,0,0,0,1,1,0,0,0,false,false,true,-166.54,3369.69,16.99,-0.0046961703,0.0009845503,0.97949356,0.20141819,-625.701,1897.5209,8.571,0.00040999998,0,3.17601
297.13333,2000,0,91.24,0.000002697398,0.000002697398,0.000002697398,0.99999994,0,0,0,0,0,0,1,1,0,0,0,false,false,true,-171.75,3385.5,16.99,-0.0047069597,0.00091981277,0.98207325,0.18843828,-631.48096,1883.371,8.571,0.00040999998,0,3.17661
297.14166,2000,0,91.24,0.000002697398,0.000002697398,0.000002697398,0.99999994,0,0,0,0,0,0,1,1,0,0,0,false,false,true,-177.01,3401.19,16.99,-0.0047177486,0.0008550751,0.9844808,0.17542595,-637.09094,1869.251,8.571,0.00040999998,0,3.17611
297.15,2000,0,91.24,0.000002697398,0.000002697398,0.000002697398,0.99999994,0,0,0,0,0,0,1,1,0,0,0,false,false,true,-182.31999,3416.77,16.99,-0.0047285384,0.0007903376,0.9867164,0.16238125,-642.55096,1855.1709,8.571,0.00040999998,0,3.17461
