time,ball_loc_x,ball_loc_y,ball_loc_z,ball_rot_x,ball_rot_y,ball_rot_z,ball_rot_w,ball_vel_x,ball_vel_y,ball_vel_z,ball_ang_x,ball_ang_y,ball_ang_z,player0_throttle,player0_steer,player0_pitch,player0_yaw,player0_roll,player0_jump,player0_boost,player0_handbrake,player0_loc_x,player0_loc_y,player0_loc_z,player0_rot_x,player0_rot_y,player0_rot_z,player0_rot_w,player0_vel_x,player0_vel_y,player0_vel_z,player0_ang_x,player0_ang_y,player0_ang_z
205.65,2000,0,91.24,0.000002697398,0.000002697398,0.000002697398,0.99999994,0,0,0,0,0,0,1,0,0,0,0,false,true,false,0,-4068.0798,16.99,-0.00336905,0.003374445,0.70711225,0.70708513,-0.031,1600.721,8.411,-0.00061,0,0
205.65834,2000,0,91.24,0.000002697398,0.000002697398,0.000002697398,0.99999994,0,0,0,0,0,0,1,1,0,0,0,false,false,true,0,-4054.74,16.99,-0.00336905,0.003374445,0.70711225,0.70708513,-11.351,1599.5509,8.471001,-0.00061,0.00291,0.31501
205.66667,2000,0,91.24,0.000002697398,0.000002697398,0.000002697398,0.99999994,0,0,0,0,0,0,1,1,0,0,0,false,false,true,-0.089999996,-4041.41,16.99,-0.0033690496,0.0033798392,0.70803887,0.70615715,-20.950998,1598.521,8.501,-0.00061,0.00411,0.56701
205.675,2000,0,91.24,0.000002697398,0.000002697398,0.000002697398,0.99999994,0,0,0,0,0,0,1,1,0,0,0,false,false,true,-0.26,-4028.0898,16.99,-0.0033690496,0.0033852342,0.70970285,0.70448476,-30.370998,1597.471,8.521,-0.00051,0.00451,0.78850996
205.68333,2000,0,91.24,0.000002697398,0.000002697398,0.000002697398,0.99999994,0,0,0,0,0,0,1,1,0,0,0,false,false,true,-0.51,-4014.78,16.99,-0.00336905,0.0033906293,0.71201396,0.7021489,-40.021,1596.371,8.541,-0.00051,0.0043099998,0.98491
205.69167,2000,0,91.24,0.000002697398,0.000002697398,0.000002697398,0.99999994,0,0,0,0,0,0,1,1,0,0,0,false,false,true,-0.84,-4001.48,16.99,-0.00336905,0.0033906293,0.71489096,0.6992195,-50.141,1595.1709,8.551001,-0.00040999998,0.00391,1.16061
205.7,2000,0,91.24,0.000002697398,0.000002697398,0.000002697398,0.99999994,0,0,0,0,0,0,1,1,0,0,0,false,false,true,-1.26,-3988.19,16.99,-0.003374445,0.0033852346,0.71826226,0.69575596,-60.860996,1593.8209,8.561,-0.00040999998,0.00331,1.3192099
205.70833,2000,0,91.24,0.000002697398,0.000002697398,0.000002697398,0.99999994,0,0,0,0,0,0,1,1,0,0,0,false,false,true,-1.77,-3974.91,16.99,-0.0033852342,0.0033798392,0.72207683,0.6917961,-72.230995,1592.2909,8.561,-0.00040999998,0.00271,1.4635099
205.71666,2000,0,91.24,0.000002697398,0.000002697398,0.000002697398,0.99999994,0,0,0,0,0,0,1,1,0,0,0,false,false,true,-2.37,-3961.64,16.99,-0.0034014184,0.0033690496,0.7262841,0.6873778,-84.260994,1590.5409,8.561,-0.00030999997,0.00201,1.5957099
205.725,2000,0,91.24,0.000002697398,0.000002697398,0.000002697398,0.99999994,0,0,0,0,0,0,1,1,0,0,0,false,false,true,-3.07,-3948.39,16.99,-0.0034176034,0.0033528658,0.73083866,0.6825333,-96.901,1588.5409,8.561,-0.00021,0.0014099999,1.71751
205.73334,2000,0,91.24,0.000002697398,0.000002697398,0.000002697398,0.99999994,0,0,0,0,0,0,1,1,0,0,0,false,false,true,-3.8799999,-3935.15,16.99,-0.0034391826,0.0033312866,0.73570585,0.6772842,-110.071,1586.271,8.571,-0.00021,0.00091,1.83031
205.74167,2000,0,91.24,0.000002697398,0.000002697398,0.000002697398,0.99999994,0,0,0,0,0,0,1,1,0,0,0,false,false,true,-4.7999997,-3921.93,16.99,-0.0034607616,0.0033097074,0.7408512,0.67165196,-123.681,1583.7009,8.571,-0.00021,0.00051,1.93511
205.75,2000,0,91.24,0.000002697398,0.000002697398,0.000002697398,0.99999994,0,0,0,0,0,0,1,1,0,0,0,false,false,true,-5.83,-3908.73,16.99,-0.0034877358,0.0032827335,0.7462412,0.6656583,-137.61101,1580.8309,8.571,-0.00010999999,0.00010999999,2.03261
205.75833,2000,0,91.24,0.000002697398,0.000002697398,0.000002697398,0.99999994,0,0,0,0,0,0,1,1,0,0,0,false,false,true,-6.98,-3895.5598,16.99,-0.0035147096,0.0032557594,0.75185233,0.65931404,-151.731,1577.6609,8.571,-0.00010999999,-0.00010999999,2.12341
205.76666,2000,0,91.24,0.000002697398,0.000002697398,0.000002697398,0.99999994,0,0,0,0,0,0,1,1,0,0,0,false,false,true,-8.24,-3882.41,16.99,-0.0035416838,0.0032233908,0.757657,0.6526353,-165.901,1574.1909,8.571,0,-0.00030999997,2.20791
205.775,2000,0,91.24,0.000002697398,0.000002697398,0.000002697398,0.99999994,0,0,0,0,0,0,1,1,0,0,0,false,false,true,-9.62,-3869.2898,16.99,-0.0035740524,0.003191022,0.76362836,0.64563817,-179.981,1570.4509,8.571,0,-0.00051,2.2864099
205.78334,2000,0,91.24,0.000002697398,0.000002697398,0.000002697398,0.99999994,0,0,0,0,0,0,1,1,0,0,0,false,false,true,-11.12,-3856.2,16.99,-0.0036064212,0.0031532582,0.7697448,0.6383336,-193.811,1566.471,8.571,0,-0.00071,2.35901
205.79167,2000,0,91.24,0.000002697398,0.000002697398,0.000002697398,0.99999994,0,0,0,0,0,0,1,1,0,0,0,false,false,true,-12.74,-3843.15,16.99,-0.00363879,0.0031154947,0.7759812,0.6307377,-207.22101,1562.2909,8.571,0,-0.00081,2.42571
205.8,2000,0,91.24,0.000002697398,0.000002697398,0.000002697398,0.99999994,0,0,0,0,0,0,1,1,0,0,0,false,false,true,-14.469999,-3830.13,16.99,-0.0036711588,0.0030777312,0.7823176,0.6228612,-220.041,1557.981,8.571,0,-0.00091,2.48651
205.80833,2000,0,91.24,0.000002697398,0.000002697398,0.000002697398,0.99999994,0,0,0,0,0,0,1,1,0,0,0,false,false,true,-16.3,-3817.15,16.99,-0.0037035272,0.0030345726,0.7887304,0.6147204,-232.101,1553.621,8.571,0,-0.0010099999,2.54121
205.81667,2000,0,91.24,0.000002697398,0.000002697398,0.000002697398,0.99999994,0,0,0,0,0,0,1,1,0,0,0,false,false,true,-18.23,-3804.2,16.99,-0.0037412911,0.0029914144,0.7951934,0.6063369,-243.22101,1549.3109,8.571,0,-0.00111,2.58971
205.825,2000,0,91.24,0.000002697398,0.000002697398,0.000002697398,0.99999994,0,0,0,0,0,0,1,1,0,0,0,false,false,true,-20.26,-3791.2898,16.99,-0.0037790549,0.0029482562,0.8016895,0.59772146,-253.211,1545.1609,8.571,0,-0.00111,2.63181
205.83333,2000,0,91.24,0.000002697398,0.000002697398,0.000002697398,0.99999994,0,0,0,0,0,0,1,1,0,0,0,false,false,true,-22.369999,-3778.41,16.99,-0.0038168184,0.0029050978,0.8081949,0.5888955,-261.881,1541.3109,8.571,0.00010999999,-0.0012099999,2.66711
205.84166,2000,0,91.24,0.000002697398,0.000002697398,0.000002697398,0.99999994,0,0,0,0,0,0,1,1,0,0,0,false,false,true,-24.55,-3765.5698,16.99,-0.0038545819,0.0028565445,0.814691,0.57987535,-269.04102,1537.9209,8.571,0.00021,-0.0012099999,2.69541
205.85,2000,0,91.24,0.000002697398,0.000002697398,0.000002697398,0.99999994,0,0,0,0,0,0,1,1,0,0,0,false,false,true,-26.789999,-3752.75,16.99,-0.0038923454,0.0028079913,0.82115287,0.570688,-274.501,1535.1609,8.561,0.00030999997,-0.0012099999,2.71641
205.85834,2000,0,91.24,0.000002697398,0.000002697398,0.000002697398,0.99999994,0,0,0,0,0,0,1,1,0,0,0,false,false,true,-29.08,-3739.96,16.99,-0.003924714,0.0027594382,0.8275575,0.5613603,-280.181,1532.141,8.561,0.00040999998,-0.0012099999,2.73661
205.86667,2000,0,91.24,0.000002697398,0.000002697398,0.000002697398,0.99999994,0,0,0,0,0,0,1,1,0,0,0,false,false,true,-31.41,-3727.19,16.99,-0.003957083,0.002710885,0.833905,0.55188704,-286.061,1528.841,8.561,0.00040999998,-0.00111,2.75631
205.875,2000,0,91.24,0.000002697398,0.000002697398,0.000002697398,0.99999994,0,0,0,0,0,0,1,1,0,0,0,false,false,true,-33.79,-3714.45,16.99,-0.0039894516,0.0026623318,0.8401882,0.5422735,-292.131,1525.261,8.561,0.00040999998,-0.00111,2.7755098
205.88333,2000,0,91.24,0.000002697398,0.000002697398,0.000002697398,0.99999994,0,0,0,0,0,0,1,1,0,0,0,false,false,true,-36.219997,-3701.74,16.99,-0.00402182,0.0026137787,0.84640396,0.53251964,-298.361,1521.381,8.561,0.00040999998,-0.0010099999,2.79411
205.89166,2000,0,91.24,0.000002697398,0.000002697398,0.000002697398,0.99999994,0,0,0,0,0,0,1,1,0,0,0,false,false,true,-38.71,-3689.0598,16.99,-0.004054189,0.0025652256,0.85254544,0.522631,-304.741,1517.2109,8.561,0.00040999998,-0.00091,2.8122098
205.9,2000,0,91.24,0.000002697398,0.000002697398,0.000002697398,0.99999994,0,0,0,0,0,0,1,1,0,0,0,false,false,true,-41.25,-3676.42,16.99,-0.004086558,0.0025166722,0.8586097,0.51260734,-311.241,1512.741,8.561,0.00040999998,-0.00091,2.82981
205.90834,2000,0,91.24,0.000002697398,0.000002697398,0.000002697398,0.99999994,0,0,0,0,0,0,1,1,0,0,0,false,false,true,-43.84,-3663.8098,16.99,-0.0041189273,0.0024627247,0.86459345,0.50244904,-317.841,1507.971,8.561,0.00040999998,-0.00081,2.8468099
205.91667,2000,0,91.24,0.000002697398,0.000002697398,0.000002697398,0.99999994,0,0,0,0,0,0,1,1,0,0,0,false,false,true,-46.489998,-3651.24,16.99,-0.0041512954,0.0024087764,0.87049395,0.4921556,-324.521,1502.901,8.561,0.00040999998,-0.00071,2.86321
205.925,2000,0,91.24,0.000002697398,0.000002697398,0.000002697398,0.99999994,0,0,0,0,0,0,1,1,0,0,0,false,false,true,-49.19,-3638.72,16.99,-0.0041836645,0.0023548284,0.8763019,0.48173827,-331.261,1497.5309,8.561,0.00040999998,-0.00061,2.87901
205.93333,2000,0,91.24,0.000002697398,0.000002697398,0.000002697398,0.99999994,0,0,0,0,0,0,1,1,0,0,0,false,false,true,-51.949997,-3626.24,16.99,-0.0042106383,0.0023008804,0.8820179,0.47119135,-338.041,1491.851,8.561,0.00040999998,-0.00051,2.8942099
205.94167,2000,0,91.24,0.000002697398,0.000002697398,0.000002697398,0.99999994,0,0,0,0,0,0,1,1,0,0,0,false,false,true,-54.77,-3613.8098,16.99,-0.0042376122,0.0022469326,0.88763607,0.46052045,-344.831,1485.871,8.561,0.00030999997,-0.00051,2.90881
205.95,2000,0,91.24,0.000002697398,0.000002697398,0.000002697398,0.99999994,0,0,0,0,0,0,1,1,0,0,0,false,false,true,-57.64,-3601.43,16.99,-0.004264586,0.0021929846,0.8931512,0.44973078,-352.211,1480.2109,8.561,0.00030999997,-0.00040999998,2.9256098
205.95833,2000,0,91.24,0.000002697398,0.000002697398,0.000002697398,0.99999994,0,0,0,0,0,0,1,1,0,0,0,false,false,true,-60.579998,-3589.0898,16.99,-0.00429156,0.0021390365,0.8985661,0.43881172,-359.641,1474.3009,8.561,0.00030999997,-0.00030999997,2.94201
205.96666,2000,0,91.24,0.000002697398,0.000002697398,0.000002697398,0.99999994,0,0,0,0,0,0,1,1,0,0,0,false,false,true,-63.579998,-3576.7998,16.99,-0.004318534,0.0020850885,0.9038781,0.42776307,-367.111,1468.151,8.561,0.00030999997,-0.00030999997,2.9581099
205.975,2000,0,91.24,0.000002697398,0.000002697398,0.000002697398,0.99999994,0,0,0,0,0,0,1,1,0,0,0,false,false,true,-66.64,-3564.5698,16.99,-0.0043455088,0.002031141,0.9090816,0.41659048,-374.611,1461.761,8.561,0.00030999997,-0.00021,2.97381
205.98334,2000,0,91.24,0.000002697398,0.000002697398,0.000002697398,0.99999994,0,0,0,0,0,0,1,1,0,0,0,false,false,true,-69.76,-3552.39,16.99,-0.004372482,0.0019771927,0.9141739,0.40529367,-382.131,1455.141,8.561,0.00030999997,-0.00021,2.98911
205.99167,2000,0,91.24,0.000002697398,0.000002697398,0.000002697398,0.99999994,0,0,0,0,0,0,1,1,0,0,0,false,false,true,-72.939995,-3540.26,16.99,-0.004399456,0.0019232448,0.91915,0.39387828,-389.651,1448.2909,8.561,0.00030999997,-0.00010999999,3.0041099
206,2000,0,91.24,0.000002697398,0.000002697398,0.000002697398,0.99999994,0,0,0,0,0,0,1,1,0,0,0,false,false,true,-76.189995,-3528.19,16.99,-0.0044210358,0.001869297,0.9240075,0.38234416,-397.171,1441.2109,8.561,0.00030999997,0,3.01871
206.00833,2000,0,91.24,0.000002697398,0.000002697398,0.000002697398,0.99999994,0,0,0,0,0,0,1,1,0,0,0,false,false,true,-79.5,-3516.18,16.99,-0.0044426145,0.0018099541,0.92874366,0.37069136,-404.671,1433.9109,8.561,0.00030999997,0,3.0329099
206.01666,2000,0,91.24,0.000002697398,0.000002697398,0.000002697398,0.99999994,0,0,0,0,0,0,1,1,0,0,0,false,false,true,-82.869995,-3504.23,16.99,-0.0044641937,0.0017506114,0.93335396,0.35892522,-412.141,1426.401,8.561,0.00030999997,0,3.04671
206.025,2000,0,91.24,0.000002697398,0.000002697398,0.000002697398,0.99999994,0,0,0,0,0,0,1,1,0,0,0,false,false,true,-86.299995,-3492.3398,16.99,-0.004485773,0.0016912686,0.9378358,0.34704587,-419.57098,1418.6909,8.561,0.00030999997,0,3.0601099
206.03334,2000,0,91.24,0.000002697398,0.000002697398,0.000002697398,0.99999994,0,0,0,0,0,0,1,1,0,0,0,false,false,true,-89.799995,-3480.52,16.99,-0.004507352,0.0016319258,0.94218504,0.33505857,-426.951,1410.781,8.561,0.00030999997,0,3.0731099
206.04167,2000,0,91.24,0.000002697398,0.000002697398,0.000002697398,0.99999994,0,0,0,0,0,0,1,1,0,0,0,false,false,true,-93.36,-3468.76,16.99,-0.004528931,0.001572583,0.9463973,0.32296878,-434.281,1402.6909,8.561,0.00030999997,0,3.08571
206.05,2000,0,91.24,0.000002697398,0.000002697398,0.000002697398,0.99999994,0,0,0,0,0,0,1,1,0,0,0,false,false,true,-96.979996,-3457.0698,16.99,-0.0045505106,0.0015132403,0.95047086,0.3107765,-441.551,1394.4209,8.561,0.00030999997,0,3.09791
206.05833,2000,0,91.24,0.000002697398,0.000002697398,0.000002697398,0.99999994,0,0,0,0,0,0,1,1,0,0,0,false,false,true,-100.659996,-3445.45,16.99,-0.004566694,0.0014538975,0.95440316,0.29848173,-448.751,1385.981,8.561,0.00030999997,0,3.1096098
206.06667,2000,0,91.24,0.000002697398,0.000002697398,0.000002697398,0.99999994,0,0,0,0,0,0,1,1,0,0,0,false,false,true,-104.399994,-3433.9,16.99,-0.004582879,0.0013945547,0.95819074,0.28608984,-455.871,1377.381,8.561,0.00030999997,0,3.12091
206.075,2000,0,91.24,0.000002697398,0.000002697398,0.000002697398,0.99999994,0,0,0,0,0,0,1,1,0,0,0,false,false,true,-108.2,-3422.42,16.99,-0.004599063,0.0013352119,0.9618297,0.27360615,-462.911,1368.631,8.561,0.00030999997,0,3.13181
206.08333,2000,0,91.24,0.000002697398,0.000002697398,0.000002697398,0.99999994,0,0,0,0,0,0,1,1,0,0,0,false,false,true,-112.06,-3411.01,16.99,-0.004615248,0.0012758692,0.9653185,0.2610309,-469.861,1359.731,8.561,0.00030999997,0,3.14221
206.09166,2000,0,91.24,0.000002697398,0.000002697398,0.000002697398,0.99999994,0,0,0,0,0,0,1,1,0,0,0,false,false,true,-115.979996,-3399.68,16.99,-0.0046314327,0.0012165266,0.96865356,0.24836926,-476.721,1350.7009,8.561,0.00030999997,0,3.1521099
206.1,2000,0,91.24,0.000002697398,0.000002697398,0.000002697398,0.99999994,0,0,0,0,0,0,1,1,0,0,0,false,false,true,-119.95,-3388.42,16.99,-0.0046476163,0.0011517889,0.9718317,0.23562671,-483.491,1341.5509,8.561,0.00030999997,0,3.16161
206.10834,2000,0,91.24,0.000002697398,0.000002697398,0.000002697398,0.99999994,0,0,0,0,0,0,1,1,0,0,0,false,false,true,-123.979996,-3377.24,16.99,-0.0046638013,0.0010870514,0.9748516,0.22280322,-490.161,1332.281,8.561,0.00030999997,0,3.17061
206.11667,2000,0,91.24,0.000002697398,0.000002697398,0.000002697398,0.99999994,0,0,0,0,0,0,1,1,0,0,0,false,false,true,-128.06,-3366.14,16.99,-0.0046799853,0.0010223138,0.9777102,0.20990418,-496.741,1322.9109,8.561,0.00030999997,0,3.17911
206.125,2000,0,91.24,0.000002697398,0.000002697398,0.000002697398,0.99999994,0,0,0,0,0,0,1,1,0,0,0,false,false,true,-132.2,-3355.1199,16.99,-0.0046907747,0.0009575762,0.9804047,0.19693507,-503.221,1313.4409,8.561,0.00021,0.00010999999,3.18711
206.13333,2000,0,91.24,0.000002697398,0.000002697398,0.000002697398,0.99999994,0,0,0,0,0,0,1,1,0,0,0,false,false,true,-136.39,-3344.17,16.99,-0.0047015646,0.00089283875,0.98293304,0.18390118,-509.60098,1303.891,8.561,0.00021,0.00010999999,3.1946099
206.14166,2000,0,91.24,0.000002697398,0.000002697398,0.000002697398,0.99999994,0,0,0,0,0,0,1,1,0,0,0,false,false,true,-140.64,-3333.2998,16.99,-0.0047123544,0.0008281012,0.98529357,0.17080261,-515.891,1294.261,8.561,0.00010999999,0.00010999999,3.2016098
206.15,2000,0,91.24,0.000002697398,0.000002697398,0.000002697398,0.99999994,0,0,0,0,0,0,1,1,0,0,0,false,false,true,-144.94,-3322.51,16.99,-0.0047231438,0.00076336367,0.9874843,0.15764461,-522.081,1284.5709,8.561,0.00010999999,0.00010999999,3.2081099
206.15834,2000,0,91.24,0.000002697398,0.000002697398,0.000002697398,0.99999994,0,0,0,0,0,0,1,1,0,0,0,false,false,true,-149.29,-3311.7998,16.99,-0.0047339336,0.0006986261,0.98950297,0.14443277,-528.18097,1274.8209,8.561,0,0.00010999999,3.21411
206.16667,2000,0,91.24,0.000002697398,0.000002697398,0.000002697398,0.99999994,0,0,0,0,0,0,1,1,0,0,0,false,false,true,-153.69,-3301.18,16.99,-0.004744723,0.0006338885,0.9913487,0.13116688,-534.191,1265.021,8.561,0,0.00021,3.21961
206.175,2000,0,91.24,0.000002697398,0.000002697398,0.000002697398,0.99999994,0,0,0,0,0,0,1,1,0,0,0,false,false,true,-158.14,-3290.64,16.99,-0.004750117,0.0005691509,0.9930188,0.11785782,-540.11096,1255.1809,8.561,0,0.00021,3.2246099
206.18333,2000,0,91.24,0.000002697398,0.000002697398,0.000002697398,0.99999994,0,0,0,0,0,0,1,1,0,0,0,false,false,true,-162.64,-3280.18,16.99,-0.004755513,0.00050441345,0.99451274,0.10450572,-545.951,1245.3009,8.561,0,0.00021,3.2290099
206.19167,2000,0,91.24,0.000002697398,0.000002697398,0.000002697398,0.99999994,0,0,0,0,0,0,1,1,0,0,0,false,false,true,-167.19,-3269.8,16.99,-0.004760907,0.00043967582,0.9958287,0.091115735,-551.72095,1235.391,8.561,0,0.00021,3.23291
206.2,2000,0,91.24,0.000002697398,0.000002697398,0.000002697398,0.99999994,0,0,0,0,0,0,1,1,0,0,0,false,false,true,-171.79,-3259.5,16.99,-0.0047663026,0.00037493836,0.9969658,0.0776935,-557.42096,1225.4609,8.561,0,0.00021,3.2362099
206.20833,2000,0,91.24,0.000002697398,0.000002697398,0.000002697398,0.99999994,0,0,0,0,0,0,1,1,0,0,0,false,false,true,-176.44,-3249.29,16.99,-0.0047716973,0.0003102008,0.9979227,0.06424419,-563.061,1215.521,8.561,0,0.00021,3.23891
206.21666,2000,0,91.24,0.000002697398,0.000002697398,0.000002697398,0.99999994,0,0,0,0,0,0,1,1,0,0,0,false,false,true,-181.12999,-3239.16,16.99,-0.004777092,0.00024546322,0.9986987,0.050773293,-568.641,1205.5709,8.561,0,0.00030999997,3.24101
206.225,2000,0,91.24,0.000002697398,0.000002697398,0.000002697398,0.99999994,0,0,0,0,0,0,1,1,0,0,0,false,false,true,-185.87,-3229.1099,16.99,-0.0047770925,0.00018072568,0.9992934,0.03728091,-574.17096,1195.611,8.561,0,0.00030999997,3.2425098
206.23334,2000,0,91.24,0.000002697398,0.000002697398,0.000002697398,0.99999994,0,0,0,0,0,0,1,1,0,0,0,false,false,true,-190.65,-3219.15,16.99,-0.0047770925,0.00011598813,0.99970585,0.02377765,-579.66095,1185.651,8.561,0,0.00030999997,3.2434099
206.24167,2000,0,91.24,0.000002697398,0.000002697398,0.000002697398,0.99999994,0,0,0,0,0,0,1,1,0,0,0,false,false,true,-195.48,-3209.27,16.99,-0.004777092,0.000051250565,0.99993587,0.010263599,-585.121,1175.6909,8.561,0,0.00030999997,3.24371
206.25,2000,0,91.24,0.000002697398,0.000002697398,0.000002697398,0.99999994,0,0,0,0,0,0,1,1,0,0,0,false,false,true,-200.36,-3199.47,16.99,-0.004777092,-0.000013486991,0.99998325,-0.0032503647,-590.561,1165.741,8.561,0,0.00030999997,3.2434099
206.25833,2000,0,91.24,0.000002697398,0.000002697398,0.000002697398,0.99999994,0,0,0,0,0,0,1,1,0,0,0,false,false,true,-205.28,-3189.76,16.99,-0.004777092,-0.00007822454,0.999848,-0.016764412,-595.99097,1155.7909,8.561,0,0.00030999997,3.24241
206.26666,2000,0,91.24,0.000002697398,0.000002697398,0.000002697398,0.99999994,0,0,0,0,0,0,1,1,0,0,0,false,false,true,-210.25,-3180.13,16.99,-0.004771697,-0.00014296209,0.9995302,-0.030273026,-601.42096,1145.851,8.561,0,0.00040999998,3.24071
206.275,2000,0,91.24,0.000002697398,0.000002697398,0.000002697398,0.99999994,0,0,0,0,0,0,1,1,0,0,0,false,false,true,-215.26,-3170.5798,16.99,-0.0047663017,-0.00020769962,0.9990303,-0.043765448,-606.86096,1135.9209,8.561,0,0.00040999998,3.2383099
206.28334,2000,0,91.24,0.000002697398,0.000002697398,0.000002697398,0.99999994,0,0,0,0,0,0,1,1,0,0,0,false,false,true,-220.31999,-3161.1099,16.99,-0.004760907,-0.00027243717,0.99834883,-0.05724169,-612.311,1125.991,8.561,0,0.00040999998,3.23521
206.29167,2000,0,91.24,0.000002697398,0.000002697398,0.000002697398,0.99999994,0,0,0,0,0,0,1,1,0,0,0,false,false,true,-225.42,-3151.73,16.99,-0.0047555123,-0.00033717472,0.99748635,-0.07069635,-617.79095,1116.0709,8.561,0,0.00040999998,3.23131
206.3,2000,0,91.24,0.000002697398,0.000002697398,0.000002697398,0.99999994,0,0,0,0,0,0,1,1,0,0,0,false,false,true,-230.56999,-3142.43,16.99,-0.004750118,-0.00040191234,0.9964443,-0.0841187,-623.30096,1106.141,8.561,0,0.00040999998,3.22711
206.30833,2000,0,91.24,0.000002697398,0.000002697398,0.000002697398,0.99999994,0,0,0,0,0,0,1,1,0,0,0,false,false,true,-235.76,-3133.21,16.99,-0.0047447234,-0.0004666499,0.9952232,-0.09750863,-628.74097,1096.121,8.561,0,0.00040999998,3.22661
206.31667,2000,0,91.24,0.000002697398,0.000002697398,0.000002697398,0.99999994,0,0,0,0,0,0,1,1,0,0,0,false,false,true,-241,-3124.0798,16.99,-0.004733934,-0.00053138746,0.9938227,-0.11087698,-634.121,1086.011,8.561,-0.00010999999,0.00040999998,3.22981
206.325,2000,0,91.24,0.000002697398,0.000002697398,0.000002697398,0.99999994,0,0,0,0,0,0,1,1,0,0,0,false,false,true,-246.28,-3115.03,16.99,-0.0047231438,-0.00059612497,0.9922407,-0.12423992,-639.451,1075.8109,8.561,-0.00021,0.00030999997,3.23651
206.33333,2000,0,91.24,0.000002697398,0.000002697398,0.000002697398,0.99999994,0,0,0,0,0,0,1,1,0,0,0,false,false,true,-251.61,-3106.0598,16.99,-0.0047123544,-0.00066086254,0.99047524,-0.13760826,-644.73096,1065.531,8.561,-0.00030999997,0.00021,3.2467098
206.34166,2000,0,91.24,0.000002697398,0.000002697398,0.000002697398,0.99999994,0,0,0,0,0,0,1,1,0,0,0,false,false,true,-256.97998,-3097.18,16.99,-0.004701564,-0.0007256,0.98852324,-0.15099283,-649.96094,1055.1709,8.561,-0.00030999997,0.00010999999,3.26031
206.35,2000,0,91.24,0.000002697398,0.000002697398,0.000002697398,0.99999994,0,0,0,0,0,0,1,1,0,0,0,false,false,true,-262.4,-3088.39,16.99,-0.0046907747,-0.00079033757,0.9863805,-0.16440973,-655.131,1044.721,8.561,-0.00040999998,0,3.27771
206.35834,2000,0,91.24,0.000002697398,0.000002697398,0.000002697398,0.99999994,0,0,0,0,0,0,1,1,0,0,0,false,false,true,-267.86,-3079.68,16.99,-0.004679985,-0.0008550751,0.98404336,-0.17786439,-660.11096,1034.0809,8.561,-0.00051,0,3.30111
206.36667,2000,0,91.24,0.000002697398,0.000002697398,0.000002697398,0.99999994,0,0,0,0,0,0,1,1,0,0,0,false,false,true,-273.36,-3071.0598,16.99,-0.004669196,-0.00091981277,0.98150367,-0.19138381,-664.90094,1023.28094,8.561,-0.00061,0,3.33041
206.375,2000,0,91.24,0.000002697398,0.000002697398,0.000002697398,0.99999994,0,0,0,0,0,0,1,1,0,0,0,false,false,true,-278.9,-3062.53,16.99,-0.0046530114,-0.0009845502,0.9787537,-0.20498417,-669.501,1012.321,8.561,-0.00071,0,3.36551
206.38333,2000,0,91.24,0.000002697398,0.000002697398,0.000002697398,0.99999994,0,0,0,0,0,0,1,1,0,0,0,false,false,true,-284.47998,-3054.0898,16.99,-0.004636827,-0.0010492879,0.9757834,-0.218687,-673.92096,1001.22095,8.561,-0.00081,-0.00010999999,3.40621
206.39166,2000,0,91.24,0.000002697398,0.000002697398,0.000002697398,0.99999994,0,0,0,0,0,0,1,1,0,0,0,false,false,true,-290.1,-3045.75,16.99,-0.004620643,-0.0011140254,0.9725814,-0.2325139,-678.16095,989.98096,8.561,-0.00091,-0.00030999997,3.4525099
206.4,2000,0,91.24,0.000002697398,0.000002697398,0.000002697398,0.99999994,0,0,0,0,0,0,1,1,0,0,0,false,false,true,-295.75,-3037.5,16.99,-0.0046044583,-0.0011787629,0.9691359,-0.24648108,-682.22095,978.621,8.561,-0.0010099999,-0.00040999998,3.50431
206.40834,2000,0,91.24,0.000002697398,0.000002697398,0.000002697398,0.99999994,0,0,0,0,0,0,1,1,0,0,0,false,false,true,-301.44,-3029.3398,16.99,-0.004588274,-0.0012435005,0.96543384,-0.2606047,-686.10095,967.1409,8.561,-0.00111,-0.00061,3.5615098
206.41667,2000,0,91.24,0.000002697398,0.000002697398,0.000002697398,0.99999994,0,0,0,0,0,0,1,1,0,0,0,false,false,true,-307.16,-3021.28,16.99,-0.0045720898,-0.001308238,0.9614607,-0.27490097,-689.821,955.561,8.561,-0.0012099999,-0.00071,3.62411
206.425,2000,0,91.24,0.000002697398,0.000002697398,0.000002697398,0.99999994,0,0,0,0,0,0,1,1,0,0,0,false,false,true,-312.91,-3013.3198,16.99,-0.0045559052,-0.0013729756,0.9572006,-0.28938603,-693.23096,943.7609,8.561,-0.0012099999,-0.00081,3.68941
206.43333,2000,0,91.24,0.000002697398,0.000002697398,0.000002697398,0.99999994,0,0,0,0,0,0,1,1,0,0,0,false,false,true,-318.69,-3005.45,16.99,-0.004534326,-0.0014377132,0.9526392,-0.30406538,-696.311,931.72095,8.561,-0.0012099999,-0.00081,3.7569098
206.44167,2000,0,91.24,0.000002697398,0.000002697398,0.000002697398,0.99999994,0,0,0,0,0,0,1,1,0,0,0,false,false,true,-324.49,-2997.69,16.99,-0.0045127473,-0.0015024508,0.9477633,-0.31893888,-698.98096,919.561,8.561,-0.00111,-0.00081,3.8257098
206.45,2000,0,91.24,0.000002697398,0.000002697398,0.000002697398,0.99999994,0,0,0,0,0,0,1,1,0,0,0,false,false,true,-330.31,-2990.03,16.99,-0.004491167,-0.0015671882,0.9425586,-0.33400655,-701.10095,907.49097,8.561,-0.0010099999,-0.00081,3.8940098
206.45833,2000,0,91.24,0.000002697398,0.000002697398,0.000002697398,0.99999994,0,0,0,0,0,0,1,1,0,0,0,false,false,true,-336.15,-2982.47,16.99,-0.0044695884,-0.0016373206,0.93701655,-0.34925234,-702.701,895.55096,8.561,-0.00081,-0.00081,3.96151
206.46666,2000,0,91.24,0.000002697398,0.000002697398,0.000002697398,0.99999994,0,0,0,0,0,0,1,1,0,0,0,false,false,true,-342.00998,-2975.01,16.99,-0.0044426145,-0.0017074529,0.9311243,-0.36467072,-703.80096,883.761,8.561,-0.00061,-0.00071,4.02831
206.475,2000,0,91.24,0.000002697398,0.000002697398,0.000002697398,0.99999994,0,0,0,0,0,0,1,1,0,0,0,false,false,true,-347.87,-2967.65,16.99,-0.00441564,-0.0017775851,0.9248732,-0.3802455,-704.41095,872.16095,8.561,-0.00051,-0.00061,4.09451
206.48334,2000,0,91.24,0.000002697398,0.000002697398,0.000002697398,0.99999994,0,0,0,0,0,0,1,1,0,0,0,false,false,true,-353.74,-2960.38,16.99,-0.0043886667,-0.0018477177,0.91825277,-0.39596605,-704.55096,860.77094,8.561,-0.00030999997,-0.00061,4.16011
206.49167,2000,0,91.24,0.000002697398,0.000002697398,0.000002697398,0.99999994,0,0,0,0,0,0,1,1,0,0,0,false,false,true,-359.61,-2953.21,16.99,-0.0043562977,-0.0019232448,0.9112521,-0.41182145,-704.141,849.571,8.561,-0.00021,-0.00051,4.22251
206.5,2000,0,91.24,0.000002697398,0.000002697398,0.000002697398,0.99999994,0,0,0,0,0,0,1,1,0,0,0,false,false,true,-365.47998,-2946.13,16.99,-0.004323929,-0.001998772,0.9038655,-0.42779005,-703.11096,838.54095,8.561,-0.00010999999,-0.00040999998,4.27951
206.50833,2000,0,91.24,0.000002697398,0.000002697398,0.000002697398,0.99999994,0,0,0,0,0,0,1,1,0,0,0,false,false,true,-371.34,-2939.14,16.99,-0.00429156,-0.002074299,0.8960935,-0.44383967,-701.47095,827.72095,8.561,0,-0.00030999997,4.33111
206.51666,2000,0,91.24,0.000002697398,0.000002697398,0.000002697398,0.99999994,0,0,0,0,0,0,1,1,0,0,0,false,false,true,-377.19,-2932.24,16.99,-0.0042537972,-0.0021498264,0.88793826,-0.45993784,-699.251,817.15094,8.561,0,-0.00010999999,4.37741
206.525,2000,0,91.24,0.000002697398,0.000002697398,0.000002697398,0.99999994,0,0,0,0,0,0,1,1,0,0,0,false,false,true,-383.02,-2925.43,16.99,-0.0042160326,-0.0022253531,0.8794011,-0.47605744,-696.49097,806.86096,8.561,0.00010999999,0,4.41841
206.53334,2000,0,91.24,0.000002697398,0.000002697398,0.000002697398,0.99999994,0,0,0,0,0,0,1,1,0,0,0,false,false,true,-388.81998,-2918.71,16.99,-0.0041728746,-0.0023008804,0.87048805,-0.4921664,-693.21094,796.881,8.561,0.00021,0.00010999999,4.4541097
206.54167,2000,0,91.24,0.000002697398,0.000002697398,0.000002697398,0.99999994,0,0,0,0,0,0,1,1,0,0,0,false,false,true,-394.6,-2912.0698,16.99,-0.0041297167,-0.0023764079,0.8612037,-0.5082376,-689.451,787.24097,8.561,0.00030999997,0.00021,4.48461
206.55,2000,0,91.24,0.000002697398,0.000002697398,0.000002697398,0.99999994,0,0,0,0,0,0,1,1,0,0,0,false,false,true,-400.35,-2905.51,16.99,-0.004086558,-0.0024573295,0.85155797,-0.52423865,-685.251,777.96094,8.561,0.00040999998,0.00030999997,4.51001
206.55833,2000,0,91.24,0.000002697398,0.000002697398,0.000002697398,0.99999994,0,0,0,0,0,0,1,1,0,0,0,false,false,true,-406.06,-2899.03,16.99,-0.0040380047,-0.0025382515,0.8415565,-0.5401479,-680.65094,769.061,8.561,0.00040999998,0.00040999998,4.5303097
206.56667,2000,0,91.24,0.000002697398,0.000002697398,0.000002697398,0.99999994,0,0,0,0,0,0,1,1,0,0,0,false,false,true,-411.72998,-2892.6199,16.99,-0.0039894516,-0.0026137787,0.8312096,-0.55593854,-675.701,760.561,8.561,0.00040999998,0.00051,4.54561
206.575,2000,0,91.24,0.000002697398,0.000002697398,0.000002697398,0.99999994,0,0,0,0,0,0,1,1,0,0,0,false,false,true,-417.36,-2886.28,16.99,-0.0039408985,-0.002689306,0.82052994,-0.5715835,-670.441,752.48096,8.561,0.00040999998,0.00061,4.55591
206.58333,2000,0,91.24,0.000002697398,0.000002697398,0.000002697398,0.99999994,0,0,0,0,0,0,1,1,0,0,0,false,false,true,-422.94998,-2880.01,16.99,-0.0038869507,-0.002764833,0.8095323,-0.58705586,-664.92096,744.821,8.561,0.00040999998,0.00071,4.56141
206.59166,2000,0,91.24,0.000002697398,0.000002697398,0.000002697398,0.99999994,0,0,0,0,0,0,1,1,0,0,0,false,false,true,-428.49,-2873.8,16.99,-0.0038330026,-0.0028403602,0.7982299,-0.60233396,-659.18097,737.59094,8.561,0.00040999998,0.00081,4.56201
206.6,2000,0,91.24,0.000002697398,0.000002697398,0.000002697398,0.99999994,0,0,0,0,0,0,1,1,0,0,0,false,false,true,-433.97998,-2867.65,16.99,-0.0037790549,-0.0029158876,0.7866377,-0.61739635,-653.28094,730.79095,8.561,0.00040999998,0.00091,4.55791
206.60834,2000,0,91.24,0.000002697398,0.000002697398,0.000002697398,0.99999994,0,0,0,0,0,0,1,1,0,0,0,false,false,true,-439.41998,-2861.5598,16.99,-0.003719712,-0.0029914144,0.7747731,-0.6322212,-647.251,724.42096,8.561,0.00040999998,0.0010099999,4.54911
206.61667,2000,0,91.24,0.000002697398,0.000002697398,0.000002697398,0.99999994,0,0,0,0,0,0,1,1,0,0,0,false,false,true,-444.81,-2855.52,16.99,-0.0036603692,-0.0030669416,0.76265085,-0.64679265,-641.15094,718.46094,8.561,0.00040999998,0.0010099999,4.53571
206.625,2000,0,91.24,0.000002697398,0.000002697398,0.000002697398,0.99999994,0,0,0,0,0,0,1,1,0,0,0,false,false,true,-450.15,-2849.53,16.99,-0.0036010265,-0.003137074,0.75029224,-0.66108894,-635.02094,712.91095,8.561,0.00030999997,0.0010099999,4.5177097
206.63333,2000,0,91.24,0.000002697398,0.000002697398,0.000002697398,0.99999994,0,0,0,0,0,0,1,1,0,0,0,false,false,true,-455.44,-2843.5898,16.99,-0.0035416838,-0.0032072063,0.73771626,-0.6750939,-628.90094,707.751,8.561,0.00030999997,0.00111,4.4952097
206.64166,2000,0,91.24,0.000002697398,0.000002697398,0.000002697398,0.99999994,0,0,0,0,0,0,1,1,0,0,0,false,false,true,-460.68,-2837.69,16.99,-0.0034769461,-0.0032773386,0.7249439,-0.6887913,-622.83093,702.96094,8.551001,0.00021,0.00111,4.4682097
206.65,2000,0,91.24,0.000002697398,0.000002697398,0.000002697398,0.99999994,0,0,0,0,0,0,1,1,0,0,0,false,false,true,-465.87,-2831.8298,16.99,-0.0034122085,-0.003347471,0.71199805,-0.70216507,-616.85095,698.511,8.551001,0.00021,0.00111,4.43681
206.65834,2000,0,91.24,0.000002697398,0.000002697398,0.000002697398,0.99999994,0,0,0,0,0,0,1,1,0,0,0,false,false,true,-471.00998,-2826.01,16.99,0.003347471,0.0034122085,-0.6988958,0.7152074,-611.001,694.391,8.551001,0.00010999999,0.00111,4.40101
206.66667,2000,0,91.24,0.000002697398,0.000002697398,0.000002697398,0.99999994,0,0,0,0,0,0,1,1,0,0,0,false,false,true,-476.09998,-2820.22,16.99,0.0032827337,0.0034769464,-0.6856624,0.72790396,-605.311,690.561,8.551001,0.00010999999,0.00111,4.36081
206.675,2000,0,91.24,0.000002697398,0.000002697398,0.000002697398,0.99999994,0,0,0,0,0,0,1,1,0,0,0,false,false,true,-481.13998,-2814.47,16.99,0.0032179959,0.0035416838,-0.6723263,0.7402393,-599.811,687.001,8.551001,0,0.0012099999,4.31621
206.68333,2000,0,91.24,0.000002697398,0.000002697398,0.000002697398,0.99999994,0,0,0,0,0,0,1,1,0,0,0,false,false,true,-486.13998,-2808.74,16.99,0.0031478636,0.0036010265,-0.658904,0.7522117,-594.53094,683.67096,8.551001,0,0.0012099999,4.26731
206.69167,2000,0,91.24,0.000002697398,0.000002697398,0.000002697398,0.99999994,0,0,0,0,0,0,1,1,0,0,0,false,false,true,-491.09,-2803.04,16.99,0.0030777315,0.0036603694,-0.6454278,0.7638063,-589.501,680.54095,8.541,0,0.0012099999,4.21401
206.7,2000,0,91.24,0.000002697398,0.000002697398,0.000002697398,0.99999994,0,0,0,0,0,0,1,1,0,0,0,false,false,true,-496,-2797.3699,16.99,0.003007599,0.003719712,-0.63191915,0.7750194,-584.701,677.54095,8.541,0,0.0012099999,4.1564097
206.70833,2000,0,91.24,0.000002697398,0.000002697398,0.000002697398,0.99999994,0,0,0,0,0,0,1,1,0,0,0,false,false,true,-500.87,-2791.72,16.99,0.0029374664,0.00377366,-0.6184051,0.7858448,-580.15094,674.641,8.541,0,0.00111,4.09471
206.71666,2000,0,91.24,0.000002697398,0.000002697398,0.000002697398,0.99999994,0,0,0,0,0,0,1,1,0,0,0,false,false,true,-505.69998,-2786.0999,16.99,0.0028673343,0.0038276082,-0.6049074,0.79628146,-575.811,671.78094,8.541,0,0.0010099999,4.0307097
206.725,2000,0,91.24,0.000002697398,0.000002697398,0.000002697398,0.99999994,0,0,0,0,0,0,1,1,0,0,0,false,false,true,-510.5,-2780.5,16.99,0.0028025967,0.003876161,-0.59144723,0.8063294,-571.67096,668.951,8.541,0,0.00091,3.96481
206.73334,2000,0,91.24,0.000002697398,0.000002697398,0.000002697398,0.99999994,0,0,0,0,0,0,1,1,0,0,0,false,false,true,-515.26,-2774.93,16.99,0.002737859,0.003924714,-0.5780465,0.81598973,-567.73096,666.131,8.541,-0.00010999999,0.00091,3.8975098
206.74167,2000,0,91.24,0.000002697398,0.000002697398,0.000002697398,0.99999994,0,0,0,0,0,0,1,1,0,0,0,false,false,true,-519.99,-2769.38,16.99,0.0026731216,0.0039732675,-0.56472135,0.82526773,-563.98096,663.30096,8.531,-0.00021,0.00081,3.82931
206.75,2000,0,91.24,0.000002697398,0.000002697398,0.000002697398,0.99999994,0,0,0,0,0,0,1,1,0,0,0,false,false,true,-524.69,-2763.8499,16.99,0.0026083838,0.0040164255,-0.55148244,0.83417267,-560.40094,660.451,8.531,-0.00030999997,0.00071,3.76051
206.75833,2000,0,91.24,0.000002697398,0.000002697398,0.000002697398,0.99999994,0,0,0,0,0,0,1,1,0,0,0,false,false,true,-529.36,-2758.3499,16.99,0.0025436464,0.004059584,-0.53834605,0.84271014,-556.99097,657.571,8.531,-0.00030999997,0.00071,3.6914098
206.76666,2000,0,91.24,0.000002697398,0.000002697398,0.000002697398,0.99999994,0,0,0,0,0,0,1,1,0,0,0,false,false,true,-534,-2752.8699,16.99,0.0024789087,0.0041027423,-0.525323,0.8508893,-553.74097,654.65094,8.531,-0.00040999998,0.00061,3.6224098
206.775,2000,0,91.24,0.000002697398,0.000002697398,0.000002697398,0.99999994,0,0,0,0,0,0,1,1,0,0,0,false,false,true,-538.61,-2747.41,16.99,0.0024141711,0.004140506,-0.5124185,0.8587224,-550.631,651.67096,8.531,-0.00051,0.00051,3.55381
206.78334,2000,0,91.24,0.000002697398,0.000002697398,0.000002697398,0.99999994,0,0,0,0,0,0,1,1,0,0,0,false,false,true,-543.2,-2741.98,16.99,0.002349434,0.0041782698,-0.49964908,0.86621463,-547.66095,648.631,8.531,-0.00051,0.00040999998,3.48581
206.79167,2000,0,91.24,0.000002697398,0.000002697398,0.000002697398,0.99999994,0,0,0,0,0,0,1,1,0,0,0,false,false,true,-547.76,-2736.5698,16.99,0.0022846963,0.004210639,-0.4870144,0.8733808,-544.821,645.511,8.531,-0.00051,0.00030999997,3.41881
206.8,2000,0,91.24,0.000002697398,0.000002697398,0.000002697398,0.99999994,0,0,0,0,0,0,1,1,0,0,0,false,false,true,-552.3,-2731.19,16.99,0.0022199585,0.004243007,-0.4745254,0.8802287,-542.09094,642.311,8.531,-0.00051,0.00021,3.35291
206.80833,2000,0,91.24,0.000002697398,0.000002697398,0.000002697398,0.99999994,0,0,0,0,0,0,1,1,0,0,0,false,false,true,-556.82,-2725.8398,16.99,0.002160616,0.0042753764,-0.46218207,0.8867721,-539.47095,639.02094,8.531,-0.00040999998,0.00010999999,3.28841
206.81667,2000,0,91.24,0.000002697398,0.000002697398,0.000002697398,0.99999994,0,0,0,0,0,0,1,1,0,0,0,false,false,true,-561.32,-2720.51,16.99,0.002101273,0.00430235,-0.44998974,0.8930208,-536.941,635.631,8.531,-0.00040999998,0,3.22551
206.825,2000,0,91.24,0.000002697398,0.000002697398,0.000002697398,0.99999994,0,0,0,0,0,0,1,1,0,0,0,false,false,true,-565.79,-2715.21,16.99,0.0020419303,0.004329324,-0.43794855,0.89898723,-534.501,632.141,8.531,-0.00040999998,0,3.16431
206.83333,2000,0,91.24,0.000002697398,0.000002697398,0.000002697398,0.99999994,0,0,0,0,0,0,1,1,0,0,0,false,false,true,-570.24,-2709.94,16.99,0.0019825874,0.0043562977,-0.42605832,0.904683,-532.131,628.54095,8.531,-0.00030999997,0,3.10511
206.84166,2000,0,91.24,0.000002697398,0.000002697398,0.000002697398,0.99999994,0,0,0,0,0,0,1,1,0,0,0,false,false,true,-574.67,-2704.7,16.99,0.0019232449,0.004383272,-0.41431928,0.910119,-529.831,624.83093,8.531,-0.00030999997,0,3.0480099
206.85,2000,0,91.24,0.000002697398,0.000002697398,0.000002697398,0.99999994,0,0,0,0,0,0,1,1,0,0,0,false,false,true,-579.08997,-2699.49,16.99,0.0018639021,0.004404851,-0.40272576,0.9153081,-527.581,621.011,8.531,-0.00021,-0.00010999999,2.99311
206.85834,2000,0,91.24,0.000002697398,0.000002697398,0.000002697398,0.99999994,0,0,0,0,0,0,1,1,0,0,0,false,false,true,-583.49,-2694.31,16.99,0.0018099542,0.0044264304,-0.39127803,0.9202601,-525.371,617.071,8.531,-0.00010999999,-0.00021,2.94061
206.86667,2000,0,91.24,0.000002697398,0.000002697398,0.000002697398,0.99999994,0,0,0,0,0,0,1,1,0,0,0,false,false,true,-587.87,-2689.17,16.99,0.0017560062,0.004448009,-0.3799758,0.924984,-523.201,613.011,8.531,-0.00010999999,-0.00021,2.89061
206.875,2000,0,91.24,0.000002697398,0.000002697398,0.000002697398,0.99999994,0,0,0,0,0,0,1,1,0,0,0,false,false,true,-592.23,-2684.06,16.99,0.0017020581,0.0044695884,-0.36880857,0.929493,-521.061,608.83093,8.531,-0.00010999999,-0.00030999997,2.8433099
206.88333,2000,0,91.24,0.000002697398,0.000002697398,0.000002697398,0.99999994,0,0,0,0,0,0,1,1,0,0,0,false,false,true,-596.57,-2678.99,16.99,0.0016481103,0.0044857734,-0.35777077,0.9337972,-518.941,604.53094,8.531,0,-0.00040999998,2.7987099
206.89166,2000,0,91.24,0.000002697398,0.000002697398,0.000002697398,0.99999994,0,0,0,0,0,0,1,1,0,0,0,false,false,true,-600.89,-2673.95,16.99,0.0015941622,0.0045019574,-0.346857,0.9379058,-516.80096,600.10095,8.521,0,-0.00040999998,2.75701
206.9,2000,0,91.24,0.000002697398,0.000002697398,0.000002697398,0.99999994,0,0,0,0,0,0,1,1,0,0,0,false,false,true,-605.2,-2668.95,16.99,0.0015456091,0.0045181415,-0.33606198,0.9418277,-514.60095,595.52094,8.521,0,-0.00040999998,2.71801
206.90834,2000,0,91.24,0.000002697398,0.000002697398,0.000002697398,0.99999994,0,0,0,0,0,0,1,1,0,0,0,false,false,true,-609.49,-2663.99,16.99,0.0014970559,0.004534326,-0.32537487,0.945573,-512.331,590.811,8.521,0,-0.00040999998,2.6816099
206.91667,2000,0,91.24,0.000002697398,0.000002697398,0.000002697398,0.99999994,0,0,0,0,0,0,1,1,0,0,0,false,false,true,-613.76,-2659.0698,16.99,0.0014485028,0.0045505106,-0.31479022,0.9491492,-509.971,585.99097,8.521,0,-0.00040999998,2.64761
206.925,2000,0,91.24,0.000002697398,0.000002697398,0.000002697398,0.99999994,0,0,0,0,0,0,1,1,0,0,0,false,false,true,-618.01,-2654.19,16.99,0.0013999495,0.0045666946,-0.30430275,0.95256335,-507.511,581.061,8.521,0,-0.00040999998,2.61601
206.93333,2000,0,91.24,0.000002697398,0.000002697398,0.000002697398,0.99999994,0,0,0,0,0,0,1,1,0,0,0,false,false,true,-622.24,-2649.3499,16.99,0.0013513966,0.004577485,-0.29390156,0.9558237,-504.941,576.04095,8.521,0,-0.00040999998,2.58671
206.94167,2000,0,91.24,0.000002697398,0.000002697398,0.000002697398,0.99999994,0,0,0,0,0,0,1,1,0,0,0,false,false,true,-626.45,-2644.55,16.99,0.0013028432,0.004588274,-0.28358126,0.9589363,-502.241,570.93097,8.521,0.00010999999,-0.00040999998,2.55971
206.95,2000,0,91.24,0.000002697398,0.000002697398,0.000002697398,0.99999994,0,0,0,0,0,0,1,1,0,0,0,false,false,true,-630.64,-2639.79,16.99,0.0012542901,0.0045990637,-0.27333647,0.9619066,-499.411,565.751,8.521,0.00010999999,-0.00030999997,2.53491
206.95833,2000,0,91.24,0.000002697398,0.000002697398,0.000002697398,0.99999994,0,0,0,0,0,0,1,1,0,0,0,false,false,true,-634.8,-2635.0798,16.99,0.0012057369,0.004609853,-0.26316187,0.96473986,-496.441,560.511,8.521,0.00021,-0.00030999997,2.51221
206.96666,2000,0,91.24,0.000002697398,0.000002697398,0.000002697398,0.99999994,0,0,0,0,0,0,1,1,0,0,0,false,false,true,-638.94,-2630.41,16.99,0.0011571837,0.0046206424,-0.25304654,0.9674422,-493.32098,555.23096,8.521,0.00021,-0.00030999997,2.49171
206.975,2000,0,91.24,0.000002697398,0.000002697398,0.000002697398,0.99999994,0,0,0,0,0,0,1,1,0,0,0,false,false,true,-643.05,-2625.78,16.99,0.0011086307,0.0046314327,-0.24299066,0.9700169,-490.041,549.91095,8.521,0.00030999997,-0.00030999997,2.47331
206.98334,2000,0,91.24,0.000002697398,0.000002697398,0.000002697398,0.99999994,0,0,0,0,0,0,1,1,0,0,0,false,false,true,-647.13,-2621.2,16.99,0.0010600775,0.004642222,-0.23298325,0.97246903,-486.591,544.571,8.521,0.00040999998,-0.00030999997,2.45691
206.99167,2000,0,91.24,0.000002697398,0.000002697398,0.000002697398,0.99999994,0,0,0,0,0,0,1,1,0,0,0,false,false,true,-651.18,-2616.66,16.99,0.001016919,0.0046530114,-0.22301362,0.9748036,-482.971,539.21094,8.521,0.00040999998,-0.00030999997,2.44261
207,2000,0,91.24,0.000002697398,0.000002697398,0.000002697398,0.99999994,0,0,0,0,0,0,1,1,0,0,0,false,false,true,-655.2,-2612.17,16.99,0.00097376073,0.0046638013,-0.21308176,0.9770227,-479.171,533.85095,8.521,0.00040999998,-0.00030999997,2.43031
207.00833,2000,0,91.24,0.000002697398,0.000002697398,0.000002697398,0.99999994,0,0,0,0,0,0,1,1,0,0,0,false,false,true,-659.19,-2607.72,16.99,0.0009306024,0.004674591,-0.20317689,0.9791304,-475.191,528.501,8.521,0.00040999998,-0.00030999997,2.42011
207.01666,2000,0,91.24,0.000002697398,0.000002697398,0.000002697398,0.99999994,0,0,0,0,0,0,1,1,0,0,0,false,false,true,-663.14996,-2603.3198,16.99,0.00088744395,0.0046853805,-0.19329356,0.98112935,-471.021,523.17096,8.521,0.00040999998,-0.00030999997,2.41191
207.025,2000,0,91.24,0.000002697398,0.000002697398,0.000002697398,0.99999994,0,0,0,0,0,0,1,1,0,0,0,false,false,true,-667.07996,-2598.96,16.99,0.00084428565,0.0046907756,-0.1834265,0.98302186,-466.661,517.881,8.521,0.00040999998,-0.00030999997,2.40571
207.03334,2000,0,91.24,0.000002697398,0.000002697398,0.000002697398,0.99999994,0,0,0,0,0,0,1,1,0,0,0,false,false,true,-670.97,-2594.64,16.99,0.00080112723,0.00469617,-0.17356475,0.9848109,-462.10098,512.631,8.521,0.00040999998,-0.00030999997,2.40161
207.04167,2000,0,91.24,0.000002697398,0.000002697398,0.000002697398,0.99999994,0,0,0,0,0,0,1,1,0,0,0,false,false,true,-674.82,-2590.3699,16.99,0.00075796887,0.0047015646,-0.16370302,0.9864981,-457.341,507.441,8.521,0.00030999997,-0.00030999997,2.39951
207.05,2000,0,91.24,0.000002697398,0.000002697398,0.000002697398,0.99999994,0,0,0,0,0,0,1,1,0,0,0,false,false,true,-678.63,-2586.14,16.99,0.00071481057,0.00470696,-0.15383051,0.98808575,-452.381,502.32098,8.521,0.00030999997,-0.00021,2.39951
207.05833,2000,0,91.24,0.000002697398,0.000002697398,0.000002697398,0.99999994,0,0,0,0,0,0,1,1,0,0,0,false,false,true,-682.39996,-2581.95,16.99,0.00067165215,0.004712355,-0.1439418,0.9895747,-447.211,497.281,8.521,0.00030999997,-0.00021,2.40161
207.06667,2000,0,91.24,0.000002697398,0.000002697398,0.000002697398,0.99999994,0,0,0,0,0,0,1,1,0,0,0,false,false,true,-686.13,-2577.81,16.99,0.0006284938,0.0047177495,-0.13403153,0.9909656,-441.841,492.341,8.521,0.00021,-0.00021,2.40591
207.075,2000,0,91.24,0.000002697398,0.000002697398,0.000002697398,0.99999994,0,0,0,0,0,0,1,1,0,0,0,false,false,true,-689.81,-2573.71,16.99,0.0005799406,0.004723144,-0.124088876,0.9922597,-436.251,487.511,8.521,0.00021,-0.00010999999,2.41231
207.08333,2000,0,91.24,0.000002697398,0.000002697398,0.000002697398,0.99999994,0,0,0,0,0,0,1,1,0,0,0,false,false,true,-693.45,-2569.65,16.99,0.0005313874,0.0047285384,-0.11410845,0.99345684,-430.451,482.801,8.521,0.00021,-0.00010999999,2.42091
207.09166,2000,0,91.24,0.000002697398,0.000002697398,0.000002697398,0.99999994,0,0,0,0,0,0,1,1,0,0,0,false,false,true,-697.04,-2565.63,16.99,0.00048283426,0.0047339336,-0.104079485,0.99455756,-424.441,478.231,8.521,0.00021,-0.00010999999,2.43181
207.1,2000,0,91.24,0.000002697398,0.000002697398,0.000002697398,0.99999994,0,0,0,0,0,0,1,1,0,0,0,false,false,true,-700.57996,-2561.64,16.99,0.0004342811,0.0047393283,-0.09399661,0.99556106,-418.211,473.811,8.521,0.00030999997,-0.00010999999,2.44501
207.10834,2000,0,91.24,0.000002697398,0.000002697398,0.000002697398,0.99999994,0,0,0,0,0,0,1,1,0,0,0,false,false,true,-704.07,-2557.69,16.99,0.0003857279,0.004744723,-0.08384895,0.99646705,-411.761,469.551,8.521,0.00030999997,-0.00010999999,2.46061
207.11667,2000,0,91.24,0.000002697398,0.000002697398,0.000002697398,0.99999994,0,0,0,0,0,0,1,1,0,0,0,false,false,true,-707.5,-2553.78,16.99,0.00033717474,0.0047501177,-0.07362577,0.9972745,-405.101,465.471,8.521,0.00040999998,-0.00021,2.47861
207.125,2000,0,91.24,0.000002697398,0.000002697398,0.000002697398,0.99999994,0,0,0,0,0,0,1,1,0,0,0,false,false,true,-710.88,-2549.9,16.99,0.0002886216,0.004750118,-0.06332168,0.9979818,-398.221,461.591,8.521,0.00040999998,-0.00021,2.49921
207.13333,2000,0,91.24,0.000002697398,0.000002697398,0.000002697398,0.99999994,0,0,0,0,0,0,1,1,0,0,0,false,false,true,-714.2,-2546.05,16.99,0.00024006843,0.0047501177,-0.05292586,0.9985871,-391.121,457.931,8.521,0.00051,-0.00021,2.52241
207.14166,2000,0,91.24,0.000002697398,0.000002697398,0.000002697398,0.99999994,0,0,0,0,0,0,1,1,0,0,0,false,false,true,-717.45996,-2542.23,16.99,0.00019151527,0.0047501177,-0.042427544,0.99908817,-383.801,454.501,8.521,0.00051,-0.00021,2.54831
207.15,2000,0,91.24,0.000002697398,0.000002697398,0.000002697398,0.99999994,0,0,0,0,0,0,1,1,0,0,0,false,false,true,-720.66,-2538.44,16.99,0.00014296209,0.0047501177,-0.031815935,0.9994824,-376.271,451.32098,8.521,0.00061,-0.00021,2.57701
207.15834,2000,0,91.24,0.000002697398,0.000002697398,0.000002697398,0.99999994,0,0,0,0,0,0,1,1,0,0,0,false,false,true,-723.8,-2534.68,16.99,0.000094408926,0.004750117,-0.021080248,0.99976635,-368.521,448.411,8.521,0.00061,-0.00021,2.60871
207.16667,2000,0,91.24,0.000002697398,0.000002697398,0.000002697398,0.99999994,0,0,0,0,0,0,1,1,0,0,0,false,false,true,-726.87,-2530.94,16.99,0.00004585577,0.004750118,-0.0102096945,0.9999366,-360.561,445.801,8.521,0.00061,-0.00021,2.6435099
207.175,2000,0,91.24,0.000002697398,0.000002697398,0.000002697398,0.99999994,0,0,0,0,0,0,1,1,0,0,0,false,false,true,-729.87,-2527.22,16.99,-0.0000026973983,0.004750118,0.0008065221,0.9999884,-352.391,443.501,8.521,0.00061,-0.00021,2.6816099
207.18333,2000,0,91.24,0.000002697398,0.000002697398,0.000002697398,0.99999994,0,0,0,0,0,0,1,1,0,0,0,false,false,true,-732.81,-2523.52,16.99,-0.00005125057,0.004750118,0.01197923,0.9999169,-344.021,441.551,8.521,0.00061,-0.00021,2.72311
207.19167,2000,0,91.24,0.000002697398,0.000002697398,0.000002697398,0.99999994,0,0,0,0,0,0,1,1,0,0,0,false,false,true,-735.68,-2519.8398,16.99,-0.00010519853,0.004750118,0.023324488,0.99971664,-335.441,439.961,8.521,0.00061,-0.00021,2.7683098
207.2,2000,0,91.24,0.000002697398,0.000002697398,0.000002697398,0.99999994,0,0,0,0,0,0,1,1,0,0,0,false,false,true,-738.48,-2516.17,16.99,-0.0001591465,0.004750118,0.03485325,0.9993811,-326.671,438.771,8.521,0.00061,-0.00021,2.81741
207.20833,2000,0,91.24,0.000002697398,0.000002697398,0.000002697398,0.99999994,0,0,0,0,0,0,1,1,0,0,0,false,false,true,-741.2,-2512.51,16.99,-0.00021309446,0.0047447234,0.04658154,0.99890316,-317.711,437.991,8.521,0.00071,-0.00021,2.87011
207.21666,2000,0,91.24,0.000002697398,0.000002697398,0.000002697398,0.99999994,0,0,0,0,0,0,1,1,0,0,0,false,false,true,-743.85,-2508.8599,16.99,-0.0002670424,0.0047393283,0.0585257,0.99827456,-308.561,437.481,8.521,0.00071,-0.00021,2.92181
207.225,2000,0,91.24,0.000002697398,0.000002697398,0.000002697398,0.99999994,0,0,0,0,0,0,1,1,0,0,0,false,false,true,-746.42,-2505.21,16.99,-0.00032099037,0.0047339336,0.07067478,0.9974881,-299.221,437.271,8.521,0.00071,-0.00010999999,2.97261
207.23334,2000,0,91.24,0.000002697398,0.000002697398,0.000002697398,0.99999994,0,0,0,0,0,0,1,1,0,0,0,false,false,true,-748.91,-2501.5698,16.99,-0.00037493833,0.0047285384,0.08302355,0.99653625,-289.701,437.391,8.521,0.00071,0,3.0227098
207.24167,2000,0,91.24,0.000002697398,0.000002697398,0.000002697398,0.99999994,0,0,0,0,0,0,1,1,0,0,0,false,false,true,-751.32,-2497.92,16.99,-0.0004288863,0.0047231438,0.09556645,0.9954117,-279.991,437.881,8.521,0.00061,0,3.0722098
207.25,2000,0,91.24,0.000002697398,0.000002697398,0.000002697398,0.99999994,0,0,0,0,0,0,1,1,0,0,0,false,false,true,-753.64996,-2494.27,16.99,-0.00048822907,0.004717749,0.10829826,0.99410707,-270.111,438.771,8.521,0.00051,0,3.12131
207.25833,2000,0,91.24,0.000002697398,0.000002697398,0.000002697398,0.99999994,0,0,0,0,0,0,1,1,0,0,0,false,false,true,-755.89996,-2490.6099,16.99,-0.00054757186,0.004712355,0.1212188,0.99261445,-260.061,440.10098,8.521,0.00051,0,3.17011
207.26666,2000,0,91.24,0.000002697398,0.000002697398,0.000002697398,0.99999994,0,0,0,0,0,0,1,1,0,0,0,false,false,true,-758.07,-2486.94,16.99,-0.0006069146,0.0047069597,0.13431744,0.9909269,-249.851,441.771,8.521,0.00040999998,0,3.21551
207.275,2000,0,91.24,0.000002697398,0.000002697398,0.000002697398,0.99999994,0,0,0,0,0,0,1,1,0,0,0,false,false,true,-760.14996,-2483.26,16.99,-0.0006662572,0.0046961694,0.1475833,0.9890381,-239.481,443.82098,8.521,0.00030999997,0,3.25731
207.28334,2000,0,91.24,0.000002697398,0.000002697398,0.000002697398,0.99999994,0,0,0,0,0,0,1,1,0,0,0,false,false,true,-762.14996,-2479.56,16.99,-0.0007309948,0.00468538,0.16099477,0.9869437,-228.961,446.281,8.521,0.00010999999,0,3.29561
207.29167,2000,0,91.24,0.000002697398,0.000002697398,0.000002697398,0.99999994,0,0,0,0,0,0,1,1,0,0,0,false,false,true,-764.06,-2475.8398,16.99,-0.0007957325,0.004674591,0.17453043,0.9846403,-218.391,448.971,8.521,0,0,3.3315098
207.3,2000,0,91.24,0.000002697398,0.000002697398,0.000002697398,0.99999994,0,0,0,0,0,0,1,1,0,0,0,false,false,true,-765.88,-2472.0999,16.99,-0.0008604699,0.004663801,0.18817933,0.9821231,-207.771,451.911,8.521,0,0.00010999999,3.36491
207.30833,2000,0,91.24,0.000002697398,0.000002697398,0.000002697398,0.99999994,0,0,0,0,0,0,1,1,0,0,0,false,false,true,-767.61,-2468.3298,16.99,-0.00092520745,0.004653011,0.20193066,0.9793882,-197.11101,455.131,8.521,0,0.00010999999,3.39581
207.31667,2000,0,91.24,0.000002697398,0.000002697398,0.000002697398,0.99999994,0,0,0,0,0,0,1,1,0,0,0,false,false,true,-769.25,-2464.54,16.99,-0.000989945,0.004642222,0.21576841,0.976433,-186.561,458.551,8.521,0,0.00010999999,3.42271
207.325,2000,0,91.24,0.000002697398,0.000002697398,0.000002697398,0.99999994,0,0,0,0,0,0,1,1,0,0,0,false,false,true,-770.8,-2460.72,16.99,-0.0010546828,0.004626038,0.22967082,0.97325677,-176.241,462.10098,8.521,0,0.00010999999,3.4446099
207.33333,2000,0,91.24,0.000002697398,0.000002697398,0.000002697398,0.99999994,0,0,0,0,0,0,1,1,0,0,0,false,false,true,-772.26996,-2456.8699,16.99,-0.0011194203,0.0046098535,0.24361645,0.96986,-166.16101,465.791,8.521,0,0.00021,3.46171
207.34166,2000,0,91.24,0.000002697398,0.000002697398,0.000002697398,0.99999994,0,0,0,0,0,0,1,1,0,0,0,false,false,true,-773.64996,-2452.99,16.99,-0.0011841578,0.0045936694,0.25757825,0.9662458,-156.33101,469.651,8.521,-0.00010999999,0.00021,3.4739099
207.35,2000,0,91.24,0.000002697398,0.000002697398,0.000002697398,0.99999994,0,0,0,0,0,0,1,1,0,0,0,false,false,true,-774.95,-2449.0798,16.99,-0.0012488953,0.0045774844,0.2715346,0.9624169,-146.741,473.691,8.521,-0.00021,0.00021,3.4811099
207.35834,2000,0,91.24,0.000002697398,0.000002697398,0.000002697398,0.99999994,0,0,0,0,0,0,1,1,0,0,0,false,false,true,-776.17,-2445.13,16.99,-0.0013136328,0.0045613,0.28546402,0.9583776,-137.431,477.701,8.521,-0.00021,0.00021,3.4890099
207.36667,2000,0,91.24,0.000002697398,0.000002697398,0.000002697398,0.99999994,0,0,0,0,0,0,1,1,0,0,0,false,false,true,-777.32,-2441.15,16.99,-0.0013783704,0.0045451154,0.2993665,0.9541263,-128.391,481.691,8.521,-0.00030999997,0.00021,3.4976099
207.375,2000,0,91.24,0.000002697398,0.000002697398,0.000002697398,0.99999994,0,0,0,0,0,0,1,1,0,0,0,false,false,true,-778.38995,-2437.14,16.99,-0.001443108,0.004523536,0.31323653,0.9496632,-119.620995,485.671,8.521,-0.00030999997,0.00010999999,3.5067098
207.38333,2000,0,91.24,0.000002697398,0.000002697398,0.000002697398,0.99999994,0,0,0,0,0,0,1,1,0,0,0,false,false,true,-779.38995,-2433.0898,16.99,-0.0015078455,0.0045019574,0.32707965,0.9449848,-111.120995,489.661,8.521,-0.00030999997,0,3.51611
207.39166,2000,0,91.24,0.000002697398,0.000002697398,0.000002697398,0.99999994,0,0,0,0,0,0,1,1,0,0,0,false,false,true,-780.32,-2429.01,16.99,-0.0015725831,0.0044803782,0.34089035,0.940091,-102.881,493.671,8.521,-0.00040999998,0,3.5257099
207.4,2000,0,91.24,0.000002697398,0.000002697398,0.000002697398,0.99999994,0,0,0,0,0,0,1,1,0,0,0,false,false,true,-781.18,-2424.9,16.99,-0.0016373207,0.0044587995,0.35466337,0.93498194,-94.910995,497.701,8.521,-0.00040999998,0,3.53541
207.40834,2000,0,91.24,0.000002697398,0.000002697398,0.000002697398,0.99999994,0,0,0,0,0,0,1,1,0,0,0,false,false,true,-781.97,-2420.75,16.99,-0.0017020581,0.00443722,0.36839858,0.92965573,-87.211,501.771,8.521,-0.00040999998,0,3.54511
207.41667,2000,0,91.24,0.000002697398,0.000002697398,0.000002697398,0.99999994,0,0,0,0,0,0,1,1,0,0,0,false,false,true,-782.7,-2416.5698,16.99,-0.0017667958,0.0044102455,0.38209057,0.9241126,-79.781,505.891,8.521,-0.00040999998,0,3.5548098
207.425,2000,0,91.24,0.000002697398,0.000002697398,0.000002697398,0.99999994,0,0,0,0,0,0,1,1,0,0,0,false,false,true,-783.36,-2412.3499,16.99,-0.0018315333,0.0043832716,0.3957341,0.9183528,-72.620995,510.061,8.521,-0.00040999998,0,3.56441
207.43333,2000,0,91.24,0.000002697398,0.000002697398,0.000002697398,0.99999994,0,0,0,0,0,0,1,1,0,0,0,false,false,true,-783.97,-2408.0999,16.99,-0.001896271,0.004356298,0.4093291,0.91237444,-65.751,514.28094,8.521,-0.00051,-0.00010999999,3.5738099
207.44167,2000,0,91.24,0.000002697398,0.000002697398,0.000002697398,0.99999994,0,0,0,0,0,0,1,1,0,0,0,false,false,true,-784.51996,-2403.81,16.99,-0.0019610084,0.004329324,0.42287,0.9061778,-59.161,518.561,8.521,-0.00051,-0.00010999999,3.58301
207.45,2000,0,91.24,0.000002697398,0.000002697398,0.000002697398,0.99999994,0,0,0,0,0,0,1,1,0,0,0,false,false,true,-785.01,-2399.49,16.99,-0.002025746,0.0043023503,0.43635172,0.8997636,-52.871,522.90094,8.521,-0.00051,-0.00021,3.59201
207.45833,2000,0,91.24,0.000002697398,0.000002697398,0.000002697398,0.99999994,0,0,0,0,0,0,1,1,0,0,0,false,false,true,-785.45,-2395.13,16.99,-0.0020904837,0.0042699813,0.44976857,0.89313245,-46.880997,527.29095,8.521,-0.00051,-0.00030999997,3.6008098
207.46666,2000,0,91.24,0.000002697398,0.000002697398,0.000002697398,0.99999994,0,0,0,0,0,0,1,1,0,0,0,false,false,true,-785.83997,-2390.74,16.99,-0.002155221,0.0042376122,0.46311536,0.8862852,-41.201,531.74097,8.521,-0.00051,-0.00030999997,3.60931
207.475,2000,0,91.24,0.000002697398,0.000002697398,0.000002697398,0.99999994,0,0,0,0,0,0,1,1,0,0,0,false,false,true,-786.18,-2386.31,16.99,-0.0022199587,0.0042052437,0.47639206,0.87922007,-35.841,536.251,8.521,-0.00051,-0.00030999997,3.61741
207.48334,2000,0,91.24,0.000002697398,0.000002697398,0.000002697398,0.99999994,0,0,0,0,0,0,1,1,0,0,0,false,false,true,-786.48,-2381.8398,16.99,-0.0022846963,0.004172875,0.48958772,0.87194103,-30.800999,540.811,8.521,-0.00051,-0.00030999997,3.6252098
207.49167,2000,0,91.24,0.000002697398,0.000002697398,0.000002697398,0.99999994,0,0,0,0,0,0,1,1,0,0,0,false,false,true,-786.74,-2377.3298,16.99,-0.002349434,0.0041405065,0.5027026,0.8644463,-26.100998,545.42096,8.521,-0.00051,-0.00040999998,3.6326098
207.5,2000,0,91.24,0.000002697398,0.000002697398,0.000002697398,0.99999994,0,0,0,0,0,0,1,1,0,0,0,false,false,true,-786.95996,-2372.78,16.99,-0.0024141711,0.0041027423,0.5157309,0.8567373,-21.741,550.071,8.521,-0.00040999998,-0.00040999998,3.6396098
207.50833,2000,0,91.24,0.000002697398,0.000002697398,0.000002697398,0.99999994,0,0,0,0,0,0,1,1,0,0,0,false,false,true,-787.13995,-2368.2,16.99,-0.0024789087,0.0040649786,0.5286623,0.8488188,-17.741,554.751,8.521,-0.00040999998,-0.00040999998,3.64621
207.51666,2000,0,91.24,0.000002697398,0.000002697398,0.000002697398,0.99999994,0,0,0,0,0,0,1,1,0,0,0,false,false,true,-787.29,-2363.5798,16.99,-0.0025436464,0.0040272153,0.54149663,0.8406893,-14.101,559.46094,8.521,-0.00040999998,-0.00040999998,3.65231
207.525,2000,0,91.24,0.000002697398,0.000002697398,0.000002697398,0.99999994,0,0,0,0,0,0,1,1,0,0,0,false,false,true,-787.41,-2358.92,16.99,-0.0026083838,0.0039894516,0.55422837,0.8323509,-10.831,564.191,8.521,-0.00030999997,-0.00040999998,3.6579099
207.53334,2000,0,91.24,0.000002697398,0.000002697398,0.000002697398,0.99999994,0,0,0,0,0,0,1,1,0,0,0,false,false,true,-787.5,-2354.22,16.99,-0.0026731214,0.003946293,0.5668469,0.82380927,-7.941,568.92096,8.521,-0.00021,-0.00040999998,3.66301
207.54167,2000,0,91.24,0.000002697398,0.000002697398,0.000002697398,0.99999994,0,0,0,0,0,0,1,1,0,0,0,false,false,true,-787.57,-2349.48,16.99,-0.002732464,0.003903135,0.579352,0.8150634,-5.441,573.65094,8.521,-0.00021,-0.00040999998,3.66761
207.55,2000,0,91.24,0.000002697398,0.000002697398,0.000002697398,0.99999994,0,0,0,0,0,0,1,1,0,0,0,false,false,true,-787.62,-2344.7,16.99,-0.002791807,0.0038599768,0.5917386,0.80611575,-3.3409998,578.36096,8.521,-0.00021,-0.00040999998,3.6716099
207.55833,2000,0,91.24,0.000002697398,0.000002697398,0.000002697398,0.99999994,0,0,0,0,0,0,1,1,0,0,0,false,false,true,-787.64996,-2339.88,16.99,-0.0028511498,0.0038168184,0.6040009,0.7969693,-1.651,583.03094,8.521,-0.00021,-0.00040999998,3.67501
207.56667,2000,0,91.24,0.000002697398,0.000002697398,0.000002697398,0.99999994,0,0,0,0,0,0,1,1,0,0,0,false,false,true,-787.66,-2335.02,16.99,-0.0029104927,0.0037736602,0.616134,0.7876269,-0.38099998,587.65094,8.521,-0.00021,-0.00040999998,3.67781
207.575,2000,0,91.24,0.000002697398,0.000002697398,0.000002697398,0.99999994,0,0,0,0,0,0,1,1,0,0,0,false,false,true,-787.66,-2330.1199,16.99,-0.0029698352,0.0037305015,0.6281319,0.77809215,0.46099997,592.21094,8.521,-0.00021,-0.00040999998,3.67991
207.58333,2000,0,91.24,0.000002697398,0.000002697398,0.000002697398,0.99999994,0,0,0,0,0,0,1,1,0,0,0,false,false,true,-787.66,-2325.18,16.99,-0.0030291777,0.003681948,0.63998973,0.7683685,0.871,596.68097,8.521,-0.00010999999,-0.00040999998,3.6812098
207.59166,2000,0,91.24,0.000002697398,0.000002697398,0.000002697398,0.99999994,0,0,0,0,0,0,1,1,0,0,0,false,false,true,-787.64996,-2320.21,16.99,-0.0030885208,0.0036333953,0.65170187,0.75846016,0.881,601.15094,8.521,-0.00010999999,-0.00040999998,3.6816099
207.6,2000,0,91.24,0.000002697398,0.000002697398,0.000002697398,0.99999994,0,0,0,0,0,0,1,1,0,0,0,false,false,true,-787.63995,-2315.2,16.99,-0.0031478636,0.003584842,0.66325766,0.74837583,0.49099997,605.59094,8.521,-0.00010999999,-0.00040999998,3.68151
207.60834,2000,0,91.24,0.000002697398,0.000002697398,0.000002697398,0.99999994,0,0,0,0,0,0,1,1,0,0,0,false,false,true,-787.63995,-2310.15,16.99,-0.0032018116,0.0035362889,0.6746569,0.7381159,-0.281,609.97095,8.521,-0.00010999999,-0.00030999997,3.6812098
207.61667,2000,0,91.24,0.000002697398,0.000002697398,0.000002697398,0.99999994,0,0,0,0,0,0,1,1,0,0,0,false,false,true,-787.63995,-2305.07,16.99,-0.0032557596,0.003487736,0.68589973,0.7276804,-1.441,614.28094,8.531,-0.00010999999,-0.00030999997,3.68101
207.625,2000,0,91.24,0.000002697398,0.000002697398,0.000002697398,0.99999994,0,0,0,0,0,0,1,1,0,0,0,false,false,true,-787.64996,-2299.95,16.99,-0.0033097074,0.0034391826,0.69698066,0.7170739,-2.981,618.501,8.531,-0.00010999999,-0.00030999997,3.6814098
207.63333,2000,0,91.24,0.000002697398,0.000002697398,0.000002697398,0.99999994,0,0,0,0,0,0,1,1,0,0,0,false,false,true,-787.67,-2294.8,16.99,-0.0033636554,0.0033852346,0.7078989,0.7062975,-4.901,622.641,8.531,-0.00010999999,-0.00030999997,3.6828098
207.64166,2000,0,91.24,0.000002697398,0.000002697398,0.000002697398,0.99999994,0,0,0,0,0,0,1,1,0,0,0,false,false,true,-787.70996,-2289.6099,16.99,-0.0034176034,0.0033312866,0.718654,0.69535136,-7.1809998,626.68097,8.531,-0.00010999999,-0.00030999997,3.68541
207.65,2000,0,91.24,0.000002697398,0.000002697398,0.000002697398,0.99999994,0,0,0,0,0,0,1,1,0,0,0,false,false,true,-787.76996,-2284.39,16.99,-0.0034715512,0.0032773386,0.72924805,0.6842327,-9.821,630.61096,8.531,-0.00010999999,-0.00030999997,3.6891098
207.65834,2000,0,91.24,0.000002697398,0.000002697398,0.000002697398,0.99999994,0,0,0,0,0,0,1,1,0,0,0,false,false,true,-787.85,-2279.13,16.99,-0.0035201046,0.0032233908,0.7396804,0.67294127,-12.821,634.451,8.531,-0.00010999999,-0.00021,3.6937099
207.66667,2000,0,91.24,0.000002697398,0.000002697398,0.000002697398,0.99999994,0,0,0,0,0,0,1,1,0,0,0,false,false,true,-787.95996,-2273.8398,16.99,-0.003568658,0.003169443,0.7499499,0.6614774,-16.171,638.18097,8.531,-0.00010999999,-0.00021,3.69901
207.675,2000,0,91.24,0.000002697398,0.000002697398,0.000002697398,0.99999994,0,0,0,0,0,0,1,1,0,0,0,false,false,true,-788.08997,-2268.52,16.99,-0.0036172108,0.0031154947,0.7600553,0.6498407,-19.851,641.79095,8.531,-0.00010999999,-0.00021,3.70501
207.68333,2000,0,91.24,0.000002697398,0.000002697398,0.000002697398,0.99999994,0,0,0,0,0,0,1,1,0,0,0,false,false,true,-788.26,-2263.17,16.99,-0.0036657634,0.0030615465,0.76999533,0.6380314,-23.851,645.261,8.531,-0.00010999999,-0.00021,3.7116098
