time,ball_loc_x,ball_loc_y,ball_loc_z,ball_rot_x,ball_rot_y,ball_rot_z,ball_rot_w,ball_vel_x,ball_vel_y,ball_vel_z,ball_ang_x,ball_ang_y,ball_ang_z,player0_throttle,player0_steer,player0_pitch,player0_yaw,player0_roll,player0_jump,player0_boost,player0_handbrake,player0_loc_x,player0_loc_y,player0_loc_z,player0_rot_x,player0_rot_y,player0_rot_z,player0_rot_w,player0_vel_x,player0_vel_y,player0_vel_z,player0_ang_x,player0_ang_y,player0_ang_z
93.333336,2000,0,91.24,0.000002697398,0.000002697398,0.000002697398,0.99999994,0,0,0,0,0,0,0,0,0,0,0,false,false,false,0,0.14,17.01,-0.00336905,0.0033798397,0.7071014,0.7070959,0,0,8.321,-0.00051,0,0
93.34167,2000,0,73,0.000002697398,0.000002697398,0.000002697398,0.99999994,0,0,0,0,0,0,0.7007874,0,0,0,0,false,false,false,0,0,16.94,0.0000026973983,0.0000026973983,0.70710677,0.70710677,0,9.341001,2.041,-0.050809998,0,0
93.35,2000,0,87.6,0.000002697398,0.000002697398,0.000002697398,0.99999994,0,0,0,0,0,0,0.7007874,0,0,0,0,false,false,false,0,0.08,16.89,-0.00014835689,0.00015375168,0.7071067,0.7071067,0,18.620998,3.8809998,-0.085609995,0,0
93.35833,2000,0,90.52,0.000002697398,0.000002697398,0.000002697398,0.99999994,0,0,0,0,0,0,0.7007874,0,0,0,0,false,false,false,0,0.24,16.85,-0.00040191234,0.00040730715,0.70710653,0.70710677,0,27.850998,5.481,-0.107209995,0,0
93.36667,2000,0,91.1,0.000002697398,0.000002697398,0.000002697398,0.99999994,0,0,0,0,0,0,0.7007874,0,0,0,0,false,false,false,0,0.47,16.83,-0.00072020525,0.00072560005,0.7071067,0.707106,0,37.021,6.791,-0.11630999,0,0
93.375,2000,0,91.22,0.000002697398,0.000002697398,0.000002697398,0.99999994,0,0,0,0,0,0,0.7007874,0,0,0,0,false,false,false,0,0.78,16.82,-0.0010654721,0.001070867,0.70710516,0.7071067,0,46.141,7.7409997,-0.114609994,0,0
93.38333,2000,0,91.24,0.000002697398,0.000002697398,0.000002697398,0.99999994,0,0,0,0,0,0,0.7007874,0,0,0,0,false,false,false,0,1.16,16.82,-0.0014053443,0.0014107391,0.7071067,0.70710397,0,55.200996,8.431,-0.10651,0,0
93.39167,2000,0,91.24,0.000002697398,0.000002697398,0.000002697398,0.99999994,0,0,0,0,0,0,0.7007874,0,0,0,0,false,false,false,0,1.62,16.82,-0.0017182427,0.0017236375,0.707108,0.70710135,0,64.211,8.9210005,-0.09501,0,0
93.4,2000,0,91.24,0.000002697398,0.000002697398,0.000002697398,0.99999994,0,0,0,0,0,0,0.7007874,0,0,0,0,false,false,false,0,2.1599998,16.83,-0.001998772,0.0020041666,0.70710653,0.7071013,0,73.160995,9.281,-0.08221,0,0
93.40833,2000,0,91.24,0.000002697398,0.000002697398,0.000002697398,0.99999994,0,0,0,0,0,0,0.7007874,0,0,0,0,false,false,false,0,2.77,16.84,-0.0022415377,0.0022469326,0.70710504,0.7071013,0,82.061,9.521,-0.069309995,0,0
93.416664,2000,0,91.24,0.000002697398,0.000002697398,0.000002697398,0.99999994,0,0,0,0,0,0,0.7007874,0,0,0,0,false,false,false,0,3.4499998,16.85,-0.00244654,0.0024519349,0.70710367,0.7071013,0,90.910995,9.6710005,-0.05721,0,0
93.425,2000,0,91.24,0.000002697398,0.000002697398,0.000002697398,0.99999994,0,0,0,0,0,0,0.7007874,0,0,0,0,false,false,false,0,4.21,16.859999,-0.0026137787,0.0026191734,0.7071025,0.7071013,0,99.701,9.771,-0.046309996,0,0
93.433334,2000,0,91.24,0.000002697398,0.000002697398,0.000002697398,0.99999994,0,0,0,0,0,0,0.7007874,0,0,0,0,false,false,false,0,5.04,16.869999,-0.0027486486,0.0027540433,0.70710146,0.7071013,0,108.440994,9.821,-0.03681,0,0
93.441666,2000,0,91.24,0.000002697398,0.000002697398,0.000002697398,0.99999994,0,0,0,0,0,0,0.7007874,0,0,0,0,false,false,false,0,5.94,16.88,-0.0028565445,0.0028619394,0.70710063,0.7071013,0,117.131,9.841001,-0.02871,0,0
93.45,2000,0,91.24,0.000002697398,0.000002697398,0.000002697398,0.99999994,0,0,0,0,0,0,0.7007874,0,0,0,0,false,false,false,0,6.92,16.89,-0.0029428613,0.002948256,0.7071013,0.7070999,0,125.770996,9.821,-0.02251,0,0
93.458336,2000,0,91.24,0.000002697398,0.000002697398,0.000002697398,0.99999994,0,0,0,0,0,0,0.7007874,0,0,0,0,false,false,false,0,7.97,16.9,-0.003007599,0.0030129936,0.7070993,0.7071013,0,134.351,9.761001,-0.01791,0,0
93.46667,2000,0,91.24,0.000002697398,0.000002697398,0.000002697398,0.99999994,0,0,0,0,0,0,0.7007874,0,0,0,0,false,false,false,0,9.09,16.91,-0.0030615467,0.0030669416,0.7071013,0.7070989,0,142.881,9.681,-0.014609999,0,0
93.475,2000,0,91.24,0.000002697398,0.000002697398,0.000002697398,0.99999994,0,0,0,0,0,0,0.7007874,0,0,0,0,false,false,false,0,10.28,16.92,-0.0031047051,0.0031101,0.7070985,0.7071013,0,151.36101,9.591001,-0.01201,0,0
93.48333,2000,0,91.24,0.000002697398,0.000002697398,0.000002697398,0.99999994,0,0,0,0,0,0,0.7007874,0,0,0,0,false,false,false,0,11.54,16.93,-0.0031424686,0.0031478636,0.7070959,0.70710355,0,159.791,9.491,-0.010009999,0,0
93.49167,2000,0,91.24,0.000002697398,0.000002697398,0.000002697398,0.99999994,0,0,0,0,0,0,0.7007874,0,0,0,0,false,false,false,0,12.87,16.94,-0.0031694428,0.0031748374,0.7070959,0.7071033,0,168.171,9.391,-0.008409999,0,0
93.5,2000,0,91.24,0.000002697398,0.000002697398,0.000002697398,0.99999994,0,0,0,0,0,0,0.7007874,0,0,0,0,false,false,false,0,14.2699995,16.949999,-0.0031964167,0.0032018116,0.7070959,0.7071031,0,176.501,9.281,-0.00711,0,0
93.50833,2000,0,91.24,0.000002697398,0.000002697398,0.000002697398,0.99999994,0,0,0,0,0,0,0.7007874,0,0,0,0,false,false,false,0,15.74,16.96,-0.0032179959,0.0032233908,0.7070959,0.7071029,0,184.781,9.1710005,-0.00611,0,0
93.51667,2000,0,91.24,0.000002697398,0.000002697398,0.000002697398,0.99999994,0,0,0,0,0,0,0.7007874,0,0,0,0,false,false,false,0,17.279999,16.97,-0.0032341804,0.003239575,0.7070959,0.7071027,0,193.011,9.061,-0.00521,0,0
93.525,2000,0,91.24,0.000002697398,0.000002697398,0.000002697398,0.99999994,0,0,0,0,0,0,0.7007874,0,0,0,0,false,false,false,0,18.89,16.98,-0.0032503647,0.0032557594,0.7070959,0.7071026,0,201.19101,8.951,-0.00451,0,0
93.53333,2000,0,91.24,0.000002697398,0.000002697398,0.000002697398,0.99999994,0,0,0,0,0,0,0.7007874,0,0,0,0,false,false,false,0,20.57,16.99,-0.0032611543,0.003266549,0.7070959,0.7071025,0,209.321,8.841001,-0.00391,0,0
93.541664,2000,0,91.24,0.000002697398,0.000002697398,0.000002697398,0.99999994,0,0,0,0,0,0,0.7007874,0,0,0,0,false,false,false,0,22.31,17,-0.003271944,0.0032773386,0.7070959,0.70710236,0,217.401,8.731,-0.00341,0,0
93.55,2000,0,91.24,0.000002697398,0.000002697398,0.000002697398,0.99999994,0,0,0,0,0,0,0.7007874,0,0,0,0,false,false,false,0,24.119999,17.01,-0.0032827335,0.0032881282,0.7070959,0.7071023,0,225.431,8.621,-0.00301,0,0
93.558334,2000,0,91.24,0.000002697398,0.000002697398,0.000002697398,0.99999994,0,0,0,0,0,0,0.7007874,0,0,0,0,false,false,false,0,26,17.01,-0.0032935233,0.003298918,0.707096,0.7071022,0,233.421,8.511001,-0.00261,0,0
93.566666,2000,0,91.24,0.000002697398,0.000002697398,0.000002697398,0.99999994,0,0,0,0,0,0,0.7007874,0,0,0,0,false,false,false,0,27.949999,17.01,-0.0032989178,0.0033043127,0.7070959,0.7071021,0,241.36101,8.441,-0.0023100001,0,0
93.575,2000,0,91.24,0.000002697398,0.000002697398,0.000002697398,0.99999994,0,0,0,0,0,0,0.7007874,0,0,0,0,false,false,false,0,29.96,17.01,-0.0033043127,0.0033097074,0.7070959,0.70710206,0,249.251,8.391,-0.00201,0,0
93.583336,2000,0,91.24,0.000002697398,0.000002697398,0.000002697398,0.99999994,0,0,0,0,0,0,0.7007874,0,0,0,0,false,false,false,0,32.04,17.01,-0.0033097074,0.0033151023,0.7070959,0.707102,0,257.091,8.361,-0.0018099999,0,0
93.59167,2000,0,91.24,0.000002697398,0.000002697398,0.000002697398,0.99999994,0,0,0,0,0,0,0.7007874,0,0,0,0,false,false,false,0,34.18,17.01,-0.0033151023,0.003320497,0.7070959,0.707102,0,264.891,8.341001,-0.0016099999,0,0
93.6,2000,0,91.24,0.000002697398,0.000002697398,0.000002697398,0.99999994,0,0,0,0,0,0,0.7007874,0,0,0,0,false,false,false,0,36.39,17.01,-0.0033204972,0.0033258921,0.707096,0.70710194,0,272.641,8.331,-0.0014099999,0,0
93.60833,2000,0,91.24,0.000002697398,0.000002697398,0.000002697398,0.99999994,0,0,0,0,0,0,0.7007874,0,0,0,0,false,false,false,0,38.66,17.01,-0.003325892,0.0033312866,0.7070959,0.7071019,0,280.341,8.321,-0.00131,0,0
93.61667,2000,0,91.24,0.000002697398,0.000002697398,0.000002697398,0.99999994,0,0,0,0,0,0,0.7007874,0,0,0,0,false,false,false,0,41,17.01,-0.0033312866,0.0033366815,0.7070959,0.7071018,0,288.001,8.321,-0.00111,0,0
93.625,2000,0,91.24,0.000002697398,0.000002697398,0.000002697398,0.99999994,0,0,0,0,0,0,0.7007874,0,0,0,0,false,false,false,0,43.399998,17.01,-0.0033366815,0.0033420762,0.7070959,0.70710176,0,295.611,8.321,-0.00091,0,0
93.63333,2000,0,91.24,0.000002697398,0.000002697398,0.000002697398,0.99999994,0,0,0,0,0,0,0.7007874,0,0,0,0,false,false,false,0,45.86,17.01,-0.0033366818,0.0033474711,0.707096,0.70710176,0,303.171,8.321,-0.00081,0,0
93.64167,2000,0,91.24,0.000002697398,0.000002697398,0.000002697398,0.99999994,0,0,0,0,0,0,0.7007874,0,0,0,0,false,false,false,0,48.39,17.01,-0.0033366818,0.0033474711,0.707096,0.70710176,0,310.691,8.321,-0.00071,0,0
93.65,2000,0,91.24,0.000002697398,0.000002697398,0.000002697398,0.99999994,0,0,0,0,0,0,0.7007874,0,0,0,0,false,false,false,0,50.98,17.01,-0.0033366818,0.0033474711,0.707096,0.70710176,0,318.161,8.321,-0.00061,0,0
93.65833,2000,0,91.24,0.000002697398,0.000002697398,0.000002697398,0.99999994,0,0,0,0,0,0,0.7007874,0,0,0,0,false,false,false,0,53.629997,17.01,-0.0033366818,0.0033474711,0.707096,0.70710176,0,325.591,8.321,-0.00061,0,0
93.666664,2000,0,91.24,0.000002697398,0.000002697398,0.000002697398,0.99999994,0,0,0,0,0,0,0.7007874,0,0,0,0,false,false,false,0,56.34,17.01,-0.0033366818,0.0033474711,0.707096,0.70710176,0,332.971,8.321,-0.00061,0,0
93.675,2000,0,91.24,0.000002697398,0.000002697398,0.000002697398,0.99999994,0,0,0,0,0,0,0.7007874,0,0,0,0,false,false,false,0,59.109997,17.01,-0.0033366818,0.0033474711,0.707096,0.70710176,0,340.311,8.321,-0.00061,0,0
93.683334,2000,0,91.24,0.000002697398,0.000002697398,0.000002697398,0.99999994,0,0,0,0,0,0,0.7007874,0,0,0,0,false,false,false,0,61.949997,17.01,-0.0033366818,0.0033474711,0.707096,0.70710176,0,347.611,8.321,-0.00061,0,0
93.691666,2000,0,91.24,0.000002697398,0.000002697398,0.000002697398,0.99999994,0,0,0,0,0,0,0.7007874,0,0,0,0,false,false,false,0,64.85,17.01,-0.0033366818,0.0033474711,0.707096,0.70710176,0,354.861,8.321,-0.00061,0,0
93.7,2000,0,91.24,0.000002697398,0.000002697398,0.000002697398,0.99999994,0,0,0,0,0,0,0.7007874,0,0,0,0,false,false,false,0,67.81,17.01,-0.0033366818,0.0033474711,0.707096,0.70710176,0,362.07098,8.321,-0.00061,0,0
93.708336,2000,0,91.24,0.000002697398,0.000002697398,0.000002697398,0.99999994,0,0,0,0,0,0,0.7007874,0,0,0,0,false,false,false,0,70.83,17.01,-0.0033366818,0.0033474711,0.707096,0.70710176,0,369.241,8.321,-0.00061,0,0
93.71667,2000,0,91.24,0.000002697398,0.000002697398,0.000002697398,0.99999994,0,0,0,0,0,0,0.7007874,0,0,0,0,false,false,false,0,73.909996,17.01,-0.0033366818,0.0033474711,0.707096,0.70710176,0,376.361,8.321,-0.00061,0,0
93.725,2000,0,91.24,0.000002697398,0.000002697398,0.000002697398,0.99999994,0,0,0,0,0,0,0.7007874,0,0,0,0,false,false,false,0,77.049995,17.01,-0.0033366818,0.0033474711,0.707096,0.70710176,0,383.441,8.321,-0.00061,0,0
93.73333,2000,0,91.24,0.000002697398,0.000002697398,0.000002697398,0.99999994,0,0,0,0,0,0,0.7007874,0,0,0,0,false,false,false,0,80.25,17.01,-0.0033366818,0.0033474711,0.707096,0.70710176,0,390.481,8.321,-0.00061,0,0
93.74167,2000,0,91.24,0.000002697398,0.000002697398,0.000002697398,0.99999994,0,0,0,0,0,0,0.7007874,0,0,0,0,false,false,false,0,83.5,17.01,-0.0033366818,0.0033474711,0.707096,0.70710176,0,397.471,8.321,-0.00061,0,0
93.75,2000,0,91.24,0.000002697398,0.000002697398,0.000002697398,0.99999994,0,0,0,0,0,0,0.7007874,0,0,0,0,false,false,false,0,86.81,17.01,-0.0033366818,0.0033474711,0.707096,0.70710176,0,404.421,8.321,-0.00061,0,0
93.75833,2000,0,91.24,0.000002697398,0.000002697398,0.000002697398,0.99999994,0,0,0,0,0,0,0.7007874,0,0,0,0,false,false,false,0,90.18,17.01,-0.0033366818,0.0033474711,0.707096,0.70710176,0,411.331,8.321,-0.00061,0,0
93.76667,2000,0,91.24,0.000002697398,0.000002697398,0.000002697398,0.99999994,0,0,0,0,0,0,0.7007874,0,0,0,0,false,false,false,0,93.61,17.01,-0.0033366818,0.0033474711,0.707096,0.70710176,0,418.201,8.321,-0.00061,0,0
93.775,2000,0,91.24,0.000002697398,0.000002697398,0.000002697398,0.99999994,0,0,0,0,0,0,0.7007874,0,0,0,0,false,false,false,0,97.1,17.01,-0.0033366818,0.0033474711,0.707096,0.70710176,0,425.031,8.321,-0.00061,0,0
93.78333,2000,0,91.24,0.000002697398,0.000002697398,0.000002697398,0.99999994,0,0,0,0,0,0,0.7007874,0,0,0,0,false,false,false,0,100.64,17.01,-0.0033366818,0.0033474711,0.707096,0.70710176,0,431.82098,8.321,-0.00061,0,0
93.791664,2000,0,91.24,0.000002697398,0.000002697398,0.000002697398,0.99999994,0,0,0,0,0,0,0.7007874,0,0,0,0,false,false,false,0,104.24,17.01,-0.0033366818,0.0033474711,0.707096,0.70710176,0,438.57098,8.321,-0.00061,0,0
93.8,2000,0,91.24,0.000002697398,0.000002697398,0.000002697398,0.99999994,0,0,0,0,0,0,0.7007874,0,0,0,0,false,false,false,0,107.89,17.01,-0.0033366818,0.0033474711,0.707096,0.70710176,0,445.281,8.321,-0.00061,0,0
93.808334,2000,0,91.24,0.000002697398,0.000002697398,0.000002697398,0.99999994,0,0,0,0,0,0,0.7007874,0,0,0,0,false,false,false,0,111.6,17.01,-0.0033366818,0.0033474711,0.707096,0.70710176,0,451.951,8.321,-0.00061,0,0
93.816666,2000,0,91.24,0.000002697398,0.000002697398,0.000002697398,0.99999994,0,0,0,0,0,0,0.7007874,0,0,0,0,false,false,false,0,115.369995,17.01,-0.0033366818,0.0033474711,0.707096,0.70710176,0,458.581,8.321,-0.00061,0,0
93.825,2000,0,91.24,0.000002697398,0.000002697398,0.000002697398,0.99999994,0,0,0,0,0,0,0.7007874,0,0,0,0,false,false,false,0,119.189995,17.01,-0.0033366818,0.0033474711,0.707096,0.70710176,0,465.171,8.321,-0.00061,0,0
93.833336,2000,0,91.24,0.000002697398,0.000002697398,0.000002697398,0.99999994,0,0,0,0,0,0,0.7007874,0,0,0,0,false,false,false,0,123.07,17.01,-0.0033366818,0.0033474711,0.707096,0.70710176,0,471.721,8.321,-0.00061,0,0
93.84167,2000,0,91.24,0.000002697398,0.000002697398,0.000002697398,0.99999994,0,0,0,0,0,0,0.7007874,0,0,0,0,false,false,false,0,127,17.01,-0.0033366818,0.0033474711,0.707096,0.70710176,0,478.231,8.321,-0.00061,0,0
93.85,2000,0,91.24,0.000002697398,0.000002697398,0.000002697398,0.99999994,0,0,0,0,0,0,0.7007874,0,0,0,0,false,false,false,0,130.98999,17.01,-0.0033366818,0.0033474711,0.707096,0.70710176,0,484.701,8.321,-0.00061,0,0
93.85833,2000,0,91.24,0.000002697398,0.000002697398,0.000002697398,0.99999994,0,0,0,0,0,0,0.7007874,0,0,0,0,false,false,false,0,135.03,17.01,-0.0033366818,0.0033474711,0.707096,0.70710176,0,491.13098,8.321,-0.00061,0,0
93.86667,2000,0,91.24,0.000002697398,0.000002697398,0.000002697398,0.99999994,0,0,0,0,0,0,0.7007874,0,0,0,0,false,false,false,0,139.12,17.01,-0.0033366818,0.0033474711,0.707096,0.70710176,0,497.521,8.321,-0.00061,0,0
93.875,2000,0,91.24,0.000002697398,0.000002697398,0.000002697398,0.99999994,0,0,0,0,0,0,0.7007874,0,0,0,0,false,false,false,0,143.27,17.01,-0.0033366818,0.0033474711,0.707096,0.70710176,0,503.871,8.321,-0.00061,0,0
93.88333,2000,0,91.24,0.000002697398,0.000002697398,0.000002697398,0.99999994,0,0,0,0,0,0,0.7007874,0,0,0,0,false,false,false,0,147.47,17.01,-0.0033366818,0.0033474711,0.707096,0.70710176,0,510.181,8.321,-0.00061,0,0
93.89167,2000,0,91.24,0.000002697398,0.000002697398,0.000002697398,0.99999994,0,0,0,0,0,0,0.7007874,0,0,0,0,false,false,false,0,151.72,17.01,-0.0033366818,0.0033474711,0.707096,0.70710176,0,516.46094,8.321,-0.00061,0,0
93.9,2000,0,91.24,0.000002697398,0.000002697398,0.000002697398,0.99999994,0,0,0,0,0,0,0.7007874,0,0,0,0,false,false,false,0,156.01999,17.01,-0.0033366818,0.0033474711,0.707096,0.70710176,0,522.701,8.321,-0.00061,0,0
93.90833,2000,0,91.24,0.000002697398,0.000002697398,0.000002697398,0.99999994,0,0,0,0,0,0,0.7007874,0,0,0,0,false,false,false,0,160.37999,17.01,-0.0033366818,0.0033474711,0.707096,0.70710176,0,528.90094,8.321,-0.00061,0,0
93.916664,2000,0,91.24,0.000002697398,0.000002697398,0.000002697398,0.99999994,0,0,0,0,0,0,0.7007874,0,0,0,0,false,false,false,0,164.79,17.01,-0.0033366818,0.0033474711,0.707096,0.70710176,0,535.061,8.321,-0.00061,0,0
93.925,2000,0,91.24,0.000002697398,0.000002697398,0.000002697398,0.99999994,0,0,0,0,0,0,0.7007874,0,0,0,0,false,false,false,0,169.25,17.01,-0.0033366818,0.0033474711,0.707096,0.70710176,0,541.191,8.321,-0.00061,0,0
93.933334,2000,0,91.24,0.000002697398,0.000002697398,0.000002697398,0.99999994,0,0,0,0,0,0,0.7007874,0,0,0,0,false,false,false,0,173.76,17.01,-0.0033366818,0.0033474711,0.707096,0.70710176,0,547.28094,8.321,-0.00061,0,0
93.941666,2000,0,91.24,0.000002697398,0.000002697398,0.000002697398,0.99999994,0,0,0,0,0,0,0.7007874,0,0,0,0,false,false,false,0,178.31999,17.01,-0.0033366818,0.0033474711,0.707096,0.70710176,0,553.331,8.321,-0.00061,0,0
93.95,2000,0,91.24,0.000002697398,0.000002697398,0.000002697398,0.99999994,0,0,0,0,0,0,0.7007874,0,0,0,0,false,false,false,0,182.93,17.01,-0.0033366818,0.0033474711,0.707096,0.70710176,0,559.35095,8.321,-0.00071,0,0
93.958336,2000,0,91.24,0.000002697398,0.000002697398,0.000002697398,0.99999994,0,0,0,0,0,0,0.7007874,0,0,0,0,false,false,false,0,187.59,17.01,-0.0033366818,0.0033474711,0.707096,0.70710176,0,565.331,8.321,-0.00071,0,0
93.96667,2000,0,91.24,0.000002697398,0.000002697398,0.000002697398,0.99999994,0,0,0,0,0,0,0.7007874,0,0,0,0,false,false,false,0,192.3,17.01,-0.0033366818,0.0033474711,0.707096,0.70710176,0,571.27094,8.321,-0.00071,0,0
93.975,2000,0,91.24,0.000002697398,0.000002697398,0.000002697398,0.99999994,0,0,0,0,0,0,0.7007874,0,0,0,0,false,false,false,0,197.06,17.01,-0.0033366818,0.0033474711,0.707096,0.70710176,0,577.18097,8.321,-0.00071,0,0
93.98333,2000,0,91.24,0.000002697398,0.000002697398,0.000002697398,0.99999994,0,0,0,0,0,0,0.7007874,0,0,0,0,false,false,false,0,201.87,17.01,-0.0033366818,0.0033474711,0.707096,0.70710176,0,583.05096,8.321,-0.00071,0,0
93.99167,2000,0,91.24,0.000002697398,0.000002697398,0.000002697398,0.99999994,0,0,0,0,0,0,0.7007874,0,0,0,0,false,false,false,0,206.73,17.01,-0.0033366818,0.0033474711,0.707096,0.70710176,0,588.891,8.321,-0.00071,0,0
94,2000,0,91.24,0.000002697398,0.000002697398,0.000002697398,0.99999994,0,0,0,0,0,0,0.7007874,0,0,0,0,false,false,false,0,211.64,17.01,-0.0033366818,0.0033474711,0.707096,0.70710176,0,594.691,8.321,-0.00071,0,0
94.00833,2000,0,91.24,0.000002697398,0.000002697398,0.000002697398,0.99999994,0,0,0,0,0,0,0.7007874,0,0,0,0,false,false,false,0,216.59999,17.01,-0.0033366818,0.0033474711,0.707096,0.70710176,0,600.46094,8.321,-0.00071,0,0
94.01667,2000,0,91.24,0.000002697398,0.000002697398,0.000002697398,0.99999994,0,0,0,0,0,0,0.7007874,0,0,0,0,false,false,false,0,221.59999,17.01,-0.0033366818,0.0033474711,0.707096,0.70710176,0,606.191,8.321,-0.00071,0,0
94.025,2000,0,91.24,0.000002697398,0.000002697398,0.000002697398,0.99999994,0,0,0,0,0,0,0.7007874,0,0,0,0,false,false,false,0,226.65,17.01,-0.0033366818,0.0033474711,0.707096,0.70710176,0,611.891,8.321,-0.00071,0,0
94.03333,2000,0,91.24,0.000002697398,0.000002697398,0.000002697398,0.99999994,0,0,0,0,0,0,0.7007874,0,0,0,0,false,false,false,0,231.75,17.01,-0.0033366818,0.0033474711,0.707096,0.70710176,0,617.55096,8.321,-0.00071,0,0
94.041664,2000,0,91.24,0.000002697398,0.000002697398,0.000002697398,0.99999994,0,0,0,0,0,0,0.7007874,0,0,0,0,false,false,false,0,236.9,17.01,-0.0033366818,0.0033474711,0.707096,0.70710176,0,623.18097,8.321,-0.00071,0,0
94.05,2000,0,91.24,0.000002697398,0.000002697398,0.000002697398,0.99999994,0,0,0,0,0,0,0.7007874,0,0,0,0,false,false,false,0,242.09,17.01,-0.0033366818,0.0033474711,0.707096,0.70710176,0,628.78094,8.321,-0.00071,0,0
94.058334,2000,0,91.24,0.000002697398,0.000002697398,0.000002697398,0.99999994,0,0,0,0,0,0,0.7007874,0,0,0,0,false,false,false,0,247.33,17.01,-0.0033366818,0.0033474711,0.707096,0.70710176,0,634.34094,8.321,-0.00071,0,0
94.066666,2000,0,91.24,0.000002697398,0.000002697398,0.000002697398,0.99999994,0,0,0,0,0,0,0.7007874,0,0,0,0,false,false,false,0,252.62,17.01,-0.0033366818,0.0033474711,0.707096,0.70710176,0,639.871,8.321,-0.00071,0,0
94.075,2000,0,91.24,0.000002697398,0.000002697398,0.000002697398,0.99999994,0,0,0,0,0,0,0.7007874,0,0,0,0,false,false,false,0,257.94998,17.01,-0.0033366818,0.0033474711,0.707096,0.70710176,0,645.371,8.321,-0.00071,0,0
94.083336,2000,0,91.24,0.000002697398,0.000002697398,0.000002697398,0.99999994,0,0,0,0,0,0,0.7007874,0,0,0,0,false,false,false,0,263.33,17.01,-0.0033366818,0.0033474711,0.707096,0.70710176,0,650.83093,8.321,-0.00071,0,0
94.09167,2000,0,91.24,0.000002697398,0.000002697398,0.000002697398,0.99999994,0,0,0,0,0,0,0.7007874,0,0,0,0,false,false,false,0,268.75,17.01,-0.0033366818,0.0033474711,0.707096,0.70710176,0,656.261,8.321,-0.00071,0,0
94.1,2000,0,91.24,0.000002697398,0.000002697398,0.000002697398,0.99999994,0,0,0,0,0,0,0.7007874,0,0,0,0,false,false,false,0,274.22,17.01,-0.0033366818,0.0033474711,0.707096,0.70710176,0,661.66095,8.321,-0.00071,0,0
94.10833,2000,0,91.24,0.000002697398,0.000002697398,0.000002697398,0.99999994,0,0,0,0,0,0,0.7007874,0,0,0,0,false,false,false,0,279.72998,17.01,-0.0033366818,0.0033474711,0.707096,0.70710176,0,667.03094,8.321,-0.00071,0,0
94.11667,2000,0,91.24,0.000002697398,0.000002697398,0.000002697398,0.99999994,0,0,0,0,0,0,0.7007874,0,0,0,0,false,false,false,0,285.29,17.01,-0.0033366818,0.0033474711,0.707096,0.70710176,0,672.36096,8.321,-0.00071,0,0
94.125,2000,0,91.24,0.000002697398,0.000002697398,0.000002697398,0.99999994,0,0,0,0,0,0,0.7007874,0,0,0,0,false,false,false,0,290.88998,17.01,-0.0033366818,0.0033474711,0.707096,0.70710176,0,677.66095,8.321,-0.00071,0,0
94.13333,2000,0,91.24,0.000002697398,0.000002697398,0.000002697398,0.99999994,0,0,0,0,0,0,0.7007874,0,0,0,0,false,false,false,0,296.54,17.01,-0.0033366818,0.0033474711,0.707096,0.70710176,0,682.93097,8.321,-0.00081,0,0
94.14167,2000,0,91.24,0.000002697398,0.000002697398,0.000002697398,0.99999994,0,0,0,0,0,0,0.7007874,0,0,0,0,false,false,false,0,302.22998,17.01,-0.0033366818,0.0033474711,0.707096,0.70710176,0,688.17096,8.321,-0.00081,0,0
94.15,2000,0,91.24,0.000002697398,0.000002697398,0.000002697398,0.99999994,0,0,0,0,0,0,0.7007874,0,0,0,0,false,false,false,0,307.96,17.01,-0.0033366818,0.0033474711,0.707096,0.70710176,0,693.381,8.321,-0.00081,0,0
94.15833,2000,0,91.24,0.000002697398,0.000002697398,0.000002697398,0.99999994,0,0,0,0,0,0,0.7007874,0,0,0,0,false,false,false,0,313.74,17.01,-0.0033366818,0.0033474711,0.707096,0.70710176,0,698.561,8.321,-0.00081,0,0
94.166664,2000,0,91.24,0.000002697398,0.000002697398,0.000002697398,0.99999994,0,0,0,0,0,0,0.7007874,0,0,0,0,false,false,false,0,319.56,17.01,-0.0033366818,0.0033474711,0.707096,0.70710176,0,703.701,8.321,-0.00081,0,0
94.175,2000,0,91.24,0.000002697398,0.000002697398,0.000002697398,0.99999994,0,0,0,0,0,0,1,1,0,0,0,false,false,true,0,325.41998,17.01,-0.0033366818,0.0033474711,0.707096,0.70710176,-13.831,707.21094,8.351,-0.00071,0.00351,0.37931
94.183334,2000,0,91.24,0.000002697398,0.000002697398,0.000002697398,0.99999994,0,0,0,0,0,0,1,1,0,0,0,false,false,true,-0.12,331.31,17.01,-0.0033312866,0.0033528658,0.7082113,0.7059846,-23.880999,711.58093,8.361,-0.00071,0.00461,0.64891
94.191666,2000,0,91.24,0.000002697398,0.000002697398,0.000002697398,0.99999994,0,0,0,0,0,0,1,1,0,0,0,false,false,true,-0.32,337.24,17.01,-0.0033312866,0.0033582605,0.71011525,0.70406944,-33.031,716.03094,8.361,-0.00071,0.00481,0.88141
94.2,2000,0,91.24,0.000002697398,0.000002697398,0.000002697398,0.99999994,0,0,0,0,0,0,1,1,0,0,0,false,false,true,-0.59999996,343.21,17.01,-0.0033312866,0.0033636554,0.71269464,0.70145833,-41.600998,720.49097,8.361,-0.00071,0.00451,1.08181
94.208336,2000,0,91.24,0.000002697398,0.000002697398,0.000002697398,0.99999994,0,0,0,0,0,0,1,1,0,0,0,false,false,true,-0.95,349.21,17.01,-0.0033366815,0.0033636554,0.71585023,0.69823766,-49.810997,724.8909,8.361,-0.00061,0.00381,1.25511
94.21667,2000,0,91.24,0.000002697398,0.000002697398,0.000002697398,0.99999994,0,0,0,0,0,0,1,1,0,0,0,false,false,true,-1.37,355.25,17.01,-0.0033420762,0.0033582605,0.71949357,0.6944828,-57.830997,729.191,8.361,-0.00061,0.00301,1.4054099
94.225,2000,0,91.24,0.000002697398,0.000002697398,0.000002697398,0.99999994,0,0,0,0,0,0,1,1,0,0,0,false,false,true,-1.8499999,361.33,17.01,-0.0033528658,0.003347471,0.72354704,0.6902587,-65.770996,733.35095,8.361,-0.00061,0.00221,1.53651
94.23333,2000,0,91.24,0.000002697398,0.000002697398,0.000002697398,0.99999994,0,0,0,0,0,0,1,1,0,0,0,false,false,true,-2.3999999,367.44,17.01,-0.00336905,0.0033366815,0.72795,0.68561375,-73.711,737.33093,8.361,-0.00061,0.00151,1.65141
94.24167,2000,0,91.24,0.000002697398,0.000002697398,0.000002697398,0.99999994,0,0,0,0,0,0,1,1,0,0,0,false,false,true,-3.01,373.58,17.01,-0.0033906293,0.003320497,0.73264784,0.6805912,-81.681,741.10095,8.361,-0.00051,0.00081,1.75271
94.25,2000,0,91.24,0.000002697398,0.000002697398,0.000002697398,0.99999994,0,0,0,0,0,0,1,1,0,0,0,false,false,true,-3.6899998,379.75998,17.01,-0.0034122085,0.0032989178,0.73759794,0.67522335,-89.711,744.65094,8.351,-0.00040999998,0.00021,1.84271
94.25833,2000,0,91.24,0.000002697398,0.000002697398,0.000002697398,0.99999994,0,0,0,0,0,0,1,1,0,0,0,false,false,true,-4.44,385.97,17.01,-0.0034391829,0.0032719441,0.74275845,0.6695426,-97.791,747.96094,8.351,-0.00040999998,-0.00021,1.92301
94.26667,2000,0,91.24,0.000002697398,0.000002697398,0.000002697398,0.99999994,0,0,0,0,0,0,1,1,0,0,0,false,false,true,-5.25,392.19998,17.01,-0.0034661565,0.0032449698,0.74809855,0.6635705,-105.90099,751.03094,8.351,-0.00040999998,-0.00051,1.9952099
94.275,2000,0,91.24,0.000002697398,0.000002697398,0.000002697398,0.99999994,0,0,0,0,0,0,1,1,0,0,0,false,false,true,-6.1299996,398.46,17.01,-0.0034931307,0.003217996,0.7535889,0.6573288,-114.010994,753.85095,8.351,-0.00030999997,-0.00071,2.06041
94.28333,2000,0,91.24,0.000002697398,0.000002697398,0.000002697398,0.99999994,0,0,0,0,0,0,1,1,0,0,0,false,false,true,-7.08,404.74,17.01,-0.0035254993,0.003185627,0.7592057,0.6508333,-122.08099,756.43097,8.351,-0.00030999997,-0.00091,2.11961
94.291664,2000,0,91.24,0.000002697398,0.000002697398,0.000002697398,0.99999994,0,0,0,0,0,0,1,1,0,0,0,false,false,true,-8.099999,411.03998,17.01,-0.003557868,0.0031532582,0.7649259,0.6441006,-130.071,758.78094,8.351,-0.00021,-0.00111,2.17351
94.3,2000,0,91.24,0.000002697398,0.000002697398,0.000002697398,0.99999994,0,0,0,0,0,0,1,1,0,0,0,false,false,true,-9.179999,417.36,17.01,-0.0035902364,0.0031208894,0.77072775,0.63714665,-137.921,760.92096,8.351,-0.00010999999,-0.0012099999,2.22271
94.308334,2000,0,91.24,0.000002697398,0.000002697398,0.000002697398,0.99999994,0,0,0,0,0,0,1,1,0,0,0,false,false,true,-10.33,423.69998,17.01,-0.0036226057,0.003083126,0.7765947,0.6299825,-145.58101,762.871,8.351,0,-0.00131,2.2678099
94.316666,2000,0,91.24,0.000002697398,0.000002697398,0.000002697398,0.99999994,0,0,0,0,0,0,1,1,0,0,0,false,false,true,-11.54,430.06,17.01,-0.0036549745,0.0030453624,0.782511,0.62261844,-152.97101,764.66095,8.341001,0,-0.00131,2.30911
94.325,2000,0,91.24,0.000002697398,0.000002697398,0.000002697398,0.99999994,0,0,0,0,0,0,1,1,0,0,0,false,false,true,-12.809999,436.43,17.01,-0.003687343,0.003007599,0.78846556,0.6150603,-160.031,766.33093,8.341001,0,-0.00131,2.34691
94.333336,2000,0,91.24,0.000002697398,0.000002697398,0.000002697398,0.99999994,0,0,0,0,0,0,1,1,0,0,0,false,false,true,-14.139999,442.81998,17.01,-0.003719712,0.0029698352,0.7944439,0.60731876,-166.69101,767.93097,8.341001,0,-0.00131,2.38141
94.34167,2000,0,91.24,0.000002697398,0.000002697398,0.000002697398,0.99999994,0,0,0,0,0,0,1,1,0,0,0,false,false,true,-15.53,449.22,17.01,-0.0037520807,0.0029320717,0.80043197,0.5994046,-172.871,769.511,8.341001,0,-0.00131,2.4128098
94.35,2000,0,91.24,0.000002697398,0.000002697398,0.000002697398,0.99999994,0,0,0,0,0,0,1,1,0,0,0,false,false,true,-16.97,455.63,17.01,-0.0037844495,0.0028889133,0.8064166,0.59132856,-178.491,771.131,8.341001,0,-0.00131,2.44131
94.35833,2000,0,91.24,0.000002697398,0.000002697398,0.000002697398,0.99999994,0,0,0,0,0,0,1,1,0,0,0,false,false,true,-18.46,462.06,17.01,-0.0038168184,0.0028457548,0.8123892,0.583096,-183.47101,772.86096,8.331,0,-0.00131,2.46681
94.36667,2000,0,91.24,0.000002697398,0.000002697398,0.000002697398,0.99999994,0,0,0,0,0,0,1,1,0,0,0,false,false,true,-19.99,468.5,17.01,-0.0038491874,0.002802597,0.81834143,0.5747126,-187.72101,774.79095,8.331,0,-0.00131,2.48951
94.375,2000,0,91.24,0.000002697398,0.000002697398,0.000002697398,0.99999994,0,0,0,0,0,0,1,1,0,0,0,false,false,true,-21.55,474.96,17.01,-0.0038815557,0.0027594382,0.8242581,0.5661941,-192.161,776.58093,8.331,0,-0.0012099999,2.51191
94.38333,2000,0,91.24,0.000002697398,0.000002697398,0.000002697398,0.99999994,0,0,0,0,0,0,1,1,0,0,0,false,false,true,-23.15,481.43,17.01,-0.0039139246,0.0027162798,0.8301394,0.5575354,-196.791,778.22095,8.331,0,-0.00111,2.5341098
94.39167,2000,0,91.24,0.000002697398,0.000002697398,0.000002697398,0.99999994,0,0,0,0,0,0,1,1,0,0,0,false,false,true,-24.789999,487.91998,17.01,-0.003946293,0.0026731214,0.83597815,0.5487419,-201.601,779.701,8.331,0,-0.0010099999,2.55611
94.4,2000,0,91.24,0.000002697398,0.000002697398,0.000002697398,0.99999994,0,0,0,0,0,0,1,1,0,0,0,false,false,true,-26.47,494.41998,17.01,-0.003978662,0.002629963,0.8417746,0.539808,-206.58101,781.02094,8.331,0,-0.00091,2.57791
94.40833,2000,0,91.24,0.000002697398,0.000002697398,0.000002697398,0.99999994,0,0,0,0,0,0,1,1,0,0,0,false,false,true,-28.189999,500.93,17.01,-0.004011031,0.0025868048,0.84752494,0.53073394,-211.731,782.18097,8.331,0.00010999999,-0.00081,2.59951
94.416664,2000,0,91.24,0.000002697398,0.000002697398,0.000002697398,0.99999994,0,0,0,0,0,0,1,1,0,0,0,false,false,true,-29.949999,507.44998,17.01,-0.0040433994,0.0025436464,0.8532225,0.521525,-217.031,783.17096,8.331,0.00010999999,-0.00071,2.62091
94.425,2000,0,91.24,0.000002697398,0.000002697398,0.000002697398,0.99999994,0,0,0,0,0,0,1,1,0,0,0,false,false,true,-31.76,513.98,17.01,-0.0040757684,0.0024950933,0.8588673,0.51217574,-222.491,783.98096,8.331,0.00021,-0.00061,2.6421099
94.433334,2000,0,91.24,0.000002697398,0.000002697398,0.000002697398,0.99999994,0,0,0,0,0,0,1,1,0,0,0,false,false,true,-33.61,520.51,17.01,-0.004102742,0.0024465397,0.86445236,0.5026917,-228.091,784.61096,8.331,0.00021,-0.00051,2.66311
94.441666,2000,0,91.24,0.000002697398,0.000002697398,0.000002697398,0.99999994,0,0,0,0,0,0,1,1,0,0,0,false,false,true,-35.51,527.05,17.01,-0.0041297157,0.0023979866,0.8699779,0.4930673,-233.83101,785.061,8.331,0.00021,-0.00051,2.68391
94.45,2000,0,91.24,0.000002697398,0.000002697398,0.000002697398,0.99999994,0,0,0,0,0,0,1,1,0,0,0,false,false,true,-37.46,533.58997,17.01,-0.0041566906,0.002349434,0.8754372,0.4833082,-239.701,785.321,8.331,0.00021,-0.00040999998,2.70451
94.458336,2000,0,91.24,0.000002697398,0.000002697398,0.000002697398,0.99999994,0,0,0,0,0,0,1,1,0,0,0,false,false,true,-39.46,540.13,17.01,-0.004183665,0.0023008806,0.88082707,0.47341403,-245.701,785.3909,8.331,0.00021,-0.00040999998,2.72491
94.46667,2000,0,91.24,0.000002697398,0.000002697398,0.000002697398,0.99999994,0,0,0,0,0,0,1,1,0,0,0,false,false,true,-41.51,546.67,17.01,-0.004210638,0.002252327,0.886144,0.46338502,-251.811,785.27094,8.331,0.00021,-0.00040999998,2.74521
94.475,2000,0,91.24,0.000002697398,0.000002697398,0.000002697398,0.99999994,0,0,0,0,0,0,1,1,0,0,0,false,false,true,-43.61,553.20996,17.01,-0.004237612,0.002203774,0.8913851,0.45322123,-258.031,784.951,8.331,0.00021,-0.00030999997,2.76531
94.48333,2000,0,91.24,0.000002697398,0.000002697398,0.000002697398,0.99999994,0,0,0,0,0,0,1,1,0,0,0,false,false,true,-45.76,559.75,17.01,-0.004264586,0.002155221,0.8965471,0.44292253,-264.351,784.43097,8.331,0.00021,-0.00030999997,2.78521
94.49167,2000,0,91.24,0.000002697398,0.000002697398,0.000002697398,0.99999994,0,0,0,0,0,0,1,1,0,0,0,false,false,true,-47.96,566.29,17.01,-0.00429156,0.0021066677,0.90162647,0.432489,-270.771,783.71094,8.331,0.00021,-0.00021,2.80491
94.5,2000,0,91.24,0.000002697398,0.000002697398,0.000002697398,0.99999994,0,0,0,0,0,0,1,1,0,0,0,false,false,true,-50.219997,572.82,17.01,-0.004318534,0.00205272,0.90662014,0.4219205,-277.281,782.79095,8.331,0.00021,-0.00021,2.8245099
94.50833,2000,0,91.24,0.000002697398,0.000002697398,0.000002697398,0.99999994,0,0,0,0,0,0,1,1,0,0,0,false,false,true,-52.53,579.33997,17.01,-0.004340113,0.001998772,0.9115223,0.41122264,-283.871,781.66095,8.331,0.00021,-0.00010999999,2.84391
94.51667,2000,0,91.24,0.000002697398,0.000002697398,0.000002697398,0.99999994,0,0,0,0,0,0,1,1,0,0,0,false,false,true,-54.899998,585.85,17.01,-0.0043616924,0.001944824,0.91633004,0.40039518,-290.531,780.321,8.331,0.00021,-0.00010999999,2.8631098
94.525,2000,0,91.24,0.000002697398,0.000002697398,0.000002697398,0.99999994,0,0,0,0,0,0,1,1,0,0,0,false,false,true,-57.32,592.35,17.01,-0.0043832716,0.0018908761,0.9210424,0.38943297,-297.261,778.78094,8.331,0.00010999999,-0.00010999999,2.88221
94.53333,2000,0,91.24,0.000002697398,0.000002697398,0.000002697398,0.99999994,0,0,0,0,0,0,1,1,0,0,0,false,false,true,-59.8,598.83997,17.01,-0.0044048512,0.0018369282,0.92565167,0.3783466,-304.041,777.03094,8.331,0.00010999999,-0.00010999999,2.90111
94.541664,2000,0,91.24,0.000002697398,0.000002697398,0.000002697398,0.99999994,0,0,0,0,0,0,1,1,0,0,0,false,false,true,-62.329998,605.32,17.01,-0.00442643,0.0017829802,0.930157,0.3671308,-310.871,775.071,8.331,0.00010999999,-0.00010999999,2.91981
94.55,2000,0,91.24,0.000002697398,0.000002697398,0.000002697398,0.99999994,0,0,0,0,0,0,1,1,0,0,0,false,false,true,-64.92,611.77997,17.01,-0.004448009,0.0017290321,0.9345554,0.35578546,-317.751,772.90094,8.331,0.00010999999,-0.00010999999,2.93841
94.558334,2000,0,91.24,0.000002697398,0.000002697398,0.000002697398,0.99999994,0,0,0,0,0,0,1,1,0,0,0,false,false,true,-67.57,618.22,17.01,-0.0044695884,0.0016750842,0.9388416,0.34431612,-324.661,770.52094,8.331,0.00010999999,-0.00010999999,2.95681
94.566666,2000,0,91.24,0.000002697398,0.000002697398,0.000002697398,0.99999994,0,0,0,0,0,0,1,1,0,0,0,false,false,true,-70.28,624.64,17.01,-0.0044911676,0.0016211362,0.9430126,0.3327226,-331.601,767.93097,8.331,0.00010999999,-0.00010999999,2.97511
94.575,2000,0,91.24,0.000002697398,0.000002697398,0.000002697398,0.99999994,0,0,0,0,0,0,1,1,0,0,0,false,false,true,-73.04,631.04,17.01,-0.004512747,0.0015671883,0.94706535,0.3210051,-338.571,765.131,8.331,0.00010999999,-0.00010999999,2.9932098
94.583336,2000,0,91.24,0.000002697398,0.000002697398,0.000002697398,0.99999994,0,0,0,0,0,0,1,1,0,0,0,false,false,true,-75.86,637.42,17.01,-0.004534326,0.0015078455,0.9509951,0.30916885,-345.551,762.121,8.331,0.00010999999,0,3.01121
94.59167,2000,0,91.24,0.000002697398,0.000002697398,0.000002697398,0.99999994,0,0,0,0,0,0,1,1,0,0,0,false,false,true,-78.74,643.76996,17.01,-0.0045505106,0.0014485028,0.95479894,0.29721388,-352.541,758.90094,8.331,0.00010999999,0,3.0290098
94.6,2000,0,91.24,0.000002697398,0.000002697398,0.000002697398,0.99999994,0,0,0,0,0,0,1,1,0,0,0,false,false,true,-81.68,650.08997,17.01,-0.0045666946,0.0013891599,0.95847386,0.28514034,-359.531,755.48096,8.331,0.00010999999,0,3.04671
94.60833,2000,0,91.24,0.000002697398,0.000002697398,0.000002697398,0.99999994,0,0,0,0,0,0,1,1,0,0,0,false,false,true,-84.68,656.39,17.01,-0.004582879,0.0013298172,0.9620169,0.27294803,-366.521,751.85095,8.331,0.00010999999,0,3.06421
94.61667,2000,0,91.24,0.000002697398,0.000002697398,0.000002697398,0.99999994,0,0,0,0,0,0,1,1,0,0,0,false,false,true,-87.729996,662.66,17.01,-0.0045990637,0.0012704745,0.9654235,0.26064247,-373.501,748.02094,8.331,0.00010999999,0,3.08161
94.625,2000,0,91.24,0.000002697398,0.000002697398,0.000002697398,0.99999994,0,0,0,0,0,0,1,1,0,0,0,false,false,true,-90.84,668.89,17.01,-0.0046152477,0.0012111316,0.9686909,0.24822356,-380.461,743.99097,8.331,0.00010999999,0,3.09881
94.63333,2000,0,91.24,0.000002697398,0.000002697398,0.000002697398,0.99999994,0,0,0,0,0,0,1,1,0,0,0,false,false,true,-94.009995,675.08997,17.01,-0.004631432,0.0011517889,0.97181475,0.23569685,-387.401,739.761,8.331,0.00010999999,0,3.11591
94.64167,2000,0,91.24,0.000002697398,0.000002697398,0.000002697398,0.99999994,0,0,0,0,0,0,1,1,0,0,0,false,false,true,-97.24,681.25,17.01,-0.0046476168,0.0010924462,0.9747925,0.22306217,-394.311,735.33093,8.331,0.00010999999,0,3.1328099
94.65,2000,0,91.24,0.000002697398,0.000002697398,0.000002697398,0.99999994,0,0,0,0,0,0,1,1,0,0,0,false,false,true,-100.53,687.38,17.01,-0.0046638018,0.0010331036,0.97762096,0.21031968,-401.191,730.71094,8.331,0.00010999999,0,3.14961
94.65833,2000,0,91.24,0.000002697398,0.000002697398,0.000002697398,0.99999994,0,0,0,0,0,0,1,1,0,0,0,false,false,true,-103.869995,693.47,17.01,-0.0046745907,0.00097376073,0.9802963,0.19747457,-408.031,725.90094,8.331,0.00010999999,0,3.1663098
94.666664,2000,0,91.24,0.000002697398,0.000002697398,0.000002697398,0.99999994,0,0,0,0,0,0,1,1,0,0,0,false,false,true,-107.27,699.51996,17.01,-0.0046853805,0.00090902316,0.9828158,0.18452698,-414.831,720.90094,8.331,0.00010999999,0,3.1828098
94.675,2000,0,91.24,0.000002697398,0.000002697398,0.000002697398,0.99999994,0,0,0,0,0,0,1,1,0,0,0,false,false,true,-110.729996,705.52997,17.01,-0.00469617,0.0008442856,0.9851765,0.17147696,-421.581,715.71094,8.331,0.00010999999,0,3.19921
94.683334,2000,0,91.24,0.000002697398,0.000002697398,0.000002697398,0.99999994,0,0,0,0,0,0,1,1,0,0,0,false,false,true,-114.24,711.49,17.01,-0.00470696,0.0007795481,0.9873747,0.15832977,-428.281,710.33093,8.331,0.00010999999,0,3.21551
94.691666,2000,0,91.24,0.000002697398,0.000002697398,0.000002697398,0.99999994,0,0,0,0,0,0,1,1,0,0,0,false,false,true,-117.81,717.41,17.01,-0.0047177495,0.00071481057,0.9894076,0.14508554,-434.921,704.77094,8.331,0,0,3.2316098
94.7,2000,0,91.24,0.000002697398,0.000002697398,0.000002697398,0.99999994,0,0,0,0,0,0,1,1,0,0,0,false,false,true,-121.43,723.27997,17.01,-0.0047285384,0.00065007294,0.9912715,0.13174951,-441.501,699.04095,8.331,0,0,3.2476099
94.708336,2000,0,91.24,0.000002697398,0.000002697398,0.000002697398,0.99999994,0,0,0,0,0,0,1,1,0,0,0,false,false,true,-125.11,729.11,17.01,-0.0047393283,0.00058533537,0.99296373,0.11832179,-448.021,693.131,8.331,0,0,3.26351
94.71667,2000,0,91.24,0.000002697398,0.000002697398,0.000002697398,0.99999994,0,0,0,0,0,0,1,1,0,0,0,false,false,true,-128.84,734.88995,17.01,-0.0047447234,0.00052059785,0.994481,0.10480783,-454.471,687.05096,8.331,0,0.00010999999,3.27931
94.725,2000,0,91.24,0.000002697398,0.000002697398,0.000002697398,0.99999994,0,0,0,0,0,0,1,1,0,0,0,false,false,true,-132.62999,740.62,17.01,-0.004750118,0.0004558603,0.99582046,0.09120747,-460.841,680.80096,8.331,0,0.00010999999,3.29491
94.73333,2000,0,91.24,0.000002697398,0.000002697398,0.000002697398,0.99999994,0,0,0,0,0,0,1,1,0,0,0,false,false,true,-136.47,746.29,17.01,-0.0047555133,0.00039112274,0.9969789,0.077526264,-467.141,674.391,8.331,0,0.00010999999,3.31041
94.74167,2000,0,91.24,0.000002697398,0.000002697398,0.000002697398,0.99999994,0,0,0,0,0,0,1,1,0,0,0,false,false,true,-140.36,751.91,17.01,-0.004760908,0.0003263852,0.99795324,0.063769445,-473.361,667.811,8.331,0,0.00010999999,3.32581
94.75,2000,0,91.24,0.000002697398,0.000002697398,0.000002697398,0.99999994,0,0,0,0,0,0,1,1,0,0,0,false,false,true,-144.3,757.48,17.01,-0.004766302,0.0002616476,0.9987409,0.0499371,-479.501,661.071,8.331,0,0.00010999999,3.34111
94.75833,2000,0,91.24,0.000002697398,0.000002697398,0.000002697398,0.99999994,0,0,0,0,0,0,1,1,0,0,0,false,false,true,-148.3,762.99,17.01,-0.0047716973,0.00019691007,0.9993393,0.036029316,-485.561,654.18097,8.331,0,0.00010999999,3.35631
94.76667,2000,0,91.24,0.000002697398,0.000002697398,0.000002697398,0.99999994,0,0,0,0,0,0,1,1,0,0,0,false,false,true,-152.34999,768.44,17.01,-0.0047716973,0.00013217251,0.9997454,0.022051316,-491.531,647.141,8.331,0,0.00010999999,3.37141
94.775,2000,0,91.24,0.000002697398,0.000002697398,0.000002697398,0.99999994,0,0,0,0,0,0,1,1,0,0,0,false,false,true,-156.45,773.82996,17.01,-0.0047716973,0.00006743496,0.99995655,0.008003181,-497.421,639.951,8.331,0,0.00010999999,3.38641
94.78333,2000,0,91.24,0.000002697398,0.000002697398,0.000002697398,0.99999994,0,0,0,0,0,0,1,1,0,0,0,false,false,true,-160.59999,779.16,17.01,-0.0047716973,0.0000026973983,0.99996996,-0.0061042546,-503.221,632.61096,8.331,0,0.00010999999,3.40131
94.791664,2000,0,91.24,0.000002697398,0.000002697398,0.000002697398,0.99999994,0,0,0,0,0,0,1,1,0,0,0,false,false,true,-164.79,784.43,17.01,-0.004771697,-0.00006743495,0.999783,-0.020276425,-508.931,625.121,8.331,0,0.00010999999,3.41611
94.8,2000,0,91.24,0.000002697398,0.000002697398,0.000002697398,0.99999994,0,0,0,0,0,0,1,1,0,0,0,false,false,true,-169.03,789.63995,17.01,-0.004771697,-0.0001375673,0.99939317,-0.034502544,-514.55096,617.49097,8.331,0,0.00010999999,3.4307098
94.808334,2000,0,91.24,0.000002697398,0.000002697398,0.000002697398,0.99999994,0,0,0,0,0,0,1,1,0,0,0,false,false,true,-173.31999,794.79,17.01,-0.0047663026,-0.00020769966,0.998798,-0.048782617,-520.071,609.72095,8.331,0,0.00021,3.44521
94.816666,2000,0,91.24,0.000002697398,0.000002697398,0.000002697398,0.99999994,0,0,0,0,0,0,1,1,0,0,0,false,false,true,-177.65,799.87,17.01,-0.0047609075,-0.000277832,0.9979947,-0.06311667,-525.501,601.811,8.331,0,0.00021,3.45961
94.825,2000,0,91.24,0.000002697398,0.000002697398,0.000002697398,0.99999994,0,0,0,0,0,0,1,1,0,0,0,false,false,true,-182.03,804.88995,17.01,-0.004755513,-0.00034796435,0.9969814,-0.07749384,-530.84094,593.77094,8.331,0,0.00021,3.4739099
94.833336,2000,0,91.24,0.000002697398,0.000002697398,0.000002697398,0.99999994,0,0,0,0,0,0,1,1,0,0,0,false,false,true,-186.45,809.83997,17.01,-0.004750118,-0.00041809672,0.9957555,-0.091914184,-536.081,585.59094,8.331,0,0.00021,3.4881098
94.84167,2000,0,91.24,0.000002697398,0.000002697398,0.000002697398,0.99999994,0,0,0,0,0,0,1,1,0,0,0,false,false,true,-190.92,814.72,17.01,-0.0047447234,-0.0004882291,0.9943143,-0.10637771,-541.23096,577.28094,8.331,0,0.00021,3.50221
94.85,2000,0,91.24,0.000002697398,0.000002697398,0.000002697398,0.99999994,0,0,0,0,0,0,1,1,0,0,0,false,false,true,-195.43,819.52997,17.01,-0.0047339336,-0.00055836135,0.9926564,-0.12087357,-546.28094,568.84094,8.331,0,0.00021,3.5162098
94.85833,2000,0,91.24,0.000002697398,0.000002697398,0.000002697398,0.99999994,0,0,0,0,0,0,1,1,0,0,0,false,false,true,-199.98,824.26996,17.01,-0.004723144,-0.0006284938,0.9907793,-0.1354018,-551.24097,560.27094,8.331,-0.00010999999,0.00021,3.53011
94.86667,2000,0,91.24,0.000002697398,0.000002697398,0.000002697398,0.99999994,0,0,0,0,0,0,1,1,0,0,0,false,false,true,-204.56999,828.94,17.01,-0.004712355,-0.00069862616,0.988681,-0.14995705,-556.10095,551.561,8.331,-0.00010999999,0.00021,3.54391
94.875,2000,0,91.24,0.000002697398,0.000002697398,0.000002697398,0.99999994,0,0,0,0,0,0,1,1,0,0,0,false,false,true,-209.2,833.54,17.01,-0.004701564,-0.0007687584,0.9863589,-0.1645392,-560.86096,542.72095,8.331,-0.00010999999,0.00010999999,3.55751
94.88333,2000,0,91.24,0.000002697398,0.000002697398,0.000002697398,0.99999994,0,0,0,0,0,0,1,1,0,0,0,false,false,true,-213.87,838.06,17.01,-0.004690775,-0.0008388908,0.98381144,-0.17914297,-565.53094,533.751,8.331,-0.00021,0.00010999999,3.5710099
94.89167,2000,0,91.24,0.000002697398,0.000002697398,0.000002697398,0.99999994,0,0,0,0,0,0,1,1,0,0,0,false,false,true,-218.58,842.51,17.01,-0.004674591,-0.0009090232,0.9810368,-0.19376297,-570.10095,524.65094,8.331,-0.00021,0.00010999999,3.58441
94.9,2000,0,91.24,0.000002697398,0.000002697398,0.000002697398,0.99999994,0,0,0,0,0,0,1,1,0,0,0,false,false,true,-223.33,846.88,17.01,-0.004658406,-0.0009791554,0.97803336,-0.20839368,-574.581,515.42096,8.331,-0.00021,0.00010999999,3.59761
94.90833,2000,0,91.24,0.000002697398,0.000002697398,0.000002697398,0.99999994,0,0,0,0,0,0,1,1,0,0,0,false,false,true,-228.12,851.18,17.01,-0.0046422225,-0.001049288,0.9748,-0.22302982,-578.96094,506.061,8.331,-0.00030999997,0.00010999999,3.61061
94.916664,2000,0,91.24,0.000002697398,0.000002697398,0.000002697398,0.99999994,0,0,0,0,0,0,1,1,0,0,0,false,false,true,-232.93999,855.39996,17.01,-0.004626037,-0.00111942,0.9713338,-0.23767135,-583.24097,496.561,8.331,-0.00030999997,0.00010999999,3.62351
94.925,2000,0,91.24,0.000002697398,0.000002697398,0.000002697398,0.99999994,0,0,0,0,0,0,1,1,0,0,0,false,false,true,-237.79999,859.54,17.01,-0.004609853,-0.0011895525,0.96763533,-0.25230747,-587.36096,486.921,8.331,-0.00030999997,0,3.63791
94.933334,2000,0,91.24,0.000002697398,0.000002697398,0.000002697398,0.99999994,0,0,0,0,0,0,1,1,0,0,0,false,false,true,-242.68999,863.6,17.01,-0.004588274,-0.0012596849,0.96370035,-0.2669436,-591.29095,477.151,8.331,-0.00040999998,0,3.65451
94.941666,2000,0,91.24,0.000002697398,0.000002697398,0.000002697398,0.99999994,0,0,0,0,0,0,1,1,0,0,0,false,false,true,-247.62,867.57996,17.01,-0.0045666946,-0.0013298172,0.9595244,-0.28158513,-595.03094,467.241,8.331,-0.00040999998,0,3.6733098
94.95,2000,0,91.24,0.000002697398,0.000002697398,0.000002697398,0.99999994,0,0,0,0,0,0,1,1,0,0,0,false,false,true,-252.58,871.47,17.01,-0.004545116,-0.0013999497,0.95510244,-0.2962375,-598.581,457.211,8.331,-0.00040999998,0,3.6942098
94.958336,2000,0,91.24,0.000002697398,0.000002697398,0.000002697398,0.99999994,0,0,0,0,0,0,1,1,0,0,0,false,false,true,-257.57,875.27997,17.01,-0.0045235357,-0.0014700819,0.9504304,-0.31090054,-601.941,447.051,8.331,-0.00040999998,0,3.7172098
94.96667,2000,0,91.24,0.000002697398,0.000002697398,0.000002697398,0.99999994,0,0,0,0,0,0,1,1,0,0,0,false,false,true,-262.59,879.01,17.01,-0.004501958,-0.0015402144,0.9455007,-0.32558528,-605.11096,436.771,8.331,-0.00040999998,0,3.7423098
94.975,2000,0,91.24,0.000002697398,0.000002697398,0.000002697398,0.99999994,0,0,0,0,0,0,1,1,0,0,0,false,false,true,-267.63,882.64996,17.01,-0.004474983,-0.0016103466,0.9403098,-0.34028617,-608.09094,426.371,8.331,-0.00040999998,0,3.76951
94.98333,2000,0,91.24,0.000002697398,0.000002697398,0.000002697398,0.99999994,0,0,0,0,0,0,1,1,0,0,0,false,false,true,-272.69998,886.19995,17.01,-0.004448009,-0.001680479,0.93484885,-0.355014,-610.881,415.861,8.331,-0.00040999998,-0.00010999999,3.79881
94.99167,2000,0,91.24,0.000002697398,0.000002697398,0.000002697398,0.99999994,0,0,0,0,0,0,1,1,0,0,0,false,false,true,-277.79,889.67,17.01,-0.0044210353,-0.0017506114,0.9291137,-0.36976346,-613.47095,405.241,8.331,-0.00040999998,-0.00021,3.83021
95,2000,0,91.24,0.000002697398,0.000002697398,0.000002697398,0.99999994,0,0,0,0,0,0,1,1,0,0,0,false,false,true,-282.9,893.05,17.01,-0.0043940614,-0.0018207437,0.9230938,-0.38454524,-615.871,394.511,8.331,-0.00040999998,-0.00030999997,3.86371
95.00833,2000,0,91.24,0.000002697398,0.000002697398,0.000002697398,0.99999994,0,0,0,0,0,0,1,1,0,0,0,false,false,true,-288.03,896.33997,17.01,-0.004367088,-0.0018908762,0.9167844,-0.39935404,-618.071,383.671,8.331,-0.00040999998,-0.00030999997,3.89921
95.01667,2000,0,91.24,0.000002697398,0.000002697398,0.000002697398,0.99999994,0,0,0,0,0,0,1,1,0,0,0,false,false,true,-293.18,899.54,17.01,-0.0043347185,-0.0019610084,0.91017556,-0.41419518,-620.071,372.721,8.331,-0.00051,-0.00030999997,3.93681
95.025,2000,0,91.24,0.000002697398,0.000002697398,0.000002697398,0.99999994,0,0,0,0,0,0,1,1,0,0,0,false,false,true,-298.35,902.64996,17.01,-0.00430235,-0.0020311407,0.9032593,-0.42906865,-621.871,361.671,8.331,-0.00051,-0.00030999997,3.9765098
95.03333,2000,0,91.24,0.000002697398,0.000002697398,0.000002697398,0.99999994,0,0,0,0,0,0,1,1,0,0,0,false,false,true,-303.53,905.66,17.01,-0.0042699804,-0.0021012728,0.8960266,-0.44397447,-623.47095,350.511,8.331,-0.00051,-0.00030999997,4.01831
95.041664,2000,0,91.24,0.000002697398,0.000002697398,0.000002697398,0.99999994,0,0,0,0,0,0,1,1,0,0,0,false,false,true,-308.72998,908.57996,17.01,-0.0042322176,-0.0021714054,0.8884685,-0.4589128,-624.71094,339.231,8.331,-0.00051,-0.00030999997,4.0609097
95.05,2000,0,91.24,0.000002697398,0.000002697398,0.000002697398,0.99999994,0,0,0,0,0,0,1,1,0,0,0,false,false,true,-313.94,911.41,17.01,-0.004194454,-0.0022415377,0.88057756,-0.47387803,-625.53094,327.861,8.331,-0.00040999998,-0.00040999998,4.10471
95.058334,2000,0,91.24,0.000002697398,0.000002697398,0.000002697398,0.99999994,0,0,0,0,0,0,1,1,0,0,0,false,false,true,-319.15,914.13995,17.01,-0.00415669,-0.00231167,0.8723435,-0.4888702,-625.92096,316.421,8.331,-0.00040999998,-0.00040999998,4.14961
95.066666,2000,0,91.24,0.000002697398,0.000002697398,0.000002697398,0.99999994,0,0,0,0,0,0,1,1,0,0,0,false,false,true,-324.37,916.77997,17.01,-0.004118927,-0.0023818025,0.86376125,-0.5038786,-625.891,304.921,8.331,-0.00030999997,-0.00040999998,4.19551
95.075,2000,0,91.24,0.000002697398,0.000002697398,0.000002697398,0.99999994,0,0,0,0,0,0,1,1,0,0,0,false,false,true,-329.59,919.32,17.01,-0.0040757684,-0.0024519349,0.8548197,-0.51890314,-625.441,293.381,8.331,-0.00030999997,-0.00040999998,4.24251
95.083336,2000,0,91.24,0.000002697398,0.000002697398,0.000002697398,0.99999994,0,0,0,0,0,0,1,1,0,0,0,false,false,true,-334.8,921.76,17.01,-0.00403261,-0.0025220672,0.8455133,-0.53393304,-624.571,281.821,8.331,-0.00021,-0.00040999998,4.29041
95.09167,2000,0,91.24,0.000002697398,0.000002697398,0.000002697398,0.99999994,0,0,0,0,0,0,1,1,0,0,0,false,false,true,-340,924.11,17.01,-0.0039894516,-0.0025921995,0.83583295,-0.54896307,-623.261,270.401,8.331,-0.00010999999,-0.00040999998,4.33821
95.1,2000,0,91.24,0.000002697398,0.000002697398,0.000002697398,0.99999994,0,0,0,0,0,0,1,1,0,0,0,false,false,true,-345.19,926.36,17.01,-0.003940899,-0.002662332,0.8257732,-0.56398225,-621.52094,259.181,8.331,-0.00010999999,-0.00030999997,4.3853097
95.10833,2000,0,91.24,0.000002697398,0.000002697398,0.000002697398,0.99999994,0,0,0,0,0,0,1,1,0,0,0,false,false,true,-350.37,928.51996,17.01,-0.0038923456,-0.0027324643,0.8153318,-0.5789744,-619.371,248.191,8.331,0,-0.00030999997,4.43181
95.11667,2000,0,91.24,0.000002697398,0.000002697398,0.000002697398,0.99999994,0,0,0,0,0,0,1,1,0,0,0,false,false,true,-355.53,930.58997,17.01,-0.0038437925,-0.002802597,0.8045034,-0.59392893,-616.821,237.431,8.331,0,-0.00021,4.47761
95.125,2000,0,91.24,0.000002697398,0.000002697398,0.000002697398,0.99999994,0,0,0,0,0,0,1,1,0,0,0,false,false,true,-360.66998,932.57,17.01,-0.0037898442,-0.002872729,0.79328275,-0.60883474,-613.90094,226.931,8.331,0,-0.00010999999,4.52271
95.13333,2000,0,91.24,0.000002697398,0.000002697398,0.000002697398,0.99999994,0,0,0,0,0,0,1,1,0,0,0,false,false,true,-365.78998,934.45996,17.01,-0.0037358964,-0.0029428613,0.78166854,-0.6236758,-610.621,216.701,8.331,0.00010999999,-0.00010999999,4.56701
95.14167,2000,0,91.24,0.000002697398,0.000002697398,0.000002697398,0.99999994,0,0,0,0,0,0,1,1,0,0,0,false,false,true,-370.88,936.26996,17.01,-0.0036819484,-0.0030129936,0.76966006,-0.6384361,-607.001,206.751,8.331,0.00010999999,0,4.61051
95.15,2000,0,91.24,0.000002697398,0.000002697398,0.000002697398,0.99999994,0,0,0,0,0,0,1,1,0,0,0,false,false,true,-375.94,937.99,17.01,-0.0036226052,-0.0030831257,0.75725263,-0.65310454,-603.071,197.091,8.331,0.00010999999,0,4.65331
95.15833,2000,0,91.24,0.000002697398,0.000002697398,0.000002697398,0.99999994,0,0,0,0,0,0,1,1,0,0,0,false,false,true,-380.97,939.63,17.01,-0.003563263,-0.0031532585,0.7444464,-0.66766524,-598.85095,187.731,8.331,0.00021,0,4.69521
95.166664,2000,0,91.24,0.000002697398,0.000002697398,0.000002697398,0.99999994,0,0,0,0,0,0,1,1,0,0,0,false,false,true,-385.96,941.19,17.01,-0.0035039203,-0.003223391,0.7312417,-0.6821018,-594.36096,178.681,8.331,0.00021,0,4.73631
95.175,2000,0,91.24,0.000002697398,0.000002697398,0.000002697398,0.99999994,0,0,0,0,0,0,1,1,0,0,0,false,false,true,-390.91,942.68,17.01,-0.0034391826,-0.003293523,0.71763986,-0.696398,-589.631,169.951,8.331,0.00021,0.00010999999,4.77651
95.183334,2000,0,91.24,0.000002697398,0.000002697398,0.000002697398,0.99999994,0,0,0,0,0,0,1,1,0,0,0,false,false,true,-395.81998,944.1,17.01,0.003374445,0.0033636554,-0.70363784,0.7105427,-584.641,161.55101,8.331,0.00021,0.00010999999,4.81481
95.191666,2000,0,91.24,0.000002697398,0.000002697398,0.000002697398,0.99999994,0,0,0,0,0,0,1,1,0,0,0,false,false,true,-400.69,945.44995,17.01,0.0033043127,0.0034337877,-0.68924445,0.72451305,-579.35095,153.521,8.331,0.00021,0.00021,4.84941
95.2,2000,0,91.24,0.000002697398,0.000002697398,0.000002697398,0.99999994,0,0,0,0,0,0,1,1,0,0,0,false,false,true,-405.52,946.73,17.01,0.0032341804,0.0034985254,-0.6744627,0.73829347,-573.78094,145.871,8.331,0.00021,0.00021,4.88021
95.208336,2000,0,91.24,0.000002697398,0.000002697398,0.000002697398,0.99999994,0,0,0,0,0,0,1,1,0,0,0,false,false,true,-410.3,947.94995,17.01,0.0031640478,0.0035632628,-0.65931404,0.75185245,-567.97095,138.61101,8.331,0.00021,0.00030999997,4.90731
95.21667,2000,0,91.24,0.000002697398,0.000002697398,0.000002697398,0.99999994,0,0,0,0,0,0,1,1,0,0,0,false,false,true,-415.03,949.11,17.01,0.0030885208,0.0036280004,-0.6438039,0.7651756,-561.96094,131.731,8.331,0.00021,0.00040999998,4.9306097
95.225,2000,0,91.24,0.000002697398,0.000002697398,0.000002697398,0.99999994,0,0,0,0,0,0,1,1,0,0,0,false,false,true,-419.71,950.20996,17.01,0.0030129936,0.003692738,-0.6279486,0.77824014,-555.77094,125.241,8.331,0.00021,0.00051,4.95001
95.23333,2000,0,91.24,0.000002697398,0.000002697398,0.000002697398,0.99999994,0,0,0,0,0,0,1,1,0,0,0,false,false,true,-424.34,951.25,17.01,0.0029374664,0.0037574756,-0.6117641,0.79102576,-549.43097,119.141,8.331,0.00021,0.00061,4.96561
95.24167,2000,0,91.24,0.000002697398,0.000002697398,0.000002697398,0.99999994,0,0,0,0,0,0,1,1,0,0,0,false,false,true,-428.91998,952.24,17.01,0.0028565445,0.003822213,-0.59526676,0.8035139,-542.98096,113.421,8.321,0.00010999999,0.00061,4.97721
95.25,2000,0,91.24,0.000002697398,0.000002697398,0.000002697398,0.99999994,0,0,0,0,0,0,1,1,0,0,0,false,false,true,-433.44,953.19,17.01,0.0027756225,0.0038815557,-0.5784781,0.81568384,-536.451,108.071,8.321,0.00010999999,0.00061,4.98481
95.25833,2000,0,91.24,0.000002697398,0.000002697398,0.000002697398,0.99999994,0,0,0,0,0,0,1,1,0,0,0,false,false,true,-437.91,954.08997,17.01,0.0026947008,0.003940899,-0.56141436,0.827521,-529.86096,103.08099,8.321,0.00010999999,0.00071,4.98841
95.26667,2000,0,91.24,0.000002697398,0.000002697398,0.000002697398,0.99999994,0,0,0,0,0,0,1,1,0,0,0,false,false,true,-442.33,954.94995,17.01,0.0026083838,0.004000241,-0.5440915,0.8390122,-523.251,98.431,8.321,0,0.00071,4.98791
95.275,2000,0,91.24,0.000002697398,0.000002697398,0.000002697398,0.99999994,0,0,0,0,0,0,1,1,0,0,0,false,false,true,-446.69,955.76996,17.01,0.0025220672,0.004054189,-0.5265368,0.85013884,-516.641,94.120995,8.321,0,0.00071,4.98311
95.28333,2000,0,91.24,0.000002697398,0.000002697398,0.000002697398,0.99999994,0,0,0,0,0,0,1,1,0,0,0,false,false,true,-451,956.55,17.01,0.0024357506,0.0041081375,-0.5087717,0.8608882,-510.07098,90.120995,8.321,0,0.00081,4.97401
95.291664,2000,0,91.24,0.000002697398,0.000002697398,0.000002697398,0.99999994,0,0,0,0,0,0,1,1,0,0,0,false,false,true,-455.25,957.3,17.01,0.002349434,0.0041620857,-0.49082315,0.8712461,-503.491,86.370995,8.321,0,0.00081,4.96031
95.3,2000,0,91.24,0.000002697398,0.000002697398,0.000002697398,0.99999994,0,0,0,0,0,0,1,1,0,0,0,false,false,true,-459.44998,958.01996,17.01,0.0022631167,0.004210638,-0.47271267,0.8812035,-496.921,82.861,8.321,0,0.00081,4.9422097
95.308334,2000,0,91.24,0.000002697398,0.000002697398,0.000002697398,0.99999994,0,0,0,0,0,0,1,1,0,0,0,false,false,true,-463.59,958.70996,17.01,0.0021768,0.004259191,-0.4544674,0.89075035,-490.38098,79.571,8.321,0,0.00081,4.91961
95.316666,2000,0,91.24,0.000002697398,0.000002697398,0.000002697398,0.99999994,0,0,0,0,0,0,1,1,0,0,0,false,false,true,-467.68,959.37,17.01,0.0020850885,0.0043077446,-0.4361143,0.8998785,-483.901,76.501,8.311,-0.00010999999,0.00081,4.89211
95.325,2000,0,91.24,0.000002697398,0.000002697398,0.000002697398,0.99999994,0,0,0,0,0,0,1,1,0,0,0,false,false,true,-471.71,960.00995,17.01,0.0019933772,0.0043509034,-0.41768023,0.90858144,-477.371,73.571,8.311,-0.00021,0.00071,4.86311
95.333336,2000,0,91.24,0.000002697398,0.000002697398,0.000002697398,0.99999994,0,0,0,0,0,0,1,1,0,0,0,false,false,true,-475.69,960.62,17.01,0.0019016657,0.0043940614,-0.39918676,0.91685706,-470.781,70.781,8.311,-0.00030999997,0.00061,4.83321
95.34167,2000,0,91.24,0.000002697398,0.000002697398,0.000002697398,0.99999994,0,0,0,0,0,0,1,1,0,0,0,false,false,true,-479.61,961.20996,17.01,0.0018099542,0.004431825,-0.3806448,0.9247089,-464.141,68.141,8.311,-0.00030999997,0.00051,4.80261
95.35,2000,0,91.24,0.000002697398,0.000002697398,0.000002697398,0.99999994,0,0,0,0,0,0,1,1,0,0,0,false,false,true,-483.47998,961.77997,17.01,0.0017182425,0.0044695884,-0.36206505,0.93214047,-457.451,65.651,8.311,-0.00040999998,0.00040999998,4.77151
95.35833,2000,0,91.24,0.000002697398,0.000002697398,0.000002697398,0.99999994,0,0,0,0,0,0,1,1,0,0,0,false,false,true,-487.28998,962.32996,17.01,0.0016265309,0.004501957,-0.34346366,0.9391536,-450.721,63.301,8.311,-0.00040999998,0.00030999997,4.74001
95.36667,2000,0,91.24,0.000002697398,0.000002697398,0.000002697398,0.99999994,0,0,0,0,0,0,1,1,0,0,0,false,false,true,-491.05,962.86,17.01,0.0015348196,0.0045343265,-0.3248516,0.94575286,-443.941,61.100998,8.311,-0.00040999998,0.00021,4.70841
95.375,2000,0,91.24,0.000002697398,0.000002697398,0.000002697398,0.99999994,0,0,0,0,0,0,1,1,0,0,0,false,false,true,-494.75,963.37,17.01,0.0014431078,0.0045612995,-0.30623406,0.95194405,-437.121,59.051,8.311,-0.00040999998,0.00010999999,4.67681
95.38333,2000,0,91.24,0.000002697398,0.000002697398,0.000002697398,0.99999994,0,0,0,0,0,0,1,1,0,0,0,false,false,true,-498.38998,963.86,17.01,0.0013513966,0.0045882743,-0.28762737,0.9577304,-430.261,57.161,8.311,-0.00040999998,0.00010999999,4.64541
95.39167,2000,0,91.24,0.000002697398,0.000002697398,0.000002697398,0.99999994,0,0,0,0,0,0,1,1,0,0,0,false,false,true,-501.97998,964.33997,17.01,0.0012596849,0.004615248,-0.2690368,0.96311796,-423.361,55.420998,8.311,-0.00040999998,0,4.61441
95.4,2000,0,91.24,0.000002697398,0.000002697398,0.000002697398,0.99999994,0,0,0,0,0,0,1,1,0,0,0,false,false,true,-505.50998,964.8,17.01,0.0011679734,0.004636827,-0.25047326,0.96811163,-416.421,53.830997,8.311,-0.00040999998,0,4.58401
95.40833,2000,0,91.24,0.000002697398,0.000002697398,0.000002697398,0.99999994,0,0,0,0,0,0,1,1,0,0,0,false,false,true,-508.97998,965.25,17.01,0.0010762617,0.004658406,-0.23193666,0.9727191,-409.451,52.391,8.311,-0.00040999998,0,4.55431
95.416664,2000,0,91.24,0.000002697398,0.000002697398,0.000002697398,0.99999994,0,0,0,0,0,0,1,1,0,0,0,false,false,true,-512.39,965.69,17.01,0.0009845501,0.004679985,-0.21343778,0.9769448,-402.441,51.111,8.311,-0.00030999997,0,4.52551
95.425,2000,0,91.24,0.000002697398,0.000002697398,0.000002697398,0.99999994,0,0,0,0,0,0,1,1,0,0,0,false,false,true,-515.74,966.12,17.01,0.00089283875,0.00469617,-0.19497678,0.98079616,-395.391,49.990997,8.311,-0.00021,-0.00010999999,4.49781
95.433334,2000,0,91.24,0.000002697398,0.000002697398,0.000002697398,0.99999994,0,0,0,0,0,0,1,1,0,0,0,false,false,true,-519.02997,966.54,17.01,0.0008065221,0.004712355,-0.17656428,0.9842775,-388.301,49.031,8.311,-0.00010999999,-0.00021,4.47141
95.441666,2000,0,91.24,0.000002697398,0.000002697398,0.000002697398,0.99999994,0,0,0,0,0,0,1,1,0,0,0,false,false,true,-522.26996,966.94995,17.01,0.00072020525,0.0047231438,-0.15819488,0.9873963,-381.171,48.231,8.311,-0.00010999999,-0.00030999997,4.4464097
95.45,2000,0,91.24,0.000002697398,0.000002697398,0.000002697398,0.99999994,0,0,0,0,0,0,1,1,0,0,0,false,false,true,-525.45,967.35,17.01,0.0006338885,0.0047339336,-0.13987412,0.9901577,-374.001,47.600998,8.311,-0.00010999999,-0.00030999997,4.42301
95.458336,2000,0,91.24,0.000002697398,0.000002697398,0.000002697398,0.99999994,0,0,0,0,0,0,1,1,0,0,0,false,false,true,-528.57,967.75,17.01,0.0005475718,0.004744723,-0.121601865,0.9925674,-366.791,47.141,8.311,-0.00010999999,-0.00030999997,4.40141
95.46667,2000,0,91.24,0.000002697398,0.000002697398,0.000002697398,0.99999994,0,0,0,0,0,0,1,1,0,0,0,false,false,true,-531.63,968.13995,17.01,0.0004612551,0.004750118,-0.10337817,0.99463063,-359.541,46.861,8.311,-0.00010999999,-0.00030999997,4.38171
95.475,2000,0,91.24,0.000002697398,0.000002697398,0.000002697398,0.99999994,0,0,0,0,0,0,1,1,0,0,0,false,false,true,-534.63,968.52997,17.01,0.00037493833,0.004755513,-0.08520305,0.99635214,-352.251,46.771,8.301001,-0.00010999999,-0.00030999997,4.36411
