time,ball_loc_x,ball_loc_y,ball_loc_z,ball_rot_x,ball_rot_y,ball_rot_z,ball_rot_w,ball_vel_x,ball_vel_y,ball_vel_z,ball_ang_x,ball_ang_y,ball_ang_z,player0_throttle,player0_steer,player0_pitch,player0_yaw,player0_roll,player0_jump,player0_boost,player0_handbrake,player0_loc_x,player0_loc_y,player0_loc_z,player0_rot_x,player0_rot_y,player0_rot_z,player0_rot_w,player0_vel_x,player0_vel_y,player0_vel_z,player0_ang_x,player0_ang_y,player0_ang_z
217.86667,2000,0,91.24,0.000002697398,0.000002697398,0.000002697398,0.99999994,0,0,0,0,0,0,1,0,0,0,0,false,true,false,0,-3888.51,16.99,-0.0033582605,0.0033798397,0.7069988,0.70719856,0.44099998,1707.981,8.411,-0.00071,-0.00010999999,0
217.875,2000,0,91.24,0.000002697398,0.000002697398,0.000002697398,0.99999994,0,0,0,0,0,0,1,1,0,0,0,false,false,true,0,-3874.28,16.99,-0.0033582605,0.0033798397,0.7069988,0.70719856,-10.571,1706.9409,8.471001,-0.00071,0.00271,0.30681
217.88333,2000,0,91.24,0.000002697398,0.000002697398,0.000002697398,0.99999994,0,0,0,0,0,0,1,1,0,0,0,false,false,true,-0.089999996,-3860.0598,16.99,-0.0033582607,0.0033852349,0.7079044,0.70629215,-20.040998,1706.011,8.501,-0.00071,0.00391,0.55471
217.89166,2000,0,91.24,0.000002697398,0.000002697398,0.000002697398,0.99999994,0,0,0,0,0,0,1,1,0,0,0,false,false,true,-0.26,-3845.8398,16.99,-0.0033582605,0.0033906293,0.70953685,0.7046521,-29.421,1705.0609,8.521,-0.00061,0.00421,0.77331
217.9,2000,0,91.24,0.000002697398,0.000002697398,0.000002697398,0.99999994,0,0,0,0,0,0,1,1,0,0,0,false,false,true,-0.51,-3831.63,16.99,-0.0033582605,0.0033960242,0.7118012,0.7023647,-39.121,1704.0409,8.541,-0.00051,0.00411,0.96781
217.90834,2000,0,91.24,0.000002697398,0.000002697398,0.000002697398,0.99999994,0,0,0,0,0,0,1,1,0,0,0,false,false,true,-0.84,-3817.43,16.99,-0.0033636554,0.0033960242,0.714627,0.69948924,-49.391,1702.9109,8.551001,-0.00051,0.00361,1.1425099
217.91667,2000,0,91.24,0.000002697398,0.000002697398,0.000002697398,0.99999994,0,0,0,0,0,0,1,1,0,0,0,false,false,true,-1.25,-3803.24,16.99,-0.00336905,0.0033906293,0.7179485,0.69607973,-60.350998,1701.631,8.561,-0.00040999998,0.00311,1.30091
217.925,2000,0,91.24,0.000002697398,0.000002697398,0.000002697398,0.99999994,0,0,0,0,0,0,1,1,0,0,0,false,false,true,-1.75,-3789.0598,16.99,-0.00337984,0.0033852349,0.7217097,0.69217926,-72.061,1700.1609,8.561,-0.00040999998,0.00251,1.44551
217.93333,2000,0,91.24,0.000002697398,0.000002697398,0.000002697398,0.99999994,0,0,0,0,0,0,1,1,0,0,0,false,false,true,-2.35,-3774.89,16.99,-0.0033960238,0.0033744446,0.7258651,0.6878202,-84.501,1698.4609,8.561,-0.00030999997,0.0019099999,1.5785099
217.94167,2000,0,91.24,0.000002697398,0.000002697398,0.000002697398,0.99999994,0,0,0,0,0,0,1,1,0,0,0,false,false,true,-3.05,-3760.74,16.99,-0.003412208,0.00335826,0.7303748,0.6830296,-97.631,1696.491,8.561,-0.00021,0.00131,1.70161
217.95,2000,0,91.24,0.000002697398,0.000002697398,0.000002697398,0.99999994,0,0,0,0,0,0,1,1,0,0,0,false,false,true,-3.86,-3746.5999,16.99,-0.0034337877,0.0033366815,0.73519886,0.67783445,-111.370995,1694.231,8.571,-0.00021,0.00081,1.81601
217.95833,2000,0,91.24,0.000002697398,0.000002697398,0.000002697398,0.99999994,0,0,0,0,0,0,1,1,0,0,0,false,false,true,-4.79,-3732.48,16.99,-0.0034553665,0.0033151018,0.7403079,0.6722507,-125.601,1691.6609,8.571,-0.00021,0.00040999998,1.9226099
217.96666,2000,0,91.24,0.000002697398,0.000002697398,0.000002697398,0.99999994,0,0,0,0,0,0,1,1,0,0,0,false,false,true,-5.8399997,-3718.38,16.99,-0.0034823408,0.0032881282,0.74566805,0.6663003,-140.211,1688.771,8.571,-0.00010999999,0,2.02221
217.975,2000,0,91.24,0.000002697398,0.000002697398,0.000002697398,0.99999994,0,0,0,0,0,0,1,1,0,0,0,false,false,true,-7.0099998,-3704.3098,16.99,-0.003509315,0.0032611543,0.7512557,0.65999377,-155.061,1685.5609,8.571,-0.00010999999,-0.00021,2.11521
217.98334,2000,0,91.24,0.000002697398,0.000002697398,0.000002697398,0.99999994,0,0,0,0,0,0,1,1,0,0,0,false,false,true,-8.3,-3690.26,16.99,-0.0035362889,0.0032287855,0.757043,0.6533474,-170.001,1682.0309,8.571,0,-0.00040999998,2.20201
217.99167,2000,0,91.24,0.000002697398,0.000002697398,0.000002697398,0.99999994,0,0,0,0,0,0,1,1,0,0,0,false,false,true,-9.719999,-3676.24,16.99,-0.0035686577,0.0031964167,0.7630074,0.64637184,-184.86101,1678.2109,8.571,0,-0.00061,2.28281
218,2000,0,91.24,0.000002697398,0.000002697398,0.000002697398,0.99999994,0,0,0,0,0,0,1,1,0,0,0,false,false,true,-11.259999,-3662.25,16.99,-0.0036010267,0.0031586534,0.7691224,0.6390835,-199.481,1674.121,8.571,0,-0.00071,2.35771
218.00833,2000,0,91.24,0.000002697398,0.000002697398,0.000002697398,0.99999994,0,0,0,0,0,0,1,1,0,0,0,false,false,true,-12.92,-3648.2998,16.99,-0.0036333953,0.0031208897,0.7753623,0.6314984,-213.69101,1669.8209,8.571,0,-0.00081,2.42671
218.01666,2000,0,91.24,0.000002697398,0.000002697398,0.000002697398,0.99999994,0,0,0,0,0,0,1,1,0,0,0,false,false,true,-14.7,-3634.38,16.99,-0.003665764,0.003083126,0.78170705,0.6236273,-227.291,1665.371,8.571,0,-0.00091,2.48981
218.025,2000,0,91.24,0.000002697398,0.000002697398,0.000002697398,0.99999994,0,0,0,0,0,0,1,1,0,0,0,false,false,true,-16.59,-3620.5,16.99,-0.0036981327,0.0030399675,0.7881328,0.61548656,-240.101,1660.851,8.571,0,-0.0010099999,2.54671
218.03334,2000,0,91.24,0.000002697398,0.000002697398,0.000002697398,0.99999994,0,0,0,0,0,0,1,1,0,0,0,false,false,true,-18.59,-3606.66,16.99,-0.0037358964,0.0029968093,0.794621,0.6070868,-251.921,1656.371,8.571,0,-0.00111,2.59731
218.04167,2000,0,91.24,0.000002697398,0.000002697398,0.000002697398,0.99999994,0,0,0,0,0,0,1,1,0,0,0,false,false,true,-20.689999,-3592.8599,16.99,-0.00377366,0.002953651,0.801146,0.5984497,-262.551,1652.0509,8.571,0,-0.0012099999,2.6412098
218.05,2000,0,91.24,0.000002697398,0.000002697398,0.000002697398,0.99999994,0,0,0,0,0,0,1,1,0,0,0,false,false,true,-22.88,-3579.0898,16.99,-0.0038114234,0.0029104925,0.80768335,0.5895968,-271.79102,1648.0309,8.571,0.00010999999,-0.0012099999,2.67821
218.05833,2000,0,91.24,0.000002697398,0.000002697398,0.000002697398,0.99999994,0,0,0,0,0,0,1,1,0,0,0,false,false,true,-25.14,-3565.3599,16.99,-0.0038491872,0.0028619394,0.8142106,0.58054966,-279.431,1644.481,8.571,0.00021,-0.0012099999,2.70791
218.06667,2000,0,91.24,0.000002697398,0.000002697398,0.000002697398,0.99999994,0,0,0,0,0,0,1,1,0,0,0,false,false,true,-27.47,-3551.66,16.99,-0.003886951,0.0028133865,0.8207101,0.57132465,-285.261,1641.591,8.561,0.00030999997,-0.0012099999,2.73001
218.075,2000,0,91.24,0.000002697398,0.000002697398,0.000002697398,0.99999994,0,0,0,0,0,0,1,1,0,0,0,false,false,true,-29.849998,-3537.98,16.99,-0.003924714,0.002764833,0.82715464,0.5619537,-291.331,1638.4209,8.561,0.00040999998,-0.0012099999,2.7513099
218.08333,2000,0,91.24,0.000002697398,0.000002697398,0.000002697398,0.99999994,0,0,0,0,0,0,1,1,0,0,0,false,false,true,-32.28,-3524.3298,16.99,-0.0039570834,0.00271628,0.83354056,0.55243737,-297.621,1634.9509,8.561,0.00040999998,-0.00111,2.77211
218.09166,2000,0,91.24,0.000002697398,0.000002697398,0.000002697398,0.99999994,0,0,0,0,0,0,1,1,0,0,0,false,false,true,-34.76,-3510.7,16.99,-0.0039894516,0.0026677267,0.8398642,0.5427752,-304.111,1631.1709,8.561,0.00040999998,-0.0010099999,2.79241
218.1,2000,0,91.24,0.000002697398,0.000002697398,0.000002697398,0.99999994,0,0,0,0,0,0,1,1,0,0,0,false,false,true,-37.29,-3497.1099,16.99,-0.00402182,0.0026191734,0.8461221,0.5329674,-310.781,1627.0809,8.561,0.00040999998,-0.0010099999,2.81211
218.10834,2000,0,91.24,0.000002697398,0.000002697398,0.000002697398,0.99999994,0,0,0,0,0,0,1,1,0,0,0,false,false,true,-39.879997,-3483.5498,16.99,-0.0040541897,0.0025706205,0.8523072,0.52301943,-317.611,1622.6709,8.561,0.00040999998,-0.00091,2.83131
218.11667,2000,0,91.24,0.000002697398,0.000002697398,0.000002697398,0.99999994,0,0,0,0,0,0,1,1,0,0,0,false,false,true,-42.53,-3470.03,16.99,-0.0040865582,0.0025166725,0.8584196,0.5129257,-324.581,1617.9409,8.561,0.00040999998,-0.00091,2.85001
218.125,2000,0,91.24,0.000002697398,0.000002697398,0.000002697398,0.99999994,0,0,0,0,0,0,1,1,0,0,0,false,false,true,-45.23,-3456.5498,16.99,-0.004118927,0.0024627245,0.8644492,0.5026971,-331.661,1612.891,8.561,0.00040999998,-0.00081,2.86811
218.13333,2000,0,91.24,0.000002697398,0.000002697398,0.000002697398,0.99999994,0,0,0,0,0,0,1,1,0,0,0,false,false,true,-47.989998,-3443.1099,16.99,-0.0041512954,0.0024087764,0.8703963,0.49232826,-338.821,1607.511,8.561,0.00040999998,-0.00071,2.88571
218.14166,2000,0,91.24,0.000002697398,0.000002697398,0.000002697398,0.99999994,0,0,0,0,0,0,1,1,0,0,0,false,false,true,-50.809998,-3429.71,16.99,-0.0041836645,0.0023548284,0.8762515,0.48182997,-346.051,1601.8009,8.561,0.00040999998,-0.00061,2.90271
218.15,2000,0,91.24,0.000002697398,0.000002697398,0.000002697398,0.99999994,0,0,0,0,0,0,1,1,0,0,0,false,false,true,-53.69,-3416.3599,16.99,-0.004210639,0.0023008806,0.88201505,0.47119677,-353.321,1595.771,8.561,0.00040999998,-0.00051,2.9191098
218.15834,2000,0,91.24,0.000002697398,0.000002697398,0.000002697398,0.99999994,0,0,0,0,0,0,1,1,0,0,0,false,false,true,-56.629997,-3403.0598,16.99,-0.0042376122,0.0022469326,0.8876808,0.46043414,-360.611,1589.4109,8.561,0.00030999997,-0.00051,2.93481
218.16667,2000,0,91.24,0.000002697398,0.000002697398,0.000002697398,0.99999994,0,0,0,0,0,0,1,1,0,0,0,false,false,true,-59.64,-3389.8098,16.99,-0.004264586,0.0021929846,0.89324355,0.44954735,-367.901,1582.731,8.561,0.00030999997,-0.00040999998,2.94991
218.175,2000,0,91.24,0.000002697398,0.000002697398,0.000002697398,0.99999994,0,0,0,0,0,0,1,1,0,0,0,false,false,true,-62.71,-3376.6199,16.99,-0.00429156,0.0021390365,0.8987005,0.43853658,-375.161,1575.731,8.561,0.00030999997,-0.00040999998,2.96431
218.18333,2000,0,91.24,0.000002697398,0.000002697398,0.000002697398,0.99999994,0,0,0,0,0,0,1,1,0,0,0,false,false,true,-65.84,-3363.49,16.99,-0.004318534,0.0020850885,0.90404904,0.42740163,-382.381,1568.4209,8.561,0.00030999997,-0.00040999998,2.97801
218.19167,2000,0,91.24,0.000002697398,0.000002697398,0.000002697398,0.99999994,0,0,0,0,0,0,1,1,0,0,0,false,false,true,-69.03,-3350.42,16.99,-0.0043455083,0.0020311407,0.9092817,0.4161535,-389.531,1560.8009,8.561,0.00030999997,-0.00040999998,2.99101
218.2,2000,0,91.24,0.000002697398,0.000002697398,0.000002697398,0.99999994,0,0,0,0,0,0,1,1,0,0,0,false,false,true,-72.28,-3337.41,16.99,-0.0043724827,0.001977193,0.91439617,0.40479198,-396.591,1552.881,8.561,0.00030999997,-0.00040999998,3.0032098
218.20833,2000,0,91.24,0.000002697398,0.000002697398,0.000002697398,0.99999994,0,0,0,0,0,0,1,1,0,0,0,false,false,true,-75.58,-3324.47,16.99,-0.0043994565,0.0019178501,0.91939026,0.39331725,-404.231,1545.241,8.561,0.00030999997,-0.00030999997,3.0176098
218.21666,2000,0,91.24,0.000002697398,0.000002697398,0.000002697398,0.99999994,0,0,0,0,0,0,1,1,0,0,0,false,false,true,-78.95,-3311.5898,16.99,-0.00442643,0.0018585073,0.9242617,0.38172913,-411.85098,1537.371,8.561,0.00030999997,-0.00021,3.03161
218.225,2000,0,91.24,0.000002697398,0.000002697398,0.000002697398,0.99999994,0,0,0,0,0,0,1,1,0,0,0,false,false,true,-82.38,-3298.78,16.99,-0.0044480097,0.0017991647,0.9290104,0.37002245,-419.441,1529.2809,8.561,0.00030999997,-0.00010999999,3.04521
218.23334,2000,0,91.24,0.000002697398,0.000002697398,0.000002697398,0.99999994,0,0,0,0,0,0,1,1,0,0,0,false,false,true,-85.88,-3286.04,16.99,-0.004469589,0.0017398219,0.9336296,0.35820773,-426.991,1520.981,8.561,0.00030999997,0,3.05831
218.24167,2000,0,91.24,0.000002697398,0.000002697398,0.000002697398,0.99999994,0,0,0,0,0,0,1,1,0,0,0,false,false,true,-89.439995,-3273.3699,16.99,-0.0044911676,0.001680479,0.93811893,0.34627983,-434.491,1512.481,8.561,0.00021,0,3.0710099
218.25,2000,0,91.24,0.000002697398,0.000002697398,0.000002697398,0.99999994,0,0,0,0,0,0,1,1,0,0,0,false,false,true,-93.06,-3260.77,16.99,-0.004512747,0.0016211362,0.9424724,0.33424935,-441.931,1503.7809,8.561,0.00021,0,3.08331
218.25833,2000,0,91.24,0.000002697398,0.000002697398,0.000002697398,0.99999994,0,0,0,0,0,0,1,1,0,0,0,false,false,true,-96.74,-3248.24,16.99,-0.0045343256,0.0015617934,0.94668776,0.3221164,-449.301,1494.901,8.561,0.00021,0,3.09511
218.26666,2000,0,91.24,0.000002697398,0.000002697398,0.000002697398,0.99999994,0,0,0,0,0,0,1,1,0,0,0,false,false,true,-100.479996,-3235.78,16.99,-0.0045559057,0.0015024508,0.9507632,0.309881,-456.60098,1485.851,8.561,0.00021,0,3.10651
218.275,2000,0,91.24,0.000002697398,0.000002697398,0.000002697398,0.99999994,0,0,0,0,0,0,1,1,0,0,0,false,false,true,-104.28,-3223.4,16.99,-0.0045720898,0.001443108,0.9546946,0.29754838,-463.811,1476.631,8.561,0.00021,0,3.11741
218.28334,2000,0,91.24,0.000002697398,0.000002697398,0.000002697398,0.99999994,0,0,0,0,0,0,1,1,0,0,0,false,false,true,-108.149994,-3211.0898,16.99,-0.004588274,0.0013837651,0.95847857,0.28512415,-470.931,1467.261,8.561,0.00021,0,3.12781
218.29167,2000,0,91.24,0.000002697398,0.000002697398,0.000002697398,0.99999994,0,0,0,0,0,0,1,1,0,0,0,false,false,true,-112.07,-3198.8599,16.99,-0.004604459,0.0013244225,0.9621132,0.27260816,-477.961,1457.751,8.561,0.00021,0,3.1377099
218.3,2000,0,91.24,0.000002697398,0.000002697398,0.000002697398,0.99999994,0,0,0,0,0,0,1,1,0,0,0,false,false,true,-116.049995,-3186.71,16.99,-0.004620643,0.0012650797,0.96559507,0.2600059,-484.891,1448.101,8.561,0.00021,0,3.14711
218.30833,2000,0,91.24,0.000002697398,0.000002697398,0.000002697398,0.99999994,0,0,0,0,0,0,1,1,0,0,0,false,false,true,-120.09,-3174.64,16.99,-0.0046368265,0.0012057368,0.9689212,0.24732263,-491.721,1438.3309,8.561,0.00021,0,3.15601
218.31667,2000,0,91.24,0.000002697398,0.000002697398,0.000002697398,0.99999994,0,0,0,0,0,0,1,1,0,0,0,false,false,true,-124.189995,-3162.65,16.99,-0.0046530114,0.0011463942,0.9720901,0.23455857,-498.441,1428.4509,8.561,0.00021,0,3.1644099
218.325,2000,0,91.24,0.000002697398,0.000002697398,0.000002697398,0.99999994,0,0,0,0,0,0,1,1,0,0,0,false,false,true,-128.34,-3150.75,16.99,-0.0046691964,0.0010816567,0.9750988,0.22171889,-505.061,1418.471,8.561,0.00021,0,3.17221
218.33333,2000,0,91.24,0.000002697398,0.000002697398,0.000002697398,0.99999994,0,0,0,0,0,0,1,1,0,0,0,false,false,true,-132.55,-3138.93,16.99,-0.0046853805,0.001016919,0.9779446,0.20880903,-511.57098,1408.401,8.561,0.00021,0,3.1795099
218.34166,2000,0,91.24,0.000002697398,0.000002697398,0.000002697398,0.99999994,0,0,0,0,0,0,1,1,0,0,0,false,false,true,-136.81,-3127.19,16.99,-0.00469617,0.0009521815,0.9806252,0.19583455,-517.97095,1398.251,8.561,0.00021,0.00010999999,3.18621
218.35,2000,0,91.24,0.000002697398,0.000002697398,0.000002697398,0.99999994,0,0,0,0,0,0,1,1,0,0,0,false,false,true,-141.12999,-3115.54,16.99,-0.0047069597,0.00088744395,0.98313826,0.18280064,-524.261,1388.0409,8.561,0.00021,0.00010999999,3.19241
218.35834,2000,0,91.24,0.000002697398,0.000002697398,0.000002697398,0.99999994,0,0,0,0,0,0,1,1,0,0,0,false,false,true,-145.5,-3103.97,16.99,-0.0047177486,0.0008227063,0.9854827,0.16970746,-530.451,1377.771,8.561,0.00021,0.00010999999,3.19801
218.36667,2000,0,91.24,0.000002697398,0.000002697398,0.000002697398,0.99999994,0,0,0,0,0,0,1,1,0,0,0,false,false,true,-149.92,-3092.49,16.99,-0.004728539,0.0007579689,0.9876568,0.15656029,-536.54095,1367.4509,8.561,0.00010999999,0.00010999999,3.2030098
218.375,2000,0,91.24,0.000002697398,0.000002697398,0.000002697398,0.99999994,0,0,0,0,0,0,1,1,0,0,0,false,false,true,-154.39,-3081.0898,16.99,-0.0047393283,0.0006932313,0.9896583,0.1433645,-542.53094,1357.091,8.561,0.00010999999,0.00021,3.2074099
218.38333,2000,0,91.24,0.000002697398,0.000002697398,0.000002697398,0.99999994,0,0,0,0,0,0,1,1,0,0,0,false,false,true,-158.91,-3069.78,16.99,-0.0047447234,0.0006284938,0.9914859,0.1301257,-548.43097,1346.7009,8.561,0.00010999999,0.00021,3.21121
218.39166,2000,0,91.24,0.000002697398,0.000002697398,0.000002697398,0.99999994,0,0,0,0,0,0,1,1,0,0,0,false,false,true,-163.48,-3058.5598,16.99,-0.0047501177,0.00056375616,0.99313813,0.11684901,-554.24097,1336.2909,8.561,0,0.00021,3.2144098
218.4,2000,0,91.24,0.000002697398,0.000002697398,0.000002697398,0.99999994,0,0,0,0,0,0,1,1,0,0,0,false,false,true,-168.09999,-3047.42,16.99,-0.0047555123,0.0004990186,0.99461365,0.10354004,-559.97095,1325.871,8.561,0,0.00021,3.21691
218.40834,2000,0,91.24,0.000002697398,0.000002697398,0.000002697398,0.99999994,0,0,0,0,0,0,1,1,0,0,0,false,false,true,-172.76999,-3036.3699,16.99,-0.004760908,0.00043428113,0.9959123,0.090198636,-565.621,1315.4509,8.561,0,0.00021,3.2188098
218.41667,2000,0,91.24,0.000002697398,0.000002697398,0.000002697398,0.99999994,0,0,0,0,0,0,1,1,0,0,0,false,false,true,-177.48,-3025.41,16.99,-0.004766302,0.00036954353,0.9970323,0.07683563,-571.201,1305.031,8.561,0,0.00021,3.22001
218.425,2000,0,91.24,0.000002697398,0.000002697398,0.000002697398,0.99999994,0,0,0,0,0,0,1,1,0,0,0,false,false,true,-182.23999,-3014.53,16.99,-0.004771697,0.000304806,0.99797344,0.06345114,-576.72095,1294.621,8.561,0,0.00021,3.22061
218.43333,2000,0,91.24,0.000002697398,0.000002697398,0.000002697398,0.99999994,0,0,0,0,0,0,1,1,0,0,0,false,false,true,-187.05,-3003.74,16.99,-0.004777092,0.00024006843,0.9987349,0.050055783,-582.191,1284.221,8.561,0,0.00030999997,3.22051
218.44167,2000,0,91.24,0.000002697398,0.000002697398,0.000002697398,0.99999994,0,0,0,0,0,0,1,1,0,0,0,false,false,true,-191.9,-2993.04,16.99,-0.004777092,0.00017533088,0.9993167,0.036649715,-587.621,1273.841,8.561,0,0.00030999997,3.2197099
218.45,2000,0,91.24,0.000002697398,0.000002697398,0.000002697398,0.99999994,0,0,0,0,0,0,1,1,0,0,0,false,false,true,-196.8,-2982.42,16.99,-0.004777092,0.00011059332,0.9997185,0.023238169,-593.02094,1263.491,8.561,0,0.00030999997,3.2181098
218.45833,2000,0,91.24,0.000002697398,0.000002697398,0.000002697398,0.99999994,0,0,0,0,0,0,1,1,0,0,0,false,false,true,-201.73999,-2971.89,16.99,-0.0047770925,0.00004585577,0.9999402,0.009832016,-598.40094,1253.1609,8.561,0,0.00030999997,3.2158098
218.46666,2000,0,91.24,0.000002697398,0.000002697398,0.000002697398,0.99999994,0,0,0,0,0,0,1,1,0,0,0,false,false,true,-206.73,-2961.45,16.99,-0.0047770925,-0.000018881788,0.9999822,-0.003568658,-603.77094,1242.861,8.561,0,0.00030999997,3.21271
218.475,2000,0,91.24,0.000002697398,0.000002697398,0.000002697398,0.99999994,0,0,0,0,0,0,1,1,0,0,0,false,false,true,-211.76,-2951.0898,16.99,-0.0047770925,-0.00008361934,0.99984485,-0.016953232,-609.141,1232.591,8.561,0,0.00030999997,3.2088099
218.48334,2000,0,91.24,0.000002697398,0.000002697398,0.000002697398,0.99999994,0,0,0,0,0,0,1,1,0,0,0,false,false,true,-216.84,-2940.8198,16.99,-0.004771697,-0.00014835689,0.99952877,-0.030321578,-614.52094,1222.351,8.561,0,0.00040999998,3.20411
218.49167,2000,0,91.24,0.000002697398,0.000002697398,0.000002697398,0.99999994,0,0,0,0,0,0,1,1,0,0,0,false,false,true,-221.95999,-2930.63,16.99,-0.004766302,-0.00021309445,0.9990349,-0.04366295,-619.92096,1212.151,8.561,0,0.00040999998,3.1986098
218.5,2000,0,91.24,0.000002697398,0.000002697398,0.000002697398,0.99999994,0,0,0,0,0,0,1,1,0,0,0,false,false,true,-227.12999,-2920.53,16.99,-0.0047609075,-0.000277832,0.9983643,-0.056971956,-625.36096,1201.981,8.561,0,0.00040999998,3.19221
218.50833,2000,0,91.24,0.000002697398,0.000002697398,0.000002697398,0.99999994,0,0,0,0,0,0,1,1,0,0,0,false,false,true,-232.34,-2910.51,16.99,-0.0047555133,-0.00034256958,0.9975185,-0.0702432,-630.85095,1191.8309,8.561,0,0.00040999998,3.1849098
218.51666,2000,0,91.24,0.000002697398,0.000002697398,0.000002697398,0.99999994,0,0,0,0,0,0,1,1,0,0,0,false,false,true,-237.59999,-2900.5798,16.99,-0.004750118,-0.00040730715,0.9964983,-0.08347672,-636.30096,1181.621,8.561,-0.00010999999,0.00040999998,3.1807098
218.525,2000,0,91.24,0.000002697398,0.000002697398,0.000002697398,0.99999994,0,0,0,0,0,0,1,1,0,0,0,false,false,true,-242.9,-2890.73,16.99,-0.0047447234,-0.0004720447,0.9953043,-0.09667783,-641.701,1171.3309,8.561,-0.00021,0.00040999998,3.18041
218.53334,2000,0,91.24,0.000002697398,0.000002697398,0.000002697398,0.99999994,0,0,0,0,0,0,1,1,0,0,0,false,false,true,-248.25,-2880.97,16.99,-0.0047339336,-0.0005367822,0.9939359,-0.10985735,-647.05096,1160.971,8.561,-0.00030999997,0.00030999997,3.18381
218.54167,2000,0,91.24,0.000002697398,0.000002697398,0.000002697398,0.99999994,0,0,0,0,0,0,1,1,0,0,0,false,false,true,-253.64,-2871.3,16.99,-0.0047231438,-0.00059612497,0.9923913,-0.12303149,-652.36096,1150.5409,8.561,-0.00040999998,0.00021,3.1909099
218.55,2000,0,91.24,0.000002697398,0.000002697398,0.000002697398,0.99999994,0,0,0,0,0,0,1,1,0,0,0,false,false,true,-259.08,-2861.71,16.99,-0.004712355,-0.0006554678,0.99066764,-0.13621642,-657.641,1140.0409,8.561,-0.00040999998,0.00010999999,3.2016098
218.55833,2000,0,91.24,0.000002697398,0.000002697398,0.000002697398,0.99999994,0,0,0,0,0,0,1,1,0,0,0,false,false,true,-264.56,-2852.21,16.99,-0.0047015646,-0.0007148105,0.9887627,-0.14941756,-662.84094,1129.4309,8.561,-0.00040999998,0.00010999999,3.21711
218.56667,2000,0,91.24,0.000002697398,0.000002697398,0.000002697398,0.99999994,0,0,0,0,0,0,1,1,0,0,0,false,false,true,-270.08,-2842.8,16.99,-0.004690775,-0.0007741532,0.98667127,-0.16265643,-667.85095,1118.641,8.561,-0.00051,0,3.23911
218.575,2000,0,91.24,0.000002697398,0.000002697398,0.000002697398,0.99999994,0,0,0,0,0,0,1,1,0,0,0,false,false,true,-275.65,-2833.48,16.99,-0.0046799853,-0.000833496,0.9843858,-0.17596003,-672.68097,1107.6809,8.561,-0.00051,0,3.26741
218.58333,2000,0,91.24,0.000002697398,0.000002697398,0.000002697398,0.99999994,0,0,0,0,0,0,1,1,0,0,0,false,false,true,-281.25998,-2824.25,16.99,-0.004669196,-0.00089283875,0.98189914,-0.18934457,-677.33093,1096.5709,8.561,-0.00061,0,3.30191
218.59166,2000,0,91.24,0.000002697398,0.000002697398,0.000002697398,0.99999994,0,0,0,0,0,0,1,1,0,0,0,false,false,true,-286.9,-2815.1099,16.99,-0.004658406,-0.0009521815,0.9792009,-0.202837,-681.80096,1085.3109,8.561,-0.00061,-0.00010999999,3.34251
218.6,2000,0,91.24,0.000002697398,0.000002697398,0.000002697398,0.99999994,0,0,0,0,0,0,1,1,0,0,0,false,false,true,-292.58,-2806.0698,16.99,-0.004642222,-0.001016919,0.9762813,-0.21645355,-686.10095,1073.9209,8.561,-0.00061,-0.00021,3.3891098
218.60834,2000,0,91.24,0.000002697398,0.000002697398,0.000002697398,0.99999994,0,0,0,0,0,0,1,1,0,0,0,false,false,true,-298.3,-2797.1199,16.99,-0.0046260376,-0.0010816565,0.97312796,-0.23021571,-690.23096,1062.411,8.561,-0.00071,-0.00030999997,3.4416099
218.61667,2000,0,91.24,0.000002697398,0.000002697398,0.000002697398,0.99999994,0,0,0,0,0,0,1,1,0,0,0,false,false,true,-304.05,-2788.27,16.99,-0.004609853,-0.0011463942,0.969727,-0.24414513,-694.201,1050.7909,8.561,-0.00081,-0.00040999998,3.4999099
218.625,2000,0,91.24,0.000002697398,0.000002697398,0.000002697398,0.99999994,0,0,0,0,0,0,1,1,0,0,0,false,false,true,-309.83,-2779.51,16.99,-0.0045936694,-0.0012111318,0.9660643,-0.258258,-698.011,1039.0709,8.561,-0.00081,-0.00051,3.56401
218.63333,2000,0,91.24,0.000002697398,0.000002697398,0.000002697398,0.99999994,0,0,0,0,0,0,1,1,0,0,0,false,false,true,-315.65,-2770.8499,16.99,-0.0045774844,-0.0012758692,0.9621225,-0.27257583,-701.58093,1027.161,8.561,-0.00081,-0.00061,3.6321099
218.64166,2000,0,91.24,0.000002697398,0.000002697398,0.000002697398,0.99999994,0,0,0,0,0,0,1,1,0,0,0,false,false,true,-321.5,-2762.29,16.99,-0.0045613,-0.0013406068,0.95788753,-0.28710404,-704.821,1015.0109,8.561,-0.00081,-0.00071,3.7025099
218.65,2000,0,91.24,0.000002697398,0.000002697398,0.000002697398,0.99999994,0,0,0,0,0,0,1,1,0,0,0,false,false,true,-327.37,-2753.8298,16.99,-0.004539721,-0.0014053445,0.95334417,-0.30184808,-707.67096,1002.71094,8.561,-0.00081,-0.00071,3.77451
218.65834,2000,0,91.24,0.000002697398,0.000002697398,0.000002697398,0.99999994,0,0,0,0,0,0,1,1,0,0,0,false,false,true,-333.27,-2745.47,16.99,-0.004518141,-0.0014700819,0.9484795,-0.3168025,-709.951,990.501,8.561,-0.00071,-0.00071,3.84601
218.66667,2000,0,91.24,0.000002697398,0.000002697398,0.000002697398,0.99999994,0,0,0,0,0,0,1,1,0,0,0,false,false,true,-339.19,-2737.22,16.99,-0.0044965623,-0.0015402143,0.9432807,-0.33196196,-711.701,978.41095,8.561,-0.00051,-0.00071,3.91671
218.675,2000,0,91.24,0.000002697398,0.000002697398,0.000002697398,0.99999994,0,0,0,0,0,0,1,1,0,0,0,false,false,true,-345.12,-2729.0698,16.99,-0.0044749836,-0.0016103467,0.93773824,-0.34731022,-712.93097,966.48096,8.561,-0.00040999998,-0.00071,3.9867098
218.68333,2000,0,91.24,0.000002697398,0.000002697398,0.000002697398,0.99999994,0,0,0,0,0,0,1,1,0,0,0,false,false,true,-351.06,-2721.02,16.99,-0.004448009,-0.001680479,0.93184066,-0.36283648,-713.66095,954.74097,8.561,-0.00030999997,-0.00061,4.05601
218.69167,2000,0,91.24,0.000002697398,0.000002697398,0.000002697398,0.99999994,0,0,0,0,0,0,1,1,0,0,0,false,false,true,-357.00998,-2713.06,16.99,-0.0044210353,-0.0017506114,0.92557675,-0.37853,-713.90094,943.22095,8.561,-0.00010999999,-0.00051,4.12471
218.7,2000,0,91.24,0.000002697398,0.000002697398,0.000002697398,0.99999994,0,0,0,0,0,0,1,1,0,0,0,false,false,true,-362.96,-2705.2,16.99,-0.0043940614,-0.0018261385,0.91893506,-0.39438,-713.511,931.84094,8.561,0,-0.00040999998,4.18851
218.70833,2000,0,91.24,0.000002697398,0.000002697398,0.000002697398,0.99999994,0,0,0,0,0,0,1,1,0,0,0,false,false,true,-368.91,-2697.43,16.99,-0.0043616924,-0.0019016657,0.9119138,-0.41035402,-712.47095,920.631,8.561,0,-0.00030999997,4.2466097
218.71666,2000,0,91.24,0.000002697398,0.000002697398,0.000002697398,0.99999994,0,0,0,0,0,0,1,1,0,0,0,false,false,true,-374.85,-2689.76,16.99,-0.004329324,-0.0019771927,0.90451026,-0.42642516,-710.80096,909.621,8.561,0.00010999999,-0.00021,4.29911
218.725,2000,0,91.24,0.000002697398,0.000002697398,0.000002697398,0.99999994,0,0,0,0,0,0,1,1,0,0,0,false,false,true,-380.77,-2682.18,16.99,-0.00429156,-0.00205272,0.89672834,-0.4425557,-708.53094,898.86096,8.561,0.00021,-0.00010999999,4.3460097
218.73334,2000,0,91.24,0.000002697398,0.000002697398,0.000002697398,0.99999994,0,0,0,0,0,0,1,1,0,0,0,false,false,true,-386.66998,-2674.69,16.99,-0.004253797,-0.002128247,0.88856876,-0.4587186,-705.691,888.381,8.561,0.00030999997,0,4.38731
218.74167,2000,0,91.24,0.000002697398,0.000002697398,0.000002697398,0.99999994,0,0,0,0,0,0,1,1,0,0,0,false,false,true,-392.55,-2667.29,16.99,-0.004216033,-0.0022091689,0.8800339,-0.47488683,-702.311,878.21094,8.561,0.00040999998,0.00010999999,4.42311
218.75,2000,0,91.24,0.000002697398,0.000002697398,0.000002697398,0.99999994,0,0,0,0,0,0,1,1,0,0,0,false,false,true,-398.4,-2659.97,16.99,-0.004172874,-0.0022900905,0.8711336,-0.49102265,-698.43097,868.3909,8.561,0.00051,0.00021,4.45351
218.75833,2000,0,91.24,0.000002697398,0.000002697398,0.000002697398,0.99999994,0,0,0,0,0,0,1,1,0,0,0,false,false,true,-404.22,-2652.73,16.99,-0.004129716,-0.002371013,0.86187124,-0.50710464,-694.10095,858.941,8.561,0.00051,0.00030999997,4.47851
218.76666,2000,0,91.24,0.000002697398,0.000002697398,0.000002697398,0.99999994,0,0,0,0,0,0,1,1,0,0,0,false,false,true,-410,-2645.5698,16.99,-0.0040865582,-0.002451935,0.8522577,-0.5231004,-689.35095,849.881,8.561,0.00051,0.00040999998,4.49831
218.775,2000,0,91.24,0.000002697398,0.000002697398,0.000002697398,0.99999994,0,0,0,0,0,0,1,1,0,0,0,false,false,true,-415.74,-2638.49,16.99,-0.0040380047,-0.0025328568,0.8423033,-0.5389826,-684.23096,841.24097,8.561,0.00051,0.00051,4.51291
218.78334,2000,0,91.24,0.000002697398,0.000002697398,0.000002697398,0.99999994,0,0,0,0,0,0,1,1,0,0,0,false,false,true,-421.44,-2631.48,16.99,-0.0039894516,-0.0026137787,0.83202016,-0.5547247,-678.79095,833.03094,8.561,0.00051,0.00051,4.52241
218.79167,2000,0,91.24,0.000002697398,0.000002697398,0.000002697398,0.99999994,0,0,0,0,0,0,1,1,0,0,0,false,false,true,-427.09998,-2624.54,16.99,-0.0039408985,-0.002689306,0.8214191,-0.57030493,-673.071,825.261,8.561,0.00051,0.00061,4.5268097
218.8,2000,0,91.24,0.000002697398,0.000002697398,0.000002697398,0.99999994,0,0,0,0,0,0,1,1,0,0,0,false,false,true,-432.71,-2617.66,16.99,-0.0038869507,-0.002764833,0.8105164,-0.58569634,-667.131,817.93097,8.561,0.00051,0.00071,4.52631
218.80833,2000,0,91.24,0.000002697398,0.000002697398,0.000002697398,0.99999994,0,0,0,0,0,0,1,1,0,0,0,false,false,true,-438.27,-2610.8398,16.99,-0.0038330022,-0.00284036,0.7993269,-0.6008773,-661.011,811.05096,8.561,0.00051,0.00081,4.52091
218.81667,2000,0,91.24,0.000002697398,0.000002697398,0.000002697398,0.99999994,0,0,0,0,0,0,1,1,0,0,0,false,false,true,-443.78,-2604.0798,16.99,-0.0037790549,-0.0029158876,0.7878673,-0.6158265,-654.77094,804.61096,8.561,0.00051,0.00081,4.51071
218.825,2000,0,91.24,0.000002697398,0.000002697398,0.000002697398,0.99999994,0,0,0,0,0,0,1,1,0,0,0,false,false,true,-449.24,-2597.3699,16.99,-0.003719712,-0.0029914144,0.77615666,-0.6305219,-648.451,798.61096,8.561,0.00040999998,0.00091,4.49581
218.83333,2000,0,91.24,0.000002697398,0.000002697398,0.000002697398,0.99999994,0,0,0,0,0,0,1,1,0,0,0,false,false,true,-454.63998,-2590.71,16.99,-0.0036603692,-0.0030669416,0.7642117,-0.6449476,-642.10095,793.04095,8.561,0.00040999998,0.00091,4.47631
218.84166,2000,0,91.24,0.000002697398,0.000002697398,0.000002697398,0.99999994,0,0,0,0,0,0,1,1,0,0,0,false,false,true,-459.99,-2584.0999,16.99,-0.0036010265,-0.003137074,0.752051,-0.6590875,-635.761,787.881,8.561,0.00030999997,0.00091,4.45221
218.85,2000,0,91.24,0.000002697398,0.000002697398,0.000002697398,0.99999994,0,0,0,0,0,0,1,1,0,0,0,false,false,true,-465.28998,-2577.53,16.99,-0.0035416838,-0.0032072063,0.739695,-0.6729252,-629.48096,783.11096,8.561,0.00030999997,0.00091,4.4236097
218.85834,2000,0,91.24,0.000002697398,0.000002697398,0.000002697398,0.99999994,0,0,0,0,0,0,1,1,0,0,0,false,false,true,-470.53998,-2571,16.99,-0.0034823408,-0.0032773386,0.7271663,-0.6864446,-623.30096,778.701,8.551001,0.00021,0.0010099999,4.39051
218.86667,2000,0,91.24,0.000002697398,0.000002697398,0.000002697398,0.99999994,0,0,0,0,0,0,1,1,0,0,0,false,false,true,-475.72998,-2564.51,16.99,-0.0034176034,-0.0033420762,0.71448976,-0.6996295,-617.261,774.631,8.551001,0.00010999999,0.0010099999,4.3530097
218.875,2000,0,91.24,0.000002697398,0.000002697398,0.000002697398,0.99999994,0,0,0,0,0,0,1,1,0,0,0,false,false,true,-480.87,-2558.05,16.99,0.0033528658,0.0034068138,-0.70168495,0.7124712,-611.40094,770.881,8.551001,0.00010999999,0.0010099999,4.31111
218.88333,2000,0,91.24,0.000002697398,0.000002697398,0.000002697398,0.99999994,0,0,0,0,0,0,1,1,0,0,0,false,false,true,-485.96,-2551.63,16.99,0.0032881282,0.0034715512,-0.6887751,0.7249592,-605.74097,767.41095,8.551001,0.00010999999,0.0010099999,4.26481
218.89166,2000,0,91.24,0.000002697398,0.000002697398,0.000002697398,0.99999994,0,0,0,0,0,0,1,1,0,0,0,false,false,true,-491.00998,-2545.23,16.99,0.0032233908,0.0035308942,-0.6757844,0.73708373,-600.321,764.191,8.551001,0.00010999999,0.0010099999,4.21421
218.9,2000,0,91.24,0.000002697398,0.000002697398,0.000002697398,0.99999994,0,0,0,0,0,0,1,1,0,0,0,false,false,true,-496.00998,-2538.8599,16.99,0.0031586532,0.003590237,-0.66273975,0.74883443,-595.17096,761.18097,8.541,0.00010999999,0.0010099999,4.1592097
218.90834,2000,0,91.24,0.000002697398,0.000002697398,0.000002697398,0.99999994,0,0,0,0,0,0,1,1,0,0,0,false,false,true,-500.97,-2532.52,16.99,0.0030939155,0.0036495796,-0.64966273,0.7602074,-590.30096,758.34094,8.541,0,0.00111,4.09991
218.91667,2000,0,91.24,0.000002697398,0.000002697398,0.000002697398,0.99999994,0,0,0,0,0,0,1,1,0,0,0,false,false,true,-505.88998,-2526.2,16.99,0.003029178,0.0037035276,-0.6365803,0.7711955,-585.701,755.621,8.541,0,0.00111,4.03641
218.925,2000,0,91.24,0.000002697398,0.000002697398,0.000002697398,0.99999994,0,0,0,0,0,0,1,1,0,0,0,false,false,true,-510.77,-2519.9,16.99,0.0029644405,0.0037574756,-0.6235194,0.7817931,-581.371,752.97095,8.541,0,0.00111,3.96961
218.93333,2000,0,91.24,0.000002697398,0.000002697398,0.000002697398,0.99999994,0,0,0,0,0,0,1,1,0,0,0,false,false,true,-515.61,-2513.63,16.99,0.0028997029,0.0038114234,-0.6105017,0.79200035,-577.29095,750.35095,8.541,-0.00010999999,0.00111,3.9007099
218.94167,2000,0,91.24,0.000002697398,0.000002697398,0.000002697398,0.99999994,0,0,0,0,0,0,1,1,0,0,0,false,false,true,-520.42,-2507.38,16.99,0.0028349655,0.003859977,-0.59754884,0.8018182,-573.451,747.74097,8.541,-0.00021,0.0010099999,3.8301098
218.95,2000,0,91.24,0.000002697398,0.000002697398,0.000002697398,0.99999994,0,0,0,0,0,0,1,1,0,0,0,false,false,true,-525.2,-2501.15,16.99,0.0027702278,0.0039085294,-0.58467674,0.8112521,-569.831,745.121,8.541,-0.00021,0.0010099999,3.7583098
218.95833,2000,0,91.24,0.000002697398,0.000002697398,0.000002697398,0.99999994,0,0,0,0,0,0,1,1,0,0,0,false,false,true,-529.95,-2494.94,16.99,0.0027054902,0.003951688,-0.5719018,0.820308,-566.43097,742.48096,8.531,-0.00030999997,0.00091,3.68571
218.96666,2000,0,91.24,0.000002697398,0.000002697398,0.000002697398,0.99999994,0,0,0,0,0,0,1,1,0,0,0,false,false,true,-534.67,-2488.75,16.99,0.0026407526,0.0039948463,-0.55923474,0.8289954,-563.24097,739.811,8.531,-0.00030999997,0.00081,3.61271
218.975,2000,0,91.24,0.000002697398,0.000002697398,0.000002697398,0.99999994,0,0,0,0,0,0,1,1,0,0,0,false,false,true,-539.36,-2482.5798,16.99,0.0025760152,0.0040380047,-0.54669183,0.8373201,-560.24097,737.09094,8.531,-0.00030999997,0.00071,3.5397098
218.98334,2000,0,91.24,0.000002697398,0.000002697398,0.000002697398,0.99999994,0,0,0,0,0,0,1,1,0,0,0,false,false,true,-544.02997,-2476.44,16.99,0.0025112778,0.004075769,-0.5342838,0.84529155,-557.43097,734.311,8.531,-0.00030999997,0.00061,3.46701
218.99167,2000,0,91.24,0.000002697398,0.000002697398,0.000002697398,0.99999994,0,0,0,0,0,0,1,1,0,0,0,false,false,true,-548.68,-2470.3198,16.99,0.0024519349,0.0041135317,-0.5220159,0.8529222,-554.79095,731.451,8.531,-0.00030999997,0.00051,3.39481
219,2000,0,91.24,0.000002697398,0.000002697398,0.000002697398,0.99999994,0,0,0,0,0,0,1,1,0,0,0,false,false,true,-553.3,-2464.22,16.99,0.002392592,0.0041512954,-0.50989914,0.8602208,-552.311,728.511,8.531,-0.00030999997,0.00040999998,3.32351
219.00833,2000,0,91.24,0.000002697398,0.000002697398,0.000002697398,0.99999994,0,0,0,0,0,0,1,1,0,0,0,false,false,true,-557.89996,-2458.15,16.99,0.0023332492,0.0041836645,-0.4979389,0.8671988,-549.98096,725.47095,8.531,-0.00030999997,0.00030999997,3.25331
219.01666,2000,0,91.24,0.000002697398,0.000002697398,0.000002697398,0.99999994,0,0,0,0,0,0,1,1,0,0,0,false,false,true,-562.48,-2452.0999,16.99,0.0022739065,0.004216033,-0.48614043,0.8738675,-547.79095,722.33093,8.531,-0.00030999997,0.00021,3.1844099
219.025,2000,0,91.24,0.000002697398,0.000002697398,0.000002697398,0.99999994,0,0,0,0,0,0,1,1,0,0,0,false,false,true,-567.04,-2446.0798,16.99,0.0022145635,0.004248401,-0.47450376,0.88024026,-545.73096,719.08093,8.531,-0.00030999997,0.00010999999,3.11711
219.03334,2000,0,91.24,0.000002697398,0.000002697398,0.000002697398,0.99999994,0,0,0,0,0,0,1,1,0,0,0,false,false,true,-571.58997,-2440.0898,16.99,0.0021552213,0.0042753764,-0.46302906,0.8863301,-543.79095,715.71094,8.531,-0.00030999997,0,3.0515099
219.04167,2000,0,91.24,0.000002697398,0.000002697398,0.000002697398,0.99999994,0,0,0,0,0,0,1,1,0,0,0,false,false,true,-576.12,-2434.13,16.99,0.0021012733,0.0043023503,-0.45172152,0.8921461,-541.951,712.21094,8.531,-0.00030999997,0,2.98781
219.05,2000,0,91.24,0.000002697398,0.000002697398,0.000002697398,0.99999994,0,0,0,0,0,0,1,1,0,0,0,false,false,true,-580.64,-2428.19,16.99,0.002047325,0.004329324,-0.4405812,0.89769995,-540.21094,708.58093,8.531,-0.00030999997,0,2.92621
219.05833,2000,0,91.24,0.000002697398,0.000002697398,0.000002697398,0.99999994,0,0,0,0,0,0,1,1,0,0,0,false,false,true,-585.14,-2422.29,16.99,0.0019933772,0.0043509034,-0.42960277,0.90300524,-538.55096,704.821,8.531,-0.00030999997,-0.00010999999,2.8668098
219.06667,2000,0,91.24,0.000002697398,0.000002697398,0.000002697398,0.99999994,0,0,0,0,0,0,1,1,0,0,0,false,false,true,-589.63,-2416.42,16.99,0.0019394292,0.004372482,-0.41878614,0.90807223,-536.96094,700.93097,8.531,-0.00021,-0.00010999999,2.80981
219.075,2000,0,91.24,0.000002697398,0.000002697398,0.000002697398,0.99999994,0,0,0,0,0,0,1,1,0,0,0,false,false,true,-594.1,-2410.5798,16.99,0.0018854813,0.0043940614,-0.40812597,0.912913,-535.441,696.90094,8.531,-0.00010999999,-0.00010999999,2.75531
219.08333,2000,0,91.24,0.000002697398,0.000002697398,0.000002697398,0.99999994,0,0,0,0,0,0,1,1,0,0,0,false,false,true,-598.56,-2404.77,16.99,0.0018369281,0.0044156406,-0.39761686,0.917539,-533.97095,692.73096,8.531,0,-0.00021,2.70341
219.09166,2000,0,91.24,0.000002697398,0.000002697398,0.000002697398,0.99999994,0,0,0,0,0,0,1,1,0,0,0,false,false,true,-603.01,-2399,16.99,0.001788375,0.00443722,-0.38725883,0.92195857,-532.55096,688.42096,8.521,0,-0.00030999997,2.65411
219.1,2000,0,91.24,0.000002697398,0.000002697398,0.000002697398,0.99999994,0,0,0,0,0,0,1,1,0,0,0,false,false,true,-607.45,-2393.26,16.99,0.0017398219,0.0044534043,-0.37704107,0.9261842,-531.131,683.951,8.521,0,-0.00030999997,2.60771
219.10834,2000,0,91.24,0.000002697398,0.000002697398,0.000002697398,0.99999994,0,0,0,0,0,0,1,1,0,0,0,false,false,true,-611.88,-2387.56,16.99,0.0016912686,0.0044695884,-0.3669581,0.93022513,-529.68097,679.321,8.521,0,-0.00030999997,2.5638099
219.11667,2000,0,91.24,0.000002697398,0.000002697398,0.000002697398,0.99999994,0,0,0,0,0,0,1,1,0,0,0,false,false,true,-616.29,-2381.9,16.99,0.0016427154,0.004485773,-0.35699928,0.9340924,-528.191,674.53094,8.521,0,-0.00030999997,2.52241
219.125,2000,0,91.24,0.000002697398,0.000002697398,0.000002697398,0.99999994,0,0,0,0,0,0,1,1,0,0,0,false,false,true,-620.69,-2376.28,16.99,0.0015941622,0.0045019574,-0.3471645,0.937792,-526.641,669.61096,8.521,0,-0.00030999997,2.48341
219.13333,2000,0,91.24,0.000002697398,0.000002697398,0.000002697398,0.99999994,0,0,0,0,0,0,1,1,0,0,0,false,false,true,-625.07996,-2370.7,16.99,0.0015456091,0.0045181415,-0.3374431,0.9413338,-525.02094,664.561,8.521,0.00010999999,-0.00030999997,2.44661
219.14166,2000,0,91.24,0.000002697398,0.000002697398,0.000002697398,0.99999994,0,0,0,0,0,0,1,1,0,0,0,false,false,true,-629.45996,-2365.16,16.99,0.0015024507,0.004534326,-0.32782954,0.94472474,-523.311,659.391,8.521,0.00021,-0.00040999998,2.41201
219.15,2000,0,91.24,0.000002697398,0.000002697398,0.000002697398,0.99999994,0,0,0,0,0,0,1,1,0,0,0,false,false,true,-633.82,-2359.66,16.99,0.0014592923,0.00455051,-0.31831843,0.94797164,-521.511,654.11096,8.521,0.00021,-0.00040999998,2.37951
219.15834,2000,0,91.24,0.000002697398,0.000002697398,0.000002697398,0.99999994,0,0,0,0,0,0,1,1,0,0,0,false,false,true,-638.17,-2354.21,16.99,0.0014161341,0.0045613004,-0.30890453,0.95108104,-519.60095,648.73096,8.521,0.00021,-0.00040999998,2.34911
219.16667,2000,0,91.24,0.000002697398,0.000002697398,0.000002697398,0.99999994,0,0,0,0,0,0,1,1,0,0,0,false,false,true,-642.5,-2348.8,16.99,0.0013729756,0.0045720898,-0.29958224,0.95405847,-517.571,643.261,8.521,0.00021,-0.00040999998,2.32071
219.175,2000,0,91.24,0.000002697398,0.000002697398,0.000002697398,0.99999994,0,0,0,0,0,0,1,1,0,0,0,false,false,true,-646.81,-2343.44,16.99,0.0013298173,0.0045828796,-0.29034096,0.9569113,-515.42096,637.71094,8.521,0.00021,-0.00040999998,2.2943099
219.18333,2000,0,91.24,0.000002697398,0.000002697398,0.000002697398,0.99999994,0,0,0,0,0,0,1,1,0,0,0,false,false,true,-651.11,-2338.13,16.99,0.0012866587,0.0045936685,-0.28118047,0.9596429,-513.141,632.10095,8.521,0.00030999997,-0.00040999998,2.26981
219.19167,2000,0,91.24,0.000002697398,0.000002697398,0.000002697398,0.99999994,0,0,0,0,0,0,1,1,0,0,0,false,false,true,-655.39,-2332.8599,16.99,0.0012435005,0.0046044583,-0.2720903,0.9622598,-510.721,626.43097,8.521,0.00030999997,-0.00040999998,2.24721
219.2,2000,0,91.24,0.000002697398,0.000002697398,0.000002697398,0.99999994,0,0,0,0,0,0,1,1,0,0,0,false,false,true,-659.64996,-2327.64,16.99,0.0012003422,0.0046152486,-0.26307017,0.9647649,-508.151,620.71094,8.521,0.00030999997,-0.00040999998,2.22641
219.20833,2000,0,91.24,0.000002697398,0.000002697398,0.000002697398,0.99999994,0,0,0,0,0,0,1,1,0,0,0,false,false,true,-663.88,-2322.47,16.99,0.0011571838,0.0046260376,-0.25410935,0.9671637,-505.431,614.951,8.521,0.00040999998,-0.00040999998,2.20751
219.21666,2000,0,91.24,0.000002697398,0.000002697398,0.000002697398,0.99999994,0,0,0,0,0,0,1,1,0,0,0,false,false,true,-668.08997,-2317.3499,16.99,0.0011140254,0.004636827,-0.24520251,0.96946007,-502.551,609.16095,8.521,0.00040999998,-0.00040999998,2.19041
219.225,2000,0,91.24,0.000002697398,0.000002697398,0.000002697398,0.99999994,0,0,0,0,0,0,1,1,0,0,0,false,false,true,-672.27997,-2312.27,16.99,0.0010762617,0.0046476168,-0.2363442,0.97165763,-499.511,603.35095,8.521,0.00051,-0.00040999998,2.1751099
219.23334,2000,0,91.24,0.000002697398,0.000002697398,0.000002697398,0.99999994,0,0,0,0,0,0,1,1,0,0,0,false,false,true,-676.44,-2307.24,16.99,0.0010384982,0.004658406,-0.22752911,0.97375953,-496.301,597.52094,8.521,0.00051,-0.00040999998,2.16161
219.24167,2000,0,91.24,0.000002697398,0.000002697398,0.000002697398,0.99999994,0,0,0,0,0,0,1,1,0,0,0,false,false,true,-680.57996,-2302.26,16.99,0.0010007346,0.0046638013,-0.21875173,0.9757688,-492.921,591.691,8.521,0.00051,-0.00040999998,2.14991
219.25,2000,0,91.24,0.000002697398,0.000002697398,0.000002697398,0.99999994,0,0,0,0,0,0,1,1,0,0,0,false,false,true,-684.69,-2297.3298,16.99,0.0009629712,0.0046691964,-0.21000135,0.97768945,-489.361,585.871,8.521,0.00051,-0.00040999998,2.1400099
219.25833,2000,0,91.24,0.000002697398,0.000002697398,0.000002697398,0.99999994,0,0,0,0,0,0,1,1,0,0,0,false,false,true,-688.76996,-2292.45,16.99,0.00092520757,0.0046745907,-0.20127791,0.9795225,-485.621,580.071,8.521,0.00051,-0.00030999997,2.1319098
219.26666,2000,0,91.24,0.000002697398,0.000002697398,0.000002697398,0.99999994,0,0,0,0,0,0,1,1,0,0,0,false,false,true,-692.82,-2287.6199,16.99,0.00088744395,0.0046799853,-0.19257066,0.9812715,-481.691,574.30096,8.521,0.00040999998,-0.00030999997,2.1256099
219.275,2000,0,91.24,0.000002697398,0.000002697398,0.000002697398,0.99999994,0,0,0,0,0,0,1,1,0,0,0,false,false,true,-696.82996,-2282.8298,16.99,0.0008496803,0.00468538,-0.18387423,0.9829381,-477.581,568.561,8.521,0.00040999998,-0.00021,2.12111
219.28334,2000,0,91.24,0.000002697398,0.000002697398,0.000002697398,0.99999994,0,0,0,0,0,0,1,1,0,0,0,false,false,true,-700.81,-2278.0898,16.99,0.0008119168,0.0046907747,-0.17517778,0.98452514,-473.281,562.871,8.521,0.00040999998,-0.00021,2.1184099
219.29167,2000,0,91.24,0.000002697398,0.000002697398,0.000002697398,0.99999994,0,0,0,0,0,0,1,1,0,0,0,false,false,true,-704.75,-2273.4,16.99,0.00077415316,0.0046961694,-0.16648133,0.98603296,-468.781,557.23096,8.521,0.00030999997,-0.00010999999,2.1175098
219.3,2000,0,91.24,0.000002697398,0.000002697398,0.000002697398,0.99999994,0,0,0,0,0,0,1,1,0,0,0,false,false,true,-708.66,-2268.76,16.99,0.00073638966,0.0047015646,-0.15777409,0.9874637,-464.091,551.66095,8.521,0.00030999997,-0.00010999999,2.11851
219.30833,2000,0,91.24,0.000002697398,0.000002697398,0.000002697398,0.99999994,0,0,0,0,0,0,1,1,0,0,0,false,false,true,-712.52997,-2264.16,16.99,0.0006986261,0.0047069597,-0.14905067,0.98881805,-459.201,546.17096,8.521,0.00030999997,-0.00010999999,2.12131
219.31667,2000,0,91.24,0.000002697398,0.000002697398,0.000002697398,0.99999994,0,0,0,0,0,0,1,1,0,0,0,false,false,true,-716.36,-2259.6099,16.99,0.00066086254,0.0047123544,-0.1403057,0.99009675,-454.111,540.77094,8.521,0.00021,-0.00010999999,2.12601
219.325,2000,0,91.24,0.000002697398,0.000002697398,0.000002697398,0.99999994,0,0,0,0,0,0,1,1,0,0,0,false,false,true,-720.13995,-2255.0999,16.99,0.0006177041,0.004717749,-0.13152833,0.99130094,-448.811,535.46094,8.521,0.00021,-0.00010999999,2.13271
219.33333,2000,0,91.24,0.000002697398,0.000002697398,0.000002697398,0.99999994,0,0,0,0,0,0,1,1,0,0,0,false,false,true,-723.88,-2250.64,16.99,0.0005745458,0.004723144,-0.1227132,0.99243075,-443.311,530.261,8.521,0.00021,-0.00010999999,2.14131
219.34166,2000,0,91.24,0.000002697398,0.000002697398,0.000002697398,0.99999994,0,0,0,0,0,0,1,1,0,0,0,false,false,true,-727.57,-2246.22,16.99,0.0005313874,0.0047285384,-0.1138549,0.9934859,-437.60098,525.18097,8.521,0.00021,-0.00010999999,2.15191
219.35,2000,0,91.24,0.000002697398,0.000002697398,0.000002697398,0.99999994,0,0,0,0,0,0,1,1,0,0,0,false,false,true,-731.22,-2241.8398,16.99,0.00048822907,0.0047339336,-0.10494265,0.99446684,-431.681,520.24097,8.521,0.00021,-0.00010999999,2.16461
219.35834,2000,0,91.24,0.000002697398,0.000002697398,0.000002697398,0.99999994,0,0,0,0,0,0,1,1,0,0,0,false,false,true,-734.82,-2237.5,16.99,0.0004450707,0.0047393288,-0.095971115,0.9953727,-425.561,515.441,8.521,0.00030999997,-0.00010999999,2.17941
219.36667,2000,0,91.24,0.000002697398,0.000002697398,0.000002697398,0.99999994,0,0,0,0,0,0,1,1,0,0,0,false,false,true,-738.37,-2233.2,16.99,0.00040191234,0.0047447234,-0.08692939,0.99620306,-419.231,510.801,8.521,0.00030999997,-0.00010999999,2.19641
219.375,2000,0,91.24,0.000002697398,0.000002697398,0.000002697398,0.99999994,0,0,0,0,0,0,1,1,0,0,0,false,false,true,-741.86,-2228.94,16.99,0.00035875395,0.004750118,-0.07780675,0.99695706,-412.681,506.331,8.521,0.00040999998,-0.00021,2.21561
219.38333,2000,0,91.24,0.000002697398,0.000002697398,0.000002697398,0.99999994,0,0,0,0,0,0,1,1,0,0,0,false,false,true,-745.3,-2224.72,16.99,0.00031559556,0.0047501177,-0.06859778,0.997633,-405.921,502.051,8.521,0.00040999998,-0.00021,2.23711
219.39166,2000,0,91.24,0.000002697398,0.000002697398,0.000002697398,0.99999994,0,0,0,0,0,0,1,1,0,0,0,false,false,true,-748.68,-2220.54,16.99,0.0002724372,0.0047501177,-0.059297115,0.99822897,-398.951,497.971,8.521,0.00051,-0.00021,2.26101
219.4,2000,0,91.24,0.000002697398,0.000002697398,0.000002697398,0.99999994,0,0,0,0,0,0,1,1,0,0,0,false,false,true,-752,-2216.39,16.99,0.00022927884,0.0047501177,-0.04988859,0.9987434,-391.771,494.111,8.521,0.00051,-0.00021,2.28741
219.40834,2000,0,91.24,0.000002697398,0.000002697398,0.000002697398,0.99999994,0,0,0,0,0,0,1,1,0,0,0,false,false,true,-755.26,-2212.27,16.99,0.00018612048,0.004750118,-0.040366735,0.9991736,-384.381,490.481,8.521,0.00051,-0.00021,2.31641
219.41667,2000,0,91.24,0.000002697398,0.000002697398,0.000002697398,0.99999994,0,0,0,0,0,0,1,1,0,0,0,false,false,true,-758.45996,-2208.18,16.99,0.00014296209,0.0047501177,-0.030720793,0.99951667,-376.781,487.10098,8.521,0.00061,-0.00021,2.34811
219.425,2000,0,91.24,0.000002697398,0.000002697398,0.000002697398,0.99999994,0,0,0,0,0,0,1,1,0,0,0,false,false,true,-761.6,-2204.1199,16.99,0.00009980373,0.0047501177,-0.020939985,0.9997694,-368.971,483.991,8.521,0.00061,-0.00021,2.3826098
219.43333,2000,0,91.24,0.000002697398,0.000002697398,0.000002697398,0.99999994,0,0,0,0,0,0,1,1,0,0,0,false,false,true,-764.67,-2200.0898,16.99,0.00005664536,0.0047501177,-0.011013518,0.999928,-360.951,481.171,8.521,0.00061,-0.00010999999,2.42011
219.44167,2000,0,91.24,0.000002697398,0.000002697398,0.000002697398,0.99999994,0,0,0,0,0,0,1,1,0,0,0,false,false,true,-767.68,-2196.0798,16.99,0.0000134869915,0.004750118,-0.0009306024,0.99998826,-352.721,478.661,8.521,0.00061,-0.00010999999,2.46071
219.45,2000,0,91.24,0.000002697398,0.000002697398,0.000002697398,0.99999994,0,0,0,0,0,0,1,1,0,0,0,false,false,true,-770.62,-2192.0898,16.99,-0.000035066172,0.0047501177,0.00931951,0.9999452,-344.291,476.491,8.521,0.00061,-0.00010999999,2.50471
219.45833,2000,0,91.24,0.000002697398,0.000002697398,0.000002697398,0.99999994,0,0,0,0,0,0,1,1,0,0,0,false,false,true,-773.49,-2188.1199,16.99,-0.000083619336,0.0047501177,0.01975313,0.9997935,-335.661,474.681,8.521,0.00061,-0.00010999999,2.5522099
219.46666,2000,0,91.24,0.000002697398,0.000002697398,0.000002697398,0.99999994,0,0,0,0,0,0,1,1,0,0,0,false,false,true,-776.29,-2184.16,16.99,-0.0001321725,0.0047501177,0.030386275,0.99952686,-326.841,473.261,8.521,0.00061,-0.00010999999,2.60351
219.475,2000,0,91.24,0.000002697398,0.000002697398,0.000002697398,0.99999994,0,0,0,0,0,0,1,1,0,0,0,false,false,true,-779.01,-2180.22,16.99,-0.00018072568,0.004750118,0.041224506,0.9991386,-317.831,472.231,8.521,0.00071,-0.00010999999,2.65821
219.48334,2000,0,91.24,0.000002697398,0.000002697398,0.000002697398,0.99999994,0,0,0,0,0,0,1,1,0,0,0,false,false,true,-781.66,-2176.28,16.99,-0.00022927884,0.004744723,0.05228923,0.9986206,-308.621,471.461,8.521,0.00071,-0.00010999999,2.7118099
219.49167,2000,0,91.24,0.000002697398,0.000002697398,0.000002697398,0.99999994,0,0,0,0,0,0,1,1,0,0,0,false,false,true,-784.23,-2172.3499,16.99,-0.000277832,0.0047393283,0.06356983,0.99796605,-299.221,470.981,8.521,0.00071,-0.00010999999,2.76451
219.5,2000,0,91.24,0.000002697398,0.000002697398,0.000002697398,0.99999994,0,0,0,0,0,0,1,1,0,0,0,false,false,true,-786.72,-2168.42,16.99,-0.00033177997,0.0047339336,0.07506075,0.9971676,-289.631,470.82098,8.521,0.00061,-0.00010999999,2.8164098
219.50833,2000,0,91.24,0.000002697398,0.000002697398,0.000002697398,0.99999994,0,0,0,0,0,0,1,1,0,0,0,false,false,true,-789.13,-2164.5,16.99,-0.00038572788,0.004728538,0.08675674,0.9962181,-279.861,471.021,8.521,0.00061,0,2.86761
219.51666,2000,0,91.24,0.000002697398,0.000002697398,0.000002697398,0.99999994,0,0,0,0,0,0,1,1,0,0,0,false,false,true,-791.45996,-2160.57,16.99,-0.00043967587,0.0047231438,0.09865227,0.99511063,-269.911,471.60098,8.521,0.00061,0,2.91831
219.525,2000,0,91.24,0.000002697398,0.000002697398,0.000002697398,0.99999994,0,0,0,0,0,0,1,1,0,0,0,false,false,true,-793.70996,-2156.64,16.99,-0.0004936239,0.0047177495,0.1107475,0.99383724,-259.781,472.561,8.521,0.00051,0,2.96751
219.53334,2000,0,91.24,0.000002697398,0.000002697398,0.000002697398,0.99999994,0,0,0,0,0,0,1,1,0,0,0,false,false,true,-795.87,-2152.7,16.99,-0.00054757186,0.004712355,0.12302614,0.99239206,-249.481,473.841,8.521,0.00040999998,0,3.01301
219.54167,2000,0,91.24,0.000002697398,0.000002697398,0.000002697398,0.99999994,0,0,0,0,0,0,1,1,0,0,0,false,false,true,-797.95,-2148.75,16.99,-0.0006069146,0.0047069597,0.13547732,0.990769,-239.021,475.471,8.521,0.00021,0,3.05481
219.55,2000,0,91.24,0.000002697398,0.000002697398,0.000002697398,0.99999994,0,0,0,0,0,0,1,1,0,0,0,false,false,true,-799.94,-2144.79,16.99,-0.0006662573,0.00469617,0.14807425,0.9889648,-228.401,477.501,8.521,0,0,3.0931098
219.55833,2000,0,91.24,0.000002697398,0.000002697398,0.000002697398,0.99999994,0,0,0,0,0,0,1,1,0,0,0,false,false,true,-801.83997,-2140.81,16.99,-0.00072560005,0.0046853805,0.16080597,0.9869746,-217.671,479.82098,8.521,0,0,3.12861
219.56667,2000,0,91.24,0.000002697398,0.000002697398,0.000002697398,0.99999994,0,0,0,0,0,0,1,1,0,0,0,false,false,true,-803.64996,-2136.81,16.99,-0.00078494276,0.00467459,0.17365645,0.98479474,-206.881,482.371,8.521,0,0.00010999999,3.16171
219.575,2000,0,91.24,0.000002697398,0.000002697398,0.000002697398,0.99999994,0,0,0,0,0,0,1,1,0,0,0,false,false,true,-805.37,-2132.79,16.99,-0.00084428565,0.0046638018,0.18661478,0.9824217,-196.031,485.191,8.521,0,0.00010999999,3.19241
219.58333,2000,0,91.24,0.000002697398,0.000002697398,0.000002697398,0.99999994,0,0,0,0,0,0,1,1,0,0,0,false,false,true,-807,-2128.75,16.99,-0.0009036284,0.004653012,0.19966488,0.97985274,-185.241,488.231,8.521,0,0.00021,3.21961
219.59166,2000,0,91.24,0.000002697398,0.000002697398,0.000002697398,0.99999994,0,0,0,0,0,0,1,1,0,0,0,false,false,true,-808.54,-2124.68,16.99,-0.000968366,0.0046422225,0.2127905,0.9770863,-174.671,491.38098,8.521,-0.00010999999,0.00021,3.2418098
219.6,2000,0,91.24,0.000002697398,0.000002697398,0.000002697398,0.99999994,0,0,0,0,0,0,1,1,0,0,0,false,false,true,-810,-2120.5798,16.99,-0.0010331034,0.0046314322,0.22596997,0.97412264,-164.33101,494.671,8.521,-0.00010999999,0.00021,3.25931
219.60834,2000,0,91.24,0.000002697398,0.000002697398,0.000002697398,0.99999994,0,0,0,0,0,0,1,1,0,0,0,false,false,true,-811.37,-2116.46,16.99,-0.001097841,0.004620643,0.23917651,0.97096443,-154.22101,498.111,8.521,-0.00010999999,0.00021,3.2720098
219.61667,2000,0,91.24,0.000002697398,0.000002697398,0.000002697398,0.99999994,0,0,0,0,0,0,1,1,0,0,0,false,false,true,-812.66,-2112.31,16.99,-0.0011625787,0.004604459,0.25239378,0.9676129,-144.341,501.711,8.521,-0.00010999999,0.00021,3.28011
219.625,2000,0,91.24,0.000002697398,0.000002697398,0.000002697398,0.99999994,0,0,0,0,0,0,1,1,0,0,0,false,false,true,-813.86,-2108.13,16.99,-0.0012273161,0.004588274,0.2655949,0.96407294,-134.731,505.271,8.521,-0.00010999999,0.00021,3.28911
219.63333,2000,0,91.24,0.000002697398,0.000002697398,0.000002697398,0.99999994,0,0,0,0,0,0,1,1,0,0,0,false,false,true,-814.98,-2103.92,16.99,-0.0012920535,0.0045720893,0.27877983,0.9603431,-125.381,508.801,8.521,-0.00010999999,0.00021,3.2987099
219.64166,2000,0,91.24,0.000002697398,0.000002697398,0.000002697398,0.99999994,0,0,0,0,0,0,1,1,0,0,0,false,false,true,-816.01996,-2099.68,16.99,-0.0013567912,0.0045559052,0.29195398,0.9564205,-116.281,512.321,8.521,-0.00010999999,0.00021,3.30881
219.65,2000,0,91.24,0.000002697398,0.000002697398,0.000002697398,0.99999994,0,0,0,0,0,0,1,1,0,0,0,false,false,true,-816.99,-2095.41,16.99,-0.0014215288,0.0045397207,0.30511194,0.95230454,-107.431,515.84094,8.521,-0.00010999999,0.00010999999,3.3192098
219.65834,2000,0,91.24,0.000002697398,0.000002697398,0.000002697398,0.99999994,0,0,0,0,0,0,1,1,0,0,0,false,false,true,-817.88995,-2091.1099,16.99,-0.0014862664,0.0045181415,0.3182537,0.9479936,-98.83099,519.381,8.521,-0.00010999999,0,3.32981
219.66667,2000,0,91.24,0.000002697398,0.000002697398,0.000002697398,0.99999994,0,0,0,0,0,0,1,1,0,0,0,false,false,true,-818.70996,-2086.78,16.99,-0.0015510039,0.0044965623,0.3313739,0.94348747,-90.480995,522.951,8.521,-0.00010999999,0,3.34061
219.675,2000,0,91.24,0.000002697398,0.000002697398,0.000002697398,0.99999994,0,0,0,0,0,0,1,1,0,0,0,false,false,true,-819.45996,-2082.42,16.99,-0.0016157415,0.0044749836,0.3444726,0.9387843,-82.381,526.55096,8.521,-0.00010999999,0,3.35141
219.68333,2000,0,91.24,0.000002697398,0.000002697398,0.000002697398,0.99999994,0,0,0,0,0,0,1,1,0,0,0,false,false,true,-820.14996,-2078.03,16.99,-0.0016804792,0.0044534043,0.35754958,0.933882,-74.531,530.201,8.521,-0.00010999999,0,3.36221
219.69167,2000,0,91.24,0.000002697398,0.000002697398,0.000002697398,0.99999994,0,0,0,0,0,0,1,1,0,0,0,false,false,true,-820.76996,-2073.6099,16.99,-0.0017452165,0.0044318247,0.37059966,0.92878044,-66.931,533.90094,8.521,0,0,3.37301
219.7,2000,0,91.24,0.000002697398,0.000002697398,0.000002697398,0.99999994,0,0,0,0,0,0,1,1,0,0,0,false,false,true,-821.32996,-2069.16,16.99,-0.0018099542,0.0044048512,0.3836173,0.92347986,-59.591,537.65094,8.521,0,0,3.38371
219.70833,2000,0,91.24,0.000002697398,0.000002697398,0.000002697398,0.99999994,0,0,0,0,0,0,1,1,0,0,0,false,false,true,-821.82996,-2064.68,16.99,-0.001869297,0.0043778773,0.3965973,0.9179803,-52.521,541.46094,8.521,0,0,3.39431
219.71666,2000,0,91.24,0.000002697398,0.000002697398,0.000002697398,0.99999994,0,0,0,0,0,0,1,1,0,0,0,false,false,true,-822.26996,-2060.17,16.99,-0.0019286397,0.0043509034,0.4095395,0.91227996,-45.720997,545.34094,8.521,0,0,3.4047098
219.725,2000,0,91.24,0.000002697398,0.000002697398,0.000002697398,0.99999994,0,0,0,0,0,0,1,1,0,0,0,false,false,true,-822.64996,-2055.63,16.99,-0.0019879825,0.0043239295,0.42243844,0.9063791,-39.201,549.28094,8.521,0,0,3.4149098
219.73334,2000,0,91.24,0.000002697398,0.000002697398,0.000002697398,0.99999994,0,0,0,0,0,0,1,1,0,0,0,false,false,true,-822.98,-2051.05,16.99,-0.0020473248,0.0042969547,0.43529424,0.90027547,-32.961,553.29095,8.521,0,0,3.4249098
219.74167,2000,0,91.24,0.000002697398,0.000002697398,0.000002697398,0.99999994,0,0,0,0,0,0,1,1,0,0,0,false,false,true,-823.25,-2046.44,16.99,-0.0021066677,0.004269981,0.44809616,0.89397264,-27.011,557.371,8.521,0,0,3.43471
219.75,2000,0,91.24,0.000002697398,0.000002697398,0.000002697398,0.99999994,0,0,0,0,0,0,1,1,0,0,0,false,false,true,-823.48,-2041.7999,16.99,-0.0021660107,0.0042376122,0.46084413,0.8874683,-21.360998,561.511,8.521,-0.00010999999,0,3.4442098
219.75833,2000,0,91.24,0.000002697398,0.000002697398,0.000002697398,0.99999994,0,0,0,0,0,0,1,1,0,0,0,false,false,true,-823.66,-2037.12,16.99,-0.0022253534,0.004205243,0.4735327,0.8807633,-16.021,565.71094,8.521,-0.00010999999,0,3.45341
219.76666,2000,0,91.24,0.000002697398,0.000002697398,0.000002697398,0.99999994,0,0,0,0,0,0,1,1,0,0,0,false,false,true,-823.79,-2032.4099,16.99,-0.002284696,0.0041728746,0.4861566,0.8738587,-11.001,569.97095,8.521,-0.00021,0,3.4623098
219.775,2000,0,91.24,0.000002697398,0.000002697398,0.000002697398,0.99999994,0,0,0,0,0,0,1,1,0,0,0,false,false,true,-823.88,-2027.6599,16.99,-0.0023440388,0.004140506,0.4987104,0.86675555,-6.311,574.29095,8.521,-0.00021,0,3.4709098
219.78334,2000,0,91.24,0.000002697398,0.000002697398,0.000002697398,0.99999994,0,0,0,0,0,0,1,1,0,0,0,false,false,true,-823.93,-2022.87,16.99,-0.0024033815,0.004108137,0.51119393,0.8594521,-1.961,578.66095,8.521,-0.00021,0,3.47911
219.79167,2000,0,91.24,0.000002697398,0.000002697398,0.000002697398,0.99999994,0,0,0,0,0,0,1,1,0,0,0,false,false,true,-823.94995,-2018.0499,16.99,-0.0024627247,0.004075769,0.5235967,0.8519529,2.041,583.071,8.521,-0.00021,-0.00010999999,3.48701
219.8,2000,0,91.24,0.000002697398,0.000002697398,0.000002697398,0.99999994,0,0,0,0,0,0,1,1,0,0,0,false,false,true,-823.93,-2013.19,16.99,-0.0025220672,0.0040380047,0.53591835,0.8442563,5.6809998,587.511,8.521,-0.00021,-0.00021,3.49451
219.80833,2000,0,91.24,0.000002697398,0.000002697398,0.000002697398,0.99999994,0,0,0,0,0,0,1,1,0,0,0,false,false,true,-823.88,-2008.2899,16.99,-0.0025814099,0.004000241,0.5481538,0.8363639,8.961,591.98096,8.521,-0.00021,-0.00021,3.50161
219.81667,2000,0,91.24,0.000002697398,0.000002697398,0.000002697398,0.99999994,0,0,0,0,0,0,1,1,0,0,0,false,false,true,-823.81,-2003.36,16.99,-0.0026407526,0.0039624777,0.56029755,0.82827765,11.861,596.46094,8.521,-0.00021,-0.00021,3.50821
219.825,2000,0,91.24,0.000002697398,0.000002697398,0.000002697398,0.99999994,0,0,0,0,0,0,1,1,0,0,0,false,false,true,-823.70996,-1998.39,16.99,-0.0027000955,0.003924714,0.5723442,0.8199996,14.3810005,600.951,8.521,-0.00021,-0.00021,3.51441
219.83333,2000,0,91.24,0.000002697398,0.000002697398,0.000002697398,0.99999994,0,0,0,0,0,0,1,1,0,0,0,false,false,true,-823.58997,-1993.38,16.99,-0.0027594382,0.0038869507,0.58428824,0.81153214,16.511,605.43097,8.521,-0.00021,-0.00021,3.52011
219.84166,2000,0,91.24,0.000002697398,0.000002697398,0.000002697398,0.99999994,0,0,0,0,0,0,1,1,0,0,0,false,false,true,-823.44995,-1988.33,16.99,-0.002818781,0.0038437922,0.59612995,0.80287373,18.241,609.891,8.521,-0.00021,-0.00021,3.52531
219.85,2000,0,91.24,0.000002697398,0.000002697398,0.000002697398,0.99999994,0,0,0,0,0,0,1,1,0,0,0,false,false,true,-823.3,-1983.25,16.99,-0.0028781237,0.0038006338,0.6078583,0.79403114,19.560999,614.311,8.521,-0.00021,-0.00021,3.5299098
219.85834,2000,0,91.24,0.000002697398,0.000002697398,0.000002697398,0.99999994,0,0,0,0,0,0,1,1,0,0,0,false,false,true,-823.13995,-1978.13,16.99,-0.0029374664,0.0037574756,0.6194733,0.7850031,20.470999,618.68097,8.521,-0.00010999999,-0.00021,3.53391
219.86667,2000,0,91.24,0.000002697398,0.000002697398,0.000002697398,0.99999994,0,0,0,0,0,0,1,1,0,0,0,false,false,true,-822.97,-1972.97,16.99,-0.0029914144,0.0037143172,0.6309643,0.7757971,20.950998,622.97095,8.521,-0.00010999999,-0.00021,3.53741
219.875,2000,0,91.24,0.000002697398,0.000002697398,0.000002697398,0.99999994,0,0,0,0,0,0,1,1,0,0,0,false,false,true,-822.8,-1967.7799,16.99,-0.0030453624,0.0036711588,0.6423311,0.7664123,21.030998,627.251,8.521,-0.00010999999,-0.00021,3.5399098
219.88333,2000,0,91.24,0.000002697398,0.000002697398,0.000002697398,0.99999994,0,0,0,0,0,0,1,1,0,0,0,false,false,true,-822.62,-1962.5499,16.99,-0.0030993104,0.0036280004,0.6535632,0.7568568,20.710999,631.511,8.521,-0.00010999999,-0.00021,3.54211
219.89166,2000,0,91.24,0.000002697398,0.000002697398,0.000002697398,0.99999994,0,0,0,0,0,0,1,1,0,0,0,false,false,true,-822.44995,-1957.2899,16.99,-0.0031532582,0.0035794473,0.6646603,0.7471304,20.001,635.72095,8.531,-0.00010999999,-0.00021,3.5441098
219.9,2000,0,91.24,0.000002697398,0.000002697398,0.000002697398,0.99999994,0,0,0,0,0,0,1,1,0,0,0,false,false,true,-822.27997,-1951.99,16.99,-0.0032072065,0.0035308944,0.67562264,0.73723215,18.911,639.871,8.531,-0.00010999999,-0.00021,3.54631
