time,ball_loc_x,ball_loc_y,ball_loc_z,ball_rot_x,ball_rot_y,ball_rot_z,ball_rot_w,ball_vel_x,ball_vel_y,ball_vel_z,ball_ang_x,ball_ang_y,ball_ang_z,player0_throttle,player0_steer,player0_pitch,player0_yaw,player0_roll,player0_jump,player0_boost,player0_handbrake,player0_loc_x,player0_loc_y,player0_loc_z,player0_rot_x,player0_rot_y,player0_rot_z,player0_rot_w,player0_vel_x,player0_vel_y,player0_vel_z,player0_ang_x,player0_ang_y,player0_ang_z
230.28334,2000,0,91.24,0.000002697398,0.000002697398,0.000002697398,0.99999994,0,0,0,0,0,0,1,0,0,0,0,false,true,false,0,-3712.21,16.99,-0.00336905,0.003374445,0.70711225,0.70708513,-0.031,1807.221,8.411,-0.00061,0,0
230.29167,2000,0,91.24,0.000002697398,0.000002697398,0.000002697398,0.99999994,0,0,0,0,0,0,1,1,0,0,0,false,false,true,0,-3697.15,16.99,-0.00336905,0.003374445,0.70711225,0.70708513,-10.951,1806.261,8.471001,-0.00061,0.00281,0.30401
230.3,2000,0,91.24,0.000002697398,0.000002697398,0.000002697398,0.99999994,0,0,0,0,0,0,1,1,0,0,0,false,false,true,-0.089999996,-3682.0999,16.99,-0.00336905,0.0033798397,0.70800656,0.7061896,-20.421,1805.391,8.501,-0.00061,0.00401,0.55081
230.30833,2000,0,91.24,0.000002697398,0.000002697398,0.000002697398,0.99999994,0,0,0,0,0,0,1,1,0,0,0,false,false,true,-0.26,-3667.0598,16.99,-0.00336905,0.0033852346,0.7096279,0.70456034,-29.860998,1804.491,8.521,-0.00051,0.00441,0.76851
230.31667,2000,0,91.24,0.000002697398,0.000002697398,0.000002697398,0.99999994,0,0,0,0,0,0,1,1,0,0,0,false,false,true,-0.51,-3652.02,16.99,-0.0033690496,0.0033906288,0.711881,0.7022837,-39.701,1803.521,8.531,-0.00051,0.0043099998,0.96251
230.325,2000,0,91.24,0.000002697398,0.000002697398,0.000002697398,0.99999994,0,0,0,0,0,0,1,1,0,0,0,false,false,true,-0.84,-3636.99,16.99,-0.0033690496,0.0033906288,0.7146904,0.69942445,-50.181,1802.4309,8.541,-0.00040999998,0.00391,1.13701
230.33333,2000,0,91.24,0.000002697398,0.000002697398,0.000002697398,0.99999994,0,0,0,0,0,0,1,1,0,0,0,false,false,true,-1.26,-3621.97,16.99,-0.003374445,0.0033852346,0.71799564,0.6960311,-61.431,1801.1809,8.551001,-0.00040999998,0.00331,1.29541
230.34166,2000,0,91.24,0.000002697398,0.000002697398,0.000002697398,0.99999994,0,0,0,0,0,0,1,1,0,0,0,false,false,true,-1.77,-3606.96,16.99,-0.0033852346,0.0033798397,0.7217407,0.69214684,-73.511,1799.731,8.561,-0.00040999998,0.00271,1.44031
230.35,2000,0,91.24,0.000002697398,0.000002697398,0.000002697398,0.99999994,0,0,0,0,0,0,1,1,0,0,0,false,false,true,-2.3799999,-3591.96,16.99,-0.0033960242,0.00336905,0.72588056,0.68780404,-86.391,1798.0409,8.561,-0.00030999997,0.00211,1.57381
230.35834,2000,0,91.24,0.000002697398,0.000002697398,0.000002697398,0.99999994,0,0,0,0,0,0,1,1,0,0,0,false,false,true,-3.1,-3576.98,16.99,-0.0034122085,0.0033528658,0.7303749,0.68302965,-100.031,1796.0809,8.561,-0.00030999997,0.00151,1.69741
230.36667,2000,0,91.24,0.000002697398,0.000002697398,0.000002697398,0.99999994,0,0,0,0,0,0,1,1,0,0,0,false,false,true,-3.9299998,-3562.01,16.99,-0.0034337877,0.0033312866,0.73518896,0.67784524,-114.33099,1793.8109,8.561,-0.00030999997,0.0010099999,1.81251
230.375,2000,0,91.24,0.000002697398,0.000002697398,0.000002697398,0.99999994,0,0,0,0,0,0,1,1,0,0,0,false,false,true,-4.88,-3547.0598,16.99,-0.0034553672,0.0033097076,0.7402884,0.6722724,-129.181,1791.221,8.571,-0.00030999997,0.00061,1.91991
230.38333,2000,0,91.24,0.000002697398,0.000002697398,0.000002697398,0.99999994,0,0,0,0,0,0,1,1,0,0,0,false,false,true,-5.96,-3532.13,16.99,-0.003482341,0.0032827337,0.745644,0.66632736,-144.451,1788.2909,8.571,-0.00021,0.00021,2.02041
230.39166,2000,0,91.24,0.000002697398,0.000002697398,0.000002697398,0.99999994,0,0,0,0,0,0,1,1,0,0,0,false,false,true,-7.16,-3517.23,16.99,-0.003509315,0.0032557594,0.75122726,0.66002613,-160.001,1785.021,8.571,-0.00021,0,2.11441
230.4,2000,0,91.24,0.000002697398,0.000002697398,0.000002697398,0.99999994,0,0,0,0,0,0,1,1,0,0,0,false,false,true,-8.49,-3502.3499,16.99,-0.0035362889,0.0032233908,0.7570151,0.65337974,-175.66101,1781.4109,8.571,-0.00010999999,-0.00021,2.2023098
230.40834,2000,0,91.24,0.000002697398,0.000002697398,0.000002697398,0.99999994,0,0,0,0,0,0,1,1,0,0,0,false,false,true,-9.95,-3487.5,16.99,-0.003568658,0.0031910222,0.76298004,0.64640427,-191.261,1777.491,8.571,-0.00010999999,-0.00040999998,2.2843099
230.41667,2000,0,91.24,0.000002697398,0.000002697398,0.000002697398,0.99999994,0,0,0,0,0,0,1,1,0,0,0,false,false,true,-11.54,-3472.69,16.99,-0.0036010265,0.0031586532,0.76909995,0.63911045,-206.631,1773.2909,8.571,0,-0.00061,2.36041
230.425,2000,0,91.24,0.000002697398,0.000002697398,0.000002697398,0.99999994,0,0,0,0,0,0,1,1,0,0,0,false,false,true,-13.259999,-3457.91,16.99,-0.0036333953,0.0031208897,0.77534914,0.63151455,-221.58101,1768.861,8.571,0,-0.00071,2.43061
230.43333,2000,0,91.24,0.000002697398,0.000002697398,0.000002697398,0.99999994,0,0,0,0,0,0,1,1,0,0,0,false,false,true,-15.11,-3443.17,16.99,-0.003665764,0.003083126,0.78170705,0.6236273,-235.911,1764.261,8.571,0,-0.00081,2.49491
230.44167,2000,0,91.24,0.000002697398,0.000002697398,0.000002697398,0.99999994,0,0,0,0,0,0,1,1,0,0,0,false,false,true,-17.08,-3428.47,16.99,-0.003698133,0.0030453627,0.7881496,0.61546504,-249.421,1759.5809,8.571,0,-0.00091,2.55301
230.45,2000,0,91.24,0.000002697398,0.000002697398,0.000002697398,0.99999994,0,0,0,0,0,0,1,1,0,0,0,false,false,true,-19.16,-3413.8098,16.99,-0.0037358967,0.0030022042,0.794654,0.6070437,-261.891,1754.9309,8.571,0,-0.00111,2.6047099
230.45833,2000,0,91.24,0.000002697398,0.000002697398,0.000002697398,0.99999994,0,0,0,0,0,0,1,1,0,0,0,false,false,true,-21.34,-3399.18,16.99,-0.00377366,0.0029590456,0.80119425,0.598385,-273.121,1750.4409,8.571,0.00010999999,-0.0012099999,2.6498098
230.46666,2000,0,91.24,0.000002697398,0.000002697398,0.000002697398,0.99999994,0,0,0,0,0,0,1,1,0,0,0,false,false,true,-23.619999,-3384.5898,16.99,-0.0038114234,0.0029158874,0.8077503,0.58950514,-282.881,1746.251,8.571,0.00021,-0.0012099999,2.68781
230.475,2000,0,91.24,0.000002697398,0.000002697398,0.000002697398,0.99999994,0,0,0,0,0,0,1,1,0,0,0,false,false,true,-25.98,-3370.04,16.99,-0.0038491872,0.002867334,0.81430286,0.5804202,-290.961,1742.5509,8.571,0.00030999997,-0.00131,2.71841
230.48334,2000,0,91.24,0.000002697398,0.000002697398,0.000002697398,0.99999994,0,0,0,0,0,0,1,1,0,0,0,false,false,true,-28.4,-3355.52,16.99,-0.0038869507,0.002818781,0.8208265,0.57115734,-297.131,1739.5309,8.561,0.00040999998,-0.00131,2.74121
230.49167,2000,0,91.24,0.000002697398,0.000002697398,0.000002697398,0.99999994,0,0,0,0,0,0,1,1,0,0,0,false,false,true,-30.88,-3341.02,16.99,-0.0039247144,0.002770228,0.82729757,0.5617434,-303.561,1736.2109,8.561,0.00051,-0.00131,2.76331
230.5,2000,0,91.24,0.000002697398,0.000002697398,0.000002697398,0.99999994,0,0,0,0,0,0,1,1,0,0,0,false,false,true,-33.41,-3326.5498,16.99,-0.003957083,0.0027216745,0.8337121,0.5521783,-310.231,1732.5709,8.561,0.00051,-0.0012099999,2.78491
230.50833,2000,0,91.24,0.000002697398,0.000002697398,0.000002697398,0.99999994,0,0,0,0,0,0,1,1,0,0,0,false,false,true,-36,-3312.1099,16.99,-0.003989452,0.0026731216,0.84006286,0.5424678,-317.111,1728.611,8.561,0.00051,-0.00111,2.80601
230.51666,2000,0,91.24,0.000002697398,0.000002697398,0.000002697398,0.99999994,0,0,0,0,0,0,1,1,0,0,0,false,false,true,-38.64,-3297.7,16.99,-0.00402182,0.0026245683,0.8463462,0.53261137,-324.191,1724.3109,8.561,0.00051,-0.00111,2.8266098
230.525,2000,0,91.24,0.000002697398,0.000002697398,0.000002697398,0.99999994,0,0,0,0,0,0,1,1,0,0,0,false,false,true,-41.34,-3283.3298,16.99,-0.0040541897,0.0025706205,0.8525586,0.5226095,-331.441,1719.6709,8.561,0.00051,-0.0010099999,2.84671
230.53334,2000,0,91.24,0.000002697398,0.000002697398,0.000002697398,0.99999994,0,0,0,0,0,0,1,1,0,0,0,false,false,true,-44.1,-3269,16.99,-0.004086558,0.0025166722,0.8586966,0.5124617,-338.831,1714.6909,8.561,0.00051,-0.00091,2.86621
230.54167,2000,0,91.24,0.000002697398,0.000002697398,0.000002697398,0.99999994,0,0,0,0,0,0,1,1,0,0,0,false,false,true,-46.92,-3254.71,16.99,-0.0041189273,0.0024627247,0.86475646,0.5021685,-346.341,1709.371,8.561,0.00051,-0.00081,2.88521
230.55,2000,0,91.24,0.000002697398,0.000002697398,0.000002697398,0.99999994,0,0,0,0,0,0,1,1,0,0,0,false,false,true,-49.809998,-3240.46,16.99,-0.0041512954,0.0024087764,0.8707317,0.49173483,-353.951,1703.7009,8.561,0.00040999998,-0.00071,2.90371
230.55833,2000,0,91.24,0.000002697398,0.000002697398,0.000002697398,0.99999994,0,0,0,0,0,0,1,1,0,0,0,false,false,true,-52.76,-3226.26,16.99,-0.0041836645,0.0023548284,0.876616,0.48116642,-361.631,1697.6809,8.561,0.00040999998,-0.00061,2.9216099
230.56667,2000,0,91.24,0.000002697398,0.000002697398,0.000002697398,0.99999994,0,0,0,0,0,0,1,1,0,0,0,false,false,true,-55.77,-3212.1099,16.99,-0.004216033,0.0023008804,0.8824094,0.47045767,-369.351,1691.3109,8.561,0.00040999998,-0.00051,2.93891
230.575,2000,0,91.24,0.000002697398,0.000002697398,0.000002697398,0.99999994,0,0,0,0,0,0,1,1,0,0,0,false,false,true,-58.85,-3198.02,16.99,-0.004243007,0.0022469326,0.8881029,0.45961952,-377.101,1684.591,8.561,0.00040999998,-0.00040999998,2.95561
230.58333,2000,0,91.24,0.000002697398,0.000002697398,0.000002697398,0.99999994,0,0,0,0,0,0,1,1,0,0,0,false,false,true,-61.989998,-3183.98,16.99,-0.004269981,0.0021929846,0.89369637,0.44864643,-384.841,1677.521,8.561,0.00040999998,-0.00040999998,2.9716098
230.59166,2000,0,91.24,0.000002697398,0.000002697398,0.000002697398,0.99999994,0,0,0,0,0,0,1,1,0,0,0,false,false,true,-65.2,-3170,16.99,-0.004296955,0.0021390365,0.8991815,0.43754932,-392.561,1670.111,8.561,0.00040999998,-0.00040999998,2.98701
230.6,2000,0,91.24,0.000002697398,0.000002697398,0.000002697398,0.99999994,0,0,0,0,0,0,1,1,0,0,0,false,false,true,-68.47,-3156.0798,16.99,-0.0043239295,0.0020850888,0.90455836,0.4263227,-400.231,1662.371,8.561,0.00040999998,-0.00040999998,3.00161
230.60834,2000,0,91.24,0.000002697398,0.000002697398,0.000002697398,0.99999994,0,0,0,0,0,0,1,1,0,0,0,false,false,true,-71.81,-3142.23,16.99,-0.004350903,0.0020311407,0.90981895,0.4149774,-407.82098,1654.3009,8.561,0.00040999998,-0.00040999998,3.0155098
230.61667,2000,0,91.24,0.000002697398,0.000002697398,0.000002697398,0.99999994,0,0,0,0,0,0,1,1,0,0,0,false,false,true,-75.21,-3128.44,16.99,-0.0043778773,0.001971798,0.9149611,0.4035134,-415.32098,1645.9109,8.561,0.00040999998,-0.00030999997,3.02861
230.625,2000,0,91.24,0.000002697398,0.000002697398,0.000002697398,0.99999994,0,0,0,0,0,0,1,1,0,0,0,false,false,true,-78.67,-3114.72,16.99,-0.004404851,0.0019124552,0.9199798,0.39193615,-422.701,1637.2109,8.561,0.00040999998,-0.00030999997,3.04091
230.63333,2000,0,91.24,0.000002697398,0.000002697398,0.000002697398,0.99999994,0,0,0,0,0,0,1,1,0,0,0,false,false,true,-82.189995,-3101.0798,16.99,-0.004431825,0.0018531126,0.92487085,0.38025096,-429.941,1628.2109,8.561,0.00030999997,-0.00021,3.05241
230.64166,2000,0,91.24,0.000002697398,0.000002697398,0.000002697398,0.99999994,0,0,0,0,0,0,1,1,0,0,0,false,false,true,-85.77,-3087.51,16.99,-0.004453404,0.0017937698,0.92963195,0.3684579,-437.021,1618.9209,8.561,0.00030999997,-0.00010999999,3.06301
230.65,2000,0,91.24,0.000002697398,0.000002697398,0.000002697398,0.99999994,0,0,0,0,0,0,1,1,0,0,0,false,false,true,-89.409996,-3074.02,16.99,-0.004474983,0.001734427,0.9342592,0.35656232,-444.331,1609.641,8.561,0.00030999997,-0.00010999999,3.0743098
230.65834,2000,0,91.24,0.000002697398,0.000002697398,0.000002697398,0.99999994,0,0,0,0,0,0,1,1,0,0,0,false,false,true,-93.11,-3060.6099,16.99,-0.0044965623,0.0016750842,0.9387504,0.3445643,-451.881,1600.371,8.561,0.00030999997,0,3.08641
230.66667,2000,0,91.24,0.000002697398,0.000002697398,0.000002697398,0.99999994,0,0,0,0,0,0,1,1,0,0,0,false,false,true,-96.88,-3047.27,16.99,-0.0045181415,0.0016157414,0.9431038,0.33246365,-459.361,1590.9109,8.561,0.00021,0,3.0980098
230.675,2000,0,91.24,0.000002697398,0.000002697398,0.000002697398,0.99999994,0,0,0,0,0,0,1,1,0,0,0,false,false,true,-100.71,-3034.01,16.99,-0.004539721,0.0015563988,0.9473173,0.32026058,-466.761,1581.271,8.561,0.00021,0,3.1091099
230.68333,2000,0,91.24,0.000002697398,0.000002697398,0.000002697398,0.99999994,0,0,0,0,0,0,1,1,0,0,0,false,false,true,-104.6,-3020.8298,16.99,-0.0045613,0.0014970559,0.951387,0.30796042,-474.07098,1571.4609,8.561,0.00021,0,3.11971
230.69167,2000,0,91.24,0.000002697398,0.000002697398,0.000002697398,0.99999994,0,0,0,0,0,0,1,1,0,0,0,false,false,true,-108.549995,-3007.73,16.99,-0.004577485,0.0014377133,0.95530945,0.2955685,-481.281,1561.491,8.561,0.00021,0,3.1298099
230.7,2000,0,91.24,0.000002697398,0.000002697398,0.000002697398,0.99999994,0,0,0,0,0,0,1,1,0,0,0,false,false,true,-112.56,-2994.72,16.99,-0.004593669,0.0013783704,0.9590828,0.28308493,-488.391,1551.371,8.561,0.00021,0,3.13941
230.70833,2000,0,91.24,0.000002697398,0.000002697398,0.000002697398,0.99999994,0,0,0,0,0,0,1,1,0,0,0,false,false,true,-116.63,-2981.79,16.99,-0.004609853,0.0013190276,0.96270376,0.27051497,-495.391,1541.121,8.561,0.00021,0,3.1484098
230.71666,2000,0,91.24,0.000002697398,0.000002697398,0.000002697398,0.99999994,0,0,0,0,0,0,1,1,0,0,0,false,false,true,-120.759995,-2968.95,16.99,-0.004626037,0.0012596848,0.9661691,0.25786415,-502.281,1530.751,8.561,0.00021,0,3.15691
230.725,2000,0,91.24,0.000002697398,0.000002697398,0.000002697398,0.99999994,0,0,0,0,0,0,1,1,0,0,0,false,false,true,-124.95,-2956.19,16.99,-0.004642222,0.0012003421,0.9694777,0.24513237,-509.051,1520.271,8.561,0.00021,0,3.16481
230.73334,2000,0,91.24,0.000002697398,0.000002697398,0.000002697398,0.99999994,0,0,0,0,0,0,1,1,0,0,0,false,false,true,-129.19,-2943.52,16.99,-0.0046584066,0.0011356047,0.9726263,0.23232514,-515.701,1509.6909,8.561,0.00030999997,0,3.1721098
230.74167,2000,0,91.24,0.000002697398,0.000002697398,0.000002697398,0.99999994,0,0,0,0,0,0,1,1,0,0,0,false,false,true,-133.48999,-2930.94,16.99,-0.004674591,0.0010708671,0.97561246,0.21944767,-522.24097,1499.021,8.561,0.00030999997,0,3.17881
230.75,2000,0,91.24,0.000002697398,0.000002697398,0.000002697398,0.99999994,0,0,0,0,0,0,1,1,0,0,0,false,false,true,-137.84,-2918.45,16.99,-0.0046853805,0.0010061294,0.97843367,0.20650546,-528.66095,1488.2809,8.561,0.00030999997,0.00010999999,3.1849098
230.75833,2000,0,91.24,0.000002697398,0.000002697398,0.000002697398,0.99999994,0,0,0,0,0,0,1,1,0,0,0,false,false,true,-142.25,-2906.05,16.99,-0.00469617,0.0009413919,0.98108774,0.193504,-534.96094,1477.471,8.561,0.00030999997,0.00010999999,3.19041
230.76666,2000,0,91.24,0.000002697398,0.000002697398,0.000002697398,0.99999994,0,0,0,0,0,0,1,1,0,0,0,false,false,true,-146.70999,-2893.74,16.99,-0.0047069597,0.00087665435,0.9835737,0.18044312,-541.15094,1466.611,8.561,0.00021,0.00010999999,3.19521
230.775,2000,0,91.24,0.000002697398,0.000002697398,0.000002697398,0.99999994,0,0,0,0,0,0,1,1,0,0,0,false,false,true,-151.22,-2881.52,16.99,-0.0047177486,0.0008119168,0.98588854,0.16733375,-547.22095,1455.7109,8.561,0.00021,0.00010999999,3.19941
230.78334,2000,0,91.24,0.000002697398,0.000002697398,0.000002697398,0.99999994,0,0,0,0,0,0,1,1,0,0,0,false,false,true,-155.78,-2869.39,16.99,-0.0047285384,0.00074717926,0.9880318,0.15417577,-553.191,1444.7909,8.561,0.00021,0.00010999999,3.20291
230.79167,2000,0,91.24,0.000002697398,0.000002697398,0.000002697398,0.99999994,0,0,0,0,0,0,1,1,0,0,0,false,false,true,-160.39,-2857.3499,16.99,-0.0047393283,0.0006824417,0.99000156,0.14097461,-559.05096,1433.851,8.561,0.00010999999,0.00010999999,3.20571
230.8,2000,0,91.24,0.000002697398,0.000002697398,0.000002697398,0.99999994,0,0,0,0,0,0,1,1,0,0,0,false,false,true,-165.05,-2845.4,16.99,-0.004750118,0.0006177042,0.99179596,0.12774119,-564.821,1422.901,8.561,0.00010999999,0.00021,3.20781
230.80833,2000,0,91.24,0.000002697398,0.000002697398,0.000002697398,0.99999994,0,0,0,0,0,0,1,1,0,0,0,false,false,true,-169.76,-2833.54,16.99,-0.0047555123,0.00055296655,0.9934144,0.11447529,-570.49097,1411.9509,8.561,0.00010999999,0.00021,3.20921
230.81667,2000,0,91.24,0.000002697398,0.000002697398,0.000002697398,0.99999994,0,0,0,0,0,0,1,1,0,0,0,false,false,true,-174.51,-2821.77,16.99,-0.0047609075,0.00048822907,0.9948563,0.10118252,-576.081,1401.011,8.561,0.00010999999,0.00021,3.20991
230.825,2000,0,91.24,0.000002697398,0.000002697398,0.000002697398,0.99999994,0,0,0,0,0,0,1,1,0,0,0,false,false,true,-179.31,-2810.0898,16.99,-0.004766302,0.0004234915,0.9961206,0.08786808,-581.60095,1390.091,8.561,0.00010999999,0.00021,3.20981
230.83333,2000,0,91.24,0.000002697398,0.000002697398,0.000002697398,0.99999994,0,0,0,0,0,0,1,1,0,0,0,false,false,true,-184.15999,-2798.51,16.99,-0.004771697,0.00035875392,0.9972067,0.07453745,-587.05096,1379.2009,8.561,0,0.00021,3.20901
230.84166,2000,0,91.24,0.000002697398,0.000002697398,0.000002697398,0.99999994,0,0,0,0,0,0,1,1,0,0,0,false,false,true,-189.05,-2787.02,16.99,-0.004777092,0.00029401638,0.9981142,0.061196122,-592.441,1368.341,8.561,0,0.00030999997,3.2074099
230.85,2000,0,91.24,0.000002697398,0.000002697398,0.000002697398,0.99999994,0,0,0,0,0,0,1,1,0,0,0,false,false,true,-193.98999,-2775.6199,16.99,-0.0047770925,0.00022927886,0.99884284,0.04785471,-597.79095,1357.521,8.561,0,0.00030999997,3.20501
230.85834,2000,0,91.24,0.000002697398,0.000002697398,0.000002697398,0.99999994,0,0,0,0,0,0,1,1,0,0,0,false,false,true,-198.97,-2764.31,16.99,-0.004777092,0.00016454128,0.99939275,0.034513377,-603.10095,1346.741,8.561,0,0.00030999997,3.20181
230.86667,2000,0,91.24,0.000002697398,0.000002697398,0.000002697398,0.99999994,0,0,0,0,0,0,1,1,0,0,0,false,false,true,-204,-2753.0898,16.99,-0.004777092,0.00009980373,0.99976426,0.021177357,-608.391,1336.011,8.561,0,0.00030999997,3.19781
230.875,2000,0,91.24,0.000002697398,0.000002697398,0.000002697398,0.99999994,0,0,0,0,0,0,1,1,0,0,0,false,false,true,-209.06999,-2741.96,16.99,-0.0047770925,0.000035066176,0.9999577,0.007857521,-613.66095,1325.3309,8.561,0,0.00030999997,3.19291
230.88333,2000,0,91.24,0.000002697398,0.000002697398,0.000002697398,0.99999994,0,0,0,0,0,0,1,1,0,0,0,false,false,true,-214.18,-2730.92,16.99,-0.0047770925,-0.00002967138,0.9999737,-0.005446047,-618.93097,1314.7009,8.561,0,0.00030999997,3.18711
230.89166,2000,0,91.24,0.000002697398,0.000002697398,0.000002697398,0.99999994,0,0,0,0,0,0,1,1,0,0,0,false,false,true,-219.34,-2719.96,16.99,-0.0047770916,-0.000094408926,0.99981314,-0.018722722,-624.22095,1304.131,8.561,0,0.00030999997,3.18041
230.9,2000,0,91.24,0.000002697398,0.000002697398,0.000002697398,0.99999994,0,0,0,0,0,0,1,1,0,0,0,false,false,true,-224.54,-2709.0898,16.99,-0.0047716964,-0.00015914647,0.9994772,-0.031972382,-629.53094,1293.611,8.561,0,0.00040999998,3.17271
230.90834,2000,0,91.24,0.000002697398,0.000002697398,0.000002697398,0.99999994,0,0,0,0,0,0,1,1,0,0,0,false,false,true,-229.79,-2698.31,16.99,-0.004766302,-0.00022388404,0.99896723,-0.045184284,-634.881,1283.151,8.561,0,0.00040999998,3.16401
230.91667,2000,0,91.24,0.000002697398,0.000002697398,0.000002697398,0.99999994,0,0,0,0,0,0,1,1,0,0,0,false,false,true,-235.08,-2687.6199,16.99,-0.0047609075,-0.00028862158,0.9982849,-0.058347628,-640.29095,1272.741,8.561,0,0.00040999998,3.15431
230.925,2000,0,91.24,0.000002697398,0.000002697398,0.000002697398,0.99999994,0,0,0,0,0,0,1,1,0,0,0,false,false,true,-240.42,-2677.01,16.99,-0.0047555123,-0.00035335912,0.99743176,-0.07146241,-645.71094,1262.3209,8.561,0,0.00040999998,3.1461098
230.93333,2000,0,91.24,0.000002697398,0.000002697398,0.000002697398,0.99999994,0,0,0,0,0,0,1,1,0,0,0,false,false,true,-245.79999,-2666.49,16.99,-0.004750118,-0.00041809672,0.9964096,-0.08452871,-651.08093,1251.8309,8.561,-0.00010999999,0.00040999998,3.14201
230.94167,2000,0,91.24,0.000002697398,0.000002697398,0.000002697398,0.99999994,0,0,0,0,0,0,1,1,0,0,0,false,false,true,-251.23,-2656.06,16.99,-0.004744723,-0.00047743946,0.9952174,-0.09756796,-656.41095,1241.281,8.561,-0.00021,0.00040999998,3.1419098
230.95,2000,0,91.24,0.000002697398,0.000002697398,0.000002697398,0.99999994,0,0,0,0,0,0,1,1,0,0,0,false,false,true,-256.69998,-2645.72,16.99,-0.0047339336,-0.0005367822,0.9938551,-0.11058565,-661.72095,1230.6809,8.561,-0.00030999997,0.00040999998,3.14571
230.95833,2000,0,91.24,0.000002697398,0.000002697398,0.000002697398,0.99999994,0,0,0,0,0,0,1,1,0,0,0,false,false,true,-262.21,-2635.46,16.99,-0.0047231438,-0.00059612497,0.99232024,-0.12360334,-667.001,1220.021,8.561,-0.00030999997,0.00030999997,3.1533098
230.96666,2000,0,91.24,0.000002697398,0.000002697398,0.000002697398,0.99999994,0,0,0,0,0,0,1,1,0,0,0,false,false,true,-267.77,-2625.29,16.99,-0.0047123544,-0.00065546774,0.9906104,-0.1366318,-672.191,1209.241,8.561,-0.00030999997,0.00021,3.16621
230.975,2000,0,91.24,0.000002697398,0.000002697398,0.000002697398,0.99999994,0,0,0,0,0,0,1,1,0,0,0,false,false,true,-273.37,-2615.21,16.99,-0.0047015646,-0.0007148105,0.9887219,-0.14968729,-677.201,1198.281,8.561,-0.00040999998,0.00010999999,3.18611
230.98334,2000,0,91.24,0.000002697398,0.000002697398,0.000002697398,0.99999994,0,0,0,0,0,0,1,1,0,0,0,false,false,true,-279.00998,-2605.22,16.99,-0.004690775,-0.0007741532,0.98664725,-0.16280209,-682.04095,1187.151,8.561,-0.00051,0,3.21281
230.99167,2000,0,91.24,0.000002697398,0.000002697398,0.000002697398,0.99999994,0,0,0,0,0,0,1,1,0,0,0,false,false,true,-284.69,-2595.3298,16.99,-0.0046799853,-0.000833496,0.98438,-0.17599241,-686.701,1175.871,8.561,-0.00061,0,3.24611
231,2000,0,91.24,0.000002697398,0.000002697398,0.000002697398,0.99999994,0,0,0,0,0,0,1,1,0,0,0,false,false,true,-290.41,-2585.53,16.99,-0.004669196,-0.00089283875,0.9819095,-0.18929063,-691.191,1164.4409,8.561,-0.00071,-0.00010999999,3.28601
231.00833,2000,0,91.24,0.000002697398,0.000002697398,0.000002697398,0.99999994,0,0,0,0,0,0,1,1,0,0,0,false,false,true,-296.16998,-2575.8298,16.99,-0.0046584057,-0.0009521814,0.9792254,-0.2027183,-695.52094,1152.881,8.561,-0.00071,-0.00021,3.33231
231.01666,2000,0,91.24,0.000002697398,0.000002697398,0.000002697398,0.99999994,0,0,0,0,0,0,1,1,0,0,0,false,false,true,-301.97,-2566.22,16.99,-0.0046476163,-0.0010115241,0.97631586,-0.21629708,-699.68097,1141.2109,8.561,-0.00081,-0.00030999997,3.3849099
231.025,2000,0,91.24,0.000002697398,0.000002697398,0.000002697398,0.99999994,0,0,0,0,0,0,1,1,0,0,0,false,false,true,-307.8,-2556.71,16.99,-0.0046314322,-0.001070867,0.9731688,-0.23004308,-703.691,1129.4309,8.561,-0.00081,-0.00030999997,3.4437099
231.03334,2000,0,91.24,0.000002697398,0.000002697398,0.000002697398,0.99999994,0,0,0,0,0,0,1,1,0,0,0,false,false,true,-313.66,-2547.3,16.99,-0.0046152486,-0.0011356047,0.96976775,-0.2439833,-707.54095,1117.5509,8.561,-0.00081,-0.00040999998,3.50871
231.04167,2000,0,91.24,0.000002697398,0.000002697398,0.000002697398,0.99999994,0,0,0,0,0,0,1,1,0,0,0,false,false,true,-319.56,-2537.99,16.99,-0.0045990637,-0.0012003421,0.9660974,-0.25813386,-711.22095,1105.5409,8.561,-0.00081,-0.00051,3.5792098
231.05,2000,0,91.24,0.000002697398,0.000002697398,0.000002697398,0.99999994,0,0,0,0,0,0,1,1,0,0,0,false,false,true,-325.49,-2528.78,16.99,-0.004582879,-0.0012650797,0.96214086,-0.27251107,-714.58093,1093.271,8.561,-0.00081,-0.00061,3.65221
231.05833,2000,0,91.24,0.000002697398,0.000002697398,0.000002697398,0.99999994,0,0,0,0,0,0,1,1,0,0,0,false,false,true,-331.44,-2519.67,16.99,-0.0045666946,-0.0013298172,0.95788264,-0.28712022,-717.58093,1080.8009,8.561,-0.00081,-0.00061,3.72731
231.06667,2000,0,91.24,0.000002697398,0.000002697398,0.000002697398,0.99999994,0,0,0,0,0,0,1,1,0,0,0,false,false,true,-337.41998,-2510.66,16.99,-0.004545116,-0.0013945549,0.9533083,-0.3019614,-720.001,1068.4209,8.561,-0.00071,-0.00061,3.80191
231.075,2000,0,91.24,0.000002697398,0.000002697398,0.000002697398,0.99999994,0,0,0,0,0,0,1,1,0,0,0,false,false,true,-343.41998,-2501.76,16.99,-0.004523536,-0.0014646872,0.9484056,-0.31702372,-721.871,1056.161,8.561,-0.00051,-0.00061,3.87571
231.08333,2000,0,91.24,0.000002697398,0.000002697398,0.000002697398,0.99999994,0,0,0,0,0,0,1,1,0,0,0,false,false,true,-349.44,-2492.96,16.99,-0.0045019574,-0.0015348195,0.9431629,-0.33229643,-723.201,1044.0609,8.561,-0.00040999998,-0.00061,3.94871
231.09166,2000,0,91.24,0.000002697398,0.000002697398,0.000002697398,0.99999994,0,0,0,0,0,0,1,1,0,0,0,false,false,true,-355.47,-2484.26,16.99,-0.0044803782,-0.0016049518,0.9375682,-0.34776875,-724.011,1032.151,8.561,-0.00030999997,-0.00051,4.02111
231.1,2000,0,91.24,0.000002697398,0.000002697398,0.000002697398,0.99999994,0,0,0,0,0,0,1,1,0,0,0,false,false,true,-361.5,-2475.66,16.99,-0.0044534034,-0.0016804788,0.9316092,-0.3634299,-724.321,1020.46094,8.561,-0.00021,-0.00040999998,4.09271
231.10834,2000,0,91.24,0.000002697398,0.000002697398,0.000002697398,0.99999994,0,0,0,0,0,0,1,1,0,0,0,false,false,true,-367.53998,-2467.16,16.99,-0.0044264304,-0.0017560063,0.92527634,-0.37926373,-723.941,1008.8909,8.561,-0.00010999999,-0.00030999997,4.15831
231.11667,2000,0,91.24,0.000002697398,0.000002697398,0.000002697398,0.99999994,0,0,0,0,0,0,1,1,0,0,0,false,false,true,-373.56998,-2458.75,16.99,-0.0043940614,-0.0018315333,0.91856647,-0.39523777,-722.8909,997.48096,8.561,0,-0.00021,4.21791
231.125,2000,0,91.24,0.000002697398,0.000002697398,0.000002697398,0.99999994,0,0,0,0,0,0,1,1,0,0,0,false,false,true,-379.59,-2450.44,16.99,-0.0043616924,-0.0019070605,0.91147864,-0.4113197,-721.18097,986.27094,8.561,0.00010999999,-0.00010999999,4.27161
231.13333,2000,0,91.24,0.000002697398,0.000002697398,0.000002697398,0.99999994,0,0,0,0,0,0,1,1,0,0,0,false,false,true,-385.6,-2442.22,16.99,-0.0043293242,-0.0019825876,0.9040136,-0.42747718,-718.85095,975.311,8.561,0.00021,0,4.31951
231.14166,2000,0,91.24,0.000002697398,0.000002697398,0.000002697398,0.99999994,0,0,0,0,0,0,1,1,0,0,0,false,false,true,-391.59,-2434.0898,16.99,-0.00429156,-0.0020635095,0.89617366,-0.4436778,-715.92096,964.631,8.561,0.00030999997,0,4.36161
231.15,2000,0,91.24,0.000002697398,0.000002697398,0.000002697398,0.99999994,0,0,0,0,0,0,1,1,0,0,0,false,false,true,-397.56,-2426.05,16.99,-0.004253797,-0.0021444315,0.8879634,-0.45988926,-712.43097,954.27094,8.561,0.00030999997,0,4.39791
231.15834,2000,0,91.24,0.000002697398,0.000002697398,0.000002697398,0.99999994,0,0,0,0,0,0,1,1,0,0,0,false,false,true,-403.5,-2418.0999,16.99,-0.0042160326,-0.0022253531,0.8793865,-0.4760844,-708.42096,944.2609,8.561,0.00030999997,0.00010999999,4.42861
231.16667,2000,0,91.24,0.000002697398,0.000002697398,0.000002697398,0.99999994,0,0,0,0,0,0,1,1,0,0,0,false,false,true,-409.4,-2410.23,16.99,-0.004172874,-0.002306275,0.87045133,-0.4922311,-703.93097,934.621,8.561,0.00030999997,0.00021,4.45371
231.175,2000,0,91.24,0.000002697398,0.000002697398,0.000002697398,0.99999994,0,0,0,0,0,0,1,1,0,0,0,false,false,true,-415.27,-2402.44,16.99,-0.004129716,-0.0023871972,0.86116856,-0.5082969,-699.001,925.3909,8.561,0.00040999998,0.00030999997,4.47341
231.18333,2000,0,91.24,0.000002697398,0.000002697398,0.000002697398,0.99999994,0,0,0,0,0,0,1,1,0,0,0,false,false,true,-421.09,-2394.73,16.99,-0.004086558,-0.0024681191,0.8515447,-0.5242602,-693.691,916.59094,8.561,0.00040999998,0.00040999998,4.48771
231.19167,2000,0,91.24,0.000002697398,0.000002697398,0.000002697398,0.99999994,0,0,0,0,0,0,1,1,0,0,0,false,false,true,-426.87,-2387.0898,16.99,-0.0040380047,-0.002549041,0.8415945,-0.5400886,-688.04095,908.23096,8.561,0.00040999998,0.00051,4.49671
231.2,2000,0,91.24,0.000002697398,0.000002697398,0.000002697398,0.99999994,0,0,0,0,0,0,1,1,0,0,0,false,false,true,-432.59998,-2379.52,16.99,-0.0039894516,-0.0026245683,0.83132863,-0.5557605,-682.10095,900.33093,8.561,0.00040999998,0.00051,4.5005097
231.20833,2000,0,91.24,0.000002697398,0.000002697398,0.000002697398,0.99999994,0,0,0,0,0,0,1,1,0,0,0,false,false,true,-438.28,-2372.02,16.99,-0.0039408985,-0.0027000955,0.82076275,-0.57124907,-675.92096,892.8909,8.561,0.00040999998,0.00061,4.49931
231.21666,2000,0,91.24,0.000002697398,0.000002697398,0.000002697398,0.99999994,0,0,0,0,0,0,1,1,0,0,0,false,false,true,-443.91,-2364.5798,16.99,-0.0038869507,-0.0027756225,0.8099115,-0.58653253,-669.561,885.92096,8.561,0.00040999998,0.00071,4.4931097
231.225,2000,0,91.24,0.000002697398,0.000002697398,0.000002697398,0.99999994,0,0,0,0,0,0,1,1,0,0,0,false,false,true,-449.49,-2357.2,16.99,-0.0038330026,-0.0028511498,0.7987911,-0.60158944,-663.071,879.41095,8.561,0.00040999998,0.00081,4.48201
231.23334,2000,0,91.24,0.000002697398,0.000002697398,0.000002697398,0.99999994,0,0,0,0,0,0,1,1,0,0,0,false,false,true,-455.02,-2349.8699,16.99,-0.0037790546,-0.0029266768,0.78741574,-0.61640364,-656.501,873.36096,8.561,0.00040999998,0.00091,4.46601
231.24167,2000,0,91.24,0.000002697398,0.000002697398,0.000002697398,0.99999994,0,0,0,0,0,0,1,1,0,0,0,false,false,true,-460.49,-2342.5898,16.99,-0.003719712,-0.003002204,0.77581024,-0.63094807,-649.891,867.751,8.561,0.00030999997,0.00091,4.44531
231.25,2000,0,91.24,0.000002697398,0.000002697398,0.000002697398,0.99999994,0,0,0,0,0,0,1,1,0,0,0,false,false,true,-465.91,-2335.3599,16.99,-0.0036603692,-0.0030723363,0.76399314,-0.6452066,-643.30096,862.58093,8.561,0.00030999997,0.00091,4.41991
231.25833,2000,0,91.24,0.000002697398,0.000002697398,0.000002697398,0.99999994,0,0,0,0,0,0,1,1,0,0,0,false,false,true,-471.27,-2328.17,16.99,-0.0036010267,-0.0031424689,0.7519801,-0.6591684,-636.77094,857.821,8.561,0.00030999997,0.00091,4.39001
231.26666,2000,0,91.24,0.000002697398,0.000002697398,0.000002697398,0.99999994,0,0,0,0,0,0,1,1,0,0,0,false,false,true,-476.58,-2321.02,16.99,-0.0035416838,-0.0032126012,0.73979807,-0.67281187,-630.35095,853.4509,8.561,0.00021,0.0010099999,4.3555098
231.275,2000,0,91.24,0.000002697398,0.000002697398,0.000002697398,0.99999994,0,0,0,0,0,0,1,1,0,0,0,false,false,true,-481.83,-2313.91,16.99,-0.0034823408,-0.0032773386,0.7274667,-0.68612623,-624.08093,849.441,8.551001,0.00021,0.0010099999,4.31661
231.28334,2000,0,91.24,0.000002697398,0.000002697398,0.000002697398,0.99999994,0,0,0,0,0,0,1,1,0,0,0,false,false,true,-487.03,-2306.8298,16.99,-0.0034229981,-0.0033420762,0.715007,-0.6991008,-618.001,845.77094,8.551001,0.00021,0.00111,4.2733097
231.29167,2000,0,91.24,0.000002697398,0.000002697398,0.000002697398,0.99999994,0,0,0,0,0,0,1,1,0,0,0,false,false,true,-492.18,-2299.78,16.99,0.0033582605,0.0034068138,-0.7024456,0.71172124,-612.141,842.40094,8.551001,0.00010999999,0.00111,4.22561
231.3,2000,0,91.24,0.000002697398,0.000002697398,0.000002697398,0.99999994,0,0,0,0,0,0,1,1,0,0,0,false,false,true,-497.28,-2292.76,16.99,0.0032935233,0.0034715515,-0.68980557,0.7239788,-606.53094,839.29095,8.551001,0.00010999999,0.00111,4.17351
231.30833,2000,0,91.24,0.000002697398,0.000002697398,0.000002697398,0.99999994,0,0,0,0,0,0,1,1,0,0,0,false,false,true,-502.33,-2285.77,16.99,0.0032287855,0.0035308942,-0.6771115,0.73586476,-601.201,836.42096,8.551001,0,0.00111,4.11711
231.31667,2000,0,91.24,0.000002697398,0.000002697398,0.000002697398,0.99999994,0,0,0,0,0,0,1,1,0,0,0,false,false,true,-507.34,-2278.8,16.99,0.0031640478,0.003590237,-0.66439056,0.7473701,-596.18097,833.74097,8.541,0,0.00111,4.05641
231.325,2000,0,91.24,0.000002697398,0.000002697398,0.000002697398,0.99999994,0,0,0,0,0,0,1,1,0,0,0,false,false,true,-512.31,-2271.8499,16.99,0.0030993104,0.003644185,-0.6516642,0.7584924,-591.47095,831.2009,8.541,0,0.00111,3.99151
231.33333,2000,0,91.24,0.000002697398,0.000002697398,0.000002697398,0.99999994,0,0,0,0,0,0,1,1,0,0,0,false,false,true,-517.24,-2264.92,16.99,0.0030345728,0.0036981327,-0.6389594,0.7692255,-587.081,828.761,8.541,0,0.00111,3.9226098
231.34166,2000,0,91.24,0.000002697398,0.000002697398,0.000002697398,0.99999994,0,0,0,0,0,0,1,1,0,0,0,false,false,true,-522.13,-2258.01,16.99,0.0029698352,0.0037520807,-0.62630314,0.77956486,-582.98096,826.36096,8.541,0,0.00111,3.85111
231.35,2000,0,91.24,0.000002697398,0.000002697398,0.000002697398,0.99999994,0,0,0,0,0,0,1,1,0,0,0,false,false,true,-526.99,-2251.1199,16.99,0.0029050978,0.0038006338,-0.61371166,0.7895156,-579.16095,823.98096,8.541,0,0.0010099999,3.77771
231.35834,2000,0,91.24,0.000002697398,0.000002697398,0.000002697398,0.99999994,0,0,0,0,0,0,1,1,0,0,0,false,false,true,-531.82,-2244.25,16.99,0.0028403602,0.0038491872,-0.6012064,0.79907936,-575.60095,821.60095,8.541,0,0.0010099999,3.70291
231.36667,2000,0,91.24,0.000002697398,0.000002697398,0.000002697398,0.99999994,0,0,0,0,0,0,1,1,0,0,0,false,false,true,-536.62,-2237.4,16.99,0.0027756225,0.0038977403,-0.58880377,0.80826175,-572.30096,819.2009,8.531,-0.00010999999,0.00091,3.62711
231.375,2000,0,91.24,0.000002697398,0.000002697398,0.000002697398,0.99999994,0,0,0,0,0,0,1,1,0,0,0,false,false,true,-541.39,-2230.57,16.99,0.0027162798,0.0039408985,-0.5765198,0.81706905,-569.251,816.761,8.531,-0.00010999999,0.00081,3.55071
231.38333,2000,0,91.24,0.000002697398,0.000002697398,0.000002697398,0.99999994,0,0,0,0,0,0,1,1,0,0,0,false,false,true,-546.13,-2223.76,16.99,0.0026569369,0.0039840564,-0.5643706,0.8255075,-566.43097,814.27094,8.531,-0.00021,0.00071,3.47411
231.39166,2000,0,91.24,0.000002697398,0.000002697398,0.000002697398,0.99999994,0,0,0,0,0,0,1,1,0,0,0,false,false,true,-550.85,-2216.97,16.99,0.0025975944,0.00402182,-0.5523618,0.8335907,-563.831,811.72095,8.531,-0.00021,0.00061,3.39761
231.4,2000,0,91.24,0.000002697398,0.000002697398,0.000002697398,0.99999994,0,0,0,0,0,0,1,1,0,0,0,false,false,true,-555.55,-2210.21,16.99,0.0025382515,0.004059584,-0.540504,0.8413277,-561.441,809.09094,8.531,-0.00021,0.00051,3.32161
231.40834,2000,0,91.24,0.000002697398,0.000002697398,0.000002697398,0.99999994,0,0,0,0,0,0,1,1,0,0,0,false,false,true,-560.23,-2203.47,16.99,0.002478909,0.004097348,-0.52880806,0.8487279,-559.251,806.36096,8.531,-0.00021,0.00040999998,3.24641
231.41667,2000,0,91.24,0.000002697398,0.000002697398,0.000002697398,0.99999994,0,0,0,0,0,0,1,1,0,0,0,false,false,true,-564.89,-2196.75,16.99,0.002419566,0.004129716,-0.51727927,0.8558032,-557.24097,803.53094,8.531,-0.00021,0.00030999997,3.17221
231.425,2000,0,91.24,0.000002697398,0.000002697398,0.000002697398,0.99999994,0,0,0,0,0,0,1,1,0,0,0,false,false,true,-569.52997,-2190.05,16.99,0.0023656182,0.0041620857,-0.5059233,0.86256516,-555.40094,800.59094,8.531,-0.00021,0.00021,3.09931
231.43333,2000,0,91.24,0.000002697398,0.000002697398,0.000002697398,0.99999994,0,0,0,0,0,0,1,1,0,0,0,false,false,true,-574.16,-2183.38,16.99,0.00231167,0.004194454,-0.49473977,0.8690279,-553.72095,797.52094,8.531,-0.00021,0.00021,3.02791
231.44167,2000,0,91.24,0.000002697398,0.000002697398,0.000002697398,0.99999994,0,0,0,0,0,0,1,1,0,0,0,false,false,true,-578.76996,-2176.73,16.99,0.0022577224,0.004221428,-0.48373437,0.87520176,-552.191,794.321,8.531,-0.00021,0.00010999999,2.95821
231.45,2000,0,91.24,0.000002697398,0.000002697398,0.000002697398,0.99999994,0,0,0,0,0,0,1,1,0,0,0,false,false,true,-583.37,-2170.1099,16.99,0.0022037742,0.0042484016,-0.47291234,0.8810964,-550.79095,790.99097,8.531,-0.00021,0,2.89041
231.45833,2000,0,91.24,0.000002697398,0.000002697398,0.000002697398,0.99999994,0,0,0,0,0,0,1,1,0,0,0,false,false,true,-587.95996,-2163.52,16.99,0.0021498264,0.0042753764,-0.46226838,0.8867271,-549.52094,787.511,8.531,-0.00021,0,2.82461
231.46666,2000,0,91.24,0.000002697398,0.000002697398,0.000002697398,0.99999994,0,0,0,0,0,0,1,1,0,0,0,false,false,true,-592.54,-2156.96,16.99,0.002101273,0.00430235,-0.45180243,0.8921051,-548.36096,783.8909,8.531,-0.00021,0,2.76101
231.475,2000,0,91.24,0.000002697398,0.000002697398,0.000002697398,0.99999994,0,0,0,0,0,0,1,1,0,0,0,false,false,true,-597.11,-2150.43,16.99,0.0020527202,0.0043239295,-0.44150913,0.897244,-547.30096,780.121,8.531,-0.00021,0,2.69981
231.48334,2000,0,91.24,0.000002697398,0.000002697398,0.000002697398,0.99999994,0,0,0,0,0,0,1,1,0,0,0,false,false,true,-601.67,-2143.93,16.99,0.0020041664,0.004345508,-0.43138838,0.90215343,-546.331,776.201,8.531,-0.00021,0,2.64101
231.49167,2000,0,91.24,0.000002697398,0.000002697398,0.000002697398,0.99999994,0,0,0,0,0,0,1,1,0,0,0,false,false,true,-606.22,-2137.46,16.99,0.0019556135,0.0043670875,-0.42143497,0.9068459,-545.441,772.121,8.531,-0.00021,0,2.58481
231.5,2000,0,91.24,0.000002697398,0.000002697398,0.000002697398,0.99999994,0,0,0,0,0,0,1,1,0,0,0,false,false,true,-610.76996,-2131.03,16.99,0.0019070605,0.0043886667,-0.41164342,0.91133237,-544.621,767.8909,8.521,-0.00010999999,-0.00010999999,2.53121
231.50833,2000,0,91.24,0.000002697398,0.000002697398,0.000002697398,0.99999994,0,0,0,0,0,0,1,1,0,0,0,false,false,true,-615.31,-2124.63,16.99,0.0018585073,0.0044102455,-0.40200824,0.9156235,-543.831,763.48096,8.521,-0.00010999999,-0.00021,2.4804099
231.51666,2000,0,91.24,0.000002697398,0.000002697398,0.000002697398,0.99999994,0,0,0,0,0,0,1,1,0,0,0,false,false,true,-619.83997,-2118.27,16.99,0.0018153489,0.00442643,-0.39252418,0.9197292,-543.04095,758.8909,8.521,0,-0.00030999997,2.43211
231.525,2000,0,91.24,0.000002697398,0.000002697398,0.000002697398,0.99999994,0,0,0,0,0,0,1,1,0,0,0,false,false,true,-624.37,-2111.95,16.99,0.0017721906,0.0044426145,-0.3831857,0.92365885,-542.23096,754.1409,8.521,0,-0.00030999997,2.38611
231.53334,2000,0,91.24,0.000002697398,0.000002697398,0.000002697398,0.99999994,0,0,0,0,0,0,1,1,0,0,0,false,false,true,-628.89,-2105.67,16.99,0.0017290321,0.004458799,-0.3739822,0.9274235,-541.391,749.23096,8.521,0,-0.00030999997,2.3424098
231.54167,2000,0,91.24,0.000002697398,0.000002697398,0.000002697398,0.99999994,0,0,0,0,0,0,1,1,0,0,0,false,false,true,-633.39996,-2099.43,16.99,0.0016858738,0.004474983,-0.3649135,0.9310291,-540.511,744.18097,8.521,0,-0.00030999997,2.30091
231.55,2000,0,91.24,0.000002697398,0.000002697398,0.000002697398,0.99999994,0,0,0,0,0,0,1,1,0,0,0,false,false,true,-637.89996,-2093.23,16.99,0.0016427154,0.0044911676,-0.35596886,0.9344855,-539.571,738.99097,8.521,0,-0.00030999997,2.26141
231.55833,2000,0,91.24,0.000002697398,0.000002697398,0.000002697398,0.99999994,0,0,0,0,0,0,1,1,0,0,0,false,false,true,-642.39996,-2087.07,16.99,0.0015995571,0.0045073526,-0.34714836,0.937798,-538.561,733.68097,8.521,0,-0.00030999997,2.22401
231.56667,2000,0,91.24,0.000002697398,0.000002697398,0.000002697398,0.99999994,0,0,0,0,0,0,1,1,0,0,0,false,false,true,-646.89,-2080.96,16.99,0.0015563987,0.0045181415,-0.33844113,0.94097537,-537.47095,728.251,8.521,0,-0.00040999998,2.18851
231.575,2000,0,91.24,0.000002697398,0.000002697398,0.000002697398,0.99999994,0,0,0,0,0,0,1,1,0,0,0,false,false,true,-651.37,-2074.89,16.99,0.0015132403,0.0045289313,-0.3298472,0.9440222,-536.29095,722.71094,8.521,0.00010999999,-0.00040999998,2.1549098
231.58333,2000,0,91.24,0.000002697398,0.000002697398,0.000002697398,0.99999994,0,0,0,0,0,0,1,1,0,0,0,false,false,true,-655.83997,-2068.8699,16.99,0.0014754769,0.004539721,-0.32135576,0.9469465,-535.02094,717.071,8.521,0.00021,-0.00040999998,2.12311
231.59166,2000,0,91.24,0.000002697398,0.000002697398,0.000002697398,0.99999994,0,0,0,0,0,0,1,1,0,0,0,false,false,true,-660.3,-2062.89,16.99,0.0014377133,0.004550511,-0.31296682,0.94975203,-533.641,711.34094,8.521,0.00021,-0.00040999998,2.0931098
231.6,2000,0,91.24,0.000002697398,0.000002697398,0.000002697398,0.99999994,0,0,0,0,0,0,1,1,0,0,0,false,false,true,-664.75,-2056.96,16.99,0.0013999495,0.0045613,-0.3046696,0.9524461,-532.141,705.52094,8.521,0.00021,-0.00030999997,2.06491
231.60834,2000,0,91.24,0.000002697398,0.000002697398,0.000002697398,0.99999994,0,0,0,0,0,0,1,1,0,0,0,false,false,true,-669.18,-2051.0798,16.99,0.0013621862,0.00457209,-0.2964641,0.95503205,-530.52094,699.631,8.521,0.00021,-0.00030999997,2.03841
231.61667,2000,0,91.24,0.000002697398,0.000002697398,0.000002697398,0.99999994,0,0,0,0,0,0,1,1,0,0,0,false,false,true,-673.6,-2045.25,16.99,0.0013244224,0.004582879,-0.28833947,0.9575163,-528.78094,693.67096,8.521,0.00021,-0.00030999997,2.01361
231.625,2000,0,91.24,0.000002697398,0.000002697398,0.000002697398,0.99999994,0,0,0,0,0,0,1,1,0,0,0,false,false,true,-678.01,-2039.47,16.99,0.0012866589,0.0045936694,-0.2802958,0.9599018,-526.90094,687.65094,8.521,0.00030999997,-0.00030999997,1.99041
231.63333,2000,0,91.24,0.000002697398,0.000002697398,0.000002697398,0.99999994,0,0,0,0,0,0,1,1,0,0,0,false,false,true,-682.39996,-2033.74,16.99,0.0012488954,0.004604459,-0.2723277,0.9621927,-524.891,681.58093,8.521,0.00030999997,-0.00030999997,1.96891
231.64166,2000,0,91.24,0.000002697398,0.000002697398,0.000002697398,0.99999994,0,0,0,0,0,0,1,1,0,0,0,false,false,true,-686.76996,-2028.0599,16.99,0.0012111318,0.0046152486,-0.26442426,0.9643946,-522.73096,675.47095,8.521,0.00030999997,-0.00030999997,1.94901
231.65,2000,0,91.24,0.000002697398,0.000002697398,0.000002697398,0.99999994,0,0,0,0,0,0,1,1,0,0,0,false,false,true,-691.13,-2022.4299,16.99,0.0011733682,0.004626038,-0.2565856,0.9665097,-520.43097,669.321,8.521,0.00030999997,-0.00030999997,1.93071
231.65834,2000,0,91.24,0.000002697398,0.000002697398,0.000002697398,0.99999994,0,0,0,0,0,0,1,1,0,0,0,false,false,true,-695.47,-2016.85,16.99,0.0011356046,0.004636827,-0.24880087,0.9685428,-517.97095,663.15094,8.521,0.00040999998,-0.00030999997,1.9140099
231.66667,2000,0,91.24,0.000002697398,0.000002697398,0.000002697398,0.99999994,0,0,0,0,0,0,1,1,0,0,0,false,false,true,-699.79,-2011.32,16.99,0.0011032356,0.0046476163,-0.24107006,0.9704958,-515.36096,656.96094,8.521,0.00040999998,-0.00040999998,1.8988099
231.675,2000,0,91.24,0.000002697398,0.000002697398,0.000002697398,0.99999994,0,0,0,0,0,0,1,1,0,0,0,false,false,true,-704.07996,-2005.85,16.99,0.001070867,0.0046530114,-0.23338246,0.97237325,-512.59094,650.761,8.521,0.00040999998,-0.00040999998,1.8852099
231.68333,2000,0,91.24,0.000002697398,0.000002697398,0.000002697398,0.99999994,0,0,0,0,0,0,1,1,0,0,0,false,false,true,-708.35,-2000.4299,16.99,0.0010384982,0.004658406,-0.22573799,0.9741763,-509.661,644.55096,8.521,0.00040999998,-0.00040999998,1.8731099
231.69167,2000,0,91.24,0.000002697398,0.000002697398,0.000002697398,0.99999994,0,0,0,0,0,0,1,1,0,0,0,false,false,true,-712.6,-1995.0599,16.99,0.0010061295,0.0046638018,-0.21812595,0.97590894,-506.561,638.34094,8.521,0.00040999998,-0.00040999998,1.86261
231.7,2000,0,91.24,0.000002697398,0.000002697398,0.000002697398,0.99999994,0,0,0,0,0,0,1,1,0,0,0,false,false,true,-716.82,-1989.74,16.99,0.00097376073,0.004669196,-0.21054621,0.9775722,-503.291,632.15094,8.521,0.00040999998,-0.00030999997,1.8536099
231.70833,2000,0,91.24,0.000002697398,0.000002697398,0.000002697398,0.99999994,0,0,0,0,0,0,1,1,0,0,0,false,false,true,-721.01,-1984.47,16.99,0.0009413919,0.0046745907,-0.20298806,0.97916955,-499.85098,625.97095,8.521,0.00030999997,-0.00030999997,1.84621
231.71666,2000,0,91.24,0.000002697398,0.000002697398,0.000002697398,0.99999994,0,0,0,0,0,0,1,1,0,0,0,false,false,true,-725.18,-1979.25,16.99,0.0009090232,0.004679986,-0.19545154,0.98070174,-496.241,619.821,8.521,0.00030999997,-0.00021,1.84031
231.725,2000,0,91.24,0.000002697398,0.000002697398,0.000002697398,0.99999994,0,0,0,0,0,0,1,1,0,0,0,false,false,true,-729.32,-1974.08,16.99,0.00087665435,0.0046853805,-0.18792574,0.9821716,-492.451,613.701,8.521,0.00030999997,-0.00021,1.83601
231.73334,2000,0,91.24,0.000002697398,0.000002697398,0.000002697398,0.99999994,0,0,0,0,0,0,1,1,0,0,0,false,false,true,-733.42,-1968.97,16.99,0.0008442856,0.004690775,-0.18040535,0.98358077,-488.491,607.631,8.521,0.00021,-0.00021,1.83331
231.74167,2000,0,91.24,0.000002697398,0.000002697398,0.000002697398,0.99999994,0,0,0,0,0,0,1,1,0,0,0,false,false,true,-737.49,-1963.9099,16.99,0.0008119168,0.0046961694,-0.17288499,0.98493034,-484.35098,601.61096,8.521,0.00021,-0.00021,1.83221
231.75,2000,0,91.24,0.000002697398,0.000002697398,0.000002697398,0.99999994,0,0,0,0,0,0,1,1,0,0,0,false,false,true,-741.52997,-1958.8999,16.99,0.000779548,0.0047015646,-0.16535923,0.98622185,-480.021,595.641,8.521,0.00010999999,-0.00021,1.8327099
231.75833,2000,0,91.24,0.000002697398,0.000002697398,0.000002697398,0.99999994,0,0,0,0,0,0,1,1,0,0,0,false,false,true,-745.52997,-1953.94,16.99,0.00074178446,0.0047069597,-0.15782265,0.9874559,-475.511,589.74097,8.521,0.00010999999,-0.00010999999,1.83481
231.76666,2000,0,91.24,0.000002697398,0.000002697398,0.000002697398,0.99999994,0,0,0,0,0,0,1,1,0,0,0,false,false,true,-749.49,-1949.0299,16.99,0.0007040209,0.0047123544,-0.15026994,0.98863345,-470.811,583.91095,8.521,0.00010999999,-0.00010999999,1.8385099
231.775,2000,0,91.24,0.000002697398,0.000002697398,0.000002697398,0.99999994,0,0,0,0,0,0,1,1,0,0,0,false,false,true,-753.41,-1944.1599,16.99,0.0006662572,0.0047177486,-0.14269018,0.9897558,-465.921,578.16095,8.521,0.00010999999,-0.00010999999,1.84391
231.78334,2000,0,91.24,0.000002697398,0.000002697398,0.000002697398,0.99999994,0,0,0,0,0,0,1,1,0,0,0,false,false,true,-757.29,-1939.34,16.99,0.0006284938,0.004723144,-0.13508351,0.99082273,-460.841,572.501,8.521,0.00021,-0.00010999999,1.85101
231.79167,2000,0,91.24,0.000002697398,0.000002697398,0.000002697398,0.99999994,0,0,0,0,0,0,1,1,0,0,0,false,false,true,-761.13,-1934.57,16.99,0.00059073017,0.0047285384,-0.12743907,0.9918349,-455.57098,566.941,8.521,0.00021,-0.00010999999,1.85981
231.8,2000,0,91.24,0.000002697398,0.000002697398,0.000002697398,0.99999994,0,0,0,0,0,0,1,1,0,0,0,false,false,true,-764.93,-1929.85,16.99,0.00055296655,0.004733933,-0.11975144,0.9927923,-450.111,561.49097,8.521,0.00030999997,-0.00021,1.87041
231.80833,2000,0,91.24,0.000002697398,0.000002697398,0.000002697398,0.99999994,0,0,0,0,0,0,1,1,0,0,0,false,false,true,-768.68,-1925.1699,16.99,0.000515203,0.0047393283,-0.112009875,0.9936956,-444.461,556.16095,8.521,0.00040999998,-0.00021,1.88281
231.81667,2000,0,91.24,0.000002697398,0.000002697398,0.000002697398,0.99999994,0,0,0,0,0,0,1,1,0,0,0,false,false,true,-772.38,-1920.5399,16.99,0.0004774395,0.0047447234,-0.10420897,0.99454397,-438.611,550.96094,8.521,0.00040999998,-0.00030999997,1.89701
231.825,2000,0,91.24,0.000002697398,0.000002697398,0.000002697398,0.99999994,0,0,0,0,0,0,1,1,0,0,0,false,false,true,-776.04,-1915.95,16.99,0.00043967587,0.004744723,-0.096343346,0.9953367,-432.57098,545.90094,8.521,0.00051,-0.00030999997,1.91311
231.83333,2000,0,91.24,0.000002697398,0.000002697398,0.000002697398,0.99999994,0,0,0,0,0,0,1,1,0,0,0,false,false,true,-779.63995,-1911.3999,16.99,0.00040191232,0.004744723,-0.08840756,0.99607295,-426.331,540.98096,8.521,0.00051,-0.00030999997,1.9311099
231.84166,2000,0,91.24,0.000002697398,0.000002697398,0.000002697398,0.99999994,0,0,0,0,0,0,1,1,0,0,0,false,false,true,-783.19,-1906.89,16.99,0.00036414873,0.004744723,-0.08039085,0.996752,-419.891,536.23096,8.521,0.00061,-0.00030999997,1.95111
231.85,2000,0,91.24,0.000002697398,0.000002697398,0.000002697398,0.99999994,0,0,0,0,0,0,1,1,0,0,0,false,false,true,-786.69,-1902.4199,16.99,0.00032638517,0.004744723,-0.07228247,0.9973728,-413.251,531.65094,8.521,0.00061,-0.00021,1.97321
231.85834,2000,0,91.24,0.000002697398,0.000002697398,0.000002697398,0.99999994,0,0,0,0,0,0,1,1,0,0,0,false,false,true,-790.13,-1897.99,16.99,0.00028862155,0.0047447225,-0.06408233,0.99793315,-406.411,527.251,8.521,0.00071,-0.00021,1.99751
231.86667,2000,0,91.24,0.000002697398,0.000002697398,0.000002697398,0.99999994,0,0,0,0,0,0,1,1,0,0,0,false,false,true,-793.51996,-1893.6,16.99,0.00025085802,0.004744723,-0.055774312,0.99843204,-399.371,523.05096,8.521,0.00071,-0.00010999999,2.02401
231.875,2000,0,91.24,0.000002697398,0.000002697398,0.000002697398,0.99999994,0,0,0,0,0,0,1,1,0,0,0,false,false,true,-796.85,-1889.24,16.99,0.00021309445,0.004744723,-0.047352992,0.99886686,-392.131,519.061,8.521,0.00071,-0.00010999999,2.05281
231.88333,2000,0,91.24,0.000002697398,0.000002697398,0.000002697398,0.99999994,0,0,0,0,0,0,1,1,0,0,0,false,false,true,-800.12,-1884.9099,16.99,0.00017533089,0.0047447234,-0.038807638,0.9992354,-384.691,515.30096,8.521,0.00071,-0.00010999999,2.08401
231.89166,2000,0,91.24,0.000002697398,0.000002697398,0.000002697398,0.99999994,0,0,0,0,0,0,1,1,0,0,0,false,false,true,-803.32996,-1880.62,16.99,0.0001375673,0.004744723,-0.030127365,0.9995347,-377.051,511.781,8.521,0.00071,0,2.11781
231.9,2000,0,91.24,0.000002697398,0.000002697398,0.000002697398,0.99999994,0,0,0,0,0,0,1,1,0,0,0,false,false,true,-806.47,-1876.36,16.99,0.000099803736,0.0047447234,-0.021306833,0.9997617,-369.201,508.521,8.521,0.00071,0,2.1542099
231.90834,2000,0,91.24,0.000002697398,0.000002697398,0.000002697398,0.99999994,0,0,0,0,0,0,1,1,0,0,0,false,false,true,-809.55,-1872.12,16.99,0.00006204016,0.0047447234,-0.012329849,0.9999127,-361.151,505.541,8.521,0.00071,0,2.19341
231.91667,2000,0,91.24,0.000002697398,0.000002697398,0.000002697398,0.99999994,0,0,0,0,0,0,1,1,0,0,0,false,false,true,-812.56,-1867.9099,16.99,0.000024276584,0.0047447234,-0.0031910222,0.9999836,-352.911,502.861,8.521,0.00071,0,2.23561
231.925,2000,0,91.24,0.000002697398,0.000002697398,0.000002697398,0.99999994,0,0,0,0,0,0,1,1,0,0,0,false,false,true,-815.5,-1863.72,16.99,-0.000018881788,0.0047447234,0.0061257915,0.99996996,-344.471,500.501,8.521,0.00071,0,2.28091
231.93333,2000,0,91.24,0.000002697398,0.000002697398,0.000002697398,0.99999994,0,0,0,0,0,0,1,1,0,0,0,false,false,true,-818.37,-1859.5499,16.99,-0.00006204016,0.0047447234,0.015631508,0.99986655,-335.841,498.481,8.521,0.00071,0,2.32951
231.94167,2000,0,91.24,0.000002697398,0.000002697398,0.000002697398,0.99999994,0,0,0,0,0,0,1,1,0,0,0,false,false,true,-821.17,-1855.3999,16.99,-0.000105198524,0.004744723,0.025336744,0.99966764,-327.011,496.831,8.521,0.00071,0,2.38171
231.95,2000,0,91.24,0.000002697398,0.000002697398,0.000002697398,0.99999994,0,0,0,0,0,0,1,1,0,0,0,false,false,true,-823.89996,-1851.26,16.99,-0.00014835688,0.0047447225,0.035257854,0.9993668,-318.001,495.581,8.521,0.00071,0,2.43771
231.95833,2000,0,91.24,0.000002697398,0.000002697398,0.000002697398,0.99999994,0,0,0,0,0,0,1,1,0,0,0,false,false,true,-826.55,-1847.13,16.99,-0.00019151528,0.0047447234,0.045405474,0.99895734,-308.801,494.591,8.521,0.00071,0,2.4932098
231.96666,2000,0,91.24,0.000002697398,0.000002697398,0.000002697398,0.99999994,0,0,0,0,0,0,1,1,0,0,0,false,false,true,-829.12,-1843.01,16.99,-0.00024006843,0.004744723,0.055779748,0.99843174,-299.411,493.871,8.521,0.00061,0,2.54771
231.975,2000,0,91.24,0.000002697398,0.000002697398,0.000002697398,0.99999994,0,0,0,0,0,0,1,1,0,0,0,false,false,true,-831.62,-1838.89,16.99,-0.0002886216,0.0047393288,0.06637513,0.9977834,-289.831,493.451,8.521,0.00061,0,2.60141
231.98334,2000,0,91.24,0.000002697398,0.000002697398,0.000002697398,0.99999994,0,0,0,0,0,0,1,1,0,0,0,false,false,true,-834.04,-1834.7799,16.99,-0.00033717474,0.0047339336,0.077186294,0.99700534,-280.061,493.361,8.521,0.00061,0,2.65431
231.99167,2000,0,91.24,0.000002697398,0.000002697398,0.000002697398,0.99999994,0,0,0,0,0,0,1,1,0,0,0,false,false,true,-836.37,-1830.6699,16.99,-0.00038572794,0.004728539,0.08820796,0.99609077,-270.111,493.63098,8.521,0.00061,0,2.70661
232,2000,0,91.24,0.000002697398,0.000002697398,0.000002697398,0.99999994,0,0,0,0,0,0,1,1,0,0,0,false,false,true,-838.62,-1826.5599,16.99,-0.00043428104,0.0047231433,0.09943452,0.99503267,-259.981,494.241,8.521,0.00051,0,2.7571099
232.00833,2000,0,91.24,0.000002697398,0.000002697398,0.000002697398,0.99999994,0,0,0,0,0,0,1,1,0,0,0,false,false,true,-840.79,-1822.44,16.99,-0.000488229,0.0047177486,0.11086077,0.9938245,-249.681,495.141,8.521,0.00040999998,0,2.80391
232.01666,2000,0,91.24,0.000002697398,0.000002697398,0.000002697398,0.99999994,0,0,0,0,0,0,1,1,0,0,0,false,false,true,-842.87,-1818.3099,16.99,-0.00054217706,0.004712355,0.12246508,0.99246144,-239.211,496.371,8.521,0.00021,0,2.84711
232.025,2000,0,91.24,0.000002697398,0.000002697398,0.000002697398,0.99999994,0,0,0,0,0,0,1,1,0,0,0,false,false,true,-844.86,-1814.1699,16.99,-0.00059612497,0.0047069597,0.13423112,0.9909386,-228.571,497.961,8.521,0,0,2.88671
232.03334,2000,0,91.24,0.000002697398,0.000002697398,0.000002697398,0.99999994,0,0,0,0,0,0,1,1,0,0,0,false,false,true,-846.76,-1810.02,16.99,-0.0006500729,0.004701564,0.1461375,0.98925275,-217.771,499.951,8.521,-0.00010999999,0,2.92271
232.04167,2000,0,91.24,0.000002697398,0.000002697398,0.000002697398,0.99999994,0,0,0,0,0,0,1,1,0,0,0,false,false,true,-848.57,-1805.85,16.99,-0.00070941565,0.0046907747,0.1581733,0.9873998,-206.901,502.151,8.521,-0.00010999999,0,2.95641
232.05,2000,0,91.24,0.000002697398,0.000002697398,0.000002697398,0.99999994,0,0,0,0,0,0,1,1,0,0,0,false,false,true,-850.29,-1801.6699,16.99,-0.0007687585,0.0046799853,0.17032248,0.9853769,-195.951,504.581,8.521,-0.00010999999,0,2.98781
232.05833,2000,0,91.24,0.000002697398,0.000002697398,0.000002697398,0.99999994,0,0,0,0,0,0,1,1,0,0,0,false,false,true,-851.92,-1797.47,16.99,-0.00082810124,0.0046691964,0.18257408,0.98318064,-184.94101,507.281,8.521,-0.00010999999,0.00010999999,3.0169098
232.06667,2000,0,91.24,0.000002697398,0.000002697398,0.000002697398,0.99999994,0,0,0,0,0,0,1,1,0,0,0,false,false,true,-853.45996,-1793.24,16.99,-0.00088744395,0.004658406,0.19491744,0.98080814,-174.131,510.091,8.521,-0.00010999999,0.00021,3.04111
232.075,2000,0,91.24,0.000002697398,0.000002697398,0.000002697398,0.99999994,0,0,0,0,0,0,1,1,0,0,0,false,false,true,-854.91,-1788.99,16.99,-0.0009467867,0.0046476168,0.20733087,0.9782593,-163.541,513.02094,8.521,-0.00010999999,0.00021,3.06071
232.08333,2000,0,91.24,0.000002697398,0.000002697398,0.000002697398,0.99999994,0,0,0,0,0,0,1,1,0,0,0,false,false,true,-856.26996,-1784.71,16.99,-0.0010061294,0.004636827,0.21978754,0.97553617,-153.16101,516.09094,8.521,-0.00010999999,0.00021,3.07561
232.09166,2000,0,91.24,0.000002697398,0.000002697398,0.000002697398,0.99999994,0,0,0,0,0,0,1,1,0,0,0,false,false,true,-857.55,-1780.4099,16.99,-0.0010654721,0.0046260376,0.23227118,0.97263944,-143.001,519.311,8.521,-0.00010999999,0.00021,3.08581
232.1,2000,0,91.24,0.000002697398,0.000002697398,0.000002697398,0.99999994,0,0,0,0,0,0,1,1,0,0,0,false,false,true,-858.74,-1776.08,16.99,-0.0011248149,0.0046152477,0.2447547,0.96957326,-133.091,522.53094,8.521,-0.00010999999,0.00021,3.09561
232.10834,2000,0,91.24,0.000002697398,0.000002697398,0.000002697398,0.99999994,0,0,0,0,0,0,1,1,0,0,0,false,false,true,-859.85,-1771.73,16.99,-0.0011841577,0.0045990637,0.25723836,0.96633625,-123.431,525.71094,8.521,-0.00010999999,0.00021,3.1061099
232.11667,2000,0,91.24,0.000002697398,0.000002697398,0.000002697398,0.99999994,0,0,0,0,0,0,1,1,0,0,0,false,false,true,-860.88,-1767.35,16.99,-0.0012435005,0.004582879,0.26972193,0.9629265,-114.010994,528.871,8.521,-0.00021,0.00021,3.11711
232.125,2000,0,91.24,0.000002697398,0.000002697398,0.000002697398,0.99999994,0,0,0,0,0,0,1,1,0,0,0,false,false,true,-861.82996,-1762.94,16.99,-0.0013028432,0.0045666946,0.28220558,0.9593421,-104.83099,532.03094,8.521,-0.00021,0.00021,3.1284099
232.13333,2000,0,91.24,0.000002697398,0.000002697398,0.000002697398,0.99999994,0,0,0,0,0,0,1,1,0,0,0,false,false,true,-862.69995,-1758.51,16.99,-0.001362186,0.0045505106,0.29468372,0.955583,-95.881,535.191,8.521,-0.00021,0.00010999999,3.1400099
232.14166,2000,0,91.24,0.000002697398,0.000002697398,0.000002697398,0.99999994,0,0,0,0,0,0,1,1,0,0,0,false,false,true,-863.5,-1754.0499,16.99,-0.0014215288,0.004534326,0.307162,0.9516453,-87.171,538.371,8.521,-0.00021,0.00010999999,3.15181
232.15,2000,0,91.24,0.000002697398,0.000002697398,0.000002697398,0.99999994,0,0,0,0,0,0,1,1,0,0,0,false,false,true,-864.23,-1749.5599,16.99,-0.0014808716,0.0045181415,0.31963477,0.94752884,-78.690994,541.581,8.521,-0.00021,0,3.1637099
232.15834,2000,0,91.24,0.000002697398,0.000002697398,0.000002697398,0.99999994,0,0,0,0,0,0,1,1,0,0,0,false,false,true,-864.88995,-1745.0499,16.99,-0.0015402143,0.0044965623,0.33209682,0.94323325,-70.451,544.831,8.521,-0.00021,0,3.1756098
232.16667,2000,0,91.24,0.000002697398,0.000002697398,0.000002697398,0.99999994,0,0,0,0,0,0,1,1,0,0,0,false,false,true,-865.48,-1740.51,16.99,-0.001599557,0.004474983,0.34454808,0.9387566,-62.440998,548.131,8.521,-0.00030999997,0,3.18751
232.175,2000,0,91.24,0.000002697398,0.000002697398,0.000002697398,0.99999994,0,0,0,0,0,0,1,1,0,0,0,false,false,true,-866,-1735.94,16.99,-0.0016589,0.0044534043,0.35698313,0.9340987,-54.670998,551.48096,8.521,-0.00030999997,0,3.19941
232.18333,2000,0,91.24,0.000002697398,0.000002697398,0.000002697398,0.99999994,0,0,0,0,0,0,1,1,0,0,0,false,false,true,-866.45996,-1731.34,16.99,-0.0017182425,0.0044318247,0.369402,0.92925745,-47.150997,554.891,8.521,-0.00030999997,0,3.21121
232.19167,2000,0,91.24,0.000002697398,0.000002697398,0.000002697398,0.99999994,0,0,0,0,0,0,1,1,0,0,0,false,false,true,-866.85,-1726.72,16.99,-0.0017775854,0.0044102455,0.38180465,0.92423075,-39.880997,558.36096,8.521,-0.00030999997,0,3.22291
232.2,2000,0,91.24,0.000002697398,0.000002697398,0.000002697398,0.99999994,0,0,0,0,0,0,1,1,0,0,0,false,false,true,-867.18,-1722.07,16.99,-0.0018369281,0.0043886667,0.3941804,0.9190207,-32.861,561.90094,8.521,-0.00030999997,0,3.23451
232.20833,2000,0,91.24,0.000002697398,0.000002697398,0.000002697398,0.99999994,0,0,0,0,0,0,1,1,0,0,0,false,false,true,-867.44995,-1717.39,16.99,-0.0018962709,0.0043616924,0.40652907,0.9136254,-26.100998,565.511,8.521,-0.00030999997,0,3.24591
232.21666,2000,0,91.24,0.000002697398,0.000002697398,0.000002697398,0.99999994,0,0,0,0,0,0,1,1,0,0,0,false,false,true,-867.67,-1712.6799,16.99,-0.0019556135,0.0043347185,0.41884547,0.908045,-19.610998,569.191,8.521,-0.00030999997,0,3.25721
232.225,2000,0,91.24,0.000002697398,0.000002697398,0.000002697398,0.99999994,0,0,0,0,0,0,1,1,0,0,0,false,false,true,-867.82996,-1707.94,16.99,-0.0020149562,0.0043077446,0.43112952,0.90227747,-13.401,572.941,8.521,-0.00030999997,0,3.2683098
232.23334,2000,0,91.24,0.000002697398,0.000002697398,0.000002697398,0.99999994,0,0,0,0,0,0,1,1,0,0,0,false,false,true,-867.94,-1703.1699,16.99,-0.0020742987,0.00428077,0.44337565,0.8963231,-7.4709997,576.761,8.521,-0.00030999997,0,3.2792099
232.24167,2000,0,91.24,0.000002697398,0.000002697398,0.000002697398,0.99999994,0,0,0,0,0,0,1,1,0,0,0,false,false,true,-868,-1698.36,16.99,-0.0021336419,0.004253797,0.45557883,0.8901827,-1.831,580.65094,8.521,-0.00030999997,0,3.28981
232.25,2000,0,91.24,0.000002697398,0.000002697398,0.000002697398,0.99999994,0,0,0,0,0,0,1,1,0,0,0,false,false,true,-868.01996,-1693.52,16.99,-0.0021929848,0.004226823,0.46773872,0.8838539,3.501,584.61096,8.521,-0.00030999997,0,3.30021
232.25833,2000,0,91.24,0.000002697398,0.000002697398,0.000002697398,0.99999994,0,0,0,0,0,0,1,1,0,0,0,false,false,true,-867.99,-1688.6499,16.99,-0.0022523273,0.004194454,0.47985008,0.8773375,8.521,588.631,8.521,-0.00030999997,-0.00010999999,3.31031
232.26666,2000,0,91.24,0.000002697398,0.000002697398,0.000002697398,0.99999994,0,0,0,0,0,0,1,1,0,0,0,false,false,true,-867.92,-1683.74,16.99,-0.00231167,0.0041620852,0.49190748,0.8706344,13.221,592.71094,8.521,-0.00030999997,-0.00010999999,3.3201098
232.275,2000,0,91.24,0.000002697398,0.000002697398,0.000002697398,0.99999994,0,0,0,0,0,0,1,1,0,0,0,false,false,true,-867.81,-1678.7999,16.99,-0.002371013,0.004129716,0.50390553,0.86374557,17.591,596.85095,8.521,-0.00030999997,-0.00010999999,3.3296099
232.28334,2000,0,91.24,0.000002697398,0.000002697398,0.000002697398,0.99999994,0,0,0,0,0,0,1,1,0,0,0,false,false,true,-867.66,-1673.83,16.99,-0.0024303556,0.0040973476,0.51583886,0.8566723,21.630999,601.04095,8.521,-0.00030999997,-0.00010999999,3.33881
232.29167,2000,0,91.24,0.000002697398,0.000002697398,0.000002697398,0.99999994,0,0,0,0,0,0,1,1,0,0,0,false,false,true,-867.48,-1668.82,16.99,-0.0024896984,0.0040649786,0.52770746,0.84941274,25.321,605.27094,8.521,-0.00021,-0.00010999999,3.34771
232.3,2000,0,91.24,0.000002697398,0.000002697398,0.000002697398,0.99999994,0,0,0,0,0,0,1,1,0,0,0,false,false,true,-867.26996,-1663.7799,16.99,-0.0025490408,0.0040326095,0.53950584,0.8419681,28.661,609.53094,8.521,-0.00021,-0.00010999999,3.35621
232.30833,2000,0,91.24,0.000002697398,0.000002697398,0.000002697398,0.99999994,0,0,0,0,0,0,1,1,0,0,0,false,false,true,-867.02997,-1658.7,16.99,-0.0026083838,0.0039948463,0.5512289,0.83434033,31.640999,613.821,8.521,-0.00010999999,-0.00010999999,3.36441
232.31667,2000,0,91.24,0.000002697398,0.000002697398,0.000002697398,0.99999994,0,0,0,0,0,0,1,1,0,0,0,false,false,true,-866.76996,-1653.58,16.99,-0.0026623318,0.003957083,0.56287086,0.826531,34.240997,618.121,8.521,-0.00010999999,-0.00010999999,3.37221
