time,ball_loc_x,ball_loc_y,ball_loc_z,ball_rot_x,ball_rot_y,ball_rot_z,ball_rot_w,ball_vel_x,ball_vel_y,ball_vel_z,ball_ang_x,ball_ang_y,ball_ang_z,player0_throttle,player0_steer,player0_pitch,player0_yaw,player0_roll,player0_jump,player0_boost,player0_handbrake,player0_loc_x,player0_loc_y,player0_loc_z,player0_rot_x,player0_rot_y,player0_rot_z,player0_rot_w,player0_vel_x,player0_vel_y,player0_vel_z,player0_ang_x,player0_ang_y,player0_ang_z
52.375,2000,0,91.24,0.000002697398,0.000002697398,0.000002697398,0.99999994,0,0,0,0,0,0,0.4015748,0,0,0,0,false,false,false,0,-4848.34,17.01,-0.0033582605,0.0033528658,0.70708513,0.7071124,0,402.891,8.321,-0.00061,0.00010999999,0
52.383335,2000,0,91.24,0.000002697398,0.000002697398,0.000002697398,0.99999994,0,0,0,0,0,0,0,1,0,0,0,false,false,true,0,-4844.98,17.01,-0.0033582605,0.0033528658,0.70708513,0.7071124,-10.001,399.111,8.351,-0.00081,0.00261,0.26971
52.391666,2000,0,91.24,0.000002697398,0.000002697398,0.000002697398,0.99999994,0,0,0,0,0,0,0,1,0,0,0,false,false,true,-0.08,-4841.65,17.01,-0.0033582605,0.0033582605,0.7078776,0.7063191,-16.591,396.601,8.361,-0.00091,0.00331,0.44671
52.4,2000,0,91.24,0.000002697398,0.000002697398,0.000002697398,0.99999994,0,0,0,0,0,0,0,1,0,0,0,false,false,true,-0.22,-4838.34,17.01,-0.0033582605,0.0033636554,0.7091886,0.7050027,-22.390999,394.391,8.361,-0.00091,0.00341,0.59871
52.408333,2000,0,91.24,0.000002697398,0.000002697398,0.000002697398,0.99999994,0,0,0,0,0,0,0,1,0,0,0,false,false,true,-0.41,-4835.05,17.01,-0.00335826,0.0033690496,0.71094316,0.7032332,-27.560999,392.431,8.361,-0.00091,0.00311,0.72890997
52.416668,2000,0,91.24,0.000002697398,0.000002697398,0.000002697398,0.99999994,0,0,0,0,0,0,0,1,0,0,0,false,false,true,-0.64,-4831.78,17.01,-0.0033636554,0.00336905,0.7130765,0.70106995,-32.231,390.681,8.361,-0.00091,0.00261,0.84001
52.425,2000,0,91.24,0.000002697398,0.000002697398,0.000002697398,0.99999994,0,0,0,0,0,0,0,1,0,0,0,false,false,true,-0.90999997,-4828.52,17.01,-0.00336905,0.00336905,0.71552366,0.69857216,-36.501,389.101,8.361,-0.00081,0.00211,0.93470997
52.433334,2000,0,91.24,0.000002697398,0.000002697398,0.000002697398,0.99999994,0,0,0,0,0,0,0,1,0,0,0,false,false,true,-1.2099999,-4825.28,17.01,-0.0033798397,0.0033636554,0.7182414,0.69577754,-40.451,387.671,8.351,-0.00071,0.00151,1.0153099
52.441666,2000,0,91.24,0.000002697398,0.000002697398,0.000002697398,0.99999994,0,0,0,0,0,0,0,1,0,0,0,false,false,true,-1.55,-4822.05,17.01,-0.0033906293,0.0033582605,0.7211764,0.6927349,-44.130997,386.351,8.351,-0.00061,0.0010099999,1.08391
52.45,2000,0,91.24,0.000002697398,0.000002697398,0.000002697398,0.99999994,0,0,0,0,0,0,0,1,0,0,0,false,false,true,-1.92,-4818.83,17.01,-0.0034068138,0.003347471,0.7242974,0.689471,-47.591,385.131,8.351,-0.00051,0.00051,1.14231
52.458332,2000,0,91.24,0.000002697398,0.000002697398,0.000002697398,0.99999994,0,0,0,0,0,0,0,1,0,0,0,false,false,true,-2.32,-4815.62,17.01,-0.0034229984,0.0033366818,0.7275735,0.68601304,-50.861,383.991,8.341001,-0.00040999998,0.00010999999,1.1920099
52.466667,2000,0,91.24,0.000002697398,0.000002697398,0.000002697398,0.99999994,0,0,0,0,0,0,0,1,0,0,0,false,false,true,-2.74,-4812.42,17.01,-0.0034391829,0.0033204972,0.7309697,0.68239313,-53.970997,382.921,8.341001,-0.00030999997,-0.00021,1.23431
52.475,2000,0,91.24,0.000002697398,0.000002697398,0.000002697398,0.99999994,0,0,0,0,0,0,0,1,0,0,0,false,false,true,-3.1899998,-4809.23,17.01,-0.003455367,0.0033043127,0.7344719,0.6786221,-56.931,381.901,8.341001,-0.00030999997,-0.00040999998,1.2703099
52.483334,2000,0,91.24,0.000002697398,0.000002697398,0.000002697398,0.99999994,0,0,0,0,0,0,0,1,0,0,0,false,false,true,-3.6599998,-4806.05,17.01,-0.0034769461,0.0032881282,0.7380517,0.6747271,-59.760998,380.931,8.341001,-0.00030999997,-0.00061,1.30091
52.491665,2000,0,91.24,0.000002697398,0.000002697398,0.000002697398,0.99999994,0,0,0,0,0,0,0,1,0,0,0,false,false,true,-4.16,-4802.87,17.01,-0.0034985254,0.003266549,0.74169636,0.6707186,-62.450996,380.001,8.341001,-0.00021,-0.00081,1.32691
52.5,2000,0,91.24,0.000002697398,0.000002697398,0.000002697398,0.99999994,0,0,0,0,0,0,0,1,0,0,0,false,false,true,-4.68,-4799.6997,17.01,-0.0035201046,0.0032449698,0.74539316,0.6666078,-65.011,379.111,8.331,-0.00010999999,-0.00091,1.34891
52.508335,2000,0,91.24,0.000002697398,0.000002697398,0.000002697398,0.99999994,0,0,0,0,0,0,0,1,0,0,0,false,false,true,-5.22,-4796.54,17.01,-0.0035416838,0.0032233908,0.7491303,0.66240525,-67.431,378.261,8.331,-0.00010999999,-0.00091,1.36751
52.516666,2000,0,91.24,0.000002697398,0.000002697398,0.000002697398,0.99999994,0,0,0,0,0,0,0,1,0,0,0,false,false,true,-5.7799997,-4793.39,17.01,-0.003563263,0.0032018118,0.7528914,0.65812725,-69.701,377.451,8.331,0,-0.00091,1.38321
52.525,2000,0,91.24,0.000002697398,0.000002697398,0.000002697398,0.99999994,0,0,0,0,0,0,0,1,0,0,0,false,false,true,-6.3599997,-4790.2397,17.01,-0.0035848422,0.0031802326,0.7566703,0.65377903,-71.821,376.681,8.331,0,-0.00091,1.39631
52.533333,2000,0,91.24,0.000002697398,0.000002697398,0.000002697398,0.99999994,0,0,0,0,0,0,0,1,0,0,0,false,false,true,-6.96,-4787.1,17.01,-0.0036064212,0.0031586532,0.76046085,0.64936596,-73.770996,375.961,8.331,0,-0.00091,1.40721
52.541668,2000,0,91.24,0.000002697398,0.000002697398,0.000002697398,0.99999994,0,0,0,0,0,0,0,1,0,0,0,false,false,true,-7.5699997,-4783.9697,17.01,-0.0036280006,0.0031370742,0.7642572,0.6448937,-75.541,375.291,8.331,0,-0.00091,1.4161099
52.55,2000,0,91.24,0.000002697398,0.000002697398,0.000002697398,0.99999994,0,0,0,0,0,0,0,1,0,0,0,false,false,true,-8.2,-4780.84,17.01,-0.0036495796,0.0031154947,0.7680491,0.6403728,-77.111,374.681,8.331,0,-0.00091,1.4233099
52.558334,2000,0,91.24,0.000002697398,0.000002697398,0.000002697398,0.99999994,0,0,0,0,0,0,0,1,0,0,0,false,false,true,-8.84,-4777.7197,17.01,-0.0036711588,0.0030939155,0.7718315,0.6358088,-78.461,374.141,8.321,0.00010999999,-0.00091,1.42891
52.566666,2000,0,91.24,0.000002697398,0.000002697398,0.000002697398,0.99999994,0,0,0,0,0,0,0,1,0,0,0,false,false,true,-9.49,-4774.6,17.01,-0.003692738,0.0030669416,0.7756038,0.6312017,-79.571,373.691,8.321,0.00010999999,-0.00091,1.43311
52.575,2000,0,91.24,0.000002697398,0.000002697398,0.000002697398,0.99999994,0,0,0,0,0,0,0,1,0,0,0,false,false,true,-10.15,-4771.4897,17.01,-0.0037143168,0.0030399673,0.77936095,0.62655663,-80.410995,373.341,8.321,0.00010999999,-0.00091,1.43601
52.583332,2000,0,91.24,0.000002697398,0.000002697398,0.000002697398,0.99999994,0,0,0,0,0,0,0,1,0,0,0,false,false,true,-10.82,-4768.38,17.01,-0.0037358964,0.0030129936,0.783094,0.62188476,-81.291,372.961,8.321,0.00010999999,-0.00081,1.43891
52.591667,2000,0,91.24,0.000002697398,0.000002697398,0.000002697398,0.99999994,0,0,0,0,0,0,0,1,0,0,0,false,false,true,-11.5,-4765.27,17.01,-0.0037574759,0.00298602,0.7868069,0.6171806,-82.211,372.551,8.321,0.00010999999,-0.00071,1.44171
52.6,2000,0,91.24,0.000002697398,0.000002697398,0.000002697398,0.99999994,0,0,0,0,0,0,0,1,0,0,0,false,false,true,-12.19,-4762.1597,17.01,-0.0037790546,0.0029590456,0.7904994,0.61244386,-83.171,372.111,8.321,0.00010999999,-0.00061,1.44441
52.608334,2000,0,91.24,0.000002697398,0.000002697398,0.000002697398,0.99999994,0,0,0,0,0,0,0,1,0,0,0,false,false,true,-12.88,-4759.06,17.01,-0.0038006338,0.0029320717,0.7941713,0.6076749,-84.171,371.641,8.321,0.00010999999,-0.00051,1.4471099
52.616665,2000,0,91.24,0.000002697398,0.000002697398,0.000002697398,0.99999994,0,0,0,0,0,0,0,1,0,0,0,false,false,true,-13.58,-4755.96,17.01,-0.003822213,0.0029050978,0.7978223,0.60287344,-85.201,371.141,8.321,0.00010999999,-0.00040999998,1.44971
52.625,2000,0,91.24,0.000002697398,0.000002697398,0.000002697398,0.99999994,0,0,0,0,0,0,0,1,0,0,0,false,false,true,-14.29,-4752.87,17.01,-0.0038383976,0.0028781237,0.801448,0.5980451,-86.270996,370.611,8.321,0.00010999999,-0.00030999997,1.45221
52.633335,2000,0,91.24,0.000002697398,0.000002697398,0.000002697398,0.99999994,0,0,0,0,0,0,0,1,0,0,0,false,false,true,-15.009999,-4749.78,17.01,-0.0038545819,0.0028511498,0.8050523,0.59318435,-87.370995,370.051,8.321,0,-0.00021,1.45471
52.641666,2000,0,91.24,0.000002697398,0.000002697398,0.000002697398,0.99999994,0,0,0,0,0,0,0,1,0,0,0,false,false,true,-15.74,-4746.6997,17.01,-0.003870766,0.0028295703,0.80863476,0.5882912,-88.501,369.461,8.321,0,-0.00010999999,1.4571099
52.65,2000,0,91.24,0.000002697398,0.000002697398,0.000002697398,0.99999994,0,0,0,0,0,0,0,1,0,0,0,false,false,true,-16.48,-4743.62,17.01,-0.0038869502,0.002807991,0.8121914,0.5833711,-89.660995,368.841,8.321,0,-0.00010999999,1.45941
52.658333,2000,0,91.24,0.000002697398,0.000002697398,0.000002697398,0.99999994,0,0,0,0,0,0,0,1,0,0,0,false,false,true,-17.23,-4740.55,17.01,-0.003903135,0.0027864121,0.81572205,0.5784241,-90.851,368.181,8.321,0,-0.00010999999,1.46171
52.666668,2000,0,91.24,0.000002697398,0.000002697398,0.000002697398,0.99999994,0,0,0,0,0,0,0,1,0,0,0,false,false,true,-17.99,-4737.48,17.01,-0.0039193192,0.002764833,0.8192301,0.5734447,-92.061,367.491,8.321,0,-0.00010999999,1.46391
52.675,2000,0,91.24,0.000002697398,0.000002697398,0.000002697398,0.99999994,0,0,0,0,0,0,0,1,0,0,0,false,false,true,-18.76,-4734.42,17.01,-0.003935504,0.0027432537,0.82271177,0.56843835,-93.300995,366.771,8.321,0,-0.00010999999,1.46601
52.683334,2000,0,91.24,0.000002697398,0.000002697398,0.000002697398,0.99999994,0,0,0,0,0,0,0,1,0,0,0,false,false,true,-19.539999,-4731.36,17.01,-0.0039516874,0.0027162796,0.82616687,0.56340486,-94.561,366.021,8.321,0,-0.00021,1.46811
52.691666,2000,0,91.24,0.000002697398,0.000002697398,0.000002697398,0.99999994,0,0,0,0,0,0,0,1,0,0,0,false,false,true,-20.33,-4728.31,17.01,-0.0039678724,0.002689306,0.8295988,0.55833924,-95.840996,365.241,8.321,0,-0.00021,1.4701099
52.7,2000,0,91.24,0.000002697398,0.000002697398,0.000002697398,0.99999994,0,0,0,0,0,0,0,1,0,0,0,false,false,true,-21.13,-4725.27,17.01,-0.003984057,0.0026623318,0.83300376,0.5532465,-97.141,364.421,8.321,0,-0.00021,1.47201
52.708332,2000,0,91.24,0.000002697398,0.000002697398,0.000002697398,0.99999994,0,0,0,0,0,0,0,1,0,0,0,false,false,true,-21.939999,-4722.23,17.01,-0.004000241,0.002635358,0.8363814,0.5481269,-98.461,363.57098,8.321,0,-0.00021,1.47381
52.716667,2000,0,91.24,0.000002697398,0.000002697398,0.000002697398,0.99999994,0,0,0,0,0,0,0,1,0,0,0,false,false,true,-22.76,-4719.1997,17.01,-0.0040164255,0.0026083838,0.8397317,0.54298025,-99.791,362.691,8.321,0,-0.00021,1.47561
52.725,2000,0,91.24,0.000002697398,0.000002697398,0.000002697398,0.99999994,0,0,0,0,0,0,0,1,0,0,0,false,false,true,-23.59,-4716.1797,17.01,-0.00403261,0.0025814099,0.8430546,0.5378065,-101.141,361.771,8.321,0,-0.00021,1.47731
52.733334,2000,0,91.24,0.000002697398,0.000002697398,0.000002697398,0.99999994,0,0,0,0,0,0,0,1,0,0,0,false,false,true,-24.43,-4713.1597,17.01,-0.004048794,0.0025544357,0.84634966,0.5326059,-102.501,360.82098,8.321,0,-0.00021,1.47891
52.741665,2000,0,91.24,0.000002697398,0.000002697398,0.000002697398,0.99999994,0,0,0,0,0,0,0,1,0,0,0,false,false,true,-25.279999,-4710.15,17.01,-0.0040649786,0.0025274619,0.84961694,0.5273784,-103.881,359.841,8.321,0,-0.00021,1.48051
52.75,2000,0,91.24,0.000002697398,0.000002697398,0.000002697398,0.99999994,0,0,0,0,0,0,0,1,0,0,0,false,false,true,-26.15,-4707.15,17.01,-0.004081163,0.002500488,0.8528529,0.52212924,-105.270996,358.82098,8.321,0,-0.00010999999,1.48201
52.758335,2000,0,91.24,0.000002697398,0.000002697398,0.000002697398,0.99999994,0,0,0,0,0,0,0,1,0,0,0,false,false,true,-27.029999,-4704.1597,17.01,-0.004097348,0.0024735143,0.8560607,0.5168531,-106.671,357.771,8.321,-0.00010999999,-0.00010999999,1.48341
52.766666,2000,0,91.24,0.000002697398,0.000002697398,0.000002697398,0.99999994,0,0,0,0,0,0,0,1,0,0,0,false,false,true,-27.92,-4701.1797,17.01,-0.004113532,0.0024465402,0.8592402,0.51155,-108.08099,356.691,8.321,-0.00010999999,-0.00010999999,1.48471
52.775,2000,0,91.24,0.000002697398,0.000002697398,0.000002697398,0.99999994,0,0,0,0,0,0,0,1,0,0,0,false,false,true,-28.82,-4698.21,17.01,-0.0041297167,0.0024195663,0.86238796,0.50622535,-109.491,355.57098,8.321,-0.00010999999,0,1.48601
52.783333,2000,0,91.24,0.000002697398,0.000002697398,0.000002697398,0.99999994,0,0,0,0,0,0,0,1,0,0,0,false,false,true,-29.73,-4695.25,17.01,-0.0041459007,0.002392592,0.86550707,0.5008737,-110.910995,354.421,8.321,-0.00010999999,0,1.48721
52.791668,2000,0,91.24,0.000002697398,0.000002697398,0.000002697398,0.99999994,0,0,0,0,0,0,0,1,0,0,0,false,false,true,-30.65,-4692.3,17.01,-0.0041620857,0.0023656182,0.86859447,0.49550042,-112.340996,353.241,8.321,-0.00010999999,0,1.48831
52.8,2000,0,91.24,0.000002697398,0.000002697398,0.000002697398,0.99999994,0,0,0,0,0,0,0,1,0,0,0,false,false,true,-31.59,-4689.36,17.01,-0.0041782693,0.0023386441,0.8716498,0.4901056,-113.770996,352.031,8.321,-0.00010999999,0,1.48931
52.808334,2000,0,91.24,0.000002697398,0.000002697398,0.000002697398,0.99999994,0,0,0,0,0,0,0,1,0,0,0,false,false,true,-32.54,-4686.4297,17.01,-0.004194454,0.00231167,0.87467325,0.48468924,-115.201,350.781,8.321,-0.00010999999,0,1.49031
52.816666,2000,0,91.24,0.000002697398,0.000002697398,0.000002697398,0.99999994,0,0,0,0,0,0,0,1,0,0,0,false,false,true,-33.5,-4683.51,17.01,-0.0042106383,0.002284696,0.87766755,0.47924587,-116.631,349.501,8.321,-0.00010999999,0,1.49121
52.825,2000,0,91.24,0.000002697398,0.000002697398,0.000002697398,0.99999994,0,0,0,0,0,0,0,1,0,0,0,false,false,true,-34.469997,-4680.6,17.01,-0.004226823,0.0022577224,0.88062966,0.4737809,-118.061,348.191,8.321,-0.00010999999,0,1.49201
52.833332,2000,0,91.24,0.000002697398,0.000002697398,0.000002697398,0.99999994,0,0,0,0,0,0,0,1,0,0,0,false,false,true,-35.45,-4677.6997,17.01,-0.0042430065,0.0022307478,0.88355935,0.4682943,-119.491,346.851,8.321,-0.00010999999,0,1.49271
52.841667,2000,0,91.24,0.000002697398,0.000002697398,0.000002697398,0.99999994,0,0,0,0,0,0,0,1,0,0,0,false,false,true,-36.45,-4674.81,17.01,-0.004259191,0.002203774,0.886454,0.4627916,-120.921,345.481,8.321,-0.00010999999,0,1.49341
52.85,2000,0,91.24,0.000002697398,0.000002697398,0.000002697398,0.99999994,0,0,0,0,0,0,0,1,0,0,0,false,false,true,-37.46,-4671.9297,17.01,-0.004275376,0.0021768003,0.88931626,0.4572674,-122.351,344.081,8.321,-0.00010999999,0.00010999999,1.49401
52.858334,2000,0,91.24,0.000002697398,0.000002697398,0.000002697398,0.99999994,0,0,0,0,0,0,0,1,0,0,0,false,false,true,-38.48,-4669.06,17.01,-0.0042861653,0.0021498261,0.89214605,0.45172146,-123.770996,342.641,8.321,-0.00010999999,0.00021,1.4945099
52.866665,2000,0,91.24,0.000002697398,0.000002697398,0.000002697398,0.99999994,0,0,0,0,0,0,0,1,0,0,0,false,false,true,-39.51,-4666.1997,17.01,-0.004296955,0.0021228523,0.8949406,0.44615942,-125.190994,341.171,8.321,-0.00010999999,0.00021,1.49491
52.875,2000,0,91.24,0.000002697398,0.000002697398,0.000002697398,0.99999994,0,0,0,0,0,0,0,1,0,0,0,false,false,true,-40.55,-4663.36,17.01,-0.0043077446,0.0020958781,0.8977026,0.4405758,-126.601,339.671,8.321,-0.00021,0.00021,1.49531
52.883335,2000,0,91.24,0.000002697398,0.000002697398,0.000002697398,0.99999994,0,0,0,0,0,0,0,1,0,0,0,false,false,true,-41.61,-4660.53,17.01,-0.004318534,0.0020689042,0.90042925,0.434976,-128.011,338.141,8.321,-0.00021,0.00010999999,1.49561
52.891666,2000,0,91.24,0.000002697398,0.000002697398,0.000002697398,0.99999994,0,0,0,0,0,0,0,1,0,0,0,false,false,true,-42.68,-4657.71,17.01,-0.004329324,0.0020419303,0.90312326,0.42935455,-129.41101,336.591,8.321,-0.00021,0.00010999999,1.49581
52.9,2000,0,91.24,0.000002697398,0.000002697398,0.000002697398,0.99999994,0,0,0,0,0,0,0,1,0,0,0,false,false,true,-43.76,-4654.9,17.01,-0.004340113,0.0020149562,0.9057819,0.423717,-130.80101,335.011,8.321,-0.00021,0,1.4959099
52.908333,2000,0,91.24,0.000002697398,0.000002697398,0.000002697398,0.99999994,0,0,0,0,0,0,0,1,0,0,0,false,false,true,-44.85,-4652.11,17.01,-0.004350903,0.0019879823,0.90840524,0.41806322,-132.181,333.401,8.321,-0.00021,0,1.4959099
52.916668,2000,0,91.24,0.000002697398,0.000002697398,0.000002697398,0.99999994,0,0,0,0,0,0,0,1,0,0,0,false,false,true,-45.95,-4649.33,17.01,-0.0043616924,0.0019610084,0.9109933,0.4123933,-133.55101,331.761,8.321,-0.00030999997,0,1.4959099
52.925,2000,0,91.24,0.000002697398,0.000002697398,0.000002697398,0.99999994,0,0,0,0,0,0,0,1,0,0,0,false,false,true,-47.059998,-4646.57,17.01,-0.004372482,0.0019340344,0.913546,0.4067071,-134.91101,330.091,8.321,-0.00030999997,0,1.49581
52.933334,2000,0,91.24,0.000002697398,0.000002697398,0.000002697398,0.99999994,0,0,0,0,0,0,0,1,0,0,0,false,false,true,-48.18,-4643.82,17.01,-0.0043832716,0.0019070605,0.9160634,0.4010048,-136.261,328.401,8.321,-0.00030999997,0,1.49561
52.941666,2000,0,91.24,0.000002697398,0.000002697398,0.000002697398,0.99999994,0,0,0,0,0,0,0,1,0,0,0,false,false,true,-49.32,-4641.08,17.01,-0.004394062,0.0018800866,0.9185455,0.39528635,-137.591,326.681,8.321,-0.00030999997,0,1.49531
52.95,2000,0,91.24,0.000002697398,0.000002697398,0.000002697398,0.99999994,0,0,0,0,0,0,0,1,0,0,0,false,false,true,-50.469997,-4638.36,17.01,-0.0044048512,0.0018531126,0.9209899,0.38955706,-138.91101,324.941,8.321,-0.00030999997,0,1.49491
52.958332,2000,0,91.24,0.000002697398,0.000002697398,0.000002697398,0.99999994,0,0,0,0,0,0,0,1,0,0,0,false,false,true,-51.629997,-4635.65,17.01,-0.0044156406,0.0018261385,0.92339903,0.3838115,-140.211,323.171,8.321,-0.00030999997,0,1.4945099
52.966667,2000,0,91.24,0.000002697398,0.000002697398,0.000002697398,0.99999994,0,0,0,0,0,0,0,1,0,0,0,false,false,true,-52.8,-4632.96,17.01,-0.00442643,0.0017991646,0.92577064,0.37805524,-141.501,321.381,8.321,-0.00030999997,0,1.49401
52.975,2000,0,91.24,0.000002697398,0.000002697398,0.000002697398,0.99999994,0,0,0,0,0,0,0,1,0,0,0,false,false,true,-53.98,-4630.28,17.01,-0.00443722,0.0017721906,0.92810696,0.37228283,-142.77101,319.561,8.321,-0.00030999997,0,1.49341
52.983334,2000,0,91.24,0.000002697398,0.000002697398,0.000002697398,0.99999994,0,0,0,0,0,0,0,1,0,0,0,false,false,true,-55.17,-4627.62,17.01,-0.004448009,0.0017452165,0.93040586,0.3664996,-144.02101,317.721,8.321,-0.00030999997,-0.00010999999,1.49271
52.991665,2000,0,91.24,0.000002697398,0.000002697398,0.000002697398,0.99999994,0,0,0,0,0,0,0,1,0,0,0,false,false,true,-56.37,-4624.9697,17.01,-0.0044587995,0.0017182427,0.9326675,0.36070552,-145.261,315.861,8.321,-0.00030999997,-0.00010999999,1.49201
53,2000,0,91.24,0.000002697398,0.000002697398,0.000002697398,0.99999994,0,0,0,0,0,0,0,1,0,0,0,false,false,true,-57.579998,-4622.34,17.01,-0.0044695884,0.0016912686,0.9348917,0.35490072,-146.481,313.971,8.321,-0.00030999997,-0.00010999999,1.49121
53.008335,2000,0,91.24,0.000002697398,0.000002697398,0.000002697398,0.99999994,0,0,0,0,0,0,0,1,0,0,0,false,false,true,-58.8,-4619.7197,17.01,-0.0044803782,0.0016642946,0.9370788,0.34908512,-147.681,312.061,8.321,-0.00030999997,-0.00010999999,1.49031
53.016666,2000,0,91.24,0.000002697398,0.000002697398,0.000002697398,0.99999994,0,0,0,0,0,0,0,1,0,0,0,false,false,true,-60.03,-4617.12,17.01,-0.0044911676,0.0016373206,0.93922865,0.34325874,-148.86101,310.131,8.321,-0.00030999997,-0.00010999999,1.48931
53.025,2000,0,91.24,0.000002697398,0.000002697398,0.000002697398,0.99999994,0,0,0,0,0,0,0,1,0,0,0,false,false,true,-61.27,-4614.54,17.01,-0.0045019574,0.0016103466,0.94134146,0.33742148,-150.02101,308.181,8.321,-0.00030999997,-0.00010999999,1.48821
53.033333,2000,0,91.24,0.000002697398,0.000002697398,0.000002697398,0.99999994,0,0,0,0,0,0,0,1,0,0,0,false,false,true,-62.52,-4611.9697,17.01,-0.004512747,0.0015833727,0.9434153,0.3315789,-151.16101,306.211,8.321,-0.00021,-0.00010999999,1.48711
53.041668,2000,0,91.24,0.000002697398,0.000002697398,0.000002697398,0.99999994,0,0,0,0,0,0,0,1,0,0,0,false,false,true,-63.78,-4609.42,17.01,-0.004523536,0.0015563987,0.9454522,0.32572556,-152.281,304.221,8.321,-0.00021,-0.00010999999,1.4859099
53.05,2000,0,91.24,0.000002697398,0.000002697398,0.000002697398,0.99999994,0,0,0,0,0,0,0,1,0,0,0,false,false,true,-65.049995,-4606.88,17.01,-0.004534326,0.0015294247,0.9474504,0.31986672,-153.381,302.221,8.321,-0.00021,-0.00010999999,1.48461
53.058334,2000,0,91.24,0.000002697398,0.000002697398,0.000002697398,0.99999994,0,0,0,0,0,0,0,1,0,0,0,false,false,true,-66.33,-4604.36,17.01,-0.004545116,0.0015024508,0.94941,0.3140026,-154.451,300.201,8.321,-0.00010999999,-0.00010999999,1.48321
53.066666,2000,0,91.24,0.000002697398,0.000002697398,0.000002697398,0.99999994,0,0,0,0,0,0,0,1,0,0,0,false,false,true,-67.619995,-4601.86,17.01,-0.0045559052,0.0014754768,0.9513329,0.30812764,-155.501,298.161,8.321,-0.00010999999,-0.00010999999,1.48181
53.075,2000,0,91.24,0.000002697398,0.000002697398,0.000002697398,0.99999994,0,0,0,0,0,0,0,1,0,0,0,false,false,true,-68.92,-4599.37,17.01,-0.0045666946,0.0014485028,0.95321745,0.30224732,-156.531,296.111,8.321,-0.00010999999,-0.00010999999,1.48031
53.083332,2000,0,91.24,0.000002697398,0.000002697398,0.000002697398,0.99999994,0,0,0,0,0,0,0,1,0,0,0,false,false,true,-70.22,-4596.9,17.01,-0.004577485,0.0014215289,0.95506376,0.29636154,-157.531,294.04102,8.321,0,-0.00010999999,1.4787099
53.091667,2000,0,91.24,0.000002697398,0.000002697398,0.000002697398,0.99999994,0,0,0,0,0,0,0,1,0,0,0,false,false,true,-71.53,-4594.4497,17.01,-0.0045882743,0.0013945549,0.9568719,0.29047042,-158.511,291.961,8.321,0,-0.00010999999,1.47701
53.1,2000,0,91.24,0.000002697398,0.000002697398,0.000002697398,0.99999994,0,0,0,0,0,0,0,1,0,0,0,false,false,true,-72.85,-4592.02,17.01,-0.004599064,0.001367581,0.95864207,0.2845739,-159.461,289.861,8.321,0,0,1.47521
53.108334,2000,0,91.24,0.000002697398,0.000002697398,0.000002697398,0.99999994,0,0,0,0,0,0,0,1,0,0,0,false,false,true,-74.18,-4589.6,17.01,-0.004609853,0.0013406068,0.9603727,0.27867737,-160.391,287.751,8.321,0,0,1.47341
53.116665,2000,0,91.24,0.000002697398,0.000002697398,0.000002697398,0.99999994,0,0,0,0,0,0,0,1,0,0,0,false,false,true,-75.52,-4587.1997,17.01,-0.004620643,0.0013136328,0.9620657,0.27277538,-161.291,285.631,8.321,0,0,1.4715099
53.125,2000,0,91.24,0.000002697398,0.000002697398,0.000002697398,0.99999994,0,0,0,0,0,0,0,1,0,0,0,false,false,true,-76.86,-4584.82,17.01,-0.0046260376,0.0012866588,0.96371955,0.26687348,-162.171,283.501,8.321,0,0,1.46951
53.133335,2000,0,91.24,0.000002697398,0.000002697398,0.000002697398,0.99999994,0,0,0,0,0,0,0,1,0,0,0,false,false,true,-78.21,-4582.46,17.01,-0.0046314327,0.001259685,0.96533597,0.2609662,-163.021,281.361,8.321,0,0,1.46751
53.141666,2000,0,91.24,0.000002697398,0.000002697398,0.000002697398,0.99999994,0,0,0,0,0,0,0,1,0,0,0,false,false,true,-79.57,-4580.12,17.01,-0.004636827,0.0012327109,0.9669136,0.25505885,-163.851,279.211,8.321,0,0,1.46541
53.15,2000,0,91.24,0.000002697398,0.000002697398,0.000002697398,0.99999994,0,0,0,0,0,0,0,1,0,0,0,false,false,true,-80.939995,-4577.79,17.01,-0.0046422225,0.001205737,0.96845263,0.24915151,-164.651,277.051,8.321,0,0,1.46321
53.158333,2000,0,91.24,0.000002697398,0.000002697398,0.000002697398,0.99999994,0,0,0,0,0,0,0,1,0,0,0,false,false,true,-82.31,-4575.48,17.01,-0.0046476163,0.0011787628,0.96995306,0.24324417,-165.421,274.881,8.321,0,0,1.46091
53.166668,2000,0,91.24,0.000002697398,0.000002697398,0.000002697398,0.99999994,0,0,0,0,0,0,0,1,0,0,0,false,false,true,-83.689995,-4573.19,17.01,-0.0046530114,0.001151789,0.9714155,0.23733689,-166.171,272.701,8.321,0.00010999999,0,1.4586099
53.175,2000,0,91.24,0.000002697398,0.000002697398,0.000002697398,0.99999994,0,0,0,0,0,0,0,1,0,0,0,false,false,true,-85.07,-4570.92,17.01,-0.004658406,0.001124815,0.97283983,0.2314295,-166.891,270.511,8.321,0.00010999999,-0.00010999999,1.45621
53.183334,2000,0,91.24,0.000002697398,0.000002697398,0.000002697398,0.99999994,0,0,0,0,0,0,0,1,0,0,0,false,false,true,-86.46,-4568.67,17.01,-0.0046638013,0.001097841,0.9742262,0.2255222,-167.58101,268.321,8.321,0.00010999999,-0.00010999999,1.45371
53.191666,2000,0,91.24,0.000002697398,0.000002697398,0.000002697398,0.99999994,0,0,0,0,0,0,0,1,0,0,0,false,false,true,-87.86,-4566.4297,17.01,-0.0046691964,0.0010708671,0.97557485,0.21961492,-168.251,266.121,8.321,0.00010999999,-0.00021,1.45111
53.2,2000,0,91.24,0.000002697398,0.000002697398,0.000002697398,0.99999994,0,0,0,0,0,0,0,1,0,0,0,false,false,true,-89.259995,-4564.21,17.01,-0.004674591,0.0010438932,0.9768847,0.213713,-168.891,263.921,8.321,0.00021,-0.00021,1.4485099
53.208332,2000,0,91.24,0.000002697398,0.000002697398,0.000002697398,0.99999994,0,0,0,0,0,0,0,1,0,0,0,false,false,true,-90.67,-4562.01,17.01,-0.0046799853,0.001016919,0.9781572,0.207811,-169.501,261.711,8.321,0.00021,-0.00021,1.44581
53.216667,2000,0,91.24,0.000002697398,0.000002697398,0.000002697398,0.99999994,0,0,0,0,0,0,0,1,0,0,0,false,false,true,-92.079994,-4559.83,17.01,-0.0046853805,0.000989945,0.9793914,0.20191449,-170.091,259.501,8.321,0.00021,-0.00021,1.44301
53.225,2000,0,91.24,0.000002697398,0.000002697398,0.000002697398,0.99999994,0,0,0,0,0,0,0,1,0,0,0,false,false,true,-93.5,-4557.67,17.01,-0.004690775,0.0009629711,0.9805875,0.19602337,-170.651,257.29102,8.321,0.00030999997,-0.00021,1.44021
53.233334,2000,0,91.24,0.000002697398,0.000002697398,0.000002697398,0.99999994,0,0,0,0,0,0,0,1,0,0,0,false,false,true,-94.92,-4555.53,17.01,-0.00469617,0.0009359971,0.9817457,0.19013765,-171.181,255.071,8.321,0.00030999997,-0.00030999997,1.43731
53.241665,2000,0,91.24,0.000002697398,0.000002697398,0.000002697398,0.99999994,0,0,0,0,0,0,0,1,0,0,0,false,false,true,-96.35,-4553.4,17.01,-0.004701565,0.0009090232,0.98286635,0.18425725,-171.681,252.851,8.321,0.00030999997,-0.00030999997,1.43431
53.25,2000,0,91.24,0.000002697398,0.000002697398,0.000002697398,0.99999994,0,0,0,0,0,0,0,1,0,0,0,false,false,true,-97.78,-4551.29,17.01,-0.0047069597,0.00088204915,0.98394954,0.1783823,-172.16101,250.631,8.321,0.00040999998,-0.00030999997,1.4313099
53.258335,2000,0,91.24,0.000002697398,0.000002697398,0.000002697398,0.99999994,0,0,0,0,0,0,0,1,0,0,0,false,false,true,-99.21,-4549.1997,17.01,-0.004712355,0.00084968045,0.9849956,0.17251278,-172.61101,248.411,8.321,0.00040999998,-0.00030999997,1.42821
53.266666,2000,0,91.24,0.000002697398,0.000002697398,0.000002697398,0.99999994,0,0,0,0,0,0,0,1,0,0,0,false,false,true,-100.65,-4547.13,17.01,-0.004717749,0.00081731164,0.98600465,0.16664863,-173.031,246.191,8.321,0.00040999998,-0.00030999997,1.42501
53.275,2000,0,91.24,0.000002697398,0.000002697398,0.000002697398,0.99999994,0,0,0,0,0,0,0,1,0,0,0,false,false,true,-102.09,-4545.08,17.01,-0.0047231433,0.00078494276,0.9869769,0.16078977,-173.431,243.97101,8.321,0.00040999998,-0.00030999997,1.42181
53.283333,2000,0,91.24,0.000002697398,0.000002697398,0.000002697398,0.99999994,0,0,0,0,0,0,0,1,0,0,0,false,false,true,-103.54,-4543.05,17.01,-0.0047285384,0.00075257407,0.98791194,0.15494183,-173.80101,241.761,8.321,0.00030999997,-0.00030999997,1.41851
53.291668,2000,0,91.24,0.000002697398,0.000002697398,0.000002697398,0.99999994,0,0,0,0,0,0,0,1,0,0,0,false,false,true,-104.99,-4541.03,17.01,-0.004733933,0.0007256,0.9888105,0.14909925,-174.141,239.551,8.321,0.00021,-0.00030999997,1.41511
53.3,2000,0,91.24,0.000002697398,0.000002697398,0.000002697398,0.99999994,0,0,0,0,0,0,0,1,0,0,0,false,false,true,-106.439995,-4539.03,17.01,-0.0047393283,0.0006986261,0.98967236,0.14326741,-174.451,237.341,8.321,0.00021,-0.00021,1.41171
53.308334,2000,0,91.24,0.000002697398,0.000002697398,0.000002697398,0.99999994,0,0,0,0,0,0,0,1,0,0,0,false,false,true,-107.89,-4537.05,17.01,-0.004744723,0.0006716521,0.9904983,0.13744102,-174.741,235.141,8.321,0.00021,-0.00021,1.4082099
53.316666,2000,0,91.24,0.000002697398,0.000002697398,0.000002697398,0.99999994,0,0,0,0,0,0,0,1,0,0,0,false,false,true,-109.35,-4535.09,17.01,-0.004750118,0.0006446782,0.9912879,0.13162544,-175.001,232.941,8.321,0.00021,-0.00021,1.4046099
53.325,2000,0,91.24,0.000002697398,0.000002697398,0.000002697398,0.99999994,0,0,0,0,0,0,0,1,0,0,0,false,false,true,-110.81,-4533.15,17.01,-0.0047555123,0.00061770406,0.9920413,0.12582062,-175.241,230.751,8.321,0.00021,-0.00010999999,1.40101
53.333332,2000,0,91.24,0.000002697398,0.000002697398,0.000002697398,0.99999994,0,0,0,0,0,0,0,1,0,0,0,false,false,true,-112.27,-4531.23,17.01,-0.0047609075,0.00059073017,0.99275905,0.120026544,-175.451,228.561,8.321,0.00021,-0.00010999999,1.39731
53.341667,2000,0,91.24,0.000002697398,0.000002697398,0.000002697398,0.99999994,0,0,0,0,0,0,0,1,0,0,0,false,false,true,-113.729996,-4529.33,17.01,-0.004766302,0.00056375616,0.99344116,0.11424332,-175.631,226.381,8.321,0.00021,-0.00010999999,1.39361
53.35,2000,0,91.24,0.000002697398,0.000002697398,0.000002697398,0.99999994,0,0,0,0,0,0,0,1,0,0,0,false,false,true,-115.189995,-4527.44,17.01,-0.0047716973,0.00053678226,0.994088,0.108470894,-175.791,224.211,8.321,0.00021,0,1.38981
53.358334,2000,0,91.24,0.000002697398,0.000002697398,0.000002697398,0.99999994,0,0,0,0,0,0,0,1,0,0,0,false,false,true,-116.649994,-4525.57,17.01,-0.0047770925,0.00050980825,0.99469924,0.10271465,-175.921,222.041,8.321,0.00030999997,0,1.38591
53.366665,2000,0,91.24,0.000002697398,0.000002697398,0.000002697398,0.99999994,0,0,0,0,0,0,0,1,0,0,0,false,false,true,-118.119995,-4523.7197,17.01,-0.0047824867,0.00048283426,0.99527574,0.0969691,-176.031,219.881,8.321,0.00030999997,0,1.38201
53.375,2000,0,91.24,0.000002697398,0.000002697398,0.000002697398,0.99999994,0,0,0,0,0,0,0,1,0,0,0,false,false,true,-119.59,-4521.89,17.01,-0.004782487,0.0004558603,0.99581784,0.09123444,-176.11101,217.731,8.321,0.00030999997,0,1.37801
53.383335,2000,0,91.24,0.000002697398,0.000002697398,0.000002697398,0.99999994,0,0,0,0,0,0,0,1,0,0,0,false,false,true,-121.06,-4520.08,17.01,-0.0047824862,0.00042888624,0.9963251,0.08551594,-176.171,215.591,8.321,0.00030999997,0,1.37401
53.391666,2000,0,91.24,0.000002697398,0.000002697398,0.000002697398,0.99999994,0,0,0,0,0,0,0,1,0,0,0,false,false,true,-122.53,-4518.28,17.01,-0.0047824867,0.00040191232,0.99679863,0.07980825,-176.201,213.461,8.321,0.00030999997,0,1.36991
53.4,2000,0,91.24,0.000002697398,0.000002697398,0.000002697398,0.99999994,0,0,0,0,0,0,0,1,0,0,0,false,false,true,-124,-4516.5,17.01,-0.0047824867,0.00037493833,0.997238,0.074116655,-176.211,211.341,8.321,0.00030999997,0,1.36581
53.408333,2000,0,91.24,0.000002697398,0.000002697398,0.000002697398,0.99999994,0,0,0,0,0,0,0,1,0,0,0,false,false,true,-125.46999,-4514.7397,17.01,-0.004782487,0.00034796438,0.9976436,0.06844134,-176.201,209.231,8.321,0.00030999997,0,1.3616099
53.416668,2000,0,91.24,0.000002697398,0.000002697398,0.000002697398,0.99999994,0,0,0,0,0,0,0,1,0,0,0,false,false,true,-126.939995,-4513,17.01,-0.004782487,0.0003209904,0.9980157,0.0627822,-176.16101,207.131,8.321,0.00030999997,0,1.3573099
53.425,2000,0,91.24,0.000002697398,0.000002697398,0.000002697398,0.99999994,0,0,0,0,0,0,0,1,0,0,0,false,false,true,-128.41,-4511.27,17.01,-0.0047824867,0.00029401638,0.9983547,0.057139236,-176.101,205.041,8.321,0.00030999997,0,1.3530099
53.433334,2000,0,91.24,0.000002697398,0.000002697398,0.000002697398,0.99999994,0,0,0,0,0,0,0,1,0,0,0,false,false,true,-129.87999,-4509.56,17.01,-0.0047824867,0.0002670424,0.9986608,0.05151238,-176.021,202.97101,8.321,0.00030999997,0,1.3486099
53.441666,2000,0,91.24,0.000002697398,0.000002697398,0.000002697398,0.99999994,0,0,0,0,0,0,0,1,0,0,0,false,false,true,-131.34999,-4507.87,17.01,-0.004782487,0.00024006845,0.99893445,0.045901794,-175.91101,200.911,8.321,0.00030999997,-0.00010999999,1.34421
53.45,2000,0,91.24,0.000002697398,0.000002697398,0.000002697398,0.99999994,0,0,0,0,0,0,0,1,0,0,0,false,false,true,-132.81999,-4506.1997,17.01,-0.004782487,0.00021309446,0.99917585,0.04030739,-175.781,198.86101,8.321,0.00030999997,-0.00010999999,1.33971
53.458332,2000,0,91.24,0.000002697398,0.000002697398,0.000002697398,0.99999994,0,0,0,0,0,0,0,1,0,0,0,false,false,true,-134.28,-4504.54,17.01,-0.004782487,0.00018612048,0.9993853,0.03472917,-175.631,196.821,8.321,0.00030999997,-0.00010999999,1.33521
53.466667,2000,0,91.24,0.000002697398,0.000002697398,0.000002697398,0.99999994,0,0,0,0,0,0,0,1,0,0,0,false,false,true,-135.73999,-4502.9,17.01,-0.0047824867,0.00015914648,0.99956304,0.02916705,-175.461,194.80101,8.321,0.00030999997,-0.00010999999,1.33061
53.475,2000,0,91.24,0.000002697398,0.000002697398,0.000002697398,0.99999994,0,0,0,0,0,0,0,1,0,0,0,false,false,true,-137.2,-4501.28,17.01,-0.0047824867,0.0001321725,0.99970937,0.023626594,-175.271,192.791,8.321,0.00030999997,-0.00021,1.32601
53.483334,2000,0,91.24,0.000002697398,0.000002697398,0.000002697398,0.99999994,0,0,0,0,0,0,0,1,0,0,0,false,false,true,-138.66,-4499.67,17.01,-0.0047824867,0.000105198524,0.99982464,0.018102322,-175.061,190.80101,8.321,0.00030999997,-0.00021,1.3213099
53.491665,2000,0,91.24,0.000002697398,0.000002697398,0.000002697398,0.99999994,0,0,0,0,0,0,0,1,0,0,0,false,false,true,-140.12,-4498.08,17.01,-0.004782487,0.00007822455,0.99990916,0.012599631,-174.83101,188.821,8.321,0.00030999997,-0.00021,1.31661
53.5,2000,0,91.24,0.000002697398,0.000002697398,0.000002697398,0.99999994,0,0,0,0,0,0,0,1,0,0,0,false,false,true,-141.58,-4496.51,17.01,-0.004782487,0.00005125057,0.9999632,0.007113039,-174.58101,186.86101,8.321,0.00030999997,-0.00021,1.31181
53.508335,2000,0,91.24,0.000002697398,0.000002697398,0.000002697398,0.99999994,0,0,0,0,0,0,0,1,0,0,0,false,false,true,-143.03,-4494.9497,17.01,-0.0047824867,0.000024276582,0.9999871,0.0016481102,-174.311,184.911,8.321,0.00030999997,-0.00021,1.3070099
53.516666,2000,0,91.24,0.000002697398,0.000002697398,0.000002697398,0.99999994,0,0,0,0,0,0,0,1,0,0,0,false,false,true,-144.48,-4493.4097,17.01,-0.0047824867,-0.000002697398,0.9999813,-0.0037952391,-174.021,182.981,8.321,0.00030999997,-0.00021,1.30211
53.525,2000,0,91.24,0.000002697398,0.000002697398,0.000002697398,0.99999994,0,0,0,0,0,0,0,1,0,0,0,false,false,true,-145.93,-4491.88,17.01,-0.004782487,-0.00002967138,0.999946,-0.009222447,-173.711,181.071,8.321,0.00030999997,-0.00021,1.29721
53.533333,2000,0,91.24,0.000002697398,0.000002697398,0.000002697398,0.99999994,0,0,0,0,0,0,0,1,0,0,0,false,false,true,-147.37999,-4490.37,17.01,-0.0047824867,-0.00005664536,0.9998815,-0.014628032,-173.391,179.171,8.321,0.00030999997,-0.00021,1.29221
53.541668,2000,0,91.24,0.000002697398,0.000002697398,0.000002697398,0.99999994,0,0,0,0,0,0,0,1,0,0,0,false,false,true,-148.81999,-4488.88,17.01,-0.0047824867,-0.000083619336,0.9997882,-0.02001208,-173.05101,177.291,8.321,0.00030999997,-0.00021,1.28721
53.55,2000,0,91.24,0.000002697398,0.000002697398,0.000002697398,0.99999994,0,0,0,0,0,0,0,1,0,0,0,false,false,true,-150.26,-4487.4,17.01,-0.0047824867,-0.00011059332,0.9996665,-0.025374508,-172.69101,175.431,8.321,0.00030999997,-0.00021,1.28221
53.558334,2000,0,91.24,0.000002697398,0.000002697398,0.000002697398,0.99999994,0,0,0,0,0,0,0,1,0,0,0,false,false,true,-151.7,-4485.94,17.01,-0.0047824867,-0.0001375673,0.99951667,-0.030715398,-172.311,173.58101,8.321,0.00030999997,-0.00021,1.27711
53.566666,2000,0,91.24,0.000002697398,0.000002697398,0.000002697398,0.99999994,0,0,0,0,0,0,0,1,0,0,0,false,false,true,-153.14,-4484.4897,17.01,-0.0047824867,-0.00016454128,0.99933904,-0.036034666,-171.921,171.751,8.321,0.00030999997,-0.00021,1.27201
53.575,2000,0,91.24,0.000002697398,0.000002697398,0.000002697398,0.99999994,0,0,0,0,0,0,0,1,0,0,0,false,false,true,-154.56999,-4483.06,17.01,-0.004782487,-0.00019151528,0.99913394,-0.0413324,-171.511,169.94101,8.321,0.00030999997,-0.00021,1.2668099
53.583332,2000,0,91.24,0.000002697398,0.000002697398,0.000002697398,0.99999994,0,0,0,0,0,0,0,1,0,0,0,false,false,true,-156,-4481.64,17.01,-0.004782487,-0.00021848927,0.99890196,-0.046603117,-171.091,168.151,8.321,0.00030999997,-0.00021,1.26161
53.591667,2000,0,91.24,0.000002697398,0.000002697398,0.000002697398,0.99999994,0,0,0,0,0,0,0,1,0,0,0,false,false,true,-157.43,-4480.2397,17.01,-0.0047824867,-0.00024546322,0.9986432,-0.051852293,-170.651,166.381,8.321,0.00021,-0.00021,1.25631
53.6,2000,0,91.24,0.000002697398,0.000002697398,0.000002697398,0.99999994,0,0,0,0,0,0,0,1,0,0,0,false,false,true,-158.84999,-4478.85,17.01,-0.0047824867,-0.0002724372,0.9983581,-0.05707985,-170.201,164.621,8.321,0.00021,-0.00010999999,1.25101
53.608334,2000,0,91.24,0.000002697398,0.000002697398,0.000002697398,0.99999994,0,0,0,0,0,0,0,1,0,0,0,false,false,true,-160.26999,-4477.48,17.01,-0.004782487,-0.00029941121,0.9980472,-0.06228048,-169.731,162.881,8.321,0.00021,-0.00010999999,1.24571
53.616665,2000,0,91.24,0.000002697398,0.000002697398,0.000002697398,0.99999994,0,0,0,0,0,0,0,1,0,0,0,false,false,true,-161.68,-4476.12,17.01,-0.0047824862,-0.00032638514,0.99771035,-0.06745947,-169.251,161.16101,8.321,0.00010999999,-0.00010999999,1.24031
53.625,2000,0,91.24,0.000002697398,0.000002697398,0.000002697398,0.99999994,0,0,0,0,0,0,0,1,0,0,0,false,false,true,-163.09,-4474.78,17.01,-0.0047824867,-0.00035335915,0.9973483,-0.07261695,-168.761,159.461,8.321,0,0,1.23491
53.633335,2000,0,91.24,0.000002697398,0.000002697398,0.000002697398,0.99999994,0,0,0,0,0,0,0,1,0,0,0,false,false,true,-164.5,-4473.4497,17.01,-0.0047824867,-0.00038033313,0.9969615,-0.0777474,-168.251,157.781,8.321,0,0,1.22951
53.641666,2000,0,91.24,0.000002697398,0.000002697398,0.000002697398,0.99999994,0,0,0,0,0,0,0,1,0,0,0,false,false,true,-165.9,-4472.13,17.01,-0.0047824862,-0.00040730706,0.9965498,-0.08285626,-167.731,156.121,8.321,0,0,1.22401
53.65,2000,0,91.24,0.000002697398,0.000002697398,0.000002697398,0.99999994,0,0,0,0,0,0,0,1,0,0,0,false,false,true,-167.3,-4470.83,17.01,-0.0047824867,-0.0004342811,0.9961143,-0.08793821,-167.201,154.481,8.321,0,0,1.21851
53.658333,2000,0,91.24,0.000002697398,0.000002697398,0.000002697398,0.99999994,0,0,0,0,0,0,0,1,0,0,0,false,false,true,-168.69,-4469.54,17.01,-0.0047824867,-0.00045586028,0.9956551,-0.09299313,-166.66101,152.86101,8.321,0,0,1.2129099
53.666668,2000,0,91.24,0.000002697398,0.000002697398,0.000002697398,0.99999994,0,0,0,0,0,0,0,1,0,0,0,false,false,true,-170.08,-4468.27,17.01,-0.0047824867,-0.00047743946,0.9951727,-0.09802113,-166.11101,151.261,8.321,0,0,1.20731
53.675,2000,0,91.24,0.000002697398,0.000002697398,0.000002697398,0.99999994,0,0,0,0,0,0,0,1,0,0,0,false,false,true,-171.45999,-4467.01,17.01,-0.0047824867,-0.00049901864,0.9946668,-0.1030275,-165.55101,149.681,8.321,0,0,1.20171
53.683334,2000,0,91.24,0.000002697398,0.000002697398,0.000002697398,0.99999994,0,0,0,0,0,0,0,1,0,0,0,false,false,true,-172.84,-4465.76,17.01,-0.004782487,-0.00052059785,0.9941385,-0.10800695,-164.981,148.121,8.321,0,0.00010999999,1.19601
53.691666,2000,0,91.24,0.000002697398,0.000002697398,0.000002697398,0.99999994,0,0,0,0,0,0,0,1,0,0,0,false,false,true,-174.20999,-4464.53,17.01,-0.004777092,-0.000542177,0.9935879,-0.11295936,-164.401,146.58101,8.321,0,0.00021,1.19031
53.7,2000,0,91.24,0.000002697398,0.000002697398,0.000002697398,0.99999994,0,0,0,0,0,0,0,1,0,0,0,false,false,true,-175.58,-4463.31,17.01,-0.0047716973,-0.0005637562,0.99301565,-0.11788486,-163.811,145.061,8.321,0,0.00021,1.18461
53.708332,2000,0,91.24,0.000002697398,0.000002697398,0.000002697398,0.99999994,0,0,0,0,0,0,0,1,0,0,0,false,false,true,-176.95,-4462.1,17.01,-0.0047663026,-0.0005853354,0.99242187,-0.12278333,-163.211,143.561,8.321,0,0.00021,1.17881
53.716667,2000,0,91.24,0.000002697398,0.000002697398,0.000002697398,0.99999994,0,0,0,0,0,0,0,1,0,0,0,false,false,true,-178.31,-4460.9,17.01,-0.0047609075,-0.0006069146,0.991807,-0.12765487,-162.601,142.08101,8.321,0,0.00010999999,1.17301
53.725,2000,0,91.24,0.000002697398,0.000002697398,0.000002697398,0.99999994,0,0,0,0,0,0,0,1,0,0,0,false,false,true,-179.65999,-4459.7197,17.01,-0.004755513,-0.0006284937,0.9911714,-0.1324994,-161.981,140.621,8.321,0.00010999999,0.00010999999,1.16721
53.733334,2000,0,91.24,0.000002697398,0.000002697398,0.000002697398,0.99999994,0,0,0,0,0,0,0,1,0,0,0,false,false,true,-181.01,-4458.55,17.01,-0.004750118,-0.000650073,0.99051553,-0.13731696,-161.36101,139.181,8.321,0.00010999999,0,1.16131
53.741665,2000,0,91.24,0.000002697398,0.000002697398,0.000002697398,0.99999994,0,0,0,0,0,0,0,1,0,0,0,false,false,true,-182.34999,-4457.39,17.01,-0.004744723,-0.0006716521,0.98983955,-0.14210756,-160.731,137.761,8.321,0.00010999999,0,1.1554099
53.75,2000,0,91.24,0.000002697398,0.000002697398,0.000002697398,0.99999994,0,0,0,0,0,0,0,1,0,0,0,false,false,true,-183.69,-4456.2397,17.01,-0.0047393283,-0.0006932313,0.98914397,-0.14687116,-160.091,136.36101,8.321,0.00021,0,1.14951
53.758335,2000,0,91.24,0.000002697398,0.000002697398,0.000002697398,0.99999994,0,0,0,0,0,0,0,1,0,0,0,false,false,true,-185.01999,-4455.1,17.01,-0.0047339336,-0.0007148105,0.98842907,-0.15160784,-159.451,134.981,8.321,0.00021,0,1.14351
53.766666,2000,0,91.24,0.000002697398,0.000002697398,0.000002697398,0.99999994,0,0,0,0,0,0,0,1,0,0,0,false,false,true,-186.34999,-4453.9697,17.01,-0.0047285384,-0.00073638966,0.9876952,-0.1563175,-158.80101,133.621,8.321,0.00030999997,0,1.13751
53.775,2000,0,91.24,0.000002697398,0.000002697398,0.000002697398,0.99999994,0,0,0,0,0,0,0,1,0,0,0,false,false,true,-187.67,-4452.86,17.01,-0.0047231438,-0.00075796887,0.9869436,-0.16099483,-158.151,132.281,8.321,0.00030999997,0,1.13151
53.783333,2000,0,91.24,0.000002697398,0.000002697398,0.000002697398,0.99999994,0,0,0,0,0,0,0,1,0,0,0,false,false,true,-188.98999,-4451.76,17.01,-0.004717749,-0.000779548,0.98617375,-0.16564515,-157.491,130.961,8.321,0.00030999997,0,1.12541
53.791668,2000,0,91.24,0.000002697398,0.000002697398,0.000002697398,0.99999994,0,0,0,0,0,0,0,1,0,0,0,false,false,true,-190.3,-4450.67,17.01,-0.004712355,-0.0008011273,0.9853861,-0.1702685,-156.83101,129.66101,8.321,0.00030999997,0,1.11931
53.8,2000,0,91.24,0.000002697398,0.000002697398,0.000002697398,0.99999994,0,0,0,0,0,0,0,1,0,0,0,false,false,true,-191.61,-4449.59,17.01,-0.0047069592,-0.0008227063,0.9845807,-0.17486489,-156.16101,128.381,8.321,0.00040999998,-0.00010999999,1.11321
53.808334,2000,0,91.24,0.000002697398,0.000002697398,0.000002697398,0.99999994,0,0,0,0,0,0,0,1,0,0,0,false,false,true,-192.90999,-4448.52,17.01,-0.0047015646,-0.0008442856,0.9837593,-0.17942889,-155.491,127.120995,8.321,0.00040999998,-0.00010999999,1.10701
53.816666,2000,0,91.24,0.000002697398,0.000002697398,0.000002697398,0.99999994,0,0,0,0,0,0,0,1,0,0,0,false,false,true,-194.20999,-4447.46,17.01,-0.00469617,-0.0008658648,0.98292094,-0.18396597,-154.811,125.881,8.321,0.00040999998,-0.00010999999,1.1008099
53.825,2000,0,91.24,0.000002697398,0.000002697398,0.000002697398,0.99999994,0,0,0,0,0,0,0,1,0,0,0,false,false,true,-195.5,-4446.4097,17.01,-0.004690775,-0.00088744395,0.98206717,-0.18847062,-154.131,124.660995,8.321,0.00040999998,-0.00021,1.09461
53.833332,2000,0,91.24,0.000002697398,0.000002697398,0.000002697398,0.99999994,0,0,0,0,0,0,0,1,0,0,0,false,false,true,-196.78,-4445.37,17.01,-0.004685381,-0.0009090232,0.9811973,-0.19294831,-153.451,123.461,8.321,0.00040999998,-0.00021,1.08831
53.841667,2000,0,91.24,0.000002697398,0.000002697398,0.000002697398,0.99999994,0,0,0,0,0,0,0,1,0,0,0,false,false,true,-198.06,-4444.34,17.01,-0.0046799853,-0.0009306023,0.98031265,-0.19739366,-152.771,122.281,8.321,0.00040999998,-0.00021,1.08201
53.85,2000,0,91.24,0.000002697398,0.000002697398,0.000002697398,0.99999994,0,0,0,0,0,0,0,1,0,0,0,false,false,true,-199.33,-4443.32,17.01,-0.0046745907,-0.0009521815,0.9794126,-0.20181198,-152.091,121.120995,8.321,0.00040999998,-0.00021,1.0757099
53.858334,2000,0,91.24,0.000002697398,0.000002697398,0.000002697398,0.99999994,0,0,0,0,0,0,0,1,0,0,0,false,false,true,-200.59999,-4442.31,17.01,-0.0046691964,-0.0009737608,0.97849864,-0.20619802,-151.401,119.980995,8.321,0.00040999998,-0.00030999997,1.06931
53.866665,2000,0,91.24,0.000002697398,0.000002697398,0.000002697398,0.99999994,0,0,0,0,0,0,0,1,0,0,0,false,false,true,-201.86,-4441.31,17.01,-0.0046638013,-0.0009953398,0.9775699,-0.210557,-150.711,118.861,8.321,0.00040999998,-0.00030999997,1.06291
53.875,2000,0,91.24,0.000002697398,0.000002697398,0.000002697398,0.99999994,0,0,0,0,0,0,0,1,0,0,0,false,false,true,-203.12,-4440.32,17.01,-0.004658406,-0.001016919,0.97662795,-0.21488363,-150.02101,117.760994,8.321,0.00040999998,-0.00030999997,1.05651
53.883335,2000,0,91.24,0.000002697398,0.000002697398,0.000002697398,0.99999994,0,0,0,0,0,0,0,1,0,0,0,false,false,true,-204.37,-4439.34,17.01,-0.0046530114,-0.0010384982,0.975672,-0.21918333,-149.33101,116.671,8.321,0.00040999998,-0.00030999997,1.05001
53.891666,2000,0,91.24,0.000002697398,0.000002697398,0.000002697398,0.99999994,0,0,0,0,0,0,0,1,0,0,0,false,false,true,-205.61,-4438.37,17.01,-0.0046476168,-0.0010600775,0.97470355,-0.2234506,-148.641,115.601,8.321,0.00040999998,-0.00030999997,1.04351
53.9,2000,0,91.24,0.000002697398,0.000002697398,0.000002697398,0.99999994,0,0,0,0,0,0,0,1,0,0,0,false,false,true,-206.84999,-4437.4097,17.01,-0.0046422225,-0.0010816567,0.973723,-0.22768557,-147.951,114.550995,8.321,0.00040999998,-0.00030999997,1.03701
53.908333,2000,0,91.24,0.000002697398,0.000002697398,0.000002697398,0.99999994,0,0,0,0,0,0,0,1,0,0,0,false,false,true,-208.08,-4436.4497,17.01,-0.0046368265,-0.0011032356,0.97273064,-0.23188807,-147.261,113.520996,8.321,0.00040999998,-0.00040999998,1.0304099
53.916668,2000,0,91.24,0.000002697398,0.000002697398,0.000002697398,0.99999994,0,0,0,0,0,0,0,1,0,0,0,false,false,true,-209.31,-4435.5,17.01,-0.0046314327,-0.0011248151,0.9717259,-0.23606369,-146.571,112.510994,8.321,0.00040999998,-0.00040999998,1.02381
53.925,2000,0,91.24,0.000002697398,0.000002697398,0.000002697398,0.99999994,0,0,0,0,0,0,0,1,0,0,0,false,false,true,-210.53,-4434.56,17.01,-0.004626038,-0.0011463943,0.97071,-0.24020694,-145.881,111.520996,8.321,0.00040999998,-0.00040999998,1.01721
53.933334,2000,0,91.24,0.000002697398,0.000002697398,0.000002697398,0.99999994,0,0,0,0,0,0,0,1,0,0,0,false,false,true,-211.75,-4433.63,17.01,-0.004620643,-0.0011679734,0.96968347,-0.24431776,-145.201,110.550995,8.321,0.00040999998,-0.00040999998,1.01051
53.941666,2000,0,91.24,0.000002697398,0.000002697398,0.000002697398,0.99999994,0,0,0,0,0,0,0,1,0,0,0,false,false,true,-212.95999,-4432.71,17.01,-0.0046152486,-0.0011895526,0.96864676,-0.24839625,-144.52101,109.590996,8.321,0.00040999998,-0.00040999998,1.0038099
53.95,2000,0,91.24,0.000002697398,0.000002697398,0.000002697398,0.99999994,0,0,0,0,0,0,0,1,0,0,0,false,false,true,-214.15999,-4431.8,17.01,-0.0046098535,-0.0012111318,0.96759874,-0.25244778,-143.841,108.65099,8.321,0.00040999998,-0.00040999998,0.99701
53.958332,2000,0,91.24,0.000002697398,0.000002697398,0.000002697398,0.99999994,0,0,0,0,0,0,0,1,0,0,0,false,false,true,-215.36,-4430.89,17.01,-0.0046044583,-0.0012327109,0.96654123,-0.25646687,-143.16101,107.730995,8.321,0.00030999997,-0.00040999998,0.99021
53.966667,2000,0,91.24,0.000002697398,0.000002697398,0.000002697398,0.99999994,0,0,0,0,0,0,0,1,0,0,0,false,false,true,-216.54999,-4429.9897,17.01,-0.0045990637,-0.0012542901,0.96547455,-0.26045367,-142.481,106.821,8.321,0.00030999997,-0.00051,0.98361
53.975,2000,0,91.24,0.000002697398,0.000002697398,0.000002697398,0.99999994,0,0,0,0,0,0,0,1,0,0,0,false,false,true,-217.73999,-4429.1,17.01,-0.004593669,-0.0012758692,0.96439904,-0.26440805,-141.80101,105.931,8.321,0.00021,-0.00051,0.97710997
53.983334,2000,0,91.24,0.000002697398,0.000002697398,0.000002697398,0.99999994,0,0,0,0,0,0,0,1,0,0,0,false,false,true,-218.92,-4428.2197,17.01,-0.004588274,-0.0012974484,0.9633152,-0.26833007,-141.121,105.050995,8.321,0.00021,-0.00051,0.97071
53.991665,2000,0,91.24,0.000002697398,0.000002697398,0.000002697398,0.99999994,0,0,0,0,0,0,0,1,0,0,0,false,false,true,-220.09999,-4427.34,17.01,-0.004582879,-0.0013136328,0.96222174,-0.27222514,-140.44101,104.190994,8.321,0.00010999999,-0.00051,0.96450996
54,2000,0,91.24,0.000002697398,0.000002697398,0.000002697398,0.99999994,0,0,0,0,0,0,0,1,0,0,0,false,false,true,-221.26999,-4426.4697,17.01,-0.004577485,-0.0013298173,0.96112055,-0.27608785,-139.761,103.340996,8.321,0.00010999999,-0.00051,0.95840997
54.008335,2000,0,91.24,0.000002697398,0.000002697398,0.000002697398,0.99999994,0,0,0,0,0,0,0,1,0,0,0,false,false,true,-222.43,-4425.61,17.01,-0.0045720898,-0.0013460016,0.9600104,-0.27992353,-139.071,102.501,8.321,0.00010999999,-0.00051,0.95251
54.016666,2000,0,91.24,0.000002697398,0.000002697398,0.000002697398,0.99999994,0,0,0,0,0,0,0,1,0,0,0,false,false,true,-223.59,-4424.76,17.01,-0.0045666946,-0.001362186,0.95889163,-0.2837323,-138.381,101.681,8.321,0.00010999999,-0.00051,0.94671
54.025,2000,0,91.24,0.000002697398,0.000002697398,0.000002697398,0.99999994,0,0,0,0,0,0,0,1,0,0,0,false,false,true,-224.73999,-4423.9097,17.01,-0.0045613,-0.0013783704,0.9577645,-0.28751406,-137.69101,100.870995,8.321,0.00021,-0.00051,0.94101
54.033333,2000,0,91.24,0.000002697398,0.000002697398,0.000002697398,0.99999994,0,0,0,0,0,0,0,1,0,0,0,false,false,true,-225.89,-4423.07,17.01,-0.0045559057,-0.0013945549,0.95662934,-0.29126886,-137.001,100.08099,8.321,0.00021,-0.00051,0.93540996
54.041668,2000,0,91.24,0.000002697398,0.000002697398,0.000002697398,0.99999994,0,0,0,0,0,0,0,1,0,0,0,false,false,true,-227.03,-4422.2397,17.01,-0.0045505106,-0.0014107391,0.95548636,-0.29499668,-136.321,99.300995,8.321,0.00021,-0.00051,0.93000996
54.05,2000,0,91.24,0.000002697398,0.000002697398,0.000002697398,0.99999994,0,0,0,0,0,0,0,1,0,0,0,false,false,true,-228.17,-4421.4097,17.01,-0.0045451154,-0.0014269236,0.95433587,-0.2986975,-135.641,98.531,8.321,0.00030999997,-0.00051,0.92471
54.058334,2000,0,91.24,0.000002697398,0.000002697398,0.000002697398,0.99999994,0,0,0,0,0,0,0,1,0,0,0,false,false,true,-229.29999,-4420.59,17.01,-0.0045397207,-0.001443108,0.9531782,-0.30237135,-134.961,97.781,8.321,0.00030999997,-0.00051,0.91951
54.066666,2000,0,91.24,0.000002697398,0.000002697398,0.000002697398,0.99999994,0,0,0,0,0,0,0,1,0,0,0,false,false,true,-230.42,-4419.77,17.01,-0.0045343256,-0.0014592923,0.95201355,-0.30601826,-134.281,97.041,8.321,0.00030999997,-0.00051,0.91441
54.075,2000,0,91.24,0.000002697398,0.000002697398,0.000002697398,0.99999994,0,0,0,0,0,0,0,1,0,0,0,false,false,true,-231.54,-4418.96,17.01,-0.004528932,-0.0014754769,0.9508407,-0.30964363,-133.601,96.311,8.321,0.00030999997,-0.00051,0.90951
54.083332,2000,0,91.24,0.000002697398,0.000002697398,0.000002697398,0.99999994,0,0,0,0,0,0,0,1,0,0,0,false,false,true,-232.65,-4418.1597,17.01,-0.004523536,-0.0014916611,0.9496596,-0.31324732,-132.921,95.601,8.321,0.00040999998,-0.00051,0.90471
54.091667,2000,0,91.24,0.000002697398,0.000002697398,0.000002697398,0.99999994,0,0,0,0,0,0,0,1,0,0,0,false,false,true,-233.76,-4417.36,17.01,-0.0045181415,-0.0015078455,0.94847226,-0.3168241,-132.241,94.901,8.321,0.00040999998,-0.00051,0.90001
54.1,2000,0,91.24,0.000002697398,0.000002697398,0.000002697398,0.99999994,0,0,0,0,0,0,0,1,0,0,0,false,false,true,-234.86,-4416.57,17.01,-0.004512747,-0.0015240299,0.9472773,-0.3203793,-131.571,94.211,8.321,0.00040999998,-0.00051,0.89541
54.108334,2000,0,91.24,0.000002697398,0.000002697398,0.000002697398,0.99999994,0,0,0,0,0,0,0,1,0,0,0,false,false,true,-235.95999,-4415.78,17.01,-0.004507352,-0.0015402143,0.94607484,-0.32391286,-130.901,93.541,8.321,0.00040999998,-0.00051,0.89090997
54.116665,2000,0,91.24,0.000002697398,0.000002697398,0.000002697398,0.99999994,0,0,0,0,0,0,0,1,0,0,0,false,false,true,-237.04999,-4415,17.01,-0.0045019574,-0.0015563987,0.9448651,-0.3274249,-130.231,92.881,8.321,0.00040999998,-0.00051,0.88651
54.125,2000,0,91.24,0.000002697398,0.000002697398,0.000002697398,0.99999994,0,0,0,0,0,0,0,1,0,0,0,false,false,true,-238.14,-4414.23,17.01,-0.0044965623,-0.0015725831,0.94364834,-0.33091536,-129.561,92.230995,8.321,0.00040999998,-0.00051,0.88221
54.133335,2000,0,91.24,0.000002697398,0.000002697398,0.000002697398,0.99999994,0,0,0,0,0,0,0,1,0,0,0,false,false,true,-239.22,-4413.46,17.01,-0.004491167,-0.0015887674,0.94242465,-0.33438417,-128.901,91.590996,8.321,0.00040999998,-0.00051,0.87801
54.141666,2000,0,91.24,0.000002697398,0.000002697398,0.000002697398,0.99999994,0,0,0,0,0,0,0,1,0,0,0,false,false,true,-240.29,-4412.6997,17.01,-0.004485773,-0.0016049518,0.9411945,-0.33783153,-128.241,90.971,8.321,0.00051,-0.00040999998,0.87391
54.15,2000,0,91.24,0.000002697398,0.000002697398,0.000002697398,0.99999994,0,0,0,0,0,0,0,1,0,0,0,false,false,true,-241.36,-4411.94,17.01,-0.0044803782,-0.0016211362,0.9399578,-0.3412572,-127.58099,90.361,8.321,0.00051,-0.00040999998,0.86991
54.158333,2000,0,91.24,0.000002697398,0.000002697398,0.000002697398,0.99999994,0,0,0,0,0,0,0,1,0,0,0,false,false,true,-242.42,-4411.19,17.01,-0.004474983,-0.0016373206,0.9387149,-0.34466133,-126.931,89.760994,8.321,0.00051,-0.00040999998,0.86601
54.166668,2000,0,91.24,0.000002697398,0.000002697398,0.000002697398,0.99999994,0,0,0,0,0,0,0,1,0,0,0,false,false,true,-243.48,-4410.44,17.01,-0.004469589,-0.0016535051,0.9374661,-0.34804395,-126.281,89.171,8.321,0.00051,-0.00040999998,0.86221
54.175,2000,0,91.24,0.000002697398,0.000002697398,0.000002697398,0.99999994,0,0,0,0,0,0,0,1,0,0,0,false,false,true,-244.53,-4409.6997,17.01,-0.0044641937,-0.0016696894,0.9362094,-0.35141027,-125.641,88.601,8.321,0.00051,-0.00040999998,0.85851
54.183334,2000,0,91.24,0.000002697398,0.000002697398,0.000002697398,0.99999994,0,0,0,0,0,0,0,1,0,0,0,false,false,true,-245.58,-4408.96,17.01,-0.0044587995,-0.001685874,0.9349471,-0.35475507,-125.001,88.041,8.321,0.00051,-0.00040999998,0.85491
54.191666,2000,0,91.24,0.000002697398,0.000002697398,0.000002697398,0.99999994,0,0,0,0,0,0,0,1,0,0,0,false,false,true,-246.62,-4408.23,17.01,-0.0044534043,-0.0017020582,0.9336773,-0.35808367,-124.361,87.491,8.321,0.00051,-0.00030999997,0.85141
54.2,2000,0,91.24,0.000002697398,0.000002697398,0.000002697398,0.99999994,0,0,0,0,0,0,0,1,0,0,0,false,false,true,-247.65999,-4407.5,17.01,-0.0044480097,-0.0017182427,0.93240017,-0.36139607,-123.730995,86.951,8.321,0.00051,-0.00030999997,0.84801
54.208332,2000,0,91.24,0.000002697398,0.000002697398,0.000002697398,0.99999994,0,0,0,0,0,0,0,1,0,0,0,false,false,true,-248.68999,-4406.78,17.01,-0.0044426145,-0.001734427,0.93111795,-0.3646869,-123.101,86.421,8.321,0.00051,-0.00030999997,0.84471
54.216667,2000,0,91.24,0.000002697398,0.000002697398,0.000002697398,0.99999994,0,0,0,0,0,0,0,1,0,0,0,false,false,true,-249.72,-4406.06,17.01,-0.00443722,-0.0017506114,0.9298287,-0.3679616,-122.480995,85.910995,8.321,0.00051,-0.00030999997,0.84151
54.225,2000,0,91.24,0.000002697398,0.000002697398,0.000002697398,0.99999994,0,0,0,0,0,0,0,1,0,0,0,false,false,true,-250.73999,-4405.34,17.01,-0.0044318247,-0.0017667958,0.9285326,-0.37122005,-121.861,85.410995,8.321,0.00051,-0.00030999997,0.83841
54.233334,2000,0,91.24,0.000002697398,0.000002697398,0.000002697398,0.99999994,0,0,0,0,0,0,0,1,0,0,0,false,false,true,-251.76,-4404.63,17.01,-0.00442643,-0.0017829802,0.92722976,-0.37446234,-121.251,84.921,8.321,0.00051,-0.00030999997,0.83531
54.241665,2000,0,91.24,0.000002697398,0.000002697398,0.000002697398,0.99999994,0,0,0,0,0,0,0,1,0,0,0,false,false,true,-252.76999,-4403.92,17.01,-0.0044210353,-0.0017991646,0.92592037,-0.3776884,-120.641,84.440994,8.321,0.00051,-0.00030999997,0.83231
54.25,2000,0,91.24,0.000002697398,0.000002697398,0.000002697398,0.99999994,0,0,0,0,0,0,0,1,0,0,0,false,false,true,-253.78,-4403.2197,17.01,-0.0044156406,-0.0018153489,0.92460454,-0.38089833,-120.041,83.971,8.321,0.00051,-0.00021,0.82941
54.258335,2000,0,91.24,0.000002697398,0.000002697398,0.000002697398,0.99999994,0,0,0,0,0,0,0,1,0,0,0,false,false,true,-254.78,-4402.52,17.01,-0.0044102455,-0.0018315333,0.9232824,-0.38409206,-119.451,83.510994,8.321,0.00040999998,-0.00021,0.82660997
54.266666,2000,0,91.24,0.000002697398,0.000002697398,0.000002697398,0.99999994,0,0,0,0,0,0,0,1,0,0,0,false,false,true,-255.78,-4401.82,17.01,-0.0044048503,-0.0018477174,0.921954,-0.3872696,-118.861,83.071,8.321,0.00040999998,-0.00021,0.82391
54.275,2000,0,91.24,0.000002697398,0.000002697398,0.000002697398,0.99999994,0,0,0,0,0,0,0,1,0,0,0,false,false,true,-256.77,-4401.13,17.01,-0.004399456,-0.0018639021,0.9206197,-0.39043102,-118.281,82.641,8.321,0.00040999998,-0.00021,0.82120997
54.283333,2000,0,91.24,0.000002697398,0.000002697398,0.000002697398,0.99999994,0,0,0,0,0,0,0,1,0,0,0,false,false,true,-257.75998,-4400.44,17.01,-0.0043940614,-0.0018800865,0.9192795,-0.39357617,-117.701,82.211,8.321,0.00040999998,-0.00021,0.81851
54.291668,2000,0,91.24,0.000002697398,0.000002697398,0.000002697398,0.99999994,0,0,0,0,0,0,0,1,0,0,0,false,false,true,-258.74,-4399.75,17.01,-0.0043886667,-0.0018962709,0.91793126,-0.39671054,-117.120995,81.791,8.321,0.00030999997,-0.00021,0.81571
54.3,2000,0,91.24,0.000002697398,0.000002697398,0.000002697398,0.99999994,0,0,0,0,0,0,0,1,0,0,0,false,false,true,-259.72,-4399.07,17.01,-0.0043832716,-0.0019124552,0.91657734,-0.39982873,-116.541,81.370995,8.321,0.00030999997,-0.00021,0.81281
54.308334,2000,0,91.24,0.000002697398,0.000002697398,0.000002697398,0.99999994,0,0,0,0,0,0,0,1,0,0,0,false,false,true,-260.69,-4398.39,17.01,-0.004377877,-0.0019286396,0.9152179,-0.40293074,-115.961,80.961,8.321,0.00030999997,-0.00010999999,0.80991
54.316666,2000,0,91.24,0.000002697398,0.000002697398,0.000002697398,0.99999994,0,0,0,0,0,0,0,1,0,0,0,false,false,true,-261.66,-4397.7197,17.01,-0.0043724827,-0.0019448241,0.91385317,-0.4060166,-115.370995,80.550995,8.321,0.00021,-0.00010999999,0.80711
54.325,2000,0,91.24,0.000002697398,0.000002697398,0.000002697398,0.99999994,0,0,0,0,0,0,0,1,0,0,0,false,false,true,-262.62,-4397.05,17.01,-0.004367088,-0.0019610086,0.9124831,-0.4090863,-114.781,80.141,8.321,0.00021,-0.00010999999,0.80430996
54.333332,2000,0,91.24,0.000002697398,0.000002697398,0.000002697398,0.99999994,0,0,0,0,0,0,0,1,0,0,0,false,false,true,-263.58,-4396.38,17.01,-0.004361692,-0.0019771925,0.9111079,-0.4121397,-114.190994,79.741,8.321,0.00010999999,-0.00010999999,0.80161
54.341667,2000,0,91.24,0.000002697398,0.000002697398,0.000002697398,0.99999994,0,0,0,0,0,0,0,1,0,0,0,false,false,true,-264.53,-4395.7197,17.01,-0.0043562977,-0.001993377,0.9097255,-0.4151824,-113.590996,79.340996,8.321,0.00010999999,-0.00010999999,0.79901
54.35,2000,0,91.24,0.000002697398,0.000002697398,0.000002697398,0.99999994,0,0,0,0,0,0,0,1,0,0,0,false,false,true,-265.47998,-4395.06,17.01,-0.0043509034,-0.0020095618,0.9083382,-0.41820893,-112.991,78.951,8.321,0.00010999999,-0.00010999999,0.79640996
54.358334,2000,0,91.24,0.000002697398,0.000002697398,0.000002697398,0.99999994,0,0,0,0,0,0,0,1,0,0,0,false,false,true,-266.41998,-4394.4,17.01,-0.0043455083,-0.0020257458,0.9069461,-0.4212192,-112.381,78.561,8.321,0,-0.00010999999,0.79390997
54.366665,2000,0,91.24,0.000002697398,0.000002697398,0.000002697398,0.99999994,0,0,0,0,0,0,0,1,0,0,0,false,false,true,-267.36,-4393.7397,17.01,-0.004340113,-0.0020419303,0.905547,-0.42421868,-111.770996,78.171,8.321,0,-0.00010999999,0.79151
54.375,2000,0,91.24,0.000002697398,0.000002697398,0.000002697398,0.99999994,0,0,0,0,0,0,0,1,0,0,0,false,false,true,-268.29,-4393.09,17.01,-0.004334718,-0.0020581144,0.90414333,-0.42720196,-111.160995,77.791,8.321,0,-0.00010999999,0.78911
54.383335,2000,0,91.24,0.000002697398,0.000002697398,0.000002697398,0.99999994,0,0,0,0,0,0,0,1,0,0,0,false,false,true,-269.22,-4392.44,17.01,-0.0043293233,-0.0020742987,0.9027328,-0.43017453,-110.541,77.410995,8.321,0,-0.00010999999,0.78681
54.391666,2000,0,91.24,0.000002697398,0.000002697398,0.000002697398,0.99999994,0,0,0,0,0,0,0,1,0,0,0,false,false,true,-270.13998,-4391.79,17.01,-0.004323929,-0.0020904834,0.90131813,-0.43313095,-109.921,77.041,8.321,0,0,0.78451
54.4,2000,0,91.24,0.000002697398,0.000002697398,0.000002697398,0.99999994,0,0,0,0,0,0,0,1,0,0,0,false,false,true,-271.06,-4391.15,17.01,-0.004318534,-0.0021066677,0.8998967,-0.43607655,-109.300995,76.671,8.321,0,0,0.78231
54.408333,2000,0,91.24,0.000002697398,0.000002697398,0.000002697398,0.99999994,0,0,0,0,0,0,0,1,0,0,0,false,false,true,-271.97,-4390.51,17.01,-0.0043131392,-0.0021228523,0.89847124,-0.4390059,-108.681,76.311,8.321,-0.00010999999,0,0.78011
54.416668,2000,0,91.24,0.000002697398,0.000002697398,0.000002697398,0.99999994,0,0,0,0,0,0,0,1,0,0,0,false,false,true,-272.88,-4389.87,17.01,-0.0043077446,-0.0021390365,0.8970393,-0.4419245,-108.050995,75.951,8.321,-0.00010999999,0,0.77801
