time,ball_loc_x,ball_loc_y,ball_loc_z,ball_rot_x,ball_rot_y,ball_rot_z,ball_rot_w,ball_vel_x,ball_vel_y,ball_vel_z,ball_ang_x,ball_ang_y,ball_ang_z,player0_throttle,player0_steer,player0_pitch,player0_yaw,player0_roll,player0_jump,player0_boost,player0_handbrake,player0_loc_x,player0_loc_y,player0_loc_z,player0_rot_x,player0_rot_y,player0_rot_z,player0_rot_w,player0_vel_x,player0_vel_y,player0_vel_z,player0_ang_x,player0_ang_y,player0_ang_z
281.61667,2000,0,91.24,0.000002697398,0.000002697398,0.000002697398,0.99999994,0,0,0,0,0,0,0,0,0,0,0,false,false,false,0,0.16,17,-0.00336905,0.0033798397,0.7071014,0.7070959,0,0.011,8.431,-0.00051,0,0
281.625,2000,0,73,0.000002697398,0.000002697398,0.000002697398,0.99999994,0,0,0,0,0,0,1,0,0,0,0,false,true,false,0,0.07,16.94,0.0000026973983,0.0000026973983,0.70710677,0.70710677,0,21.521,2.041,-0.050809998,0,0
281.63333,2000,0,87.6,0.000002697398,0.000002697398,0.000002697398,0.99999994,0,0,0,0,0,0,1,0,0,0,0,false,true,false,0,0.32,16.89,-0.00014835689,0.00015375168,0.7071067,0.7071067,0,42.861,3.8809998,-0.085609995,0,0
281.64166,2000,0,90.52,0.000002697398,0.000002697398,0.000002697398,0.99999994,0,0,0,0,0,0,1,0,0,0,0,false,true,false,0,0.75,16.85,-0.00040191234,0.00040730715,0.70710653,0.70710677,0,64.011,5.481,-0.107209995,0,0
281.65,2000,0,91.1,0.000002697398,0.000002697398,0.000002697398,0.99999994,0,0,0,0,0,0,1,0,0,0,0,false,true,false,0,1.35,16.83,-0.00072020525,0.00072560005,0.7071067,0.707106,0,84.980995,6.7809997,-0.11630999,0,0
281.65833,2000,0,91.22,0.000002697398,0.000002697398,0.000002697398,0.99999994,0,0,0,0,0,0,1,0,0,0,0,false,true,false,0,2.1299999,16.82,-0.0010654721,0.001070867,0.70710516,0.7071067,0,105.770996,7.7209997,-0.114609994,0,0
281.66666,2000,0,91.24,0.000002697398,0.000002697398,0.000002697398,0.99999994,0,0,0,0,0,0,1,0,0,0,0,false,true,false,0,3.08,16.82,-0.0014053443,0.0014107391,0.7071067,0.70710397,0,126.391,8.401,-0.10651,0,0
281.675,2000,0,91.24,0.000002697398,0.000002697398,0.000002697398,0.99999994,0,0,0,0,0,0,1,0,0,0,0,false,true,false,0,4.2,16.82,-0.0017182427,0.0017236375,0.707108,0.70710135,0,146.83101,8.8810005,-0.09501,0,0
281.68332,2000,0,91.24,0.000002697398,0.000002697398,0.000002697398,0.99999994,0,0,0,0,0,0,1,0,0,0,0,false,true,false,0,5.49,16.83,-0.001998772,0.0020041666,0.70710653,0.7071013,0,167.091,9.231,-0.08221,0,0
281.69168,2000,0,91.24,0.000002697398,0.000002697398,0.000002697398,0.99999994,0,0,0,0,0,0,1,0,0,0,0,false,true,false,0,6.95,16.84,-0.0022415377,0.0022469326,0.70710504,0.7071013,0,187.181,9.451,-0.069409996,0,0
281.7,2000,0,91.24,0.000002697398,0.000002697398,0.000002697398,0.99999994,0,0,0,0,0,0,1,0,0,0,0,false,true,false,0,8.58,16.85,-0.00244654,0.0024519349,0.70710367,0.7071013,0,207.101,9.591001,-0.057309996,0,0
281.70834,2000,0,91.24,0.000002697398,0.000002697398,0.000002697398,0.99999994,0,0,0,0,0,0,1,0,0,0,0,false,true,false,0,10.37,16.859999,-0.0026137787,0.0026191734,0.7071025,0.7071013,0,226.851,9.6710005,-0.046509996,0,0
281.71667,2000,0,91.24,0.000002697398,0.000002697398,0.000002697398,0.99999994,0,0,0,0,0,0,1,0,0,0,0,false,true,false,0,12.33,16.869999,-0.0027486486,0.0027540433,0.70710146,0.7071013,0,246.431,9.711,-0.037109997,0,0
281.725,2000,0,91.24,0.000002697398,0.000002697398,0.000002697398,0.99999994,0,0,0,0,0,0,1,0,0,0,0,false,true,false,0,14.45,16.88,-0.0028565445,0.0028619394,0.70710063,0.7071013,0,265.841,9.721,-0.02911,0,0
281.73334,2000,0,91.24,0.000002697398,0.000002697398,0.000002697398,0.99999994,0,0,0,0,0,0,1,0,0,0,0,false,true,false,0,16.73,16.89,-0.0029428613,0.002948256,0.7071013,0.7070999,0,285.081,9.701,-0.02261,0,0
281.74167,2000,0,91.24,0.000002697398,0.000002697398,0.000002697398,0.99999994,0,0,0,0,0,0,1,0,0,0,0,false,true,false,0,19.17,16.9,-0.003007599,0.0030129936,0.7070993,0.7071013,0,304.161,9.641,-0.01791,0,0
281.75,2000,0,91.24,0.000002697398,0.000002697398,0.000002697398,0.99999994,0,0,0,0,0,0,1,0,0,0,0,false,true,false,0,21.77,16.91,-0.0030615467,0.0030669416,0.7071013,0.7070989,0,323.081,9.561,-0.014409999,0,0
281.75833,2000,0,91.24,0.000002697398,0.000002697398,0.000002697398,0.99999994,0,0,0,0,0,0,1,0,0,0,0,false,true,false,0,24.529999,16.92,-0.0031047051,0.0031101,0.7070985,0.7071013,0,341.831,9.471,-0.011809999,0,0
281.76666,2000,0,91.24,0.000002697398,0.000002697398,0.000002697398,0.99999994,0,0,0,0,0,0,1,0,0,0,0,false,true,false,0,27.449999,16.93,-0.003137074,0.0031424686,0.7070959,0.7071036,0,360.421,9.371,-0.00981,0,0
281.775,2000,0,91.24,0.000002697398,0.000002697398,0.000002697398,0.99999994,0,0,0,0,0,0,1,0,0,0,0,false,true,false,0,30.519999,16.94,-0.003164048,0.003169443,0.707096,0.7071034,0,378.851,9.271,-0.0083099995,0,0
281.78333,2000,0,91.24,0.000002697398,0.000002697398,0.000002697398,0.99999994,0,0,0,0,0,0,1,0,0,0,0,false,true,false,0,33.75,16.949999,-0.003191022,0.0031964167,0.7070959,0.70710313,0,397.131,9.161,-0.00711,0,0
281.79166,2000,0,91.24,0.000002697398,0.000002697398,0.000002697398,0.99999994,0,0,0,0,0,0,1,0,0,0,0,false,true,false,0,37.13,16.96,-0.0032126014,0.003217996,0.707096,0.70710295,0,415.251,9.051001,-0.00611,0,0
281.8,2000,0,91.24,0.000002697398,0.000002697398,0.000002697398,0.99999994,0,0,0,0,0,0,1,0,0,0,0,false,true,false,0,40.66,16.97,-0.0032287855,0.0032341804,0.7070959,0.7071028,0,433.211,8.941,-0.00521,0,0
281.80832,2000,0,91.24,0.000002697398,0.000002697398,0.000002697398,0.99999994,0,0,0,0,0,0,1,0,0,0,0,false,true,false,0,44.34,16.98,-0.00324497,0.003250365,0.707096,0.70710266,0,451.021,8.831,-0.00451,0,0
281.81668,2000,0,91.24,0.000002697398,0.000002697398,0.000002697398,0.99999994,0,0,0,0,0,0,1,0,0,0,0,false,true,false,0,48.17,16.99,-0.0032557594,0.0032611543,0.7070959,0.70710254,0,468.681,8.721001,-0.00391,0,0
281.825,2000,0,91.24,0.000002697398,0.000002697398,0.000002697398,0.99999994,0,0,0,0,0,0,1,0,0,0,0,false,true,false,0,52.14,16.99,-0.003266549,0.003271944,0.7070959,0.7071024,0,486.191,8.601,-0.00341,0,0
281.83334,2000,0,91.24,0.000002697398,0.000002697398,0.000002697398,0.99999994,0,0,0,0,0,0,1,0,0,0,0,false,true,false,0,56.26,16.99,-0.0032773386,0.0032827335,0.7070959,0.7071023,0,503.541,8.531,-0.00301,0,0
281.84167,2000,0,91.24,0.000002697398,0.000002697398,0.000002697398,0.99999994,0,0,0,0,0,0,1,0,0,0,0,false,true,false,0,60.53,16.99,-0.0032881282,0.003293523,0.7070959,0.70710224,0,520.751,8.481,-0.00271,0,0
281.85,2000,0,91.24,0.000002697398,0.000002697398,0.000002697398,0.99999994,0,0,0,0,0,0,1,0,0,0,0,false,true,false,0,64.939995,16.99,-0.0032935233,0.003298918,0.707096,0.7071022,0,537.811,8.451,-0.00241,0,0
281.85834,2000,0,91.24,0.000002697398,0.000002697398,0.000002697398,0.99999994,0,0,0,0,0,0,1,0,0,0,0,false,true,false,0,69.49,16.99,-0.0032989178,0.0033043127,0.7070959,0.7071021,0,554.72095,8.431,-0.00211,0,0
281.86667,2000,0,91.24,0.000002697398,0.000002697398,0.000002697398,0.99999994,0,0,0,0,0,0,1,0,0,0,0,false,true,false,0,74.18,16.99,-0.0033043127,0.0033097074,0.7070959,0.70710206,0,571.49097,8.4210005,-0.0019099999,0,0
281.875,2000,0,91.24,0.000002697398,0.000002697398,0.000002697398,0.99999994,0,0,0,0,0,0,1,0,0,0,0,false,true,false,0,79.009995,16.99,-0.0033097074,0.0033151023,0.7070959,0.707102,0,588.11096,8.411,-0.0017099999,0,0
281.88333,2000,0,91.24,0.000002697398,0.000002697398,0.000002697398,0.99999994,0,0,0,0,0,0,1,0,0,0,0,false,true,false,0,83.979996,16.99,-0.0033151023,0.003320497,0.7070959,0.707102,0,604.59094,8.411,-0.00151,0,0
281.89166,2000,0,91.24,0.000002697398,0.000002697398,0.000002697398,0.99999994,0,0,0,0,0,0,1,0,0,0,0,false,true,false,0,89.09,16.99,-0.0033204972,0.0033258921,0.707096,0.70710194,0,620.93097,8.411,-0.0014099999,0,0
281.9,2000,0,91.24,0.000002697398,0.000002697398,0.000002697398,0.99999994,0,0,0,0,0,0,1,0,0,0,0,false,true,false,0,94.329994,16.99,-0.003325892,0.0033312866,0.7070959,0.7071019,0,637.131,8.411,-0.0012099999,0,0
281.90833,2000,0,91.24,0.000002697398,0.000002697398,0.000002697398,0.99999994,0,0,0,0,0,0,1,0,0,0,0,false,true,false,0,99.71,16.99,-0.0033312866,0.0033366815,0.7070959,0.7071018,0,653.191,8.411,-0.00111,0,0
281.91666,2000,0,91.24,0.000002697398,0.000002697398,0.000002697398,0.99999994,0,0,0,0,0,0,1,0,0,0,0,false,true,false,0,105.22,16.99,-0.0033366815,0.0033420762,0.7070959,0.70710176,0,669.11096,8.411,-0.00091,0,0
281.925,2000,0,91.24,0.000002697398,0.000002697398,0.000002697398,0.99999994,0,0,0,0,0,0,1,0,0,0,0,false,true,false,0,110.86,16.99,-0.0033366818,0.0033474711,0.707096,0.70710176,0,684.90094,8.411,-0.00081,0,0
281.93332,2000,0,91.24,0.000002697398,0.000002697398,0.000002697398,0.99999994,0,0,0,0,0,0,1,0,0,0,0,false,true,false,0,116.64,16.99,-0.0033366818,0.0033474711,0.707096,0.70710176,0,700.55096,8.411,-0.00071,0,0
281.94168,2000,0,91.24,0.000002697398,0.000002697398,0.000002697398,0.99999994,0,0,0,0,0,0,1,0,0,0,0,false,true,false,0,122.549995,16.99,-0.0033366818,0.0033474711,0.707096,0.70710176,0,716.071,8.411,-0.00061,0,0
281.95,2000,0,91.24,0.000002697398,0.000002697398,0.000002697398,0.99999994,0,0,0,0,0,0,1,0,0,0,0,false,true,false,0,128.59,16.99,-0.0033366818,0.0033474711,0.707096,0.70710176,0,731.451,8.411,-0.00061,0,0
281.95834,2000,0,91.24,0.000002697398,0.000002697398,0.000002697398,0.99999994,0,0,0,0,0,0,1,0,0,0,0,false,true,false,0,134.75,16.99,-0.0033366818,0.0033474711,0.707096,0.70710176,0,746.701,8.411,-0.00061,0,0
281.96667,2000,0,91.24,0.000002697398,0.000002697398,0.000002697398,0.99999994,0,0,0,0,0,0,1,0,0,0,0,false,true,false,0,141.04,16.99,-0.0033366818,0.0033474711,0.707096,0.70710176,0,761.821,8.411,-0.00061,0,0
281.975,2000,0,91.24,0.000002697398,0.000002697398,0.000002697398,0.99999994,0,0,0,0,0,0,1,0,0,0,0,false,true,false,0,147.45999,16.99,-0.0033366818,0.0033474711,0.707096,0.70710176,0,776.811,8.411,-0.00061,0,0
281.98334,2000,0,91.24,0.000002697398,0.000002697398,0.000002697398,0.99999994,0,0,0,0,0,0,1,0,0,0,0,false,true,false,0,154,16.99,-0.0033366818,0.0033474711,0.707096,0.70710176,0,791.67096,8.411,-0.00061,0,0
281.99167,2000,0,91.24,0.000002697398,0.000002697398,0.000002697398,0.99999994,0,0,0,0,0,0,1,0,0,0,0,false,true,false,0,160.67,16.99,-0.0033366818,0.0033474711,0.707096,0.70710176,0,806.41095,8.411,-0.00061,0,0
282,2000,0,91.24,0.000002697398,0.000002697398,0.000002697398,0.99999994,0,0,0,0,0,0,1,0,0,0,0,false,true,false,0,167.45999,16.99,-0.0033366818,0.0033474711,0.707096,0.70710176,0,821.02094,8.411,-0.00061,0,0
282.00833,2000,0,91.24,0.000002697398,0.000002697398,0.000002697398,0.99999994,0,0,0,0,0,0,1,0,0,0,0,false,true,false,0,174.37,16.99,-0.0033366818,0.0033474711,0.707096,0.70710176,0,835.501,8.411,-0.00061,0,0
282.01666,2000,0,91.24,0.000002697398,0.000002697398,0.000002697398,0.99999994,0,0,0,0,0,0,1,0,0,0,0,false,true,false,0,181.4,16.99,-0.0033366818,0.0033474711,0.707096,0.70710176,0,849.86096,8.411,-0.00071,0,0
282.025,2000,0,91.24,0.000002697398,0.000002697398,0.000002697398,0.99999994,0,0,0,0,0,0,1,0,0,0,0,false,true,false,0,188.55,16.99,-0.0033366818,0.0033474711,0.707096,0.70710176,0,864.10095,8.411,-0.00071,0,0
282.03333,2000,0,91.24,0.000002697398,0.000002697398,0.000002697398,0.99999994,0,0,0,0,0,0,1,0,0,0,0,false,true,false,0,195.81999,16.99,-0.0033366818,0.0033474711,0.707096,0.70710176,0,878.22095,8.411,-0.00071,0,0
282.04166,2000,0,91.24,0.000002697398,0.000002697398,0.000002697398,0.99999994,0,0,0,0,0,0,1,0,0,0,0,false,true,false,0,203.20999,16.99,-0.0033366818,0.0033474711,0.707096,0.70710176,0,892.21094,8.411,-0.00071,0,0
282.05,2000,0,91.24,0.000002697398,0.000002697398,0.000002697398,0.99999994,0,0,0,0,0,0,1,0,0,0,0,false,true,false,0,210.70999,16.99,-0.0033366818,0.0033474711,0.707096,0.70710176,0,906.08093,8.411,-0.00071,0,0
282.05832,2000,0,91.24,0.000002697398,0.000002697398,0.000002697398,0.99999994,0,0,0,0,0,0,1,0,0,0,0,false,true,false,0,218.33,16.99,-0.0033366818,0.0033474711,0.707096,0.70710176,0,919.84094,8.411,-0.00071,0,0
282.06668,2000,0,91.24,0.000002697398,0.000002697398,0.000002697398,0.99999994,0,0,0,0,0,0,1,0,0,0,0,false,true,false,0,226.06,16.99,-0.0033366818,0.0033474711,0.707096,0.70710176,0,933.48096,8.411,-0.00081,0,0
282.075,2000,0,91.24,0.000002697398,0.000002697398,0.000002697398,0.99999994,0,0,0,0,0,0,1,0,0,0,0,false,true,false,0,233.90999,16.99,-0.0033366818,0.0033474711,0.707096,0.70710176,0,947.001,8.411,-0.00081,0,0
282.08334,2000,0,91.24,0.000002697398,0.000002697398,0.000002697398,0.99999994,0,0,0,0,0,0,1,0,0,0,0,false,true,false,0,241.87,16.99,-0.0033366818,0.0033474711,0.707096,0.70710176,0,960.41095,8.411,-0.00081,0,0
282.09167,2000,0,91.24,0.000002697398,0.000002697398,0.000002697398,0.99999994,0,0,0,0,0,0,1,0,0,0,0,false,true,false,0,249.93999,16.99,-0.0033366818,0.0033474711,0.707096,0.70710176,0,973.7009,8.411,-0.00081,0,0
282.1,2000,0,91.24,0.000002697398,0.000002697398,0.000002697398,0.99999994,0,0,0,0,0,0,1,0,0,0,0,false,true,false,0,258.12,16.99,-0.0033366818,0.0033474711,0.707096,0.70710176,0,986.881,8.411,-0.00081,0,0
282.10834,2000,0,91.24,0.000002697398,0.000002697398,0.000002697398,0.99999994,0,0,0,0,0,0,1,0,0,0,0,false,true,false,0,266.41,16.99,-0.0033366818,0.0033474711,0.707096,0.70710176,0,999.941,8.411,-0.00081,0,0
282.11667,2000,0,91.24,0.000002697398,0.000002697398,0.000002697398,0.99999994,0,0,0,0,0,0,1,0,0,0,0,false,true,false,0,274.81,16.99,-0.0033366818,0.0033474711,0.707096,0.70710176,0,1012.8909,8.411,-0.00081,0,0
282.125,2000,0,91.24,0.000002697398,0.000002697398,0.000002697398,0.99999994,0,0,0,0,0,0,1,0,0,0,0,false,true,false,0,283.32,16.99,-0.0033366818,0.0033474711,0.707096,0.70710176,0,1025.731,8.411,-0.00091,0,0
282.13333,2000,0,91.24,0.000002697398,0.000002697398,0.000002697398,0.99999994,0,0,0,0,0,0,1,0,0,0,0,false,true,false,0,291.94,16.99,-0.0033366815,0.0033528658,0.7070959,0.7071017,0,1038.4609,8.411,-0.00091,0,0
282.14166,2000,0,91.24,0.000002697398,0.000002697398,0.000002697398,0.99999994,0,0,0,0,0,0,1,0,0,0,0,false,true,false,0,300.66,16.99,-0.0033366815,0.0033582605,0.7070959,0.7071017,0,1051.0809,8.411,-0.00091,0,0
282.15,2000,0,91.24,0.000002697398,0.000002697398,0.000002697398,0.99999994,0,0,0,0,0,0,1,0,0,0,0,false,true,false,0,309.49,16.99,-0.0033366815,0.0033636554,0.7070959,0.70710164,0,1063.591,8.411,-0.00081,-0.00010999999,0
282.15833,2000,0,91.24,0.000002697398,0.000002697398,0.000002697398,0.99999994,0,0,0,0,0,0,1,0,0,0,0,false,true,false,0,318.41998,16.99,-0.0033366815,0.0033636554,0.7070959,0.70710164,0,1076.001,8.411,-0.00081,-0.00021,0
282.16666,2000,0,91.24,0.000002697398,0.000002697398,0.000002697398,0.99999994,0,0,0,0,0,0,1,0,0,0,0,false,true,false,0,327.46,16.99,-0.0033420762,0.0033636554,0.7070959,0.70710164,0,1088.3009,8.411,-0.00081,-0.00021,0
282.175,2000,0,91.24,0.000002697398,0.000002697398,0.000002697398,0.99999994,0,0,0,0,0,0,1,0,0,0,0,false,true,false,0,336.6,16.99,-0.0033474711,0.0033636556,0.707096,0.70710164,0,1100.491,8.411,-0.00071,-0.00021,0
282.18332,2000,0,91.24,0.000002697398,0.000002697398,0.000002697398,0.99999994,0,0,0,0,0,0,1,0,0,0,0,false,true,false,0,345.84,16.99,-0.0033474711,0.0033636556,0.707096,0.70710164,0,1112.5809,8.411,-0.00061,-0.00021,0
282.19168,2000,0,91.24,0.000002697398,0.000002697398,0.000002697398,0.99999994,0,0,0,0,0,0,1,0,0,0,0,false,true,false,0,355.18,16.99,-0.0033474711,0.0033636556,0.707096,0.70710164,0,1124.5709,8.411,-0.00061,-0.00021,0
282.2,2000,0,91.24,0.000002697398,0.000002697398,0.000002697398,0.99999994,0,0,0,0,0,0,1,0,0,0,0,false,true,false,0,364.62,16.99,-0.0033474711,0.0033636556,0.707096,0.70710164,0,1136.4509,8.411,-0.00061,-0.00021,0
282.20834,2000,0,91.24,0.000002697398,0.000002697398,0.000002697398,0.99999994,0,0,0,0,0,0,1,0,0,0,0,false,true,false,0,374.16,16.99,-0.0033474711,0.0033636556,0.707096,0.70710164,0,1148.231,8.411,-0.00061,-0.00021,0
282.21667,2000,0,91.24,0.000002697398,0.000002697398,0.000002697398,0.99999994,0,0,0,0,0,0,1,0,0,0,0,false,true,false,0,383.8,16.99,-0.0033474711,0.0033636556,0.707096,0.70710164,0,1159.911,8.411,-0.00061,-0.00021,0
282.225,2000,0,91.24,0.000002697398,0.000002697398,0.000002697398,0.99999994,0,0,0,0,0,0,1,0,0,0,0,false,true,false,0,393.53,16.99,-0.0033474711,0.0033636556,0.707096,0.70710164,0,1171.491,8.411,-0.00061,-0.00021,0
282.23334,2000,0,91.24,0.000002697398,0.000002697398,0.000002697398,0.99999994,0,0,0,0,0,0,1,0,0,0,0,false,true,false,0,403.36,16.99,-0.0033474711,0.0033636556,0.707096,0.70710164,0,1182.971,8.411,-0.00061,-0.00021,0
282.24167,2000,0,91.24,0.000002697398,0.000002697398,0.000002697398,0.99999994,0,0,0,0,0,0,1,0,0,0,0,false,true,false,0,413.28998,16.99,-0.0033474711,0.0033636556,0.707096,0.70710164,0,1194.351,8.411,-0.00061,-0.00021,0
282.25,2000,0,91.24,0.000002697398,0.000002697398,0.000002697398,0.99999994,0,0,0,0,0,0,1,0,0,0,0,false,true,false,0,423.31,16.99,-0.0033474711,0.0033636556,0.707096,0.70710164,0,1205.641,8.411,-0.00061,-0.00021,0
282.25833,2000,0,91.24,0.000002697398,0.000002697398,0.000002697398,0.99999994,0,0,0,0,0,0,1,0,0,0,0,false,true,false,0,433.43,16.99,-0.0033474711,0.0033636556,0.707096,0.70710164,0,1216.8309,8.411,-0.00061,-0.00021,0
282.26666,2000,0,91.24,0.000002697398,0.000002697398,0.000002697398,0.99999994,0,0,0,0,0,0,1,0,0,0,0,false,true,false,0,443.63998,16.99,-0.0033474711,0.0033636556,0.707096,0.70710164,0,1227.9209,8.411,-0.00071,-0.00021,0
282.275,2000,0,91.24,0.000002697398,0.000002697398,0.000002697398,0.99999994,0,0,0,0,0,0,1,0,0,0,0,false,true,false,0,453.94,16.99,-0.0033474711,0.0033636556,0.707096,0.70710164,0,1238.9209,8.411,-0.00071,-0.00021,0
282.28333,2000,0,91.24,0.000002697398,0.000002697398,0.000002697398,0.99999994,0,0,0,0,0,0,1,0,0,0,0,false,true,false,0,464.33,16.99,-0.0033474711,0.0033636556,0.707096,0.70710164,0,1249.8209,8.411,-0.00071,-0.00021,0
282.29166,2000,0,91.24,0.000002697398,0.000002697398,0.000002697398,0.99999994,0,0,0,0,0,0,1,0,0,0,0,false,true,false,0,474.81,16.99,-0.0033474711,0.0033636556,0.707096,0.70710164,0,1260.631,8.411,-0.00071,-0.00021,0
282.3,2000,0,91.24,0.000002697398,0.000002697398,0.000002697398,0.99999994,0,0,0,0,0,0,1,0,0,0,0,false,true,false,0,485.37997,16.99,-0.0033474711,0.0033636556,0.707096,0.70710164,0,1271.351,8.411,-0.00071,-0.00021,0
282.30832,2000,0,91.24,0.000002697398,0.000002697398,0.000002697398,0.99999994,0,0,0,0,0,0,1,0,0,0,0,false,true,false,0,496.03998,16.99,-0.0033474711,0.0033636556,0.707096,0.70710164,0,1281.981,8.411,-0.00071,-0.00021,0
282.31668,2000,0,91.24,0.000002697398,0.000002697398,0.000002697398,0.99999994,0,0,0,0,0,0,1,0,0,0,0,false,true,false,0,506.78998,16.99,-0.0033474711,0.0033636556,0.707096,0.70710164,0,1292.511,8.411,-0.00071,-0.00021,0
282.325,2000,0,91.24,0.000002697398,0.000002697398,0.000002697398,0.99999994,0,0,0,0,0,0,1,0,0,0,0,false,true,false,0,517.63,16.99,-0.0033474711,0.0033636556,0.707096,0.70710164,0,1302.9509,8.411,-0.00071,-0.00021,0
282.33334,2000,0,91.24,0.000002697398,0.000002697398,0.000002697398,0.99999994,0,0,0,0,0,0,1,0,0,0,0,false,true,false,0,528.56,16.99,-0.0033474711,0.0033636556,0.707096,0.70710164,0,1313.3009,8.411,-0.00081,-0.00021,0
282.34167,2000,0,91.24,0.000002697398,0.000002697398,0.000002697398,0.99999994,0,0,0,0,0,0,1,0,0,0,0,false,true,false,0,539.57,16.99,-0.0033528658,0.0033636554,0.7070959,0.7071016,0,1323.5709,8.411,-0.00081,-0.00021,0
282.35,2000,0,91.24,0.000002697398,0.000002697398,0.000002697398,0.99999994,0,0,0,0,0,0,1,0,0,0,0,false,true,false,0,550.67,16.99,-0.0033582605,0.0033636554,0.7070959,0.7071016,0,1333.751,8.411,-0.00081,-0.00010999999,0
282.35834,2000,0,91.24,0.000002697398,0.000002697398,0.000002697398,0.99999994,0,0,0,0,0,0,1,0,0,0,0,false,true,false,0,561.85,16.99,-0.0033582605,0.0033636554,0.7070959,0.7071016,0,1343.841,8.411,-0.00071,0,0
282.36667,2000,0,91.24,0.000002697398,0.000002697398,0.000002697398,0.99999994,0,0,0,0,0,0,1,0,0,0,0,false,true,false,0,573.12,16.99,-0.0033582605,0.0033636554,0.7070959,0.7071016,0,1353.841,8.411,-0.00071,0,0
282.375,2000,0,91.24,0.000002697398,0.000002697398,0.000002697398,0.99999994,0,0,0,0,0,0,1,0,0,0,0,false,true,false,0,584.47,16.99,-0.0033582605,0.0033636554,0.7070959,0.7071016,0,1363.761,8.411,-0.00071,0,0
282.38333,2000,0,91.24,0.000002697398,0.000002697398,0.000002697398,0.99999994,0,0,0,0,0,0,1,0,0,0,0,false,true,false,0,595.89996,16.99,-0.0033582605,0.0033636554,0.7070959,0.7071016,0,1373.591,8.411,-0.00071,0,0
282.39166,2000,0,91.24,0.000002697398,0.000002697398,0.000002697398,0.99999994,0,0,0,0,0,0,1,0,0,0,0,false,true,false,0,607.42,16.99,-0.0033582605,0.0033636554,0.7070959,0.7071016,0,1383.341,8.411,-0.00071,0,0
282.4,2000,0,91.24,0.000002697398,0.000002697398,0.000002697398,0.99999994,0,0,0,0,0,0,1,0,0,0,0,false,true,false,0,619.01996,16.99,-0.0033582605,0.0033636554,0.7070959,0.7071016,0,1393.011,8.411,-0.00071,0,0
282.40833,2000,0,91.24,0.000002697398,0.000002697398,0.000002697398,0.99999994,0,0,0,0,0,0,1,0,0,0,0,false,true,false,0,630.7,16.99,-0.0033582605,0.0033636554,0.7070959,0.7071016,0,1402.4409,8.411,-0.00071,0,0
282.41666,2000,0,91.24,0.000002697398,0.000002697398,0.000002697398,0.99999994,0,0,0,0,0,0,1,0,0,0,0,false,true,false,0,642.45996,16.99,-0.0033582605,0.0033636554,0.7070959,0.7071016,0,1410.7009,8.411,-0.00081,0,0
282.425,2000,0,91.24,0.000002697398,0.000002697398,0.000002697398,0.99999994,0,0,0,0,0,0,1,0,0,0,0,false,true,false,0,654.27997,16.99,-0.0033582605,0.0033636554,0.7070959,0.7071016,0,1418.9609,8.411,-0.00091,0,0
282.43332,2000,0,91.24,0.000002697398,0.000002697398,0.000002697398,0.99999994,0,0,0,0,0,0,1,0,0,0,0,false,true,false,0,666.17,16.99,-0.0033582605,0.00336905,0.7070959,0.7071016,0,1427.221,8.411,-0.00091,0,0
282.44168,2000,0,91.24,0.000002697398,0.000002697398,0.000002697398,0.99999994,0,0,0,0,0,0,1,0,0,0,0,false,true,false,0,678.13,16.99,-0.0033582605,0.003374445,0.7070959,0.7071015,0,1435.481,8.411,-0.00091,0,0
282.45,2000,0,91.24,0.000002697398,0.000002697398,0.000002697398,0.99999994,0,0,0,0,0,0,1,0,0,0,0,false,true,false,0,690.16,16.99,-0.0033582605,0.0033798397,0.7070959,0.70710146,0,1443.741,8.411,-0.00081,0,0
282.45834,2000,0,91.24,0.000002697398,0.000002697398,0.000002697398,0.99999994,0,0,0,0,0,0,1,0,0,0,0,false,true,false,0,702.26,16.99,-0.0033582605,0.0033798397,0.7070959,0.70710146,0,1452.001,8.411,-0.00071,-0.00010999999,0
282.46667,2000,0,91.24,0.000002697398,0.000002697398,0.000002697398,0.99999994,0,0,0,0,0,0,1,0,0,0,0,false,true,false,0,714.43,16.99,-0.0033582605,0.0033798397,0.7070959,0.70710146,0,1460.261,8.411,-0.00071,-0.00010999999,0
282.475,2000,0,91.24,0.000002697398,0.000002697398,0.000002697398,0.99999994,0,0,0,0,0,0,1,0,0,0,0,false,true,false,0,726.67,16.99,-0.0033582605,0.0033798397,0.7070959,0.70710146,0,1468.521,8.411,-0.00071,-0.00010999999,0
282.48334,2000,0,91.24,0.000002697398,0.000002697398,0.000002697398,0.99999994,0,0,0,0,0,0,1,0,0,0,0,false,true,false,0,738.98,16.99,-0.0033582605,0.0033798397,0.7070959,0.70710146,0,1476.7809,8.411,-0.00071,-0.00010999999,0
282.49167,2000,0,91.24,0.000002697398,0.000002697398,0.000002697398,0.99999994,0,0,0,0,0,0,1,0,0,0,0,false,true,false,0,751.36,16.99,-0.0033582605,0.0033798397,0.7070959,0.70710146,0,1485.0409,8.411,-0.00071,-0.00010999999,0
282.5,2000,0,91.24,0.000002697398,0.000002697398,0.000002697398,0.99999994,0,0,0,0,0,0,1,0,0,0,0,false,true,false,0,763.8,16.99,-0.0033582605,0.0033798397,0.7070959,0.70710146,0,1493.3009,8.411,-0.00071,-0.00010999999,0
282.50833,2000,0,91.24,0.000002697398,0.000002697398,0.000002697398,0.99999994,0,0,0,0,0,0,1,0,0,0,0,false,true,false,0,776.31,16.99,-0.0033582605,0.0033798397,0.7070959,0.70710146,0,1501.5609,8.411,-0.00071,-0.00010999999,0
282.51666,2000,0,91.24,0.000002697398,0.000002697398,0.000002697398,0.99999994,0,0,0,0,0,0,1,0,0,0,0,false,true,false,0,788.88995,16.99,-0.0033582605,0.0033798397,0.7070959,0.70710146,0,1509.8209,8.411,-0.00071,-0.00010999999,0
282.525,2000,0,91.24,0.000002697398,0.000002697398,0.000002697398,0.99999994,0,0,0,0,0,0,1,0,0,0,0,false,true,false,0,801.54,16.99,-0.0033582605,0.0033798397,0.7070959,0.70710146,0,1518.0809,8.411,-0.00071,-0.00010999999,0
282.53333,2000,0,91.24,0.000002697398,0.000002697398,0.000002697398,0.99999994,0,0,0,0,0,0,1,0,0,0,0,false,true,false,0,814.26,16.99,-0.0033582605,0.0033798397,0.7070959,0.70710146,0,1526.341,8.411,-0.00071,-0.00010999999,0
282.54166,2000,0,91.24,0.000002697398,0.000002697398,0.000002697398,0.99999994,0,0,0,0,0,0,1,0,0,0,0,false,true,false,0,827.05,16.99,-0.0033582605,0.0033798397,0.7070959,0.70710146,0,1534.601,8.411,-0.00071,-0.00010999999,0
282.55,2000,0,91.24,0.000002697398,0.000002697398,0.000002697398,0.99999994,0,0,0,0,0,0,1,0,0,0,0,false,true,false,0,839.91,16.99,-0.0033582605,0.0033798397,0.7070959,0.70710146,0,1542.861,8.411,-0.00071,-0.00010999999,0
282.55832,2000,0,91.24,0.000002697398,0.000002697398,0.000002697398,0.99999994,0,0,0,0,0,0,1,0,0,0,0,false,true,false,0,852.83997,16.99,-0.0033582605,0.0033798397,0.7070959,0.70710146,0,1551.121,8.411,-0.00071,-0.00010999999,0
282.56668,2000,0,91.24,0.000002697398,0.000002697398,0.000002697398,0.99999994,0,0,0,0,0,0,1,0,0,0,0,false,true,false,0,865.82996,16.99,-0.0033582605,0.0033798397,0.7070959,0.70710146,0,1559.381,8.411,-0.00071,-0.00010999999,0
282.575,2000,0,91.24,0.000002697398,0.000002697398,0.000002697398,0.99999994,0,0,0,0,0,0,1,0,0,0,0,false,true,false,0,878.88995,16.99,-0.0033582605,0.0033798397,0.7070959,0.70710146,0,1567.641,8.411,-0.00071,-0.00010999999,0
282.58334,2000,0,91.24,0.000002697398,0.000002697398,0.000002697398,0.99999994,0,0,0,0,0,0,1,0,0,0,0,false,true,false,0,892.01996,16.99,-0.0033582605,0.0033798397,0.7070959,0.70710146,0,1575.901,8.411,-0.00071,-0.00010999999,0
282.59167,2000,0,91.24,0.000002697398,0.000002697398,0.000002697398,0.99999994,0,0,0,0,0,0,1,0,0,0,0,false,true,false,0,905.22,16.99,-0.0033582605,0.0033798397,0.7070959,0.70710146,0,1584.1609,8.411,-0.00071,-0.00010999999,0
282.6,2000,0,91.24,0.000002697398,0.000002697398,0.000002697398,0.99999994,0,0,0,0,0,0,1,0,0,0,0,false,true,false,0,918.49,16.99,-0.0033582605,0.0033798397,0.7070959,0.70710146,0,1592.4209,8.411,-0.00071,-0.00010999999,0
282.60834,2000,0,91.24,0.000002697398,0.000002697398,0.000002697398,0.99999994,0,0,0,0,0,0,1,0,0,0,0,false,true,false,0,931.82996,16.99,-0.0033582605,0.0033798397,0.7070959,0.70710146,0,1600.6809,8.411,-0.00071,-0.00010999999,0
282.61667,2000,0,91.24,0.000002697398,0.000002697398,0.000002697398,0.99999994,0,0,0,0,0,0,1,0,0,0,0,false,true,false,0,945.24,16.99,-0.0033582605,0.0033798397,0.7070959,0.70710146,0,1608.9409,8.411,-0.00071,-0.00010999999,0
282.625,2000,0,91.24,0.000002697398,0.000002697398,0.000002697398,0.99999994,0,0,0,0,0,0,1,0,0,0,0,false,true,false,0,958.72,16.99,-0.0033582605,0.0033798397,0.7070959,0.70710146,0,1617.2009,8.411,-0.00071,-0.00010999999,0
282.63333,2000,0,91.24,0.000002697398,0.000002697398,0.000002697398,0.99999994,0,0,0,0,0,0,1,0,0,0,0,false,true,false,0,972.26996,16.99,-0.0033582605,0.0033798397,0.7070959,0.70710146,0,1625.4609,8.411,-0.00071,-0.00010999999,0
282.64166,2000,0,91.24,0.000002697398,0.000002697398,0.000002697398,0.99999994,0,0,0,0,0,0,1,0,0,0,0,false,true,false,0,985.88,16.99,-0.0033582605,0.0033798397,0.7070959,0.70710146,0,1633.721,8.411,-0.00071,-0.00010999999,0
282.65,2000,0,91.24,0.000002697398,0.000002697398,0.000002697398,0.99999994,0,0,0,0,0,0,1,0,0,0,0,false,true,false,0,999.56,16.99,-0.0033582605,0.0033798397,0.7070959,0.70710146,0,1641.981,8.411,-0.00071,-0.00010999999,0
282.65833,2000,0,91.24,0.000002697398,0.000002697398,0.000002697398,0.99999994,0,0,0,0,0,0,1,0,0,0,0,false,true,false,0,1013.31,16.99,-0.0033582605,0.0033798397,0.7070959,0.70710146,0,1650.241,8.411,-0.00071,-0.00010999999,0
282.66666,2000,0,91.24,0.000002697398,0.000002697398,0.000002697398,0.99999994,0,0,0,0,0,0,1,0,0,0,0,false,true,false,0,1027.13,16.99,-0.0033582605,0.0033798397,0.7070959,0.70710146,0,1658.501,8.411,-0.00071,-0.00010999999,0
282.675,2000,0,91.24,0.000002697398,0.000002697398,0.000002697398,0.99999994,0,0,0,0,0,0,1,0,0,0,0,false,true,false,0,1041.02,16.99,-0.0033582605,0.0033798397,0.7070959,0.70710146,0,1666.761,8.411,-0.00071,-0.00010999999,0
282.68332,2000,0,91.24,0.000002697398,0.000002697398,0.000002697398,0.99999994,0,0,0,0,0,0,1,0,0,0,0,false,true,false,0,1054.98,16.99,-0.0033582605,0.0033798397,0.7070959,0.70710146,0,1675.021,8.411,-0.00071,-0.00010999999,0
282.69168,2000,0,91.24,0.000002697398,0.000002697398,0.000002697398,0.99999994,0,0,0,0,0,0,1,0,0,0,0,false,true,false,0,1069.01,16.99,-0.0033582605,0.0033798397,0.7070959,0.70710146,0,1683.2809,8.411,-0.00071,-0.00010999999,0
282.7,2000,0,91.24,0.000002697398,0.000002697398,0.000002697398,0.99999994,0,0,0,0,0,0,1,0,0,0,0,false,true,false,0,1083.11,16.99,-0.0033582605,0.0033798397,0.7070959,0.70710146,0,1691.5409,8.411,-0.00071,-0.00010999999,0
282.70834,2000,0,91.24,0.000002697398,0.000002697398,0.000002697398,0.99999994,0,0,0,0,0,0,1,0,0,0,0,false,true,false,0,1097.28,16.99,-0.0033582605,0.0033798397,0.7070959,0.70710146,0,1699.8009,8.411,-0.00071,-0.00010999999,0
282.71667,2000,0,91.24,0.000002697398,0.000002697398,0.000002697398,0.99999994,0,0,0,0,0,0,1,0,0,0,0,false,true,false,0,1111.51,16.99,-0.0033582605,0.0033798397,0.7070959,0.70710146,0,1708.0609,8.411,-0.00071,-0.00010999999,0
282.725,2000,0,91.24,0.000002697398,0.000002697398,0.000002697398,0.99999994,0,0,0,0,0,0,1,0,0,0,0,false,true,false,0,1125.8099,16.99,-0.0033582605,0.0033798397,0.7070959,0.70710146,0,1716.3209,8.411,-0.00071,-0.00010999999,0
282.73334,2000,0,91.24,0.000002697398,0.000002697398,0.000002697398,0.99999994,0,0,0,0,0,0,1,0,0,0,0,false,true,false,0,1140.1799,16.99,-0.0033582605,0.0033798397,0.7070959,0.70710146,0,1724.5809,8.411,-0.00071,-0.00010999999,0
282.74167,2000,0,91.24,0.000002697398,0.000002697398,0.000002697398,0.99999994,0,0,0,0,0,0,1,0,0,0,0,false,true,false,0,1154.62,16.99,-0.0033582605,0.0033798397,0.7070959,0.70710146,0,1732.841,8.411,-0.00071,-0.00010999999,0
282.75,2000,0,91.24,0.000002697398,0.000002697398,0.000002697398,0.99999994,0,0,0,0,0,0,1,0,0,0,0,false,true,false,0,1169.13,16.99,-0.0033582605,0.0033798397,0.7070959,0.70710146,0,1741.101,8.411,-0.00071,-0.00010999999,0
282.75833,2000,0,91.24,0.000002697398,0.000002697398,0.000002697398,0.99999994,0,0,0,0,0,0,1,0,0,0,0,false,true,false,0,1183.71,16.99,-0.0033582605,0.0033798397,0.7070959,0.70710146,0,1749.361,8.411,-0.00071,-0.00010999999,0
282.76666,2000,0,91.24,0.000002697398,0.000002697398,0.000002697398,0.99999994,0,0,0,0,0,0,1,0,0,0,0,false,true,false,0,1198.36,16.99,-0.0033582605,0.0033798397,0.7070959,0.70710146,0,1757.621,8.411,-0.00071,-0.00010999999,0
282.775,2000,0,91.24,0.000002697398,0.000002697398,0.000002697398,0.99999994,0,0,0,0,0,0,1,0,0,0,0,false,true,false,0,1213.08,16.99,-0.0033582605,0.0033798397,0.7070959,0.70710146,0,1765.881,8.411,-0.00071,-0.00010999999,0
282.78333,2000,0,91.24,0.000002697398,0.000002697398,0.000002697398,0.99999994,0,0,0,0,0,0,1,0,0,0,0,false,true,false,0,1227.86,16.99,-0.0033582605,0.0033798397,0.7070959,0.70710146,0,1774.141,8.411,-0.00071,-0.00010999999,0
282.79166,2000,0,91.24,0.000002697398,0.000002697398,0.000002697398,0.99999994,0,0,0,0,0,0,1,0,0,0,0,false,true,false,0,1242.71,16.99,-0.0033582605,0.0033798397,0.7070959,0.70710146,0,1782.4009,8.411,-0.00071,-0.00010999999,0
282.8,2000,0,91.24,0.000002697398,0.000002697398,0.000002697398,0.99999994,0,0,0,0,0,0,1,0,0,0,0,false,true,false,0,1257.63,16.99,-0.0033582605,0.0033798397,0.7070959,0.70710146,0,1790.6609,8.411,-0.00071,-0.00010999999,0
282.80832,2000,0,91.24,0.000002697398,0.000002697398,0.000002697398,0.99999994,0,0,0,0,0,0,1,0,0,0,0,false,true,false,0,1272.62,16.99,-0.0033582605,0.0033798397,0.7070959,0.70710146,0,1798.9209,8.411,-0.00071,-0.00010999999,0
282.81668,2000,0,91.24,0.000002697398,0.000002697398,0.000002697398,0.99999994,0,0,0,0,0,0,1,0,0,0,0,false,true,false,0,1287.6799,16.99,-0.0033582605,0.0033798397,0.7070959,0.70710146,0,1807.1809,8.411,-0.00071,-0.00010999999,0
282.825,2000,0,91.24,0.000002697398,0.000002697398,0.000002697398,0.99999994,0,0,0,0,0,0,1,0,0,0,0,false,true,false,0,1302.8099,16.99,-0.0033582605,0.0033798397,0.7070959,0.70710146,0,1815.4409,8.411,-0.00071,-0.00010999999,0
282.83334,2000,0,91.24,0.000002697398,0.000002697398,0.000002697398,0.99999994,0,0,0,0,0,0,1,0,0,0,0,false,true,false,0,1318.01,16.99,-0.0033582605,0.0033798397,0.7070959,0.70710146,0,1823.7009,8.411,-0.00071,-0.00010999999,0
282.84167,2000,0,91.24,0.000002697398,0.000002697398,0.000002697398,0.99999994,0,0,0,0,0,0,1,0,0,0,0,false,true,false,0,1333.28,16.99,-0.0033582605,0.0033798397,0.7070959,0.70710146,0,1831.9609,8.411,-0.00071,-0.00010999999,0
282.85,2000,0,91.24,0.000002697398,0.000002697398,0.000002697398,0.99999994,0,0,0,0,0,0,1,0,0,0,0,false,true,false,0,1348.62,16.99,-0.0033582605,0.0033798397,0.7070959,0.70710146,0,1840.221,8.411,-0.00071,-0.00010999999,0
282.85834,2000,0,91.24,0.000002697398,0.000002697398,0.000002697398,0.99999994,0,0,0,0,0,0,1,0,0,0,0,false,true,false,0,1364.02,16.99,-0.0033582605,0.0033798397,0.7070959,0.70710146,0,1848.481,8.411,-0.00071,-0.00010999999,0
282.86667,2000,0,91.24,0.000002697398,0.000002697398,0.000002697398,0.99999994,0,0,0,0,0,0,1,0,0,0,0,false,true,false,0,1379.49,16.99,-0.0033582605,0.0033798397,0.7070959,0.70710146,0,1856.741,8.411,-0.00071,-0.00010999999,0
282.875,2000,0,91.24,0.000002697398,0.000002697398,0.000002697398,0.99999994,0,0,0,0,0,0,1,0,0,0,0,false,true,false,0,1395.03,16.99,-0.0033582605,0.0033798397,0.7070959,0.70710146,0,1865.001,8.411,-0.00071,-0.00010999999,0
282.88333,2000,0,91.24,0.000002697398,0.000002697398,0.000002697398,0.99999994,0,0,0,0,0,0,1,0,0,0,0,false,true,false,0,1410.64,16.99,-0.0033582605,0.0033798397,0.7070959,0.70710146,0,1873.261,8.411,-0.00071,-0.00010999999,0
282.89166,2000,0,91.24,0.000002697398,0.000002697398,0.000002697398,0.99999994,0,0,0,0,0,0,1,0,0,0,0,false,true,false,0,1426.32,16.99,-0.0033582605,0.0033798397,0.7070959,0.70710146,0,1881.5209,8.411,-0.00071,-0.00010999999,0
282.9,2000,0,91.24,0.000002697398,0.000002697398,0.000002697398,0.99999994,0,0,0,0,0,0,1,0,0,0,0,false,true,false,0,1442.07,16.99,-0.0033582605,0.0033798397,0.7070959,0.70710146,0,1889.7809,8.411,-0.00071,-0.00010999999,0
282.90833,2000,0,91.24,0.000002697398,0.000002697398,0.000002697398,0.99999994,0,0,0,0,0,0,1,0,0,0,0,false,true,false,0,1457.89,16.99,-0.0033582605,0.0033798397,0.7070959,0.70710146,0,1898.0409,8.411,-0.00071,-0.00010999999,0
282.91666,2000,0,91.24,0.000002697398,0.000002697398,0.000002697398,0.99999994,0,0,0,0,0,0,1,0,0,0,0,false,true,false,0,1473.7799,16.99,-0.0033582605,0.0033798397,0.7070959,0.70710146,0,1906.3009,8.411,-0.00071,-0.00010999999,0
282.925,2000,0,91.24,0.000002697398,0.000002697398,0.000002697398,0.99999994,0,0,0,0,0,0,1,0,0,0,0,false,true,false,0,1489.73,16.99,-0.0033582605,0.0033798397,0.7070959,0.70710146,0,1914.5609,8.411,-0.00071,-0.00010999999,0
282.93332,2000,0,91.24,0.000002697398,0.000002697398,0.000002697398,0.99999994,0,0,0,0,0,0,1,0,0,0,0,false,true,false,0,1505.75,16.99,-0.0033582605,0.0033798397,0.7070959,0.70710146,0,1922.8209,8.411,-0.00071,-0.00010999999,0
282.94168,2000,0,91.24,0.000002697398,0.000002697398,0.000002697398,0.99999994,0,0,0,0,0,0,1,0,0,0,0,false,true,false,0,1521.84,16.99,-0.0033582605,0.0033798397,0.7070959,0.70710146,0,1931.0809,8.411,-0.00071,-0.00010999999,0
282.95,2000,0,91.24,0.000002697398,0.000002697398,0.000002697398,0.99999994,0,0,0,0,0,0,1,0,0,0,0,false,true,false,0,1538,16.99,-0.0033582605,0.0033798397,0.7070959,0.70710146,0,1939.341,8.411,-0.00071,-0.00010999999,0
282.95834,2000,0,91.24,0.000002697398,0.000002697398,0.000002697398,0.99999994,0,0,0,0,0,0,1,0,0,0,0,false,true,false,0,1554.23,16.99,-0.0033582605,0.0033798397,0.7070959,0.70710146,0,1947.601,8.411,-0.00071,-0.00010999999,0
282.96667,2000,0,91.24,0.000002697398,0.000002697398,0.000002697398,0.99999994,0,0,0,0,0,0,1,0,0,0,0,false,true,false,0,1570.5299,16.99,-0.0033582605,0.0033798397,0.7070959,0.70710146,0,1955.861,8.411,-0.00071,-0.00010999999,0
282.975,2000,0,91.24,0.000002697398,0.000002697398,0.000002697398,0.99999994,0,0,0,0,0,0,1,0,0,0,0,false,true,false,0,1586.9,16.99,-0.0033582605,0.0033798397,0.7070959,0.70710146,0,1964.121,8.411,-0.00071,-0.00010999999,0
282.98334,2000,0,91.24,0.000002697398,0.000002697398,0.000002697398,0.99999994,0,0,0,0,0,0,1,0,0,0,0,false,true,false,0,1603.34,16.99,-0.0033582605,0.0033798397,0.7070959,0.70710146,0,1972.381,8.411,-0.00071,-0.00010999999,0
282.99167,2000,0,91.24,0.000002697398,0.000002697398,0.000002697398,0.99999994,0,0,0,0,0,0,1,0,0,0,0,false,true,false,0,1619.85,16.99,-0.0033582605,0.0033798397,0.7070959,0.70710146,0,1980.641,8.411,-0.00071,-0.00010999999,0
283,2000,0,91.24,0.000002697398,0.000002697398,0.000002697398,0.99999994,0,0,0,0,0,0,1,0,0,0,0,false,true,false,0,1636.4199,16.99,-0.0033582605,0.0033798397,0.7070959,0.70710146,0,1988.9009,8.411,-0.00071,-0.00010999999,0
283.00833,2000,0,91.24,0.000002697398,0.000002697398,0.000002697398,0.99999994,0,0,0,0,0,0,1,0,0,0,0,false,true,false,0,1653.0599,16.99,-0.0033582605,0.0033798397,0.7070959,0.70710146,0,1997.1609,8.411,-0.00071,-0.00010999999,0
283.01666,2000,0,91.24,0.000002697398,0.000002697398,0.000002697398,0.99999994,0,0,0,0,0,0,1,0,0,0,0,false,true,false,0,1669.77,16.99,-0.0033582605,0.0033798397,0.7070959,0.70710146,0,2005.4209,8.411,-0.00071,-0.00010999999,0
283.025,2000,0,91.24,0.000002697398,0.000002697398,0.000002697398,0.99999994,0,0,0,0,0,0,1,0,0,0,0,false,true,false,0,1686.5499,16.99,-0.0033582605,0.0033798397,0.7070959,0.70710146,0,2013.6809,8.411,-0.00071,-0.00010999999,0
283.04166,2000,0,91.24,0.000002697398,0.000002697398,0.000002697398,0.99999994,0,0,0,0,0,0,1,0,0,0,0,false,true,false,0,1720.32,16.99,-0.0033582605,0.0033798397,0.7070959,0.70710146,0,2030.2009,8.411,-0.00071,-0.00010999999,0
283.05,2000,0,91.24,0.000002697398,0.000002697398,0.000002697398,0.99999994,0,0,0,0,0,0,1,0,0,0,0,false,true,false,0,1737.3099,16.99,-0.0033582605,0.0033798397,0.7070959,0.70710146,0,2038.4609,8.411,-0.00071,-0.00010999999,0
283.05832,2000,0,91.24,0.000002697398,0.000002697398,0.000002697398,0.99999994,0,0,0,0,0,0,1,0,0,0,0,false,true,false,0,1754.37,16.99,-0.0033582605,0.0033798397,0.7070959,0.70710146,0,2046.721,8.411,-0.00071,-0.00010999999,0
283.06668,2000,0,91.24,0.000002697398,0.000002697398,0.000002697398,0.99999994,0,0,0,0,0,0,1,0,0,0,0,false,true,false,0,1771.49,16.99,-0.0033582605,0.0033798397,0.7070959,0.70710146,0,2054.981,8.411,-0.00071,-0.00010999999,0
283.075,2000,0,91.24,0.000002697398,0.000002697398,0.000002697398,0.99999994,0,0,0,0,0,0,1,0,0,0,0,false,true,false,0,1788.6799,16.99,-0.0033582605,0.0033798397,0.7070959,0.70710146,0,2063.241,8.411,-0.00071,-0.00010999999,0
283.08334,2000,0,91.24,0.000002697398,0.000002697398,0.000002697398,0.99999994,0,0,0,0,0,0,1,0,0,0,0,false,true,false,0,1805.94,16.99,-0.0033582605,0.0033798397,0.7070959,0.70710146,0,2071.501,8.411,-0.00071,-0.00010999999,0
283.09167,2000,0,91.24,0.000002697398,0.000002697398,0.000002697398,0.99999994,0,0,0,0,0,0,1,0,0,0,0,false,true,false,0,1823.27,16.99,-0.0033582605,0.0033798397,0.7070959,0.70710146,0,2079.761,8.411,-0.00071,-0.00010999999,0
283.1,2000,0,91.24,0.000002697398,0.000002697398,0.000002697398,0.99999994,0,0,0,0,0,0,1,0,0,0,0,false,true,false,0,1840.6699,16.99,-0.0033582605,0.0033798397,0.7070959,0.70710146,0,2088.021,8.411,-0.00071,-0.00010999999,0
283.10834,2000,0,91.24,0.000002697398,0.000002697398,0.000002697398,0.99999994,0,0,0,0,0,0,1,0,0,0,0,false,true,false,0,1858.14,16.99,-0.0033582605,0.0033798397,0.7070959,0.70710146,0,2096.281,8.411,-0.00071,-0.00010999999,0
283.11667,2000,0,91.24,0.000002697398,0.000002697398,0.000002697398,0.99999994,0,0,0,0,0,0,1,0,0,0,0,false,true,false,0,1875.6799,16.99,-0.0033582605,0.0033798397,0.7070959,0.70710146,0,2104.541,8.411,-0.00071,-0.00010999999,0
283.125,2000,0,91.24,0.000002697398,0.000002697398,0.000002697398,0.99999994,0,0,0,0,0,0,1,0,0,0,0,false,true,false,0,1893.2899,16.99,-0.0033582605,0.0033798397,0.7070959,0.70710146,0,2112.801,8.411,-0.00071,-0.00010999999,0
283.13333,2000,0,91.24,0.000002697398,0.000002697398,0.000002697398,0.99999994,0,0,0,0,0,0,1,0,0,0,0,false,true,false,0,1910.97,16.99,-0.0033582605,0.0033798397,0.7070959,0.70710146,0,2121.061,8.411,-0.00071,-0.00010999999,0
283.14166,2000,0,91.24,0.000002697398,0.000002697398,0.000002697398,0.99999994,0,0,0,0,0,0,1,0,0,0,0,false,true,false,0,1928.71,16.99,-0.0033582605,0.0033798397,0.7070959,0.70710146,0,2129.321,8.411,-0.00071,-0.00010999999,0
283.15,2000,0,91.24,0.000002697398,0.000002697398,0.000002697398,0.99999994,0,0,0,0,0,0,1,0,0,0,0,false,true,false,0,1946.5199,16.99,-0.0033582605,0.0033798397,0.7070959,0.70710146,0,2137.5808,8.411,-0.00071,-0.00010999999,0
283.15833,2000,0,91.24,0.000002697398,0.000002697398,0.000002697398,0.99999994,0,0,0,0,0,0,1,0,0,0,0,false,true,false,0,1964.3999,16.99,-0.0033582605,0.0033798397,0.7070959,0.70710146,0,2145.8408,8.411,-0.00071,-0.00010999999,0
283.16666,2000,0,91.24,0.000002697398,0.000002697398,0.000002697398,0.99999994,0,0,0,0,0,0,1,0,0,0,0,false,true,false,0,1982.35,16.99,-0.0033582605,0.0033798397,0.7070959,0.70710146,0,2154.1008,8.411,-0.00071,-0.00010999999,0
283.175,2000,0,91.24,0.000002697398,0.000002697398,0.000002697398,0.99999994,0,0,0,0,0,0,1,0,0,0,0,false,true,false,0,2000.37,16.99,-0.0033582605,0.0033798397,0.7070959,0.70710146,0,2162.3608,8.411,-0.00071,-0.00010999999,0
283.18332,2000,0,91.24,0.000002697398,0.000002697398,0.000002697398,0.99999994,0,0,0,0,0,0,1,0,0,0,0,false,true,false,0,2018.46,16.99,-0.0033582605,0.0033798397,0.7070959,0.70710146,0,2170.6208,8.411,-0.00071,-0.00010999999,0
283.19168,2000,0,91.24,0.000002697398,0.000002697398,0.000002697398,0.99999994,0,0,0,0,0,0,1,0,0,0,0,false,true,false,0,2036.62,16.99,-0.0033582605,0.0033798397,0.7070959,0.70710146,0,2178.8809,8.411,-0.00071,-0.00010999999,0
283.2,2000,0,91.24,0.000002697398,0.000002697398,0.000002697398,0.99999994,0,0,0,0,0,0,1,0,0,0,0,false,true,false,0,2054.8499,16.99,-0.0033582605,0.0033798397,0.7070959,0.70710146,0,2187.1409,8.411,-0.00071,-0.00010999999,0
283.20834,2000,0,91.24,0.000002697398,0.000002697398,0.000002697398,0.99999994,0,0,0,0,0,0,1,0,0,0,0,false,true,false,0,2073.15,16.99,-0.0033582605,0.0033798397,0.7070959,0.70710146,0,2195.401,8.411,-0.00071,-0.00010999999,0
283.21667,2000,0,91.24,0.000002697398,0.000002697398,0.000002697398,0.99999994,0,0,0,0,0,0,1,0,0,0,0,false,true,false,0,2091.51,16.99,-0.0033582605,0.0033798397,0.7070959,0.70710146,0,2203.661,8.411,-0.00071,-0.00010999999,0
283.225,2000,0,91.24,0.000002697398,0.000002697398,0.000002697398,0.99999994,0,0,0,0,0,0,1,1,0,0,0,false,false,true,0,2109.8699,16.99,-0.0033582605,0.0033798397,0.7070959,0.70710146,-10.701,2202.901,8.461,-0.00071,0.00261,0.29851002
283.23334,2000,0,91.24,0.000002697398,0.000002697398,0.000002697398,0.99999994,0,0,0,0,0,0,1,1,0,0,0,false,false,true,-0.089999996,2128.23,16.99,-0.0033582605,0.0033852346,0.7079743,0.70622194,-20.210999,2202.201,8.491,-0.00071,0.00381,0.54301
283.24167,2000,0,91.24,0.000002697398,0.000002697398,0.000002697398,0.99999994,0,0,0,0,0,0,1,1,0,0,0,false,false,true,-0.26,2146.5798,16.99,-0.0033582605,0.0033906293,0.709569,0.7046197,-29.901,2201.461,8.511001,-0.00061,0.00411,0.75800997
283.25,2000,0,91.24,0.000002697398,0.000002697398,0.000002697398,0.99999994,0,0,0,0,0,0,1,1,0,0,0,false,false,true,-0.51,2164.93,16.99,-0.00335826,0.0033960238,0.7117905,0.7023754,-40.240997,2200.6409,8.531,-0.00051,0.00401,0.94901
283.25833,2000,0,91.24,0.000002697398,0.000002697398,0.000002697398,0.99999994,0,0,0,0,0,0,1,1,0,0,0,false,false,true,-0.84999996,2183.27,16.99,-0.0033636554,0.0033960242,0.71456367,0.69955397,-51.501,2199.691,8.541,-0.00051,0.00361,1.12051
283.26666,2000,0,91.24,0.000002697398,0.000002697398,0.000002697398,0.99999994,0,0,0,0,0,0,1,1,0,0,0,false,false,true,-1.28,2201.5999,16.99,-0.00336905,0.0033906293,0.71782297,0.6962092,-63.821,2198.561,8.551001,-0.00040999998,0.00301,1.27601
283.275,2000,0,91.24,0.000002697398,0.000002697398,0.000002697398,0.99999994,0,0,0,0,0,0,1,1,0,0,0,false,false,true,-1.81,2219.92,16.99,-0.0033798397,0.0033852346,0.72151303,0.69238424,-77.241,2197.211,8.551001,-0.00040999998,0.00241,1.41821
283.28333,2000,0,91.24,0.000002697398,0.000002697398,0.000002697398,0.99999994,0,0,0,0,0,0,1,1,0,0,0,false,false,true,-2.45,2238.23,16.99,-0.0033960242,0.003374445,0.7255941,0.6881062,-91.730995,2195.5908,8.561,-0.00030999997,0.0018099999,1.54931
283.29166,2000,0,91.24,0.000002697398,0.000002697398,0.000002697398,0.99999994,0,0,0,0,0,0,1,1,0,0,0,false,false,true,-3.21,2256.53,16.99,-0.0034122085,0.0033582605,0.7300215,0.6834073,-107.211,2193.661,8.561,-0.00021,0.00131,1.67081
283.3,2000,0,91.24,0.000002697398,0.000002697398,0.000002697398,0.99999994,0,0,0,0,0,0,1,1,0,0,0,false,false,true,-4.1,2274.81,16.99,-0.0034337877,0.0033366815,0.7347609,0.6783092,-123.561,2191.3909,8.561,-0.00021,0.00081,1.78411
283.30832,2000,0,91.24,0.000002697398,0.000002697398,0.000002697398,0.99999994,0,0,0,0,0,0,1,1,0,0,0,false,false,true,-5.13,2293.07,16.99,-0.003455367,0.0033151023,0.73978335,0.672828,-140.651,2188.751,8.561,-0.00021,0.00040999998,1.89001
283.31668,2000,0,91.24,0.000002697398,0.000002697398,0.000002697398,0.99999994,0,0,0,0,0,0,1,1,0,0,0,false,false,true,-6.2999997,2311.31,16.99,-0.0034823408,0.0032881282,0.74506015,0.66698,-158.311,2185.731,8.571,-0.00010999999,0.00010999999,1.9893099
283.325,2000,0,91.24,0.000002697398,0.000002697398,0.000002697398,0.99999994,0,0,0,0,0,0,1,1,0,0,0,false,false,true,-7.62,2329.52,16.99,-0.003509315,0.0032611543,0.75056297,0.66078144,-176.371,2182.311,8.571,-0.00010999999,-0.00010999999,2.08251
283.33334,2000,0,91.24,0.000002697398,0.000002697398,0.000002697398,0.99999994,0,0,0,0,0,0,1,1,0,0,0,false,false,true,-9.09,2347.71,16.99,-0.003536289,0.0032287857,0.7562692,0.654243,-194.631,2178.501,8.571,0,-0.00030999997,2.16991
283.34167,2000,0,91.24,0.000002697398,0.000002697398,0.000002697398,0.99999994,0,0,0,0,0,0,1,1,0,0,0,false,false,true,-10.71,2365.8599,16.99,-0.003568658,0.003196417,0.7621517,0.6473807,-212.891,2174.321,8.571,0,-0.00040999998,2.25171
283.35,2000,0,91.24,0.000002697398,0.000002697398,0.000002697398,0.99999994,0,0,0,0,0,0,1,1,0,0,0,false,false,true,-12.48,2383.98,16.99,-0.0036010265,0.0031640478,0.768193,0.6402002,-230.931,2169.811,8.571,0,-0.00051,2.3280098
283.35834,2000,0,91.24,0.000002697398,0.000002697398,0.000002697398,0.99999994,0,0,0,0,0,0,1,1,0,0,0,false,false,true,-14.4,2402.06,16.99,-0.0036333953,0.0031262843,0.7743677,0.6327176,-248.531,2165.021,8.571,0,-0.00061,2.39871
283.36667,2000,0,91.24,0.000002697398,0.000002697398,0.000002697398,0.99999994,0,0,0,0,0,0,1,1,0,0,0,false,false,true,-16.47,2420.0999,16.99,-0.003665764,0.0030885208,0.78065073,0.62494904,-265.451,2160.021,8.571,0,-0.00071,2.46371
283.375,2000,0,91.24,0.000002697398,0.000002697398,0.000002697398,0.99999994,0,0,0,0,0,0,1,1,0,0,0,false,false,true,-18.68,2438.0999,16.99,-0.0036981327,0.003050757,0.7870269,0.61689997,-281.441,2154.901,8.571,0,-0.00081,2.52281
283.38333,2000,0,91.24,0.000002697398,0.000002697398,0.000002697398,0.99999994,0,0,0,0,0,0,1,1,0,0,0,false,false,true,-21.029999,2456.06,16.99,-0.0037305015,0.003007599,0.7934688,0.608592,-296.251,2149.791,8.571,0.00010999999,-0.00091,2.57571
283.39166,2000,0,91.24,0.000002697398,0.000002697398,0.000002697398,0.99999994,0,0,0,0,0,0,1,1,0,0,0,false,false,true,-23.5,2473.98,16.99,-0.0037628703,0.0029644405,0.7999547,0.60004115,-309.621,2144.821,8.571,0.00010999999,-0.0010099999,2.62211
283.4,2000,0,91.24,0.000002697398,0.000002697398,0.000002697398,0.99999994,0,0,0,0,0,0,1,1,0,0,0,false,false,true,-26.08,2491.8499,16.99,-0.0038006334,0.0029212818,0.80646384,0.5912638,-321.281,2140.171,8.571,0.00010999999,-0.00111,2.66151
283.40833,2000,0,91.24,0.000002697398,0.000002697398,0.000002697398,0.99999994,0,0,0,0,0,0,1,1,0,0,0,false,false,true,-28.76,2509.68,16.99,-0.0038383976,0.0028781237,0.8129692,0.5822868,-330.951,2136.041,8.571,0.00021,-0.0012099999,2.69351
283.41666,2000,0,91.24,0.000002697398,0.000002697398,0.000002697398,0.99999994,0,0,0,0,0,0,1,1,0,0,0,false,false,true,-31.519999,2527.48,16.99,-0.003876161,0.0028295706,0.8194528,0.57312644,-338.351,2132.661,8.561,0.00030999997,-0.00131,2.71751
283.425,2000,0,91.24,0.000002697398,0.000002697398,0.000002697398,0.99999994,0,0,0,0,0,0,1,1,0,0,0,false,false,true,-34.34,2545.25,16.99,-0.003913925,0.0027810177,0.8258907,0.5638097,-346.091,2128.911,8.561,0.00040999998,-0.00131,2.74101
283.43332,2000,0,91.24,0.000002697398,0.000002697398,0.000002697398,0.99999994,0,0,0,0,0,0,1,1,0,0,0,false,false,true,-37.219997,2562.99,16.99,-0.003946293,0.002732464,0.8322753,0.5543417,-354.141,2124.781,8.561,0.00040999998,-0.0012099999,2.76421
283.44168,2000,0,91.24,0.000002697398,0.000002697398,0.000002697398,0.99999994,0,0,0,0,0,0,1,1,0,0,0,false,false,true,-40.17,2580.7,16.99,-0.0039786627,0.0026839112,0.8386059,0.54471743,-362.481,2120.261,8.561,0.00040999998,-0.00111,2.7871099
283.45,2000,0,91.24,0.000002697398,0.000002697398,0.000002697398,0.99999994,0,0,0,0,0,0,1,1,0,0,0,false,false,true,-43.19,2598.3699,16.99,-0.0040110312,0.0026353581,0.84487516,0.534942,-371.07098,2115.3408,8.561,0.00040999998,-0.00111,2.80971
283.45834,2000,0,91.24,0.000002697398,0.000002697398,0.000002697398,0.99999994,0,0,0,0,0,0,1,1,0,0,0,false,false,true,-46.28,2616,16.99,-0.0040433994,0.0025868048,0.85107905,0.5250155,-379.891,2110.011,8.561,0.00040999998,-0.0010099999,2.83201
283.46667,2000,0,91.24,0.000002697398,0.000002697398,0.000002697398,0.99999994,0,0,0,0,0,0,1,1,0,0,0,false,false,true,-49.45,2633.5798,16.99,-0.004075769,0.002532857,0.857214,0.51493794,-388.911,2104.261,8.561,0.00040999998,-0.0010099999,2.8540099
283.475,2000,0,91.24,0.000002697398,0.000002697398,0.000002697398,0.99999994,0,0,0,0,0,0,1,1,0,0,0,false,false,true,-52.69,2651.1199,16.99,-0.0041081375,0.002478909,0.86327595,0.5047094,-398.101,2098.0808,8.561,0.00040999998,-0.00091,2.8756099
283.48334,2000,0,91.24,0.000002697398,0.000002697398,0.000002697398,0.99999994,0,0,0,0,0,0,1,1,0,0,0,false,false,true,-56.01,2668.5999,16.99,-0.004140506,0.0024249607,0.86926115,0.49432972,-407.421,2091.471,8.561,0.00040999998,-0.00081,2.89691
283.49167,2000,0,91.24,0.000002697398,0.000002697398,0.000002697398,0.99999994,0,0,0,0,0,0,1,1,0,0,0,false,false,true,-59.41,2686.03,16.99,-0.0041728746,0.002371013,0.8751659,0.48379907,-416.85098,2084.431,8.561,0.00040999998,-0.00071,2.91781
283.5,2000,0,91.24,0.000002697398,0.000002697398,0.000002697398,0.99999994,0,0,0,0,0,0,1,1,0,0,0,false,false,true,-62.879997,2703.4,16.99,-0.0042052437,0.0023170651,0.8809834,0.47312272,-426.35098,2076.961,8.561,0.00040999998,-0.00061,2.93821
283.50833,2000,0,91.24,0.000002697398,0.000002697398,0.000002697398,0.99999994,0,0,0,0,0,0,1,1,0,0,0,false,false,true,-66.43,2720.71,16.99,-0.004232218,0.002263117,0.88671017,0.46230078,-435.901,2069.061,8.561,0.00040999998,-0.00051,2.95821
283.51666,2000,0,91.24,0.000002697398,0.000002697398,0.000002697398,0.99999994,0,0,0,0,0,0,1,1,0,0,0,false,false,true,-70.06,2737.95,16.99,-0.004259192,0.002209169,0.89233994,0.45133844,-445.471,2060.731,8.561,0.00040999998,-0.00040999998,2.9776099
283.525,2000,0,91.24,0.000002697398,0.000002697398,0.000002697398,0.99999994,0,0,0,0,0,0,1,1,0,0,0,false,false,true,-73.77,2755.1199,16.99,-0.004286165,0.0021552208,0.8978718,0.4402305,-455.021,2051.971,8.561,0.00030999997,-0.00040999998,2.99651
283.53333,2000,0,91.24,0.000002697398,0.000002697398,0.000002697398,0.99999994,0,0,0,0,0,0,1,1,0,0,0,false,false,true,-77.56,2772.22,16.99,-0.004313139,0.0021012728,0.9032974,0.42898765,-464.531,2042.7909,8.561,0.00030999997,-0.00040999998,3.0148098
283.54166,2000,0,91.24,0.000002697398,0.000002697398,0.000002697398,0.99999994,0,0,0,0,0,0,1,1,0,0,0,false,false,true,-81.43,2789.24,16.99,-0.004340113,0.002047325,0.90861607,0.41760468,-473.961,2033.1909,8.561,0.00030999997,-0.00040999998,3.03251
283.55,2000,0,91.24,0.000002697398,0.000002697398,0.000002697398,0.99999994,0,0,0,0,0,0,1,1,0,0,0,false,false,true,-85.38,2806.18,16.99,-0.0043670875,0.0019879823,0.9138195,0.4060921,-483.291,2023.1909,8.561,0.00030999997,-0.00040999998,3.04951
283.55832,2000,0,91.24,0.000002697398,0.000002697398,0.000002697398,0.99999994,0,0,0,0,0,0,1,1,0,0,0,false,false,true,-89.409996,2823.04,16.99,-0.0043940614,0.0019286396,0.9189048,0.39445013,-492.491,2012.7909,8.561,0.00030999997,-0.00030999997,3.0657098
283.56668,2000,0,91.24,0.000002697398,0.000002697398,0.000002697398,0.99999994,0,0,0,0,0,0,1,1,0,0,0,false,false,true,-93.509995,2839.81,16.99,-0.0044210353,0.0018692969,0.92386895,0.3826786,-501.531,2002.011,8.561,0.00030999997,-0.00030999997,3.08111
283.575,2000,0,91.24,0.000002697398,0.000002697398,0.000002697398,0.99999994,0,0,0,0,0,0,1,1,0,0,0,false,false,true,-97.689995,2856.49,16.99,-0.004448009,0.0018099541,0.92870486,0.37078846,-510.38098,1990.861,8.561,0.00030999997,-0.00021,3.09571
283.58334,2000,0,91.24,0.000002697398,0.000002697398,0.000002697398,0.99999994,0,0,0,0,0,0,1,1,0,0,0,false,false,true,-101.939995,2873.0798,16.99,-0.0044695884,0.0017506114,0.9334099,0.35877955,-519.011,1979.361,8.561,0.00030999997,-0.00010999999,3.10931
283.59167,2000,0,91.24,0.000002697398,0.000002697398,0.000002697398,0.99999994,0,0,0,0,0,0,1,1,0,0,0,false,false,true,-106.27,2889.5698,16.99,-0.0044911676,0.0016912686,0.93797946,0.34665745,-527.41095,1967.5209,8.561,0.00030999997,-0.00010999999,3.12201
283.6,2000,0,91.24,0.000002697398,0.000002697398,0.000002697398,0.99999994,0,0,0,0,0,0,1,1,0,0,0,false,false,true,-110.67,2905.97,16.99,-0.0045127473,0.0016319259,0.9424093,0.3344274,-535.54095,1955.371,8.561,0.00021,-0.00010999999,3.13361
283.60834,2000,0,91.24,0.000002697398,0.000002697398,0.000002697398,0.99999994,0,0,0,0,0,0,1,1,0,0,0,false,false,true,-115.13,2922.26,16.99,-0.0045343256,0.001572583,0.9466951,0.32209483,-543.391,1942.9209,8.561,0.00021,-0.00010999999,3.14411
283.61667,2000,0,91.24,0.000002697398,0.000002697398,0.000002697398,0.99999994,0,0,0,0,0,0,1,1,0,0,0,false,false,true,-119.659996,2938.45,16.99,-0.0045559052,0.0015132403,0.9508335,0.30966517,-550.93097,1930.2009,8.561,0.00021,-0.00010999999,3.15341
283.625,2000,0,91.24,0.000002697398,0.000002697398,0.000002697398,0.99999994,0,0,0,0,0,0,1,1,0,0,0,false,false,true,-124.25,2954.54,16.99,-0.004577485,0.0014538977,0.95482063,0.2971438,-558.15094,1917.231,8.571,0.00021,-0.00010999999,3.1614099
283.63333,2000,0,91.24,0.000002697398,0.000002697398,0.000002697398,0.99999994,0,0,0,0,0,0,1,1,0,0,0,false,false,true,-128.9,2970.52,16.99,-0.0045990637,0.0013945547,0.9586516,0.28454152,-565.02094,1904.0409,8.571,0.00030999997,-0.00010999999,3.16811
283.64166,2000,0,91.24,0.000002697398,0.000002697398,0.000002697398,0.99999994,0,0,0,0,0,0,1,1,0,0,0,false,false,true,-133.61,2986.39,16.99,-0.004615248,0.0013298172,0.9623237,0.27186367,-571.53094,1890.6509,8.571,0.00030999997,0,3.17331
283.65,2000,0,91.24,0.000002697398,0.000002697398,0.000002697398,0.99999994,0,0,0,0,0,0,1,1,0,0,0,false,false,true,-138.37,3002.15,16.99,-0.0046314322,0.0012650797,0.96583426,0.25911576,-577.67096,1877.091,8.571,0.00030999997,0,3.1770098
283.65833,2000,0,91.24,0.000002697398,0.000002697398,0.000002697398,0.99999994,0,0,0,0,0,0,1,1,0,0,0,false,false,true,-143.18,3017.79,16.99,-0.0046476163,0.001200342,0.96917945,0.24630842,-583.97095,1863.611,8.571,0.00030999997,0,3.18111
283.66666,2000,0,91.24,0.000002697398,0.000002697398,0.000002697398,0.99999994,0,0,0,0,0,0,1,1,0,0,0,false,false,true,-148.05,3033.3198,16.99,-0.0046638018,0.0011356047,0.9723589,0.23344186,-590.41095,1850.1909,8.571,0.00030999997,0,3.18551
283.675,2000,0,91.24,0.000002697398,0.000002697398,0.000002697398,0.99999994,0,0,0,0,0,0,1,1,0,0,0,false,false,true,-152.97,3048.74,16.99,-0.0046799853,0.001070867,0.97537154,0.22051583,-596.691,1836.731,8.571,0.00030999997,0,3.18901
283.68332,2000,0,91.24,0.000002697398,0.000002697398,0.000002697398,0.99999994,0,0,0,0,0,0,1,1,0,0,0,false,false,true,-157.94,3064.05,16.99,-0.00469617,0.0010061294,0.9782156,0.20753586,-602.80096,1823.241,8.571,0.00030999997,0,3.1916099
283.69168,2000,0,91.24,0.000002697398,0.000002697398,0.000002697398,0.99999994,0,0,0,0,0,0,1,1,0,0,0,false,false,true,-162.95999,3079.24,16.99,-0.00470696,0.000941392,0.98088926,0.19450745,-608.751,1809.741,8.571,0.00030999997,0.00010999999,3.19331
283.7,2000,0,91.24,0.000002697398,0.000002697398,0.000002697398,0.99999994,0,0,0,0,0,0,1,1,0,0,0,false,false,true,-168.03,3094.3198,16.99,-0.004717749,0.00087665435,0.98339003,0.18144116,-614.54095,1796.251,8.571,0.00021,0.00010999999,3.19401
283.70834,2000,0,91.24,0.000002697398,0.000002697398,0.000002697398,0.99999994,0,0,0,0,0,0,1,1,0,0,0,false,false,true,-173.15,3109.29,16.99,-0.004728539,0.0008119169,0.9857178,0.16833721,-620.18097,1782.7809,8.571,0.00021,0.00010999999,3.1937099
283.71667,2000,0,91.24,0.000002697398,0.000002697398,0.000002697398,0.99999994,0,0,0,0,0,0,1,1,0,0,0,false,false,true,-178.31999,3124.15,16.99,-0.0047393283,0.00074717926,0.9878704,0.15520617,-625.68097,1769.351,8.571,0.00021,0.00021,3.19241
283.725,2000,0,91.24,0.000002697398,0.000002697398,0.000002697398,0.99999994,0,0,0,0,0,0,1,1,0,0,0,false,false,true,-183.53,3138.89,16.99,-0.004750118,0.00068244175,0.9898473,0.14205359,-631.04095,1755.981,8.571,0.00021,0.00021,3.19011
283.73334,2000,0,91.24,0.000002697398,0.000002697398,0.000002697398,0.99999994,0,0,0,0,0,0,1,1,0,0,0,false,false,true,-188.79,3153.52,16.99,-0.004755513,0.0006177041,0.9916479,0.12888488,-636.28094,1742.6809,8.571,0.00021,0.00030999997,3.18671
283.74167,2000,0,91.24,0.000002697398,0.000002697398,0.000002697398,0.99999994,0,0,0,0,0,0,1,1,0,0,0,false,false,true,-194.09,3168.04,16.99,-0.004760908,0.00055296667,0.993272,0.11570532,-641.41095,1729.4609,8.571,0.00010999999,0.00030999997,3.18221
283.75,2000,0,91.24,0.000002697398,0.000002697398,0.000002697398,0.99999994,0,0,0,0,0,0,1,1,0,0,0,false,false,true,-199.44,3182.45,16.99,-0.0047663017,0.000488229,0.9947187,0.102525815,-646.441,1716.3309,8.571,0.00010999999,0.00030999997,3.17661
283.75833,2000,0,91.24,0.000002697398,0.000002697398,0.000002697398,0.99999994,0,0,0,0,0,0,1,1,0,0,0,false,false,true,-204.83,3196.75,16.99,-0.004771697,0.0004234915,0.99598855,0.08935165,-651.381,1703.3109,8.571,0.00010999999,0.00030999997,3.1698098
283.76666,2000,0,91.24,0.000002697398,0.000002697398,0.000002697398,0.99999994,0,0,0,0,0,0,1,1,0,0,0,false,false,true,-210.26,3210.94,16.99,-0.004777092,0.00035875392,0.9970819,0.07618826,-656.251,1690.4009,8.571,0.00010999999,0.00030999997,3.16181
283.775,2000,0,91.24,0.000002697398,0.000002697398,0.000002697398,0.99999994,0,0,0,0,0,0,1,1,0,0,0,false,false,true,-215.73,3225.03,16.99,-0.004782487,0.0002940164,0.9979991,0.063046545,-661.061,1677.621,8.571,0.00010999999,0.00030999997,3.1526098
283.78333,2000,0,91.24,0.000002697398,0.000002697398,0.000002697398,0.99999994,0,0,0,0,0,0,1,1,0,0,0,false,false,true,-221.23999,3239.01,16.99,-0.0047824867,0.00022927884,0.9987411,0.049931705,-665.83093,1664.971,8.571,0,0.00040999998,3.1421099
283.79166,2000,0,91.24,0.000002697398,0.000002697398,0.000002697398,0.99999994,0,0,0,0,0,0,1,1,0,0,0,false,false,true,-226.79,3252.88,16.99,-0.0047824867,0.00016454128,0.9993091,0.036854718,-670.58093,1652.4609,8.571,0,0.00040999998,3.1303098
283.8,2000,0,91.24,0.000002697398,0.000002697398,0.000002697398,0.99999994,0,0,0,0,0,0,1,1,0,0,0,false,false,true,-232.37999,3266.65,16.99,-0.004782487,0.000099803736,0.9997049,0.023815414,-675.321,1640.091,8.571,0,0.00040999998,3.11711
283.80832,2000,0,91.24,0.000002697398,0.000002697398,0.000002697398,0.99999994,0,0,0,0,0,0,1,1,0,0,0,false,false,true,-238.01,3280.3198,16.99,-0.0047824867,0.00004046097,0.99992985,0.010830053,-680.071,1627.871,8.571,0,0.00040999998,3.10251
283.81668,2000,0,91.24,0.000002697398,0.000002697398,0.000002697398,0.99999994,0,0,0,0,0,0,1,1,0,0,0,false,false,true,-243.68,3293.89,16.99,-0.0047824867,-0.000018881787,0.9999863,-0.0020958781,-684.85095,1615.8109,8.571,0,0.00040999998,3.08651
