time,ball_loc_x,ball_loc_y,ball_loc_z,ball_rot_x,ball_rot_y,ball_rot_z,ball_rot_w,ball_vel_x,ball_vel_y,ball_vel_z,ball_ang_x,ball_ang_y,ball_ang_z,player0_throttle,player0_steer,player0_pitch,player0_yaw,player0_roll,player0_jump,player0_boost,player0_handbrake,player0_loc_x,player0_loc_y,player0_loc_z,player0_rot_x,player0_rot_y,player0_rot_z,player0_rot_w,player0_vel_x,player0_vel_y,player0_vel_z,player0_ang_x,player0_ang_y,player0_ang_z
141.03334,2000,0,91.24,0.000002697398,0.000002697398,0.000002697398,0.99999994,0,0,0,0,0,0,0,0,0,0,0,false,false,false,0,0.14,17.01,-0.00336905,0.0033798397,0.7071014,0.7070959,0,0.011,8.321,-0.00051,0,0
141.04167,2000,0,73,0.000002697398,0.000002697398,0.000002697398,0.99999994,0,0,0,0,0,0,1,0,0,0,0,false,false,false,0,0,16.94,0.0000026973983,0.0000026973983,0.70710677,0.70710677,0,0,2.041,-0.050809998,0,0
141.05,2000,0,87.6,0.000002697398,0.000002697398,0.000002697398,0.99999994,0,0,0,0,0,0,1,0,0,0,0,false,false,false,0,0,16.89,-0.00014835689,0.00015375168,0.7071067,0.7071067,0,13.331,3.8809998,-0.085609995,0,0
141.05833,2000,0,90.52,0.000002697398,0.000002697398,0.000002697398,0.99999994,0,0,0,0,0,0,1,0,0,0,0,false,false,false,0,0.11,16.85,-0.00040191234,0.00040730715,0.70710653,0.70710677,0,26.550999,5.481,-0.10710999,0,0
141.06667,2000,0,91.1,0.000002697398,0.000002697398,0.000002697398,0.99999994,0,0,0,0,0,0,1,0,0,0,0,false,false,false,0,0.32999998,16.83,-0.0007148105,0.00072560005,0.7071067,0.707106,0,39.650997,6.791,-0.11621,0,0
141.075,2000,0,91.22,0.000002697398,0.000002697398,0.000002697398,0.99999994,0,0,0,0,0,0,1,0,0,0,0,false,false,false,0,0.65999997,16.82,-0.0010546827,0.0010654721,0.70710516,0.7071067,0,52.641,7.7409997,-0.11450999,0,0
141.08333,2000,0,91.24,0.000002697398,0.000002697398,0.000002697398,0.99999994,0,0,0,0,0,0,1,0,0,0,0,false,false,false,0,1.1,16.82,-0.0013945547,0.0014053443,0.7071067,0.70710397,0,65.520996,8.431,-0.10651,0,0
141.09166,2000,0,91.24,0.000002697398,0.000002697398,0.000002697398,0.99999994,0,0,0,0,0,0,1,0,0,0,0,false,false,false,0,1.65,16.82,-0.001707453,0.0017182427,0.707108,0.70710135,0,78.291,8.9210005,-0.09501,0,0
141.1,2000,0,91.24,0.000002697398,0.000002697398,0.000002697398,0.99999994,0,0,0,0,0,0,1,0,0,0,0,false,false,false,0,2.3,16.83,-0.0019879823,0.001998772,0.70710653,0.7071013,0,90.951,9.281,-0.08221,0,0
141.10834,2000,0,91.24,0.000002697398,0.000002697398,0.000002697398,0.99999994,0,0,0,0,0,0,1,0,0,0,0,false,false,false,0,3.06,16.84,-0.002230748,0.0022415377,0.7071051,0.7071013,0,103.501,9.521,-0.069309995,0,0
141.11667,2000,0,91.24,0.000002697398,0.000002697398,0.000002697398,0.99999994,0,0,0,0,0,0,1,0,0,0,0,false,false,false,0,3.9199998,16.85,-0.0024357503,0.00244654,0.7071037,0.7071013,0,115.940994,9.6710005,-0.057109997,0,0
141.125,2000,0,91.24,0.000002697398,0.000002697398,0.000002697398,0.99999994,0,0,0,0,0,0,1,0,0,0,0,false,false,false,0,4.89,16.859999,-0.0026029893,0.002613779,0.70710254,0.70710135,0,128.281,9.771,-0.046109997,0,0
141.13333,2000,0,91.24,0.000002697398,0.000002697398,0.000002697398,0.99999994,0,0,0,0,0,0,1,0,0,0,0,false,false,false,0,5.96,16.869999,-0.002737859,0.0027486486,0.7071015,0.7071013,0,140.511,9.821,-0.036609996,0,0
141.14166,2000,0,91.24,0.000002697398,0.000002697398,0.000002697398,0.99999994,0,0,0,0,0,0,1,0,0,0,0,false,false,false,0,7.1299996,16.88,-0.002845755,0.0028565447,0.7071007,0.70710135,0,152.641,9.841001,-0.02851,0,0
141.15,2000,0,91.24,0.000002697398,0.000002697398,0.000002697398,0.99999994,0,0,0,0,0,0,1,0,0,0,0,false,false,false,0,8.4,16.89,-0.0029320717,0.0029428613,0.7071013,0.7071,0,164.66101,9.821,-0.02231,0,0
141.15834,2000,0,91.24,0.000002697398,0.000002697398,0.000002697398,0.99999994,0,0,0,0,0,0,1,0,0,0,0,false,false,false,0,9.7699995,16.9,-0.0029968095,0.0030075992,0.70709944,0.70710135,0,176.58101,9.761001,-0.01781,0,0
141.16667,2000,0,91.24,0.000002697398,0.000002697398,0.000002697398,0.99999994,0,0,0,0,0,0,1,0,0,0,0,false,false,false,0,11.24,16.91,-0.003050757,0.0030615467,0.7071013,0.70709896,0,188.401,9.681,-0.014409999,0,0
141.175,2000,0,91.24,0.000002697398,0.000002697398,0.000002697398,0.99999994,0,0,0,0,0,0,1,0,0,0,0,false,false,false,0,12.809999,16.92,-0.0030939158,0.0031047054,0.7070986,0.70710135,0,200.11101,9.591001,-0.011909999,0,0
141.18333,2000,0,91.24,0.000002697398,0.000002697398,0.000002697398,0.99999994,0,0,0,0,0,0,1,0,0,0,0,false,false,false,0,14.48,16.93,-0.0031316793,0.0031424686,0.7070959,0.7071036,0,211.72101,9.491,-0.00991,0,0
141.19167,2000,0,91.24,0.000002697398,0.000002697398,0.000002697398,0.99999994,0,0,0,0,0,0,1,0,0,0,0,false,false,false,0,16.24,16.94,-0.0031586532,0.0031694428,0.7070959,0.7071034,0,223.231,9.391,-0.0083099995,0,0
141.2,2000,0,91.24,0.000002697398,0.000002697398,0.000002697398,0.99999994,0,0,0,0,0,0,1,0,0,0,0,false,false,false,0,18.1,16.949999,-0.003185627,0.0031964167,0.7070959,0.70710313,0,234.651,9.281,-0.00701,0,0
141.20833,2000,0,91.24,0.000002697398,0.000002697398,0.000002697398,0.99999994,0,0,0,0,0,0,1,0,0,0,0,false,false,false,0,20.06,16.96,-0.0032072065,0.003217996,0.707096,0.70710295,0,245.97101,9.1710005,-0.00601,0,0
141.21666,2000,0,91.24,0.000002697398,0.000002697398,0.000002697398,0.99999994,0,0,0,0,0,0,1,0,0,0,0,false,false,false,0,22.109999,16.97,-0.0032233908,0.0032341804,0.7070959,0.70710284,0,257.191,9.061,-0.00511,0,0
141.225,2000,0,91.24,0.000002697398,0.000002697398,0.000002697398,0.99999994,0,0,0,0,0,0,1,0,0,0,0,false,false,false,0,24.25,16.98,-0.003239575,0.0032503647,0.7070959,0.70710266,0,268.321,8.951,-0.00441,0,0
141.23334,2000,0,91.24,0.000002697398,0.000002697398,0.000002697398,0.99999994,0,0,0,0,0,0,1,0,0,0,0,false,false,false,0,26.49,16.99,-0.0032503647,0.0032611543,0.7070959,0.7071026,0,279.351,8.841001,-0.00381,0,0
141.24167,2000,0,91.24,0.000002697398,0.000002697398,0.000002697398,0.99999994,0,0,0,0,0,0,1,0,0,0,0,false,false,false,0,28.82,17,-0.0032611543,0.003271944,0.7070959,0.7071024,0,290.29102,8.731,-0.00331,0,0
141.25,2000,0,91.24,0.000002697398,0.000002697398,0.000002697398,0.99999994,0,0,0,0,0,0,1,0,0,0,0,false,false,false,0,31.24,17.01,-0.0032719441,0.0032827337,0.707096,0.70710236,0,301.131,8.621,-0.00291,0,0
141.25833,2000,0,91.24,0.000002697398,0.000002697398,0.000002697398,0.99999994,0,0,0,0,0,0,1,0,0,0,0,false,false,false,0,33.75,17.01,-0.0032827335,0.003293523,0.7070959,0.70710224,0,311.881,8.511001,-0.00251,0,0
141.26666,2000,0,91.24,0.000002697398,0.000002697398,0.000002697398,0.99999994,0,0,0,0,0,0,1,0,0,0,0,false,false,false,0,36.35,17.01,-0.0032881284,0.003298918,0.707096,0.70710224,0,322.541,8.441,-0.00221,0,0
141.275,2000,0,91.24,0.000002697398,0.000002697398,0.000002697398,0.99999994,0,0,0,0,0,0,1,0,0,0,0,false,false,false,0,39.04,17.01,-0.003293523,0.0033043127,0.7070959,0.7071021,0,333.101,8.391,-0.0019099999,0,0
141.28334,2000,0,91.24,0.000002697398,0.000002697398,0.000002697398,0.99999994,0,0,0,0,0,0,1,0,0,0,0,false,false,false,0,41.82,17.01,-0.0032989178,0.0033097074,0.7070959,0.70710206,0,343.571,8.361,-0.0017099999,0,0
141.29167,2000,0,91.24,0.000002697398,0.000002697398,0.000002697398,0.99999994,0,0,0,0,0,0,1,0,0,0,0,false,false,false,0,44.68,17.01,-0.0033043127,0.0033151023,0.7070959,0.70710206,0,353.951,8.341001,-0.00151,0,0
141.3,2000,0,91.24,0.000002697398,0.000002697398,0.000002697398,0.99999994,0,0,0,0,0,0,1,0,0,0,0,false,false,false,0,47.629997,17.01,-0.0033097074,0.003320497,0.7070959,0.707102,0,364.251,8.331,-0.00131,0,0
141.30833,2000,0,91.24,0.000002697398,0.000002697398,0.000002697398,0.99999994,0,0,0,0,0,0,1,0,0,0,0,false,false,false,0,50.67,17.01,-0.0033151023,0.003325892,0.7070959,0.70710194,0,374.461,8.321,-0.0012099999,0,0
141.31667,2000,0,91.24,0.000002697398,0.000002697398,0.000002697398,0.99999994,0,0,0,0,0,0,1,0,0,0,0,false,false,false,0,53.789997,17.01,-0.003320497,0.0033312866,0.7070959,0.7071019,0,384.581,8.321,-0.0010099999,0,0
141.325,2000,0,91.24,0.000002697398,0.000002697398,0.000002697398,0.99999994,0,0,0,0,0,0,1,0,0,0,0,false,false,false,0,56.989998,17.01,-0.003325892,0.0033366815,0.7070959,0.7071018,0,394.611,8.321,-0.00091,0,0
141.33333,2000,0,91.24,0.000002697398,0.000002697398,0.000002697398,0.99999994,0,0,0,0,0,0,1,0,0,0,0,false,false,false,0,60.28,17.01,-0.003325892,0.0033420762,0.7070959,0.7071018,0,404.561,8.321,-0.00071,0,0
141.34166,2000,0,91.24,0.000002697398,0.000002697398,0.000002697398,0.99999994,0,0,0,0,0,0,1,0,0,0,0,false,false,false,0,63.649998,17.01,-0.003325892,0.0033420762,0.7070959,0.7071018,0,414.421,8.321,-0.00061,0,0
141.35,2000,0,91.24,0.000002697398,0.000002697398,0.000002697398,0.99999994,0,0,0,0,0,0,1,0,0,0,0,false,false,false,0,67.1,17.01,-0.003325892,0.0033420762,0.7070959,0.7071018,0,424.201,8.321,-0.00051,0,0
141.35834,2000,0,91.24,0.000002697398,0.000002697398,0.000002697398,0.99999994,0,0,0,0,0,0,1,0,0,0,0,false,false,false,0,70.64,17.01,-0.003325892,0.0033420762,0.7070959,0.7071018,0,433.891,8.321,-0.00051,0,0
141.36667,2000,0,91.24,0.000002697398,0.000002697398,0.000002697398,0.99999994,0,0,0,0,0,0,1,0,0,0,0,false,false,false,0,74.26,17.01,-0.003325892,0.0033420762,0.7070959,0.7071018,0,443.501,8.321,-0.00051,0,0
141.375,2000,0,91.24,0.000002697398,0.000002697398,0.000002697398,0.99999994,0,0,0,0,0,0,1,0,0,0,0,false,false,false,0,77.96,17.01,-0.003325892,0.0033420762,0.7070959,0.7071018,0,453.031,8.321,-0.00051,0,0
141.38333,2000,0,91.24,0.000002697398,0.000002697398,0.000002697398,0.99999994,0,0,0,0,0,0,1,0,0,0,0,false,false,false,0,81.74,17.01,-0.003325892,0.0033420762,0.7070959,0.7071018,0,462.481,8.321,-0.00051,0,0
141.39166,2000,0,91.24,0.000002697398,0.000002697398,0.000002697398,0.99999994,0,0,0,0,0,0,1,0,0,0,0,false,false,false,0,85.59,17.01,-0.003325892,0.0033420762,0.7070959,0.7071018,0,471.85098,8.321,-0.00051,0,0
141.4,2000,0,91.24,0.000002697398,0.000002697398,0.000002697398,0.99999994,0,0,0,0,0,0,1,0,0,0,0,false,false,false,0,89.52,17.01,-0.003325892,0.0033420762,0.7070959,0.7071018,0,481.141,8.321,-0.00051,0,0
141.40834,2000,0,91.24,0.000002697398,0.000002697398,0.000002697398,0.99999994,0,0,0,0,0,0,1,0,0,0,0,false,false,false,0,93.53,17.01,-0.003325892,0.0033420762,0.7070959,0.7071018,0,490.35098,8.321,-0.00051,0,0
141.41667,2000,0,91.24,0.000002697398,0.000002697398,0.000002697398,0.99999994,0,0,0,0,0,0,1,0,0,0,0,false,false,false,0,97.619995,17.01,-0.003325892,0.0033420762,0.7070959,0.7071018,0,499.481,8.321,-0.00051,0,0
141.425,2000,0,91.24,0.000002697398,0.000002697398,0.000002697398,0.99999994,0,0,0,0,0,0,1,0,0,0,0,false,false,false,0,101.78,17.01,-0.003325892,0.0033420762,0.7070959,0.7071018,0,508.531,8.321,-0.00051,0,0
141.43333,2000,0,91.24,0.000002697398,0.000002697398,0.000002697398,0.99999994,0,0,0,0,0,0,1,0,0,0,0,false,false,false,0,106.02,17.01,-0.003325892,0.0033420762,0.7070959,0.7071018,0,517.501,8.321,-0.00051,0,0
141.44167,2000,0,91.24,0.000002697398,0.000002697398,0.000002697398,0.99999994,0,0,0,0,0,0,1,0,0,0,0,false,false,false,0,110.329994,17.01,-0.003325892,0.0033420762,0.7070959,0.7071018,0,526.391,8.321,-0.00051,0,0
141.45,2000,0,91.24,0.000002697398,0.000002697398,0.000002697398,0.99999994,0,0,0,0,0,0,1,0,0,0,0,false,false,false,0,114.72,17.01,-0.003325892,0.0033420762,0.7070959,0.7071018,0,535.21094,8.321,-0.00051,0,0
141.45833,2000,0,91.24,0.000002697398,0.000002697398,0.000002697398,0.99999994,0,0,0,0,0,0,1,0,0,0,0,false,false,false,0,119.18,17.01,-0.003325892,0.0033420762,0.7070959,0.7071018,0,543.951,8.321,-0.00061,0,0
141.46666,2000,0,91.24,0.000002697398,0.000002697398,0.000002697398,0.99999994,0,0,0,0,0,0,1,0,0,0,0,false,false,false,0,123.71,17.01,-0.003325892,0.0033420762,0.7070959,0.7071018,0,552.621,8.321,-0.00061,0,0
141.475,2000,0,91.24,0.000002697398,0.000002697398,0.000002697398,0.99999994,0,0,0,0,0,0,1,0,0,0,0,false,false,false,0,128.31999,17.01,-0.003325892,0.0033420762,0.7070959,0.7071018,0,561.21094,8.321,-0.00061,0,0
141.48334,2000,0,91.24,0.000002697398,0.000002697398,0.000002697398,0.99999994,0,0,0,0,0,0,1,0,0,0,0,false,false,false,0,133,17.01,-0.003325892,0.0033420762,0.7070959,0.7071018,0,569.73096,8.321,-0.00061,0,0
141.49167,2000,0,91.24,0.000002697398,0.000002697398,0.000002697398,0.99999994,0,0,0,0,0,0,1,0,0,0,0,false,false,false,0,137.75,17.01,-0.003325892,0.0033420762,0.7070959,0.7071018,0,578.18097,8.321,-0.00061,0,0
141.5,2000,0,91.24,0.000002697398,0.000002697398,0.000002697398,0.99999994,0,0,0,0,0,0,1,0,0,0,0,false,false,false,0,142.56999,17.01,-0.003325892,0.0033420762,0.7070959,0.7071018,0,586.55096,8.321,-0.00061,0,0
141.50833,2000,0,91.24,0.000002697398,0.000002697398,0.000002697398,0.99999994,0,0,0,0,0,0,1,0,0,0,0,false,false,false,0,147.45999,17.01,-0.003325892,0.0033420762,0.7070959,0.7071018,0,594.85095,8.321,-0.00061,0,0
141.51666,2000,0,91.24,0.000002697398,0.000002697398,0.000002697398,0.99999994,0,0,0,0,0,0,1,0,0,0,0,false,false,false,0,152.42,17.01,-0.003325892,0.0033420762,0.7070959,0.7071018,0,603.08093,8.321,-0.00061,0,0
141.525,2000,0,91.24,0.000002697398,0.000002697398,0.000002697398,0.99999994,0,0,0,0,0,0,1,0,0,0,0,false,false,false,0,157.45,17.01,-0.003325892,0.0033420762,0.7070959,0.7071018,0,611.24097,8.321,-0.00061,0,0
141.53334,2000,0,91.24,0.000002697398,0.000002697398,0.000002697398,0.99999994,0,0,0,0,0,0,1,0,0,0,0,false,false,false,0,162.54,17.01,-0.003325892,0.0033420762,0.7070959,0.7071018,0,619.33093,8.321,-0.00061,0,0
141.54167,2000,0,91.24,0.000002697398,0.000002697398,0.000002697398,0.99999994,0,0,0,0,0,0,1,0,0,0,0,false,false,false,0,167.7,17.01,-0.003325892,0.0033420762,0.7070959,0.7071018,0,627.35095,8.321,-0.00071,0,0
141.55,2000,0,91.24,0.000002697398,0.000002697398,0.000002697398,0.99999994,0,0,0,0,0,0,1,0,0,0,0,false,false,false,0,172.93,17.01,-0.003325892,0.0033420762,0.7070959,0.7071018,0,635.30096,8.321,-0.00071,0,0
141.55833,2000,0,91.24,0.000002697398,0.000002697398,0.000002697398,0.99999994,0,0,0,0,0,0,1,0,0,0,0,false,false,false,0,178.22,17.01,-0.003325892,0.0033420762,0.7070959,0.7071018,0,643.18097,8.321,-0.00071,0,0
141.56667,2000,0,91.24,0.000002697398,0.000002697398,0.000002697398,0.99999994,0,0,0,0,0,0,1,0,0,0,0,false,false,false,0,183.58,17.01,-0.003325892,0.0033420762,0.7070959,0.7071018,0,651.001,8.321,-0.00071,0,0
141.575,2000,0,91.24,0.000002697398,0.000002697398,0.000002697398,0.99999994,0,0,0,0,0,0,1,0,0,0,0,false,false,false,0,189.01,17.01,-0.003325892,0.0033420762,0.7070959,0.7071018,0,658.751,8.321,-0.00071,0,0
141.58333,2000,0,91.24,0.000002697398,0.000002697398,0.000002697398,0.99999994,0,0,0,0,0,0,1,0,0,0,0,false,false,false,0,194.5,17.01,-0.003325892,0.0033420762,0.7070959,0.7071018,0,666.43097,8.321,-0.00071,0,0
141.59166,2000,0,91.24,0.000002697398,0.000002697398,0.000002697398,0.99999994,0,0,0,0,0,0,1,0,0,0,0,false,false,false,0,200.05,17.01,-0.003325892,0.0033420762,0.7070959,0.7071018,0,674.05096,8.321,-0.00071,0,0
141.6,2000,0,91.24,0.000002697398,0.000002697398,0.000002697398,0.99999994,0,0,0,0,0,0,1,0,0,0,0,false,false,false,0,205.67,17.01,-0.003325892,0.0033420762,0.7070959,0.7071018,0,681.60095,8.321,-0.00071,0,0
141.60834,2000,0,91.24,0.000002697398,0.000002697398,0.000002697398,0.99999994,0,0,0,0,0,0,1,0,0,0,0,false,false,false,0,211.34999,17.01,-0.003325892,0.0033420762,0.7070959,0.7071018,0,689.09094,8.321,-0.00071,0,0
141.61667,2000,0,91.24,0.000002697398,0.000002697398,0.000002697398,0.99999994,0,0,0,0,0,0,1,0,0,0,0,false,false,false,0,217.09,17.01,-0.003325892,0.0033420762,0.7070959,0.7071018,0,696.511,8.321,-0.00071,0,0
141.625,2000,0,91.24,0.000002697398,0.000002697398,0.000002697398,0.99999994,0,0,0,0,0,0,1,0,0,0,0,false,false,false,0,222.89,17.01,-0.003325892,0.0033420762,0.7070959,0.7071018,0,703.871,8.321,-0.00071,0,0
141.63333,2000,0,91.24,0.000002697398,0.000002697398,0.000002697398,0.99999994,0,0,0,0,0,0,1,0,0,0,0,false,false,false,0,228.76,17.01,-0.003325892,0.0033420762,0.7070959,0.7071018,0,711.17096,8.321,-0.00071,0,0
141.64166,2000,0,91.24,0.000002697398,0.000002697398,0.000002697398,0.99999994,0,0,0,0,0,0,1,0,0,0,0,false,false,false,0,234.68999,17.01,-0.003325892,0.0033420762,0.7070959,0.7071018,0,718.40094,8.321,-0.00081,0,0
141.65,2000,0,91.24,0.000002697398,0.000002697398,0.000002697398,0.99999994,0,0,0,0,0,0,1,0,0,0,0,false,false,false,0,240.68,17.01,-0.003325892,0.0033420762,0.7070959,0.7071018,0,725.571,8.321,-0.00081,0,0
141.65834,2000,0,91.24,0.000002697398,0.000002697398,0.000002697398,0.99999994,0,0,0,0,0,0,1,0,0,0,0,false,false,false,0,246.73,17.01,-0.003325892,0.0033420762,0.7070959,0.7071018,0,732.68097,8.321,-0.00081,0,0
141.66667,2000,0,91.24,0.000002697398,0.000002697398,0.000002697398,0.99999994,0,0,0,0,0,0,1,0,0,0,0,false,false,false,0,252.84,17.01,-0.003325892,0.0033420762,0.7070959,0.7071018,0,739.73096,8.321,-0.00081,0,0
141.675,2000,0,91.24,0.000002697398,0.000002697398,0.000002697398,0.99999994,0,0,0,0,0,0,1,0,0,0,0,false,false,false,0,259,17.01,-0.003325892,0.0033420762,0.7070959,0.7071018,0,746.72095,8.321,-0.00081,0,0
141.68333,2000,0,91.24,0.000002697398,0.000002697398,0.000002697398,0.99999994,0,0,0,0,0,0,1,0,0,0,0,false,false,false,0,265.22,17.01,-0.003325892,0.0033420762,0.7070959,0.7071018,0,753.65094,8.321,-0.00081,0,0
141.69167,2000,0,91.24,0.000002697398,0.000002697398,0.000002697398,0.99999994,0,0,0,0,0,0,1,0,0,0,0,false,false,false,0,271.5,17.01,-0.003325892,0.0033420762,0.7070959,0.7071018,0,760.52094,8.321,-0.00081,0,0
141.7,2000,0,91.24,0.000002697398,0.000002697398,0.000002697398,0.99999994,0,0,0,0,0,0,1,0,0,0,0,false,false,false,0,277.84,17.01,-0.003325892,0.0033420762,0.7070959,0.7071018,0,767.33093,8.321,-0.00081,0,0
141.70833,2000,0,91.24,0.000002697398,0.000002697398,0.000002697398,0.99999994,0,0,0,0,0,0,1,0,0,0,0,false,false,false,0,284.22998,17.01,-0.003325892,0.0033420762,0.7070959,0.7071018,0,774.08093,8.321,-0.00081,0,0
141.71666,2000,0,91.24,0.000002697398,0.000002697398,0.000002697398,0.99999994,0,0,0,0,0,0,1,0,0,0,0,false,false,false,0,290.68,17.01,-0.003325892,0.0033420762,0.7070959,0.7071018,0,780.77094,8.321,-0.00081,0,0
141.725,2000,0,91.24,0.000002697398,0.000002697398,0.000002697398,0.99999994,0,0,0,0,0,0,1,0,0,0,0,false,false,false,0,297.19,17.01,-0.003325892,0.0033420762,0.7070959,0.7071018,0,787.41095,8.321,-0.00081,0,0
141.73334,2000,0,91.24,0.000002697398,0.000002697398,0.000002697398,0.99999994,0,0,0,0,0,0,1,0,0,0,0,false,false,false,0,303.75,17.01,-0.003325892,0.0033420762,0.7070959,0.7071018,0,793.99097,8.321,-0.00081,0,0
141.74167,2000,0,91.24,0.000002697398,0.000002697398,0.000002697398,0.99999994,0,0,0,0,0,0,1,0,0,0,0,false,false,false,0,310.37,17.01,-0.003325892,0.0033420762,0.7070959,0.7071018,0,800.511,8.321,-0.00081,0,0
141.75,2000,0,91.24,0.000002697398,0.000002697398,0.000002697398,0.99999994,0,0,0,0,0,0,1,0,0,0,0,false,false,false,0,317.03998,17.01,-0.003325892,0.0033420762,0.7070959,0.7071018,0,806.98096,8.321,-0.00091,0,0
141.75833,2000,0,91.24,0.000002697398,0.000002697398,0.000002697398,0.99999994,0,0,0,0,0,0,1,0,0,0,0,false,false,false,0,323.75998,17.01,-0.003325892,0.003347471,0.7070959,0.70710176,0,813.3909,8.321,-0.00091,0,0
141.76666,2000,0,91.24,0.000002697398,0.000002697398,0.000002697398,0.99999994,0,0,0,0,0,0,1,0,0,0,0,false,false,false,0,330.53998,17.01,-0.0033258921,0.003352866,0.707096,0.70710176,0,819.751,8.321,-0.00091,-0.00010999999,0
141.775,2000,0,91.24,0.000002697398,0.000002697398,0.000002697398,0.99999994,0,0,0,0,0,0,1,0,0,0,0,false,false,false,0,337.37,17.01,-0.0033312868,0.003352866,0.707096,0.70710176,0,826.05096,8.321,-0.00081,-0.00021,0
141.78334,2000,0,91.24,0.000002697398,0.000002697398,0.000002697398,0.99999994,0,0,0,0,0,0,1,0,0,0,0,false,false,false,0,344.25,17.01,-0.0033366815,0.0033528658,0.7070959,0.7071017,0,832.30096,8.321,-0.00071,-0.00021,0
141.79167,2000,0,91.24,0.000002697398,0.000002697398,0.000002697398,0.99999994,0,0,0,0,0,0,1,0,0,0,0,false,false,false,0,351.19,17.01,-0.0033366815,0.0033528658,0.7070959,0.7071017,0,838.501,8.321,-0.00071,-0.00021,0
141.8,2000,0,91.24,0.000002697398,0.000002697398,0.000002697398,0.99999994,0,0,0,0,0,0,1,0,0,0,0,false,false,false,0,358.18,17.01,-0.0033366815,0.0033528658,0.7070959,0.7071017,0,844.6409,8.321,-0.00071,-0.00021,0
141.80833,2000,0,91.24,0.000002697398,0.000002697398,0.000002697398,0.99999994,0,0,0,0,0,0,1,0,0,0,0,false,false,false,0,365.22,17.01,-0.0033366815,0.0033528658,0.7070959,0.7071017,0,850.73096,8.321,-0.00071,-0.00021,0
141.81667,2000,0,91.24,0.000002697398,0.000002697398,0.000002697398,0.99999994,0,0,0,0,0,0,1,0,0,0,0,false,false,false,0,372.31,17.01,-0.0033366815,0.0033528658,0.7070959,0.7071017,0,856.77094,8.321,-0.00071,-0.00021,0
141.825,2000,0,91.24,0.000002697398,0.000002697398,0.000002697398,0.99999994,0,0,0,0,0,0,1,0,0,0,0,false,false,false,0,379.44998,17.01,-0.0033366815,0.0033528658,0.7070959,0.7071017,0,862.761,8.321,-0.00071,-0.00021,0
141.83333,2000,0,91.24,0.000002697398,0.000002697398,0.000002697398,0.99999994,0,0,0,0,0,0,1,0,0,0,0,false,false,false,0,386.63998,17.01,-0.0033366815,0.0033528658,0.7070959,0.7071017,0,868.691,8.321,-0.00071,-0.00021,0
141.84166,2000,0,91.24,0.000002697398,0.000002697398,0.000002697398,0.99999994,0,0,0,0,0,0,1,0,0,0,0,false,false,false,0,393.88,17.01,-0.0033366815,0.0033528658,0.7070959,0.7071017,0,874.571,8.321,-0.00071,-0.00021,0
141.85,2000,0,91.24,0.000002697398,0.000002697398,0.000002697398,0.99999994,0,0,0,0,0,0,1,0,0,0,0,false,false,false,0,401.16998,17.01,-0.0033366815,0.0033528658,0.7070959,0.7071017,0,880.40094,8.321,-0.00071,-0.00021,0
141.85834,2000,0,91.24,0.000002697398,0.000002697398,0.000002697398,0.99999994,0,0,0,0,0,0,1,0,0,0,0,false,false,false,0,408.50998,17.01,-0.0033366815,0.0033528658,0.7070959,0.7071017,0,886.18097,8.321,-0.00071,-0.00021,0
141.86667,2000,0,91.24,0.000002697398,0.000002697398,0.000002697398,0.99999994,0,0,0,0,0,0,1,0,0,0,0,false,false,false,0,415.88998,17.01,-0.0033366815,0.0033528658,0.7070959,0.7071017,0,891.91095,8.321,-0.00071,-0.00021,0
141.875,2000,0,91.24,0.000002697398,0.000002697398,0.000002697398,0.99999994,0,0,0,0,0,0,1,0,0,0,0,false,false,false,0,423.31998,17.01,-0.0033366815,0.0033528658,0.7070959,0.7071017,0,897.59094,8.321,-0.00071,-0.00021,0
141.88333,2000,0,91.24,0.000002697398,0.000002697398,0.000002697398,0.99999994,0,0,0,0,0,0,1,0,0,0,0,false,false,false,0,430.8,17.01,-0.0033366815,0.0033528658,0.7070959,0.7071017,0,903.23096,8.321,-0.00071,-0.00021,0
141.89166,2000,0,91.24,0.000002697398,0.000002697398,0.000002697398,0.99999994,0,0,0,0,0,0,1,0,0,0,0,false,false,false,0,438.33,17.01,-0.0033366815,0.0033528658,0.7070959,0.7071017,0,908.821,8.321,-0.00071,-0.00021,0
141.9,2000,0,91.24,0.000002697398,0.000002697398,0.000002697398,0.99999994,0,0,0,0,0,0,1,0,0,0,0,false,false,false,0,445.9,17.01,-0.0033366815,0.0033528658,0.7070959,0.7071017,0,914.36096,8.321,-0.00071,-0.00021,0
141.90834,2000,0,91.24,0.000002697398,0.000002697398,0.000002697398,0.99999994,0,0,0,0,0,0,1,0,0,0,0,false,false,false,0,453.52,17.01,-0.0033366815,0.0033528658,0.7070959,0.7071017,0,919.85095,8.321,-0.00071,-0.00021,0
141.91667,2000,0,91.24,0.000002697398,0.000002697398,0.000002697398,0.99999994,0,0,0,0,0,0,1,0,0,0,0,false,false,false,0,461.19,17.01,-0.0033366815,0.0033528658,0.7070959,0.7071017,0,925.30096,8.321,-0.00071,-0.00021,0
141.925,2000,0,91.24,0.000002697398,0.000002697398,0.000002697398,0.99999994,0,0,0,0,0,0,1,0,0,0,0,false,false,false,0,468.9,17.01,-0.0033366815,0.0033528658,0.7070959,0.7071017,0,930.7009,8.321,-0.00071,-0.00021,0
141.93333,2000,0,91.24,0.000002697398,0.000002697398,0.000002697398,0.99999994,0,0,0,0,0,0,1,0,0,0,0,false,false,false,0,476.66,17.01,-0.0033366815,0.0033528658,0.7070959,0.7071017,0,936.05096,8.321,-0.00071,-0.00021,0
141.94167,2000,0,91.24,0.000002697398,0.000002697398,0.000002697398,0.99999994,0,0,0,0,0,0,1,0,0,0,0,false,false,false,0,484.46,17.01,-0.0033366815,0.0033528658,0.7070959,0.7071017,0,941.36096,8.321,-0.00071,-0.00021,0
141.95,2000,0,91.24,0.000002697398,0.000002697398,0.000002697398,0.99999994,0,0,0,0,0,0,1,0,0,0,0,false,false,false,0,492.3,17.01,-0.0033366815,0.0033528658,0.7070959,0.7071017,0,946.621,8.321,-0.00071,-0.00021,0
141.95833,2000,0,91.24,0.000002697398,0.000002697398,0.000002697398,0.99999994,0,0,0,0,0,0,1,0,0,0,0,false,false,false,0,500.19,17.01,-0.0033366815,0.0033528658,0.7070959,0.7071017,0,951.84094,8.321,-0.00071,-0.00021,0
141.96666,2000,0,91.24,0.000002697398,0.000002697398,0.000002697398,0.99999994,0,0,0,0,0,0,1,0,0,0,0,false,false,false,0,508.12,17.01,-0.0033366815,0.0033528658,0.7070959,0.7071017,0,957.0109,8.321,-0.00071,-0.00021,0
141.975,2000,0,91.24,0.000002697398,0.000002697398,0.000002697398,0.99999994,0,0,0,0,0,0,1,0,0,0,0,false,false,false,0,516.1,17.01,-0.0033366815,0.0033528658,0.7070959,0.7071017,0,962.1409,8.321,-0.00071,-0.00021,0
141.98334,2000,0,91.24,0.000002697398,0.000002697398,0.000002697398,0.99999994,0,0,0,0,0,0,1,0,0,0,0,false,false,false,0,524.12,17.01,-0.0033366815,0.0033528658,0.7070959,0.7071017,0,967.22095,8.321,-0.00071,-0.00021,0
141.99167,2000,0,91.24,0.000002697398,0.000002697398,0.000002697398,0.99999994,0,0,0,0,0,0,1,0,0,0,0,false,false,false,0,532.18,17.01,-0.0033366815,0.0033528658,0.7070959,0.7071017,0,972.2609,8.321,-0.00071,-0.00021,0
142,2000,0,91.24,0.000002697398,0.000002697398,0.000002697398,0.99999994,0,0,0,0,0,0,1,0,0,0,0,false,false,false,0,540.27997,17.01,-0.0033366815,0.0033528658,0.7070959,0.7071017,0,977.2609,8.321,-0.00071,-0.00021,0
142.00833,2000,0,91.24,0.000002697398,0.000002697398,0.000002697398,0.99999994,0,0,0,0,0,0,1,0,0,0,0,false,false,false,0,548.42,17.01,-0.0033366815,0.0033528658,0.7070959,0.7071017,0,982.21094,8.321,-0.00071,-0.00021,0
142.01666,2000,0,91.24,0.000002697398,0.000002697398,0.000002697398,0.99999994,0,0,0,0,0,0,1,0,0,0,0,false,false,false,0,556.61,17.01,-0.0033366815,0.0033528658,0.7070959,0.7071017,0,987.121,8.321,-0.00071,-0.00021,0
142.025,2000,0,91.24,0.000002697398,0.000002697398,0.000002697398,0.99999994,0,0,0,0,0,0,1,0,0,0,0,false,false,false,0,564.83997,17.01,-0.0033366815,0.0033528658,0.7070959,0.7071017,0,991.99097,8.321,-0.00071,-0.00021,0
142.03334,2000,0,91.24,0.000002697398,0.000002697398,0.000002697398,0.99999994,0,0,0,0,0,0,1,0,0,0,0,false,false,false,0,573.11,17.01,-0.0033366815,0.0033528658,0.7070959,0.7071017,0,996.821,8.321,-0.00071,-0.00021,0
142.04167,2000,0,91.24,0.000002697398,0.000002697398,0.000002697398,0.99999994,0,0,0,0,0,0,1,0,0,0,0,false,false,false,0,581.42,17.01,-0.0033366815,0.0033528658,0.7070959,0.7071017,0,1001.61096,8.321,-0.00071,-0.00021,0
142.05,2000,0,91.24,0.000002697398,0.000002697398,0.000002697398,0.99999994,0,0,0,0,0,0,1,0,0,0,0,false,false,false,0,589.76996,17.01,-0.0033366815,0.0033528658,0.7070959,0.7071017,0,1006.35095,8.321,-0.00071,-0.00021,0
142.05833,2000,0,91.24,0.000002697398,0.000002697398,0.000002697398,0.99999994,0,0,0,0,0,0,1,0,0,0,0,false,false,false,0,598.16,17.01,-0.0033366815,0.0033528658,0.7070959,0.7071017,0,1011.05096,8.321,-0.00071,-0.00021,0
142.06667,2000,0,91.24,0.000002697398,0.000002697398,0.000002697398,0.99999994,0,0,0,0,0,0,1,0,0,0,0,false,false,false,0,606.58997,17.01,-0.0033366815,0.0033528658,0.7070959,0.7071017,0,1015.71094,8.321,-0.00071,-0.00021,0
142.075,2000,0,91.24,0.000002697398,0.000002697398,0.000002697398,0.99999994,0,0,0,0,0,0,1,0,0,0,0,false,false,false,0,615.05,17.01,-0.0033366815,0.0033528658,0.7070959,0.7071017,0,1020.33093,8.321,-0.00071,-0.00021,0
142.08333,2000,0,91.24,0.000002697398,0.000002697398,0.000002697398,0.99999994,0,0,0,0,0,0,1,0,0,0,0,false,false,false,0,623.55,17.01,-0.0033366815,0.0033528658,0.7070959,0.7071017,0,1024.911,8.321,-0.00081,-0.00021,0
142.09166,2000,0,91.24,0.000002697398,0.000002697398,0.000002697398,0.99999994,0,0,0,0,0,0,1,0,0,0,0,false,false,false,0,632.08997,17.01,-0.0033420762,0.0033528658,0.7070959,0.7071017,0,1029.4509,8.321,-0.00081,-0.00021,0
142.1,2000,0,91.24,0.000002697398,0.000002697398,0.000002697398,0.99999994,0,0,0,0,0,0,1,0,0,0,0,false,false,false,0,640.67,17.01,-0.003347471,0.0033528658,0.7070959,0.70710164,0,1033.9609,8.321,-0.00081,-0.00010999999,0
142.10834,2000,0,91.24,0.000002697398,0.000002697398,0.000002697398,0.99999994,0,0,0,0,0,0,1,0,0,0,0,false,false,false,0,649.29,17.01,-0.003347471,0.0033528658,0.7070959,0.70710164,0,1038.4309,8.321,-0.00071,0,0
142.11667,2000,0,91.24,0.000002697398,0.000002697398,0.000002697398,0.99999994,0,0,0,0,0,0,1,0,0,0,0,false,false,false,0,657.94,17.01,-0.003347471,0.0033528658,0.7070959,0.70710164,0,1042.861,8.321,-0.00071,0,0
142.125,2000,0,91.24,0.000002697398,0.000002697398,0.000002697398,0.99999994,0,0,0,0,0,0,1,0,0,0,0,false,false,false,0,666.63,17.01,-0.003347471,0.0033528658,0.7070959,0.70710164,0,1047.251,8.321,-0.00071,0,0
142.13333,2000,0,91.24,0.000002697398,0.000002697398,0.000002697398,0.99999994,0,0,0,0,0,0,1,0,0,0,0,false,false,false,0,675.36,17.01,-0.003347471,0.0033528658,0.7070959,0.70710164,0,1051.601,8.321,-0.00071,0,0
142.14166,2000,0,91.24,0.000002697398,0.000002697398,0.000002697398,0.99999994,0,0,0,0,0,0,1,0,0,0,0,false,false,false,0,684.12,17.01,-0.003347471,0.0033528658,0.7070959,0.70710164,0,1055.9209,8.321,-0.00071,0,0
142.15,2000,0,91.24,0.000002697398,0.000002697398,0.000002697398,0.99999994,0,0,0,0,0,0,1,0,0,0,0,false,false,false,0,692.92,17.01,-0.003347471,0.0033528658,0.7070959,0.70710164,0,1060.2009,8.321,-0.00071,0,0
142.15834,2000,0,91.24,0.000002697398,0.000002697398,0.000002697398,0.99999994,0,0,0,0,0,0,1,0,0,0,0,false,false,false,0,701.76,17.01,-0.003347471,0.0033528658,0.7070959,0.70710164,0,1064.4409,8.321,-0.00071,0,0
142.16667,2000,0,91.24,0.000002697398,0.000002697398,0.000002697398,0.99999994,0,0,0,0,0,0,1,0,0,0,0,false,false,false,0,710.63,17.01,-0.003347471,0.0033528658,0.7070959,0.70710164,0,1068.651,8.321,-0.00071,0,0
142.175,2000,0,91.24,0.000002697398,0.000002697398,0.000002697398,0.99999994,0,0,0,0,0,0,1,0,0,0,0,false,false,false,0,719.54,17.01,-0.003347471,0.0033528658,0.7070959,0.70710164,0,1072.8209,8.321,-0.00071,0,0
142.18333,2000,0,91.24,0.000002697398,0.000002697398,0.000002697398,0.99999994,0,0,0,0,0,0,1,0,0,0,0,false,false,false,0,728.48,17.01,-0.003347471,0.0033528658,0.7070959,0.70710164,0,1076.9509,8.321,-0.00071,0,0
142.19167,2000,0,91.24,0.000002697398,0.000002697398,0.000002697398,0.99999994,0,0,0,0,0,0,1,0,0,0,0,false,false,false,0,737.45,17.01,-0.003347471,0.0033528658,0.7070959,0.70710164,0,1081.0509,8.321,-0.00071,0,0
142.2,2000,0,91.24,0.000002697398,0.000002697398,0.000002697398,0.99999994,0,0,0,0,0,0,1,0,0,0,0,false,false,false,0,746.45996,17.01,-0.003347471,0.0033528658,0.7070959,0.70710164,0,1085.111,8.321,-0.00071,0,0
142.20833,2000,0,91.24,0.000002697398,0.000002697398,0.000002697398,0.99999994,0,0,0,0,0,0,1,0,0,0,0,false,false,false,0,755.5,17.01,-0.003347471,0.0033528658,0.7070959,0.70710164,0,1089.141,8.321,-0.00071,0,0
142.21666,2000,0,91.24,0.000002697398,0.000002697398,0.000002697398,0.99999994,0,0,0,0,0,0,1,0,0,0,0,false,false,false,0,764.57996,17.01,-0.003347471,0.0033528658,0.7070959,0.70710164,0,1093.131,8.321,-0.00071,0,0
142.225,2000,0,91.24,0.000002697398,0.000002697398,0.000002697398,0.99999994,0,0,0,0,0,0,1,0,0,0,0,false,false,false,0,773.69,17.01,-0.003347471,0.0033528658,0.7070959,0.70710164,0,1097.091,8.321,-0.00071,0,0
142.23334,2000,0,91.24,0.000002697398,0.000002697398,0.000002697398,0.99999994,0,0,0,0,0,0,1,0,0,0,0,false,false,false,0,782.82996,17.01,-0.003347471,0.0033528658,0.7070959,0.70710164,0,1101.021,8.321,-0.00071,0,0
142.24167,2000,0,91.24,0.000002697398,0.000002697398,0.000002697398,0.99999994,0,0,0,0,0,0,1,1,0,0,0,false,false,true,0,792.01,17.01,-0.003347471,0.0033528658,0.7070959,0.70710164,-13.311,1102.5609,8.341001,-0.00071,0.00341,0.36881
142.25,2000,0,91.24,0.000002697398,0.000002697398,0.000002697398,0.99999994,0,0,0,0,0,0,1,1,0,0,0,false,false,true,-0.11,801.2,17.01,-0.0033420757,0.00335826,0.7081843,0.70601153,-23.710999,1104.481,8.351,-0.00071,0.00461,0.64581
142.25833,2000,0,91.24,0.000002697398,0.000002697398,0.000002697398,0.99999994,0,0,0,0,0,0,1,1,0,0,0,false,false,true,-0.31,810.39996,17.01,-0.0033420762,0.0033636554,0.7100831,0.7041018,-33.481,1106.401,8.351,-0.00071,0.00491,0.88521
142.26666,2000,0,91.24,0.000002697398,0.000002697398,0.000002697398,0.99999994,0,0,0,0,0,0,1,1,0,0,0,false,false,true,-0.59,819.62,17.01,-0.0033420762,0.00336905,0.7126733,0.7014799,-43.001,1108.271,8.351,-0.00071,0.00461,1.09321
142.275,2000,0,91.24,0.000002697398,0.000002697398,0.000002697398,0.99999994,0,0,0,0,0,0,1,1,0,0,0,false,false,true,-0.95,828.86,17.01,-0.003347471,0.00336905,0.7158607,0.69822687,-52.521,1110.031,8.351,-0.00071,0.00401,1.27501
142.28334,2000,0,91.24,0.000002697398,0.000002697398,0.000002697398,0.99999994,0,0,0,0,0,0,1,1,0,0,0,false,false,true,-1.39,838.11,17.01,-0.003352866,0.0033636556,0.7195612,0.6944127,-62.211,1111.641,8.351,-0.00071,0.00331,1.43511
142.29167,2000,0,91.24,0.000002697398,0.000002697398,0.000002697398,0.99999994,0,0,0,0,0,0,1,1,0,0,0,false,false,true,-1.91,847.37,17.01,-0.0033636556,0.003352866,0.72370136,0.6900969,-72.151,1113.0609,8.351,-0.00071,0.00251,1.5771099
142.3,2000,0,91.24,0.000002697398,0.000002697398,0.000002697398,0.99999994,0,0,0,0,0,0,1,1,0,0,0,false,false,true,-2.51,856.64996,17.01,-0.0033798397,0.0033420762,0.7282191,0.6853278,-82.381,1114.261,8.351,-0.00071,0.0018099999,1.70391
142.30833,2000,0,91.24,0.000002697398,0.000002697398,0.000002697398,0.99999994,0,0,0,0,0,0,1,1,0,0,0,false,false,true,-3.1999998,865.94,17.01,-0.0034014184,0.0033258914,0.73306847,0.680138,-92.901,1115.2109,8.351,-0.00061,0.00111,1.81801
142.31667,2000,0,91.24,0.000002697398,0.000002697398,0.000002697398,0.99999994,0,0,0,0,0,0,1,1,0,0,0,false,false,true,-3.97,875.23,17.01,-0.0034229981,0.0033043127,0.73819983,0.6745652,-103.681,1115.891,8.351,-0.00051,0.00051,1.92131
142.325,2000,0,91.24,0.000002697398,0.000002697398,0.000002697398,0.99999994,0,0,0,0,0,0,1,1,0,0,0,false,false,true,-4.83,884.52997,17.01,-0.0034499723,0.0032773386,0.7435743,0.66863626,-114.681,1116.2909,8.351,-0.00040999998,0,2.01531
142.33333,2000,0,91.24,0.000002697398,0.000002697398,0.000002697398,0.99999994,0,0,0,0,0,0,1,1,0,0,0,false,false,true,-5.79,893.82996,17.01,-0.0034769461,0.0032503647,0.7491638,0.6623675,-125.821,1116.411,8.351,-0.00040999998,-0.00030999997,2.1012099
142.34166,2000,0,91.24,0.000002697398,0.000002697398,0.000002697398,0.99999994,0,0,0,0,0,0,1,1,0,0,0,false,false,true,-6.8399997,903.13,17.01,-0.003509315,0.0032179959,0.7549318,0.65578586,-137.031,1116.251,8.351,-0.00030999997,-0.00051,2.17991
142.35,2000,0,91.24,0.000002697398,0.000002697398,0.000002697398,0.99999994,0,0,0,0,0,0,1,1,0,0,0,false,false,true,-7.98,912.43,17.01,-0.0035416838,0.003185627,0.760857,0.648902,-148.211,1115.8209,8.351,-0.00030999997,-0.00071,2.25221
142.35834,2000,0,91.24,0.000002697398,0.000002697398,0.000002697398,0.99999994,0,0,0,0,0,0,1,1,0,0,0,false,false,true,-9.22,921.73,17.01,-0.0035740524,0.0031532582,0.7669138,0.64173234,-159.281,1115.141,8.351,-0.00021,-0.00081,2.31861
142.36667,2000,0,91.24,0.000002697398,0.000002697398,0.000002697398,0.99999994,0,0,0,0,0,0,1,1,0,0,0,false,false,true,-10.55,931.01996,17.01,-0.0036064212,0.0031154947,0.773078,0.6342929,-170.131,1114.251,8.351,-0.00010999999,-0.00091,2.37951
142.375,2000,0,91.24,0.000002697398,0.000002697398,0.000002697398,0.99999994,0,0,0,0,0,0,1,1,0,0,0,false,false,true,-11.969999,940.31,17.01,-0.00363879,0.0030777312,0.77933085,0.6265944,-180.651,1113.1809,8.351,-0.00010999999,-0.0010099999,2.43531
142.38333,2000,0,91.24,0.000002697398,0.000002697398,0.000002697398,0.99999994,0,0,0,0,0,0,1,1,0,0,0,false,false,true,-13.48,949.58997,17.01,-0.0036711588,0.0030399675,0.78564954,0.6186533,-190.741,1111.981,8.351,-0.00010999999,-0.00111,2.48611
142.39166,2000,0,91.24,0.000002697398,0.000002697398,0.000002697398,0.99999994,0,0,0,0,0,0,1,1,0,0,0,false,false,true,-15.07,958.86,17.01,-0.0037089225,0.0029968095,0.7920171,0.61048025,-200.271,1110.7109,8.351,0,-0.0012099999,2.53211
142.4,2000,0,91.24,0.000002697398,0.000002697398,0.000002697398,0.99999994,0,0,0,0,0,0,1,1,0,0,0,false,false,true,-16.74,968.12,17.01,-0.0037466863,0.0029536511,0.798413,0.60209125,-209.131,1109.4509,8.351,0,-0.0012099999,2.57341
142.40834,2000,0,91.24,0.000002697398,0.000002697398,0.000002697398,0.99999994,0,0,0,0,0,0,1,1,0,0,0,false,false,true,-18.48,977.37,17.01,-0.0037844495,0.0029104925,0.8048217,0.5934973,-217.19101,1108.2909,8.351,0,-0.0012099999,2.60991
142.41667,2000,0,91.24,0.000002697398,0.000002697398,0.000002697398,0.99999994,0,0,0,0,0,0,1,1,0,0,0,false,false,true,-20.289999,986.61,17.01,-0.003822213,0.002867334,0.81122893,0.58470905,-224.33101,1107.3309,8.341001,0,-0.0012099999,2.64161
142.425,2000,0,91.24,0.000002697398,0.000002697398,0.000002697398,0.99999994,0,0,0,0,0,0,1,1,0,0,0,false,false,true,-22.16,995.83997,17.01,-0.0038599768,0.0028241756,0.8176167,0.5757429,-230.421,1106.6809,8.341001,0.00010999999,-0.0012099999,2.66841
142.43333,2000,0,91.24,0.000002697398,0.000002697398,0.000002697398,0.99999994,0,0,0,0,0,0,1,1,0,0,0,false,false,true,-24.08,1005.06,17.01,-0.0038923454,0.0027756225,0.82396877,0.5666149,-235.33101,1106.481,8.331,0.00021,-0.0012099999,2.69031
142.44167,2000,0,91.24,0.000002697398,0.000002697398,0.000002697398,0.99999994,0,0,0,0,0,0,1,1,0,0,0,false,false,true,-26.039999,1014.27997,17.01,-0.003924714,0.0027270694,0.83026975,0.55734116,-240.451,1106.091,8.331,0.00021,-0.00111,2.71171
142.45,2000,0,91.24,0.000002697398,0.000002697398,0.000002697398,0.99999994,0,0,0,0,0,0,1,1,0,0,0,false,false,true,-28.039999,1023.5,17.01,-0.003957083,0.0026785163,0.8365158,0.54792184,-245.781,1105.501,8.331,0.00021,-0.00111,2.73281
142.45833,2000,0,91.24,0.000002697398,0.000002697398,0.000002697398,0.99999994,0,0,0,0,0,0,1,1,0,0,0,false,false,true,-30.09,1032.71,17.01,-0.0039894516,0.002629963,0.8426999,0.5383622,-251.301,1104.7009,8.331,0.00021,-0.0010099999,2.75361
142.46666,2000,0,91.24,0.000002697398,0.000002697398,0.000002697398,0.99999994,0,0,0,0,0,0,1,1,0,0,0,false,false,true,-32.18,1041.9199,17.01,-0.0040218206,0.00258141,0.84882206,0.528657,-257.011,1103.6909,8.331,0.00021,-0.00091,2.77401
142.475,2000,0,91.24,0.000002697398,0.000002697398,0.000002697398,0.99999994,0,0,0,0,0,0,1,1,0,0,0,false,false,true,-34.32,1051.12,17.01,-0.0040541897,0.002532857,0.8548753,0.5188114,-262.891,1102.471,8.331,0.00021,-0.00081,2.79411
142.48334,2000,0,91.24,0.000002697398,0.000002697398,0.000002697398,0.99999994,0,0,0,0,0,0,1,1,0,0,0,false,false,true,-36.51,1060.3099,17.01,-0.004086558,0.0024843037,0.86085624,0.5088256,-268.931,1101.0409,8.331,0.00021,-0.00071,2.81391
142.49167,2000,0,91.24,0.000002697398,0.000002697398,0.000002697398,0.99999994,0,0,0,0,0,0,1,1,0,0,0,false,false,true,-38.75,1069.49,17.01,-0.0041189273,0.0024357506,0.8667616,0.49869964,-275.111,1099.391,8.331,0.00021,-0.00071,2.83351
142.5,2000,0,91.24,0.000002697398,0.000002697398,0.000002697398,0.99999994,0,0,0,0,0,0,1,1,0,0,0,false,false,true,-41.04,1078.65,17.01,-0.0041512954,0.0023871972,0.87258804,0.4884332,-281.431,1097.521,8.331,0.00030999997,-0.00061,2.85281
142.50833,2000,0,91.24,0.000002697398,0.000002697398,0.000002697398,0.99999994,0,0,0,0,0,0,1,1,0,0,0,false,false,true,-43.39,1087.7999,17.01,-0.0041782693,0.0023332492,0.8783322,0.47802666,-287.871,1095.4209,8.331,0.00030999997,-0.00051,2.87181
142.51666,2000,0,91.24,0.000002697398,0.000002697398,0.000002697398,0.99999994,0,0,0,0,0,0,1,1,0,0,0,false,false,true,-45.789997,1096.9299,17.01,-0.0042052427,0.0022793012,0.88398784,0.46748507,-294.431,1093.101,8.331,0.00030999997,-0.00051,2.8905098
142.525,2000,0,91.24,0.000002697398,0.000002697398,0.000002697398,0.99999994,0,0,0,0,0,0,1,1,0,0,0,false,false,true,-48.239998,1106.0399,17.01,-0.0042322176,0.0022253534,0.88955474,0.45680344,-301.091,1090.5509,8.331,0.00030999997,-0.00040999998,2.90891
142.53334,2000,0,91.24,0.000002697398,0.000002697398,0.000002697398,0.99999994,0,0,0,0,0,0,1,1,0,0,0,false,false,true,-50.75,1115.13,17.01,-0.0042591915,0.0021714054,0.89502674,0.44598678,-307.841,1087.771,8.331,0.00030999997,-0.00040999998,2.92711
142.54167,2000,0,91.24,0.000002697398,0.000002697398,0.000002697398,0.99999994,0,0,0,0,0,0,1,1,0,0,0,false,false,true,-53.32,1124.19,17.01,-0.0042861653,0.0021174573,0.90040064,0.43503535,-314.681,1084.771,8.331,0.00021,-0.00040999998,2.94501
142.55,2000,0,91.24,0.000002697398,0.000002697398,0.000002697398,0.99999994,0,0,0,0,0,0,1,1,0,0,0,false,false,true,-55.94,1133.23,17.01,-0.0043131392,0.0020635095,0.9056709,0.42395437,-321.591,1081.5409,8.331,0.00021,-0.00030999997,2.96261
142.55833,2000,0,91.24,0.000002697398,0.000002697398,0.000002697398,0.99999994,0,0,0,0,0,0,1,1,0,0,0,false,false,true,-58.62,1142.24,17.01,-0.0043401127,0.0020095613,0.9108344,0.41274393,-328.561,1078.091,8.331,0.00021,-0.00030999997,2.98001
142.56667,2000,0,91.24,0.000002697398,0.000002697398,0.000002697398,0.99999994,0,0,0,0,0,0,1,1,0,0,0,false,false,true,-61.359997,1151.22,17.01,-0.0043670875,0.0019556135,0.91588855,0.40140402,-335.581,1074.411,8.331,0.00021,-0.00021,2.99711
142.575,2000,0,91.24,0.000002697398,0.000002697398,0.000002697398,0.99999994,0,0,0,0,0,0,1,1,0,0,0,false,false,true,-64.159996,1160.1699,17.01,-0.004394061,0.0019016655,0.9208299,0.38993466,-342.641,1070.511,8.331,0.00021,-0.00021,3.01391
142.58333,2000,0,91.24,0.000002697398,0.000002697398,0.000002697398,0.99999994,0,0,0,0,0,0,1,1,0,0,0,false,false,true,-67.02,1169.09,17.01,-0.0044156406,0.0018477177,0.9256538,0.37834117,-349.731,1066.391,8.331,0.00021,-0.00010999999,3.03051
142.59166,2000,0,91.24,0.000002697398,0.000002697398,0.000002697398,0.99999994,0,0,0,0,0,0,1,1,0,0,0,false,false,true,-69.93,1177.98,17.01,-0.00443722,0.001788375,0.930357,0.36662367,-356.851,1062.0509,8.331,0.00021,-0.00010999999,3.04681
142.6,2000,0,91.24,0.000002697398,0.000002697398,0.000002697398,0.99999994,0,0,0,0,0,0,1,1,0,0,0,false,false,true,-72.9,1186.83,17.01,-0.0044587986,0.0017290319,0.93493664,0.354782,-363.981,1057.501,8.331,0.00021,-0.00010999999,3.0629098
142.60834,2000,0,91.24,0.000002697398,0.000002697398,0.000002697398,0.99999994,0,0,0,0,0,0,1,1,0,0,0,false,false,true,-75.93,1195.64,17.01,-0.0044803782,0.0016696894,0.9393882,0.34282175,-371.121,1052.741,8.331,0.00021,-0.00010999999,3.0787098
142.61667,2000,0,91.24,0.000002697398,0.000002697398,0.000002697398,0.99999994,0,0,0,0,0,0,1,1,0,0,0,false,false,true,-79.02,1204.4099,17.01,-0.0045019574,0.0016103466,0.9437088,0.33074272,-378.251,1047.771,8.331,0.00021,-0.00010999999,3.09421
142.625,2000,0,91.24,0.000002697398,0.000002697398,0.000002697398,0.99999994,0,0,0,0,0,0,1,1,0,0,0,false,false,true,-82.17,1213.14,17.01,-0.004523536,0.0015510039,0.9478938,0.3185504,-385.371,1042.591,8.331,0.00021,0,3.10951
142.63333,2000,0,91.24,0.000002697398,0.000002697398,0.000002697398,0.99999994,0,0,0,0,0,0,1,1,0,0,0,false,false,true,-85.38,1221.83,17.01,-0.004545116,0.0014916612,0.9519407,0.3062449,-392.471,1037.2109,8.331,0.00021,0,3.12451
142.64166,2000,0,91.24,0.000002697398,0.000002697398,0.000002697398,0.99999994,0,0,0,0,0,0,1,1,0,0,0,false,false,true,-88.65,1230.47,17.01,-0.0045612995,0.0014323182,0.95584685,0.29382592,-399.551,1031.641,8.331,0.00021,0,3.13931
142.65,2000,0,91.24,0.000002697398,0.000002697398,0.000002697398,0.99999994,0,0,0,0,0,0,1,1,0,0,0,false,false,true,-91.979996,1239.07,17.01,-0.004577485,0.0013729758,0.95960814,0.28129926,-406.601,1025.881,8.331,0.00021,0,3.15381
142.65834,2000,0,91.24,0.000002697398,0.000002697398,0.000002697398,0.99999994,0,0,0,0,0,0,1,1,0,0,0,false,false,true,-95.369995,1247.62,17.01,-0.004593669,0.0013136328,0.9632219,0.26866454,-413.611,1019.93097,8.331,0.00021,0,3.16801
142.66667,2000,0,91.24,0.000002697398,0.000002697398,0.000002697398,0.99999994,0,0,0,0,0,0,1,1,0,0,0,false,false,true,-98.82,1256.12,17.01,-0.004609853,0.0012542901,0.9666841,0.25592744,-420.581,1013.80096,8.331,0.00021,0,3.18201
142.675,2000,0,91.24,0.000002697398,0.000002697398,0.000002697398,0.99999994,0,0,0,0,0,0,1,1,0,0,0,false,false,true,-102.32,1264.57,17.01,-0.004626037,0.0011949472,0.9699924,0.24308771,-427.501,1007.49097,8.331,0.00021,0,3.19571
142.68333,2000,0,91.24,0.000002697398,0.000002697398,0.000002697398,0.99999994,0,0,0,0,0,0,1,1,0,0,0,false,false,true,-105.88,1272.97,17.01,-0.004642222,0.0011302098,0.97314316,0.23015094,-434.361,1001.0109,8.331,0.00021,0,3.20921
142.69167,2000,0,91.24,0.000002697398,0.000002697398,0.000002697398,0.99999994,0,0,0,0,0,0,1,1,0,0,0,false,false,true,-109.5,1281.3099,17.01,-0.004658406,0.0010654721,0.9761338,0.21711712,-441.171,994.371,8.331,0.00021,0,3.22241
142.7,2000,0,91.24,0.000002697398,0.000002697398,0.000002697398,0.99999994,0,0,0,0,0,0,1,1,0,0,0,false,false,true,-113.18,1289.6,17.01,-0.004674591,0.0010007347,0.978961,0.2039915,-447.911,987.571,8.331,0.00021,0,3.2353098
142.70833,2000,0,91.24,0.000002697398,0.000002697398,0.000002697398,0.99999994,0,0,0,0,0,0,1,1,0,0,0,false,false,true,-116.909996,1297.83,17.01,-0.004685381,0.0009359972,0.9816223,0.19077425,-454.591,980.621,8.331,0.00021,0,3.24801
142.71666,2000,0,91.24,0.000002697398,0.000002697398,0.000002697398,0.99999994,0,0,0,0,0,0,1,1,0,0,0,false,false,true,-120.7,1306,17.01,-0.0046961694,0.0008712595,0.98411435,0.17747056,-461.201,973.52094,8.331,0.00021,0,3.2604098
142.725,2000,0,91.24,0.000002697398,0.000002697398,0.000002697398,0.99999994,0,0,0,0,0,0,1,1,0,0,0,false,false,true,-124.54,1314.11,17.01,-0.0047069597,0.00080652203,0.9864344,0.16408601,-467.741,966.28094,8.331,0.00021,0,3.27261
142.73334,2000,0,91.24,0.000002697398,0.000002697398,0.000002697398,0.99999994,0,0,0,0,0,0,1,1,0,0,0,false,false,true,-128.44,1322.1599,17.01,-0.0047177486,0.0007417844,0.98858,0.15062058,-474.211,958.90094,8.331,0.00010999999,0,3.28451
142.74167,2000,0,91.24,0.000002697398,0.000002697398,0.000002697398,0.99999994,0,0,0,0,0,0,1,1,0,0,0,false,false,true,-132.39,1330.15,17.01,-0.004728538,0.00067704683,0.9905484,0.13707955,-480.611,951.3909,8.331,0.00010999999,0,3.29611
142.75,2000,0,91.24,0.000002697398,0.000002697398,0.000002697398,0.99999994,0,0,0,0,0,0,1,1,0,0,0,false,false,true,-136.4,1338.08,17.01,-0.0047393283,0.0006123093,0.9923376,0.12346312,-486.931,943.7609,8.331,0.00010999999,0,3.30751
142.75833,2000,0,91.24,0.000002697398,0.000002697398,0.000002697398,0.99999994,0,0,0,0,0,0,1,1,0,0,0,false,false,true,-140.45999,1345.94,17.01,-0.004744723,0.0005475718,0.99394476,0.10977643,-493.181,936.0109,8.331,0.00010999999,0.00010999999,3.31861
142.76666,2000,0,91.24,0.000002697398,0.000002697398,0.000002697398,0.99999994,0,0,0,0,0,0,1,1,0,0,0,false,false,true,-144.56999,1353.74,17.01,-0.004750118,0.0004828343,0.99536747,0.09602502,-499.35098,928.1409,8.331,0.00010999999,0.00010999999,3.32951
142.775,2000,0,91.24,0.000002697398,0.000002697398,0.000002697398,0.99999994,0,0,0,0,0,0,1,1,0,0,0,false,false,true,-148.73,1361.47,17.01,-0.004755513,0.0004180967,0.9966036,0.08220894,-505.451,920.16095,8.331,0.00010999999,0.00010999999,3.3401098
142.78334,2000,0,91.24,0.000002697398,0.000002697398,0.000002697398,0.99999994,0,0,0,0,0,0,1,1,0,0,0,false,false,true,-152.94,1369.14,17.01,-0.0047609075,0.00035335915,0.99765104,0.06833343,-511.481,912.08093,8.331,0.00010999999,0.00010999999,3.35041
142.79167,2000,0,91.24,0.000002697398,0.000002697398,0.000002697398,0.99999994,0,0,0,0,0,0,1,1,0,0,0,false,false,true,-157.2,1376.74,17.01,-0.0047663017,0.00028862155,0.99850774,0.05439859,-517.441,903.8909,8.331,0.00010999999,0.00010999999,3.3605099
142.8,2000,0,91.24,0.000002697398,0.000002697398,0.000002697398,0.99999994,0,0,0,0,0,0,1,1,0,0,0,false,false,true,-161.51,1384.27,17.01,-0.004771697,0.00022388404,0.9991717,0.04040989,-523.331,895.61096,8.331,0.00010999999,0.00010999999,3.3703098
142.80833,2000,0,91.24,0.000002697398,0.000002697398,0.000002697398,0.99999994,0,0,0,0,0,0,1,1,0,0,0,false,false,true,-165.87,1391.73,17.01,-0.0047716973,0.0001591465,0.99964076,0.026372546,-529.15094,887.23096,8.331,0.00010999999,0.00021,3.3798099
142.81667,2000,0,91.24,0.000002697398,0.000002697398,0.000002697398,0.99999994,0,0,0,0,0,0,1,1,0,0,0,false,false,true,-170.28,1399.12,17.01,-0.0047716973,0.000089014145,0.99991304,0.012292128,-534.90094,878.761,8.331,0.00021,0.00021,3.3891098
142.825,2000,0,91.24,0.000002697398,0.000002697398,0.000002697398,0.99999994,0,0,0,0,0,0,1,1,0,0,0,false,false,true,-174.73999,1406.44,17.01,-0.004771697,0.000018881787,0.9999869,-0.0018261385,-540.59094,870.21094,8.331,0.00021,0.00021,3.39811
142.83333,2000,0,91.24,0.000002697398,0.000002697398,0.000002697398,0.99999994,0,0,0,0,0,0,1,1,0,0,0,false,false,true,-179.23999,1413.69,17.01,-0.0047716973,-0.00005125057,0.9998609,-0.015982127,-546.22095,861.571,8.331,0.00021,0.00021,3.40681
142.84166,2000,0,91.24,0.000002697398,0.000002697398,0.000002697398,0.99999994,0,0,0,0,0,0,1,1,0,0,0,false,false,true,-183.79,1420.87,17.01,-0.004771697,-0.00012138292,0.9995333,-0.030170524,-551.80096,852.85095,8.331,0.00010999999,0.00021,3.41521
142.85,2000,0,91.24,0.000002697398,0.000002697398,0.000002697398,0.99999994,0,0,0,0,0,0,1,1,0,0,0,false,false,true,-188.39,1427.98,17.01,-0.004766302,-0.00019151527,0.99900275,-0.04439125,-557.331,844.05096,8.331,0.00010999999,0.00030999997,3.42331
142.85834,2000,0,91.24,0.000002697398,0.000002697398,0.000002697398,0.99999994,0,0,0,0,0,0,1,1,0,0,0,false,false,true,-193.03,1435.01,17.01,-0.004760908,-0.00026164763,0.9982682,-0.05863356,-562.811,835.16095,8.331,0,0.00030999997,3.43111
142.86667,2000,0,91.24,0.000002697398,0.000002697398,0.000002697398,0.99999994,0,0,0,0,0,0,1,1,0,0,0,false,false,true,-197.72,1441.97,17.01,-0.004755513,-0.00033177997,0.997328,-0.07289748,-568.251,826.191,8.331,0,0.00030999997,3.4386098
142.875,2000,0,91.24,0.000002697398,0.000002697398,0.000002697398,0.99999994,0,0,0,0,0,0,1,1,0,0,0,false,false,true,-202.45999,1448.86,17.01,-0.0047501177,-0.00040191232,0.9961813,-0.087177545,-573.65094,817.1409,8.331,0,0.00030999997,3.44571
142.88333,2000,0,91.24,0.000002697398,0.000002697398,0.000002697398,0.99999994,0,0,0,0,0,0,1,1,0,0,0,false,false,true,-207.23999,1455.6699,17.01,-0.0047447234,-0.0004720447,0.99482733,-0.10146841,-579.011,808.011,8.331,0,0.00030999997,3.4525099
142.89166,2000,0,91.24,0.000002697398,0.000002697398,0.000002697398,0.99999994,0,0,0,0,0,0,1,1,0,0,0,false,false,true,-212.06999,1462.4,17.01,-0.0047339336,-0.000542177,0.99326456,-0.11577005,-584.35095,798.80096,8.331,0,0.00030999997,3.45891
142.9,2000,0,91.24,0.000002697398,0.000002697398,0.000002697398,0.99999994,0,0,0,0,0,0,1,1,0,0,0,false,false,true,-216.94,1469.0599,17.01,-0.0047231438,-0.0006123093,0.9914931,-0.13007173,-589.66095,789.501,8.331,-0.00010999999,0.00030999997,3.46501
142.90834,2000,0,91.24,0.000002697398,0.000002697398,0.000002697398,0.99999994,0,0,0,0,0,0,1,1,0,0,0,false,false,true,-221.84999,1475.64,17.01,-0.004712355,-0.00068244175,0.9895118,-0.1443734,-594.941,780.11096,8.331,-0.00010999999,0.00030999997,3.47101
142.91667,2000,0,91.24,0.000002697398,0.000002697398,0.000002697398,0.99999994,0,0,0,0,0,0,1,1,0,0,0,false,false,true,-226.81,1482.14,17.01,-0.004701565,-0.0007525741,0.98732024,-0.15866965,-600.10095,770.58093,8.331,-0.00021,0.00021,3.48001
142.925,2000,0,91.24,0.000002697398,0.000002697398,0.000002697398,0.99999994,0,0,0,0,0,0,1,1,0,0,0,false,false,true,-231.81,1488.5599,17.01,-0.0046907756,-0.0008173117,0.98491627,-0.17296594,-605.141,760.92096,8.331,-0.00030999997,0.00021,3.49191
142.93333,2000,0,91.24,0.000002697398,0.000002697398,0.000002697398,0.99999994,0,0,0,0,0,0,1,1,0,0,0,false,false,true,-236.84999,1494.9,17.01,-0.00467459,-0.00088204903,0.9822952,-0.18727835,-610.061,751.131,8.331,-0.00030999997,0.00010999999,3.5067098
142.94167,2000,0,91.24,0.000002697398,0.000002697398,0.000002697398,0.99999994,0,0,0,0,0,0,1,1,0,0,0,false,false,true,-241.93,1501.1599,17.01,-0.004658406,-0.0009467867,0.9794538,-0.20161238,-614.871,741.21094,8.331,-0.00030999997,0,3.5243099
142.95,2000,0,91.24,0.000002697398,0.000002697398,0.000002697398,0.99999994,0,0,0,0,0,0,1,1,0,0,0,false,false,true,-247.04999,1507.34,17.01,-0.004642222,-0.0010115242,0.9763876,-0.2159734,-619.561,731.17096,8.331,-0.00030999997,0,3.54471
142.95833,2000,0,91.24,0.000002697398,0.000002697398,0.000002697398,0.99999994,0,0,0,0,0,0,1,1,0,0,0,false,false,true,-252.20999,1513.4299,17.01,-0.004626038,-0.0010762619,0.973091,-0.23037219,-624.141,721.011,8.331,-0.00030999997,0,3.56791
142.96666,2000,0,91.24,0.000002697398,0.000002697398,0.000002697398,0.99999994,0,0,0,0,0,0,1,1,0,0,0,false,false,true,-257.41,1519.44,17.01,-0.0046098535,-0.0011409995,0.96955836,-0.2448141,-628.621,710.73096,8.331,-0.00021,0,3.5938098
142.975,2000,0,91.24,0.000002697398,0.000002697398,0.000002697398,0.99999994,0,0,0,0,0,0,1,1,0,0,0,false,false,true,-262.65,1525.36,17.01,-0.004593669,-0.0012111317,0.96578383,-0.25930452,-632.99097,700.33093,8.331,-0.00021,0,3.62251
142.98334,2000,0,91.24,0.000002697398,0.000002697398,0.000002697398,0.99999994,0,0,0,0,0,0,1,1,0,0,0,false,false,true,-267.91998,1531.2,17.01,-0.00457209,-0.0012812641,0.9617594,-0.2738544,-637.251,689.80096,8.331,-0.00021,0,3.6540098
142.99167,2000,0,91.24,0.000002697398,0.000002697398,0.000002697398,0.99999994,0,0,0,0,0,0,1,1,0,0,0,false,false,true,-273.22998,1536.95,17.01,-0.0045505106,-0.0013513964,0.95747906,-0.28846353,-641.27094,679.121,8.331,-0.00021,-0.00010999999,3.68971
143,2000,0,91.24,0.000002697398,0.000002697398,0.000002697398,0.99999994,0,0,0,0,0,0,1,1,0,0,0,false,false,true,-278.57,1542.61,17.01,-0.0045289313,-0.0014215288,0.9529315,-0.3031482,-645.05096,668.30096,8.331,-0.00021,-0.00021,3.7295098
143.00833,2000,0,91.24,0.000002697398,0.000002697398,0.000002697398,0.99999994,0,0,0,0,0,0,1,1,0,0,0,false,false,true,-283.94998,1548.1799,17.01,-0.0045073526,-0.0014916612,0.9481059,-0.31791928,-648.59094,657.35095,8.331,-0.00030999997,-0.00030999997,3.77331
143.01666,2000,0,91.24,0.000002697398,0.000002697398,0.000002697398,0.99999994,0,0,0,0,0,0,1,1,0,0,0,false,false,true,-289.35,1553.6599,17.01,-0.004485773,-0.0015617935,0.9429898,-0.33278736,-651.90094,646.27094,8.331,-0.00030999997,-0.00040999998,3.82111
143.025,2000,0,91.24,0.000002697398,0.000002697398,0.000002697398,0.99999994,0,0,0,0,0,0,1,1,0,0,0,false,false,true,-294.78,1559.0499,17.01,-0.0044641937,-0.0016319258,0.93757224,-0.34775797,-654.941,635.05096,8.331,-0.00040999998,-0.00051,3.87211
143.03334,2000,0,91.24,0.000002697398,0.000002697398,0.000002697398,0.99999994,0,0,0,0,0,0,1,1,0,0,0,false,false,true,-300.24,1564.34,17.01,-0.00443722,-0.0017020581,0.93184066,-0.36283648,-657.60095,623.641,8.331,-0.00040999998,-0.00051,3.9247098
143.04167,2000,0,91.24,0.000002697398,0.000002697398,0.000002697398,0.99999994,0,0,0,0,0,0,1,1,0,0,0,false,false,true,-305.72,1569.5399,17.01,-0.0044102455,-0.0017721906,0.925784,-0.37802288,-659.881,612.05096,8.331,-0.00040999998,-0.00051,3.97891
143.05,2000,0,91.24,0.000002697398,0.000002697398,0.000002697398,0.99999994,0,0,0,0,0,0,1,1,0,0,0,false,false,true,-311.22,1574.64,17.01,-0.0043832716,-0.0018423229,0.9193905,-0.39331722,-661.77094,600.30096,8.331,-0.00030999997,-0.00051,4.03471
143.05833,2000,0,91.24,0.000002697398,0.000002697398,0.000002697398,0.99999994,0,0,0,0,0,0,1,1,0,0,0,false,false,true,-316.72998,1579.64,17.01,-0.0043509034,-0.0019124553,0.91264766,-0.40871945,-663.23096,588.501,8.331,-0.00030999997,-0.00051,4.09131
143.06667,2000,0,91.24,0.000002697398,0.000002697398,0.000002697398,0.99999994,0,0,0,0,0,0,1,1,0,0,0,false,false,true,-322.25998,1584.5399,17.01,-0.0043185335,-0.0019825872,0.90554714,-0.42421862,-664.201,576.821,8.331,-0.00021,-0.00051,4.14731
143.075,2000,0,91.24,0.000002697398,0.000002697398,0.000002697398,0.99999994,0,0,0,0,0,0,1,1,0,0,0,false,false,true,-327.78998,1589.35,17.01,-0.004286165,-0.0020527197,0.8980809,-0.4398043,-664.691,565.29095,8.331,-0.00010999999,-0.00040999998,4.2027097
143.08333,2000,0,91.24,0.000002697398,0.000002697398,0.000002697398,0.99999994,0,0,0,0,0,0,1,1,0,0,0,false,false,true,-333.33,1594.0599,17.01,-0.0042484016,-0.002128247,0.8902434,-0.4554601,-664.73096,553.93097,8.331,0,-0.00030999997,4.25741
143.09166,2000,0,91.24,0.000002697398,0.000002697398,0.000002697398,0.99999994,0,0,0,0,0,0,1,1,0,0,0,false,false,true,-338.87,1598.6799,17.01,-0.0042106383,-0.0022037742,0.88202393,-0.47118056,-664.321,542.761,8.331,0,-0.00030999997,4.31141
143.1,2000,0,91.24,0.000002697398,0.000002697398,0.000002697398,0.99999994,0,0,0,0,0,0,1,1,0,0,0,false,false,true,-344.41,1603.2,17.01,-0.004172875,-0.0022793016,0.8734171,-0.48694968,-663.49097,531.80096,8.331,0.00010999999,-0.00030999997,4.36481
143.10834,2000,0,91.24,0.000002697398,0.000002697398,0.000002697398,0.99999994,0,0,0,0,0,0,1,1,0,0,0,false,false,true,-349.94,1607.63,17.01,-0.004129716,-0.0023548284,0.8644181,-0.50275105,-662.261,521.081,8.331,0.00010999999,-0.00021,4.41751
143.11667,2000,0,91.24,0.000002697398,0.000002697398,0.000002697398,0.99999994,0,0,0,0,0,0,1,1,0,0,0,false,false,true,-355.46,1611.97,17.01,-0.0040865582,-0.0024303559,0.85501945,-0.5185741,-660.66095,510.611,8.331,0.00021,-0.00021,4.4696097
143.125,2000,0,91.24,0.000002697398,0.000002697398,0.000002697398,0.99999994,0,0,0,0,0,0,1,1,0,0,0,false,false,true,-360.97,1616.23,17.01,-0.0040433994,-0.0025058826,0.8452133,-0.5344078,-658.631,500.391,8.331,0.00030999997,-0.00010999999,4.51921
143.13333,2000,0,91.24,0.000002697398,0.000002697398,0.000002697398,0.99999994,0,0,0,0,0,0,1,1,0,0,0,false,false,true,-366.46,1620.4,17.01,-0.0039948463,-0.0025814099,0.8350025,-0.55022544,-656.10095,490.441,8.331,0.00030999997,0,4.56431
143.14166,2000,0,91.24,0.000002697398,0.000002697398,0.000002697398,0.99999994,0,0,0,0,0,0,1,1,0,0,0,false,false,true,-371.93,1624.49,17.01,-0.0039462927,-0.0026569369,0.8243878,-0.5660052,-653.11096,480.781,8.331,0.00030999997,0,4.60501
143.15,2000,0,91.24,0.000002697398,0.000002697398,0.000002697398,0.99999994,0,0,0,0,0,0,1,1,0,0,0,false,false,true,-377.37,1628.5,17.01,-0.0038977403,-0.002732464,0.8133748,-0.5817204,-649.68097,471.441,8.331,0.00040999998,0.00010999999,4.6413097
143.15834,2000,0,91.24,0.000002697398,0.000002697398,0.000002697398,0.99999994,0,0,0,0,0,0,1,1,0,0,0,false,false,true,-382.78,1632.4299,17.01,-0.0038437922,-0.0028079913,0.8019751,-0.5973384,-645.85095,462.431,8.331,0.00040999998,0.00021,4.6732097
143.16667,2000,0,91.24,0.000002697398,0.000002697398,0.000002697398,0.99999994,0,0,0,0,0,0,1,1,0,0,0,false,false,true,-388.16,1636.2799,17.01,-0.0037898442,-0.0028835186,0.7901944,-0.6128377,-641.65094,453.771,8.331,0.00040999998,0.00030999997,4.70071
143.175,2000,0,91.24,0.000002697398,0.000002697398,0.000002697398,0.99999994,0,0,0,0,0,0,1,1,0,0,0,false,false,true,-393.50998,1640.0599,17.01,-0.0037305015,-0.0029590456,0.77803993,-0.6281967,-637.121,445.471,8.331,0.00040999998,0.00040999998,4.7238097
143.18333,2000,0,91.24,0.000002697398,0.000002697398,0.000002697398,0.99999994,0,0,0,0,0,0,1,1,0,0,0,false,false,true,-398.81998,1643.77,17.01,-0.0036711583,-0.0030345726,0.76552486,-0.64338845,-632.30096,437.551,8.331,0.00040999998,0.00051,4.74261
143.19167,2000,0,91.24,0.000002697398,0.000002697398,0.000002697398,0.99999994,0,0,0,0,0,0,1,1,0,0,0,false,false,true,-404.09,1647.4199,17.01,-0.0036118163,-0.0031101003,0.75266045,-0.6583916,-627.22095,430.011,8.331,0.00040999998,0.00061,4.75701
143.2,2000,0,91.24,0.000002697398,0.000002697398,0.000002697398,0.99999994,0,0,0,0,0,0,1,1,0,0,0,false,false,true,-409.31998,1651,17.01,-0.003547078,-0.0031856268,0.73946434,-0.6731787,-621.92096,422.85098,8.331,0.00040999998,0.00061,4.76711
143.20833,2000,0,91.24,0.000002697398,0.000002697398,0.000002697398,0.99999994,0,0,0,0,0,0,1,1,0,0,0,false,false,true,-414.5,1654.52,17.01,-0.003482341,-0.0032557596,0.72594714,-0.68773395,-616.441,416.07098,8.331,0.00030999997,0.00061,4.77291
143.21666,2000,0,91.24,0.000002697398,0.000002697398,0.000002697398,0.99999994,0,0,0,0,0,0,1,1,0,0,0,false,false,true,-419.63998,1657.99,17.01,-0.0034176034,-0.003325892,0.7121257,-0.7020356,-610.821,409.671,8.331,0.00030999997,0.00071,4.77441
