time,ball_loc_x,ball_loc_y,ball_loc_z,ball_rot_x,ball_rot_y,ball_rot_z,ball_rot_w,ball_vel_x,ball_vel_y,ball_vel_z,ball_ang_x,ball_ang_y,ball_ang_z,player0_throttle,player0_steer,player0_pitch,player0_yaw,player0_roll,player0_jump,player0_boost,player0_handbrake,player0_loc_x,player0_loc_y,player0_loc_z,player0_rot_x,player0_rot_y,player0_rot_z,player0_rot_w,player0_vel_x,player0_vel_y,player0_vel_z,player0_ang_x,player0_ang_y,player0_ang_z
268.725,2000,0,91.24,0.000002697398,0.000002697398,0.000002697398,0.99999994,0,0,0,0,0,0,1,0,0,0,0,false,true,false,0,-3124.3599,16.99,-0.0033582605,0.0033798397,0.7069988,0.70719856,0.551,2104.461,8.411,-0.00071,-0.00010999999,0
268.73334,2000,0,91.24,0.000002697398,0.000002697398,0.000002697398,0.99999994,0,0,0,0,0,0,1,1,0,0,0,false,false,true,0,-3106.8198,16.99,-0.0033582605,0.0033798397,0.7069988,0.70719856,-10.291,2103.651,8.461,-0.00071,0.00261,0.30231002
268.74167,2000,0,91.24,0.000002697398,0.000002697398,0.000002697398,0.99999994,0,0,0,0,0,0,1,1,0,0,0,false,false,true,-0.089999996,-3089.29,16.99,-0.0033582605,0.0033852346,0.7078882,0.7063083,-19.860998,2102.901,8.501,-0.00071,0.00381,0.54941
268.75,2000,0,91.24,0.000002697398,0.000002697398,0.000002697398,0.99999994,0,0,0,0,0,0,1,1,0,0,0,false,false,true,-0.26,-3071.77,16.99,-0.0033582607,0.0033906295,0.7095047,0.7046845,-29.571,2102.1208,8.521,-0.00061,0.00421,0.76691
268.75833,2000,0,91.24,0.000002697398,0.000002697398,0.000002697398,0.99999994,0,0,0,0,0,0,1,1,0,0,0,false,false,true,-0.51,-3054.25,16.99,-0.0033582605,0.0033960242,0.71175325,0.70241326,-39.871,2101.261,8.531,-0.00051,0.00401,0.96031
268.76666,2000,0,91.24,0.000002697398,0.000002697398,0.000002697398,0.99999994,0,0,0,0,0,0,1,1,0,0,0,false,false,true,-0.84,-3036.74,16.99,-0.0033636554,0.0033960242,0.71455836,0.6995594,-51.031,2100.271,8.541,-0.00051,0.00361,1.13401
268.775,2000,0,91.24,0.000002697398,0.000002697398,0.000002697398,0.99999994,0,0,0,0,0,0,1,1,0,0,0,false,false,true,-1.27,-3019.24,16.99,-0.00336905,0.0033906293,0.7178543,0.6961768,-63.190998,2099.1008,8.551001,-0.00040999998,0.00301,1.29151
268.78333,2000,0,91.24,0.000002697398,0.000002697398,0.000002697398,0.99999994,0,0,0,0,0,0,1,1,0,0,0,false,false,true,-1.8,-3001.75,16.99,-0.0033798397,0.0033798397,0.7215907,0.6923033,-76.381,2097.711,8.561,-0.00040999998,0.00241,1.4356099
268.79166,2000,0,91.24,0.000002697398,0.000002697398,0.000002697398,0.99999994,0,0,0,0,0,0,1,1,0,0,0,false,false,true,-2.44,-2984.27,16.99,-0.0033960242,0.00336905,0.72571695,0.68797666,-90.590996,2096.061,8.561,-0.00040999998,0.0019099999,1.5684099
268.8,2000,0,91.24,0.000002697398,0.000002697398,0.000002697398,0.99999994,0,0,0,0,0,0,1,1,0,0,0,false,false,true,-3.1899998,-2966.8,16.99,-0.0034122088,0.003352866,0.73019826,0.68321854,-105.730995,2094.1008,8.561,-0.00030999997,0.0014099999,1.69151
268.80832,2000,0,91.24,0.000002697398,0.000002697398,0.000002697398,0.99999994,0,0,0,0,0,0,1,1,0,0,0,false,false,true,-4.0699997,-2949.3499,16.99,-0.0034337877,0.0033312866,0.7349949,0.67805564,-121.701,2091.801,8.561,-0.00030999997,0.00091,1.8062099
268.81668,2000,0,91.24,0.000002697398,0.000002697398,0.000002697398,0.99999994,0,0,0,0,0,0,1,1,0,0,0,false,false,true,-5.08,-2931.92,16.99,-0.003455367,0.0033097074,0.7400776,0.6725043,-138.371,2089.1409,8.571,-0.00030999997,0.00051,1.91341
268.825,2000,0,91.24,0.000002697398,0.000002697398,0.000002697398,0.99999994,0,0,0,0,0,0,1,1,0,0,0,false,false,true,-6.23,-2914.51,16.99,-0.0034823408,0.0032827335,0.7454173,0.66658086,-155.571,2086.1008,8.571,-0.00021,0.00021,2.01391
268.83334,2000,0,91.24,0.000002697398,0.000002697398,0.000002697398,0.99999994,0,0,0,0,0,0,1,1,0,0,0,false,false,true,-7.5299997,-2897.13,16.99,-0.0035093152,0.0032557596,0.7509855,0.6603013,-173.141,2082.671,8.571,-0.00021,0,2.10811
268.84167,2000,0,91.24,0.000002697398,0.000002697398,0.000002697398,0.99999994,0,0,0,0,0,0,1,1,0,0,0,false,false,true,-8.97,-2879.77,16.99,-0.0035362889,0.0032233908,0.7567589,0.65367645,-190.891,2078.8608,8.571,-0.00010999999,-0.00021,2.19631
268.85,2000,0,91.24,0.000002697398,0.000002697398,0.000002697398,0.99999994,0,0,0,0,0,0,1,1,0,0,0,false,false,true,-10.559999,-2862.45,16.99,-0.0035686577,0.003191022,0.7627103,0.6467225,-208.631,2074.691,8.571,-0.00010999999,-0.00040999998,2.27881
268.85834,2000,0,91.24,0.000002697398,0.000002697398,0.000002697398,0.99999994,0,0,0,0,0,0,1,1,0,0,0,false,false,true,-12.3,-2845.16,16.99,-0.0036010265,0.0031586532,0.7688174,0.6394503,-226.141,2070.191,8.571,0,-0.00051,2.35561
268.86667,2000,0,91.24,0.000002697398,0.000002697398,0.000002697398,0.99999994,0,0,0,0,0,0,1,1,0,0,0,false,false,true,-14.179999,-2827.91,16.99,-0.0036333948,0.0031208894,0.7750546,0.63187593,-243.211,2065.421,8.571,0,-0.00061,2.42671
268.875,2000,0,91.24,0.000002697398,0.000002697398,0.000002697398,0.99999994,0,0,0,0,0,0,1,1,0,0,0,false,false,true,-16.21,-2810.7,16.99,-0.003665764,0.003083126,0.7814057,0.6240049,-259.601,2060.451,8.571,0,-0.00071,2.4920099
268.88333,2000,0,91.24,0.000002697398,0.000002697398,0.000002697398,0.99999994,0,0,0,0,0,0,1,1,0,0,0,false,false,true,-18.369999,-2793.53,16.99,-0.0036981327,0.0030453624,0.7878419,0.6158588,-275.081,2055.3708,8.571,0,-0.00081,2.55131
268.89166,2000,0,91.24,0.000002697398,0.000002697398,0.000002697398,0.99999994,0,0,0,0,0,0,1,1,0,0,0,false,false,true,-20.66,-2776.4,16.99,-0.0037305015,0.003002204,0.7943448,0.6074482,-289.411,2050.301,8.571,0,-0.0010099999,2.60431
268.9,2000,0,91.24,0.000002697398,0.000002697398,0.000002697398,0.99999994,0,0,0,0,0,0,1,1,0,0,0,false,false,true,-23.07,-2759.31,16.99,-0.0037682652,0.0029590456,0.80088794,0.59879494,-302.331,2045.381,8.571,0,-0.00111,2.6507099
268.90833,2000,0,91.24,0.000002697398,0.000002697398,0.000002697398,0.99999994,0,0,0,0,0,0,1,1,0,0,0,false,false,true,-25.59,-2742.26,16.99,-0.0038060287,0.0029158874,0.8074509,0.5899151,-313.581,2040.7809,8.571,0.00010999999,-0.0012099999,2.6900098
268.91666,2000,0,91.24,0.000002697398,0.000002697398,0.000002697398,0.99999994,0,0,0,0,0,0,1,1,0,0,0,false,false,true,-28.199999,-2725.25,16.99,-0.0038437922,0.002867334,0.8140105,0.5808302,-322.911,2036.7009,8.571,0.00021,-0.00131,2.7218099
268.925,2000,0,91.24,0.000002697398,0.000002697398,0.000002697398,0.99999994,0,0,0,0,0,0,1,1,0,0,0,false,false,true,-30.89,-2708.28,16.99,-0.0038815557,0.002818781,0.82054484,0.57156193,-330.041,2033.361,8.561,0.00030999997,-0.00131,2.74561
268.93332,2000,0,91.24,0.000002697398,0.000002697398,0.000002697398,0.99999994,0,0,0,0,0,0,1,1,0,0,0,false,false,true,-33.64,-2691.3398,16.99,-0.0039193192,0.0027702278,0.82703,0.5621371,-337.491,2029.6709,8.561,0.00040999998,-0.00131,2.76881
268.94168,2000,0,91.24,0.000002697398,0.000002697398,0.000002697398,0.99999994,0,0,0,0,0,0,1,1,0,0,0,false,false,true,-36.45,-2674.43,16.99,-0.003957083,0.0027216745,0.8334619,0.552556,-345.231,2025.611,8.561,0.00040999998,-0.0012099999,2.79171
268.95,2000,0,91.24,0.000002697398,0.000002697398,0.000002697398,0.99999994,0,0,0,0,0,0,1,1,0,0,0,false,false,true,-39.329998,-2657.55,16.99,-0.0039894516,0.0026731214,0.8398328,0.5428238,-353.241,2021.1709,8.561,0.00051,-0.00111,2.81421
268.95834,2000,0,91.24,0.000002697398,0.000002697398,0.000002697398,0.99999994,0,0,0,0,0,0,1,1,0,0,0,false,false,true,-42.27,-2640.71,16.99,-0.00402182,0.0026245683,0.846139,0.53294045,-361.491,2016.341,8.561,0.00051,-0.0010099999,2.83641
268.96667,2000,0,91.24,0.000002697398,0.000002697398,0.000002697398,0.99999994,0,0,0,0,0,0,1,1,0,0,0,false,false,true,-45.28,-2623.91,16.99,-0.004054189,0.0025706203,0.85238,0.5229007,-369.951,2011.111,8.561,0.00051,-0.00091,2.8582098
268.975,2000,0,91.24,0.000002697398,0.000002697398,0.000002697398,0.99999994,0,0,0,0,0,0,1,1,0,0,0,false,false,true,-48.36,-2607.15,16.99,-0.004086558,0.0025166722,0.85854524,0.5127152,-378.591,2005.481,8.561,0.00051,-0.00081,2.8796098
268.98334,2000,0,91.24,0.000002697398,0.000002697398,0.000002697398,0.99999994,0,0,0,0,0,0,1,1,0,0,0,false,false,true,-51.51,-2590.44,16.99,-0.004118927,0.0024627245,0.8646342,0.5023788,-387.381,1999.4409,8.561,0.00040999998,-0.00071,2.90061
268.99167,2000,0,91.24,0.000002697398,0.000002697398,0.000002697398,0.99999994,0,0,0,0,0,0,1,1,0,0,0,false,false,true,-54.739998,-2573.78,16.99,-0.004151296,0.0024087767,0.8706434,0.4918913,-396.291,1992.991,8.561,0.00040999998,-0.00061,2.92121
269,2000,0,91.24,0.000002697398,0.000002697398,0.000002697398,0.99999994,0,0,0,0,0,0,1,1,0,0,0,false,false,true,-58.039997,-2557.17,16.99,-0.0041836645,0.0023548284,0.8765657,0.48125812,-405.301,1986.121,8.561,0.00040999998,-0.00051,2.94131
269.00833,2000,0,91.24,0.000002697398,0.000002697398,0.000002697398,0.99999994,0,0,0,0,0,0,1,1,0,0,0,false,false,true,-61.42,-2540.6199,16.99,-0.0042106383,0.0023008804,0.88239795,0.47047925,-414.371,1978.841,8.561,0.00040999998,-0.00040999998,2.9609098
269.01666,2000,0,91.24,0.000002697398,0.000002697398,0.000002697398,0.99999994,0,0,0,0,0,0,1,1,0,0,0,false,false,true,-64.869995,-2524.13,16.99,-0.0042376122,0.0022469326,0.8881364,0.4595548,-423.471,1971.141,8.561,0.00030999997,-0.00040999998,2.98001
269.025,2000,0,91.24,0.000002697398,0.000002697398,0.000002697398,0.99999994,0,0,0,0,0,0,1,1,0,0,0,false,false,true,-68.4,-2507.7,16.99,-0.004264586,0.0021929846,0.8937749,0.44848996,-432.581,1963.0309,8.561,0.00030999997,-0.00040999998,2.99851
269.03333,2000,0,91.24,0.000002697398,0.000002697398,0.000002697398,0.99999994,0,0,0,0,0,0,1,1,0,0,0,false,false,true,-72,-2491.3398,16.99,-0.00429156,0.0021390365,0.8993075,0.43729037,-441.661,1954.511,8.561,0.00030999997,-0.00040999998,3.0164099
269.04166,2000,0,91.24,0.000002697398,0.000002697398,0.000002697398,0.99999994,0,0,0,0,0,0,1,1,0,0,0,false,false,true,-75.68,-2475.05,16.99,-0.0043185344,0.0020850888,0.9047312,0.42595586,-450.691,1945.591,8.561,0.00030999997,-0.00040999998,3.03371
269.05,2000,0,91.24,0.000002697398,0.000002697398,0.000002697398,0.99999994,0,0,0,0,0,0,1,1,0,0,0,false,false,true,-79.439995,-2458.8398,16.99,-0.0043455083,0.0020311407,0.91004276,0.4144865,-459.641,1936.2809,8.561,0.00030999997,-0.00040999998,3.05031
269.05832,2000,0,91.24,0.000002697398,0.000002697398,0.000002697398,0.99999994,0,0,0,0,0,0,1,1,0,0,0,false,false,true,-83.27,-2442.7,16.99,-0.004372482,0.0019717978,0.91523683,0.40288758,-468.481,1926.5809,8.561,0.00030999997,-0.00040999998,3.06621
269.06668,2000,0,91.24,0.000002697398,0.000002697398,0.000002697398,0.99999994,0,0,0,0,0,0,1,1,0,0,0,false,false,true,-87.17,-2426.64,16.99,-0.004399456,0.0019124552,0.9203081,0.3911647,-477.191,1916.511,8.561,0.00030999997,-0.00040999998,3.08131
269.075,2000,0,91.24,0.000002697398,0.000002697398,0.000002697398,0.99999994,0,0,0,0,0,0,1,1,0,0,0,false,false,true,-91.15,-2410.67,16.99,-0.00442643,0.0018531125,0.925254,0.37931764,-485.731,1906.0809,8.561,0.00030999997,-0.00030999997,3.09551
269.08334,2000,0,91.24,0.000002697398,0.000002697398,0.000002697398,0.99999994,0,0,0,0,0,0,1,1,0,0,0,false,false,true,-95.2,-2394.79,16.99,-0.004448009,0.0017937698,0.93006957,0.36735198,-494.091,1895.3009,8.561,0.00030999997,-0.00021,3.10881
269.09167,2000,0,91.24,0.000002697398,0.000002697398,0.000002697398,0.99999994,0,0,0,0,0,0,1,1,0,0,0,false,false,true,-99.32,-2379,16.99,-0.0044695884,0.001734427,0.93475026,0.35527295,-502.241,1884.1909,8.561,0.00030999997,-0.00021,3.1212099
269.1,2000,0,91.24,0.000002697398,0.000002697398,0.000002697398,0.99999994,0,0,0,0,0,0,1,1,0,0,0,false,false,true,-103.509995,-2363.3,16.99,-0.004491168,0.0016750843,0.9392917,0.34308612,-510.151,1872.7709,8.561,0.00021,-0.00021,3.1326098
269.10834,2000,0,91.24,0.000002697398,0.000002697398,0.000002697398,0.99999994,0,0,0,0,0,0,1,1,0,0,0,false,false,true,-107.759995,-2347.69,16.99,-0.004512747,0.0016157414,0.9436898,0.33079666,-517.80096,1861.0509,8.561,0.00021,-0.00021,3.14291
269.11667,2000,0,91.24,0.000002697398,0.000002697398,0.000002697398,0.99999994,0,0,0,0,0,0,1,1,0,0,0,false,false,true,-112.07,-2332.18,16.99,-0.0045343256,0.0015563986,0.94794077,0.3184101,-525.17096,1849.0609,8.561,0.00021,-0.00021,3.15201
269.125,2000,0,91.24,0.000002697398,0.000002697398,0.000002697398,0.99999994,0,0,0,0,0,0,1,1,0,0,0,false,false,true,-116.45,-2316.77,16.99,-0.0045559057,0.001497056,0.95204127,0.305932,-532.24097,1836.8209,8.561,0.00021,-0.00021,3.15991
269.13333,2000,0,91.24,0.000002697398,0.000002697398,0.000002697398,0.99999994,0,0,0,0,0,0,1,1,0,0,0,false,false,true,-120.89,-2301.46,16.99,-0.004577485,0.0014377133,0.955986,0.29337284,-539.001,1824.351,8.571,0.00021,-0.00021,3.1665099
269.14166,2000,0,91.24,0.000002697398,0.000002697398,0.000002697398,0.99999994,0,0,0,0,0,0,1,1,0,0,0,false,false,true,-125.38,-2286.26,16.99,-0.0045990637,0.0013783704,0.9597739,0.28073278,-545.42096,1811.6809,8.571,0.00030999997,-0.00021,3.17181
269.15,2000,0,91.24,0.000002697398,0.000002697398,0.000002697398,0.99999994,0,0,0,0,0,0,1,1,0,0,0,false,false,true,-129.93,-2271.16,16.99,-0.0046152486,0.0013136329,0.96340066,0.2680226,-552.131,1799.111,8.571,0.00040999998,-0.00010999999,3.17801
269.15833,2000,0,91.24,0.000002697398,0.000002697398,0.000002697398,0.99999994,0,0,0,0,0,0,1,1,0,0,0,false,false,true,-134.53,-2256.17,16.99,-0.0046314322,0.0012488953,0.9668652,0.2552423,-558.891,1786.5409,8.571,0.00040999998,0,3.1842098
269.16666,2000,0,91.24,0.000002697398,0.000002697398,0.000002697398,0.99999994,0,0,0,0,0,0,1,1,0,0,0,false,false,true,-139.19,-2241.28,16.99,-0.004647617,0.0011841578,0.97016656,0.24239182,-565.501,1773.881,8.571,0.00040999998,0,3.18971
269.175,2000,0,91.24,0.000002697398,0.000002697398,0.000002697398,0.99999994,0,0,0,0,0,0,1,1,0,0,0,false,false,true,-143.9,-2226.5,16.99,-0.0046638013,0.0011194202,0.9733023,0.22947659,-571.951,1761.1609,8.571,0.00040999998,0,3.1944098
269.18332,2000,0,91.24,0.000002697398,0.000002697398,0.000002697398,0.99999994,0,0,0,0,0,0,1,1,0,0,0,false,false,true,-148.67,-2211.82,16.99,-0.0046799853,0.0010546827,0.9762703,0.2165021,-578.251,1748.391,8.571,0.00030999997,0,3.19831
269.19168,2000,0,91.24,0.000002697398,0.000002697398,0.000002697398,0.99999994,0,0,0,0,0,0,1,1,0,0,0,false,false,true,-153.48999,-2197.25,16.99,-0.004690775,0.000989945,0.97906864,0.20347358,-584.40094,1735.591,8.571,0.00030999997,0,3.20131
269.2,2000,0,91.24,0.000002697398,0.000002697398,0.000002697398,0.99999994,0,0,0,0,0,0,1,1,0,0,0,false,false,true,-158.36,-2182.79,16.99,-0.004701565,0.0009252076,0.98169553,0.19039662,-590.40094,1722.771,8.571,0.00030999997,0,3.20351
269.20834,2000,0,91.24,0.000002697398,0.000002697398,0.000002697398,0.99999994,0,0,0,0,0,0,1,1,0,0,0,false,false,true,-163.28,-2168.43,16.99,-0.0047123544,0.00086047,0.9841494,0.17727637,-596.251,1709.9509,8.571,0.00030999997,0,3.20481
269.21667,2000,0,91.24,0.000002697398,0.000002697398,0.000002697398,0.99999994,0,0,0,0,0,0,1,1,0,0,0,false,false,true,-168.25,-2154.18,16.99,-0.0047231438,0.0007957324,0.986429,0.16411838,-601.97095,1697.141,8.571,0.00021,0,3.20521
269.225,2000,0,91.24,0.000002697398,0.000002697398,0.000002697398,0.99999994,0,0,0,0,0,0,1,1,0,0,0,false,false,true,-173.26999,-2140.04,16.99,-0.0047339336,0.00073099486,0.9885331,0.1509281,-607.55096,1684.361,8.571,0.00021,0,3.20471
269.23334,2000,0,91.24,0.000002697398,0.000002697398,0.000002697398,0.99999994,0,0,0,0,0,0,1,1,0,0,0,false,false,true,-178.33,-2126,16.99,-0.004744723,0.0006662573,0.9904601,0.13771616,-613.011,1671.621,8.571,0.00021,0.00010999999,3.2032099
269.24167,2000,0,91.24,0.000002697398,0.000002697398,0.000002697398,0.99999994,0,0,0,0,0,0,1,1,0,0,0,false,false,true,-183.44,-2112.07,16.99,-0.0047501177,0.0006015198,0.99221015,0.12448273,-618.36096,1658.9309,8.571,0.00021,0.00010999999,3.2007098
269.25,2000,0,91.24,0.000002697398,0.000002697398,0.000002697398,0.99999994,0,0,0,0,0,0,1,1,0,0,0,false,false,true,-188.59,-2098.25,16.99,-0.004755513,0.0005367822,0.99378216,0.11123842,-623.60095,1646.3109,8.571,0.00021,0.00010999999,3.1972098
269.25833,2000,0,91.24,0.000002697398,0.000002697398,0.000002697398,0.99999994,0,0,0,0,0,0,1,1,0,0,0,false,false,true,-193.79,-2084.53,16.99,-0.004760908,0.0004720447,0.995176,0.097988725,-628.751,1633.771,8.571,0.00021,0.00010999999,3.19261
269.26666,2000,0,91.24,0.000002697398,0.000002697398,0.000002697398,0.99999994,0,0,0,0,0,0,1,1,0,0,0,false,false,true,-199.03,-2070.92,16.99,-0.004766302,0.00040730712,0.9963912,0.08474449,-633.821,1621.3109,8.571,0.00021,0.00010999999,3.18701
269.275,2000,0,91.24,0.000002697398,0.000002697398,0.000002697398,0.99999994,0,0,0,0,0,0,1,1,0,0,0,false,false,true,-204.31,-2057.41,16.99,-0.004771697,0.00034256955,0.99742866,0.07150558,-638.83093,1608.9509,8.571,0.00021,0.00010999999,3.18031
269.28333,2000,0,91.24,0.000002697398,0.000002697398,0.000002697398,0.99999994,0,0,0,0,0,0,1,1,0,0,0,false,false,true,-209.62999,-2044,16.99,-0.004777092,0.000277832,0.9982886,0.058282934,-643.79095,1596.6909,8.571,0.00021,0.00021,3.17241
269.29166,2000,0,91.24,0.000002697398,0.000002697398,0.000002697398,0.99999994,0,0,0,0,0,0,1,1,0,0,0,false,false,true,-214.98999,-2030.69,16.99,-0.0047770916,0.00021309442,0.9989717,0.04508178,-648.71094,1584.5509,8.571,0.00010999999,0.00030999997,3.16341
269.3,2000,0,91.24,0.000002697398,0.000002697398,0.000002697398,0.99999994,0,0,0,0,0,0,1,1,0,0,0,false,false,true,-220.4,-2017.49,16.99,-0.004777092,0.00014835689,0.9994792,0.031913,-653.61096,1572.521,8.571,0.00010999999,0.00030999997,3.15321
269.30832,2000,0,91.24,0.000002697398,0.000002697398,0.000002697398,0.99999994,0,0,0,0,0,0,1,1,0,0,0,false,false,true,-225.84999,-2004.39,16.99,-0.0047770916,0.00008361933,0.9998121,0.01877667,-658.511,1560.621,8.571,0.00010999999,0.00030999997,3.14171
269.31668,2000,0,91.24,0.000002697398,0.000002697398,0.000002697398,0.99999994,0,0,0,0,0,0,1,1,0,0,0,false,false,true,-231.34,-1991.38,16.99,-0.004777092,0.000018881787,0.99997234,0.0056888126,-663.42096,1548.841,8.571,0.00010999999,0.00030999997,3.12901
269.325,2000,0,91.24,0.000002697398,0.000002697398,0.000002697398,0.99999994,0,0,0,0,0,0,1,1,0,0,0,false,false,true,-236.87,-1978.47,16.99,-0.0047770925,-0.00004585577,0.99996156,-0.0073504522,-668.36096,1537.1909,8.571,0,0.00030999997,3.11501
269.33334,2000,0,91.24,0.000002697398,0.000002697398,0.000002697398,0.99999994,0,0,0,0,0,0,1,1,0,0,0,false,false,true,-242.43999,-1965.6599,16.99,-0.004777092,-0.000105198524,0.99978185,-0.020330373,-673.35095,1525.6709,8.571,0,0.00030999997,3.0996099
269.34167,2000,0,91.24,0.000002697398,0.000002697398,0.000002697398,0.99999994,0,0,0,0,0,0,1,1,0,0,0,false,false,true,-248.04999,-1952.95,16.99,-0.004771697,-0.00016454128,0.99943596,-0.03324016,-678.40094,1514.2809,8.571,0,0.00040999998,3.08281
269.35,2000,0,91.24,0.000002697398,0.000002697398,0.000002697398,0.99999994,0,0,0,0,0,0,1,1,0,0,0,false,false,true,-253.7,-1940.33,16.99,-0.0047663026,-0.00022388405,0.9989266,-0.046074428,-683.54095,1503.021,8.571,0,0.00040999998,3.0645099
269.35834,2000,0,91.24,0.000002697398,0.000002697398,0.000002697398,0.99999994,0,0,0,0,0,0,1,1,0,0,0,false,false,true,-259.4,-1927.7999,16.99,-0.004760907,-0.00028322675,0.9982566,-0.058827758,-688.68097,1491.771,8.571,0,0.00040999998,3.0494099
269.36667,2000,0,91.24,0.000002697398,0.000002697398,0.000002697398,0.99999994,0,0,0,0,0,0,1,1,0,0,0,false,false,true,-265.13998,-1915.37,16.99,-0.004755513,-0.00034256955,0.9974288,-0.07150558,-693.811,1480.491,8.571,0,0.00040999998,3.03891
269.375,2000,0,91.24,0.000002697398,0.000002697398,0.000002697398,0.99999994,0,0,0,0,0,0,1,1,0,0,0,false,false,true,-270.91998,-1903.0299,16.99,-0.004750118,-0.00040191234,0.9964434,-0.08412949,-698.93097,1469.2009,8.571,0,0.00040999998,3.0329099
269.38333,2000,0,91.24,0.000002697398,0.000002697398,0.000002697398,0.99999994,0,0,0,0,0,0,1,1,0,0,0,false,false,true,-276.74,-1890.7899,16.99,-0.004744723,-0.00046125508,0.9953006,-0.096715584,-704.061,1457.891,8.571,0,0.00040999998,3.03121
269.39166,2000,0,91.24,0.000002697398,0.000002697398,0.000002697398,0.99999994,0,0,0,0,0,0,1,1,0,0,0,false,false,true,-282.61,-1878.64,16.99,-0.0047393288,-0.00052059785,0.99399954,-0.10928012,-709.071,1446.4309,8.571,0,0.00030999997,3.0371099
269.4,2000,0,91.24,0.000002697398,0.000002697398,0.000002697398,0.99999994,0,0,0,0,0,0,1,1,0,0,0,false,false,true,-288.52,-1866.59,16.99,-0.0047285384,-0.00057994056,0.992537,-0.12185003,-713.91095,1434.7909,8.571,-0.00010999999,0.00030999997,3.05141
269.40833,2000,0,91.24,0.000002697398,0.000002697398,0.000002697398,0.99999994,0,0,0,0,0,0,1,1,0,0,0,false,false,true,-294.47,-1854.63,16.99,-0.004717749,-0.00063928333,0.99090785,-0.1344577,-718.59094,1422.981,8.571,-0.00030999997,0.00021,3.07391
269.41666,2000,0,91.24,0.000002697398,0.000002697398,0.000002697398,0.99999994,0,0,0,0,0,0,1,1,0,0,0,false,false,true,-300.46,-1842.77,16.99,-0.0047069597,-0.0006986261,0.9891048,-0.14713551,-723.11096,1411.021,8.571,-0.00040999998,0.00010999999,3.10441
269.425,2000,0,91.24,0.000002697398,0.000002697398,0.000002697398,0.99999994,0,0,0,0,0,0,1,1,0,0,0,false,false,true,-306.49,-1831.01,16.99,-0.0046961694,-0.0007579688,0.987119,-0.15991582,-727.47095,1398.9209,8.571,-0.00061,0,3.14271
269.43332,2000,0,91.24,0.000002697398,0.000002697398,0.000002697398,0.99999994,0,0,0,0,0,0,1,1,0,0,0,false,false,true,-312.55,-1819.35,16.99,-0.0046853805,-0.00081731164,0.9849409,-0.17282566,-731.68097,1386.7009,8.571,-0.00071,-0.00010999999,3.18871
269.44168,2000,0,91.24,0.000002697398,0.000002697398,0.000002697398,0.99999994,0,0,0,0,0,0,1,1,0,0,0,false,false,true,-318.65,-1807.7899,16.99,-0.0046745907,-0.00087665435,0.9825576,-0.18589729,-735.74097,1374.371,8.571,-0.00081,-0.00021,3.24231
269.45,2000,0,91.24,0.000002697398,0.000002697398,0.000002697398,0.99999994,0,0,0,0,0,0,1,1,0,0,0,false,false,true,-324.78,-1796.34,16.99,-0.0046638013,-0.0009359971,0.9799569,-0.19915235,-739.66095,1361.9409,8.571,-0.00091,-0.00030999997,3.30331
269.45834,2000,0,91.24,0.000002697398,0.000002697398,0.000002697398,0.99999994,0,0,0,0,0,0,1,1,0,0,0,false,false,true,-330.94,-1784.99,16.99,-0.0046530114,-0.0009953398,0.9771226,-0.21262321,-743.451,1349.4309,8.571,-0.0010099999,-0.00040999998,3.37181
269.46667,2000,0,91.24,0.000002697398,0.000002697398,0.000002697398,0.99999994,0,0,0,0,0,0,1,1,0,0,0,false,false,true,-337.13998,-1773.74,16.99,-0.0046368274,-0.0010546828,0.9740387,-0.22633144,-747.11096,1336.851,8.571,-0.00111,-0.00051,3.44771
269.475,2000,0,91.24,0.000002697398,0.000002697398,0.000002697398,0.99999994,0,0,0,0,0,0,1,1,0,0,0,false,false,true,-343.37,-1762.6,16.99,-0.004620643,-0.0011140254,0.9706873,-0.24029863,-750.571,1324.101,8.571,-0.00111,-0.00061,3.52891
269.48334,2000,0,91.24,0.000002697398,0.000002697398,0.000002697398,0.99999994,0,0,0,0,0,0,1,1,0,0,0,false,false,true,-349.62,-1751.57,16.99,-0.004604459,-0.001178763,0.9670489,-0.25454634,-753.72095,1311.0709,8.571,-0.00111,-0.00071,3.6131098
269.49167,2000,0,91.24,0.000002697398,0.000002697398,0.000002697398,0.99999994,0,0,0,0,0,0,1,1,0,0,0,false,false,true,-355.9,-1740.64,16.99,-0.0045882734,-0.0012435004,0.96310747,-0.26907453,-756.24097,1298.111,8.571,-0.0010099999,-0.00071,3.69711
269.5,2000,0,91.24,0.000002697398,0.000002697398,0.000002697398,0.99999994,0,0,0,0,0,0,1,1,0,0,0,false,false,true,-362.19998,-1729.82,16.99,-0.00457209,-0.0013082381,0.9588486,-0.283878,-758.17096,1285.281,8.571,-0.00091,-0.00071,3.78021
269.50833,2000,0,91.24,0.000002697398,0.000002697398,0.000002697398,0.99999994,0,0,0,0,0,0,1,1,0,0,0,false,false,true,-368.52,-1719.11,16.99,-0.004550511,-0.0013729758,0.95425826,-0.2989457,-759.52094,1272.621,8.571,-0.00071,-0.00071,3.8624098
269.51666,2000,0,91.24,0.000002697398,0.000002697398,0.000002697398,0.99999994,0,0,0,0,0,0,1,1,0,0,0,false,false,true,-374.85,-1708.5,16.99,-0.0045289313,-0.001443108,0.9493245,-0.31426153,-760.30096,1260.1809,8.571,-0.00051,-0.00071,3.94391
269.525,2000,0,91.24,0.000002697398,0.000002697398,0.000002697398,0.99999994,0,0,0,0,0,0,1,1,0,0,0,false,false,true,-381.19,-1698,16.99,-0.004507352,-0.0015132403,0.9440317,-0.32982022,-760.41095,1247.881,8.571,-0.00030999997,-0.00061,4.0212097
269.53333,2000,0,91.24,0.000002697398,0.000002697398,0.000002697398,0.99999994,0,0,0,0,0,0,1,1,0,0,0,false,false,true,-387.53,-1687.6,16.99,-0.004485773,-0.0015887675,0.93837374,-0.34558925,-759.761,1235.6809,8.571,-0.00010999999,-0.00051,4.09161
269.54166,2000,0,91.24,0.000002697398,0.000002697398,0.000002697398,0.99999994,0,0,0,0,0,0,1,1,0,0,0,false,false,true,-393.86,-1677.2999,16.99,-0.004458799,-0.0016642946,0.9323458,-0.3615363,-758.36096,1223.641,8.571,0,-0.00040999998,4.15521
269.55,2000,0,91.24,0.000002697398,0.000002697398,0.000002697398,0.99999994,0,0,0,0,0,0,1,1,0,0,0,false,false,true,-400.18,-1667.1,16.99,-0.004431825,-0.0017398219,0.9259469,-0.3776237,-756.24097,1211.8009,8.571,0.00010999999,-0.00030999997,4.21211
269.55832,2000,0,91.24,0.000002697398,0.000002697398,0.000002697398,0.99999994,0,0,0,0,0,0,1,1,0,0,0,false,false,true,-406.47998,-1657,16.99,-0.004399456,-0.0018153489,0.91917795,-0.39381355,-753.43097,1200.2109,8.571,0.00021,-0.00010999999,4.2624097
269.56668,2000,0,91.24,0.000002697398,0.000002697398,0.000002697398,0.99999994,0,0,0,0,0,0,1,1,0,0,0,false,false,true,-412.75998,-1647,16.99,-0.0043670875,-0.0018962709,0.91204,-0.4100735,-749.951,1188.9209,8.571,0.00030999997,0,4.30611
269.575,2000,0,91.24,0.000002697398,0.000002697398,0.000002697398,0.99999994,0,0,0,0,0,0,1,1,0,0,0,false,false,true,-419.00998,-1637.09,16.99,-0.0043347185,-0.0019771927,0.90453565,-0.42637122,-745.84094,1177.971,8.571,0.00040999998,0,4.34341
269.58334,2000,0,91.24,0.000002697398,0.000002697398,0.000002697398,0.99999994,0,0,0,0,0,0,1,1,0,0,0,false,false,true,-425.22998,-1627.27,16.99,-0.004296955,-0.0020581146,0.89667237,-0.44266897,-741.15094,1167.391,8.571,0.00040999998,0.00010999999,4.3744097
269.59167,2000,0,91.24,0.000002697398,0.000002697398,0.000002697398,0.99999994,0,0,0,0,0,0,1,1,0,0,0,false,false,true,-431.41,-1617.5399,16.99,-0.0042591915,-0.0021390365,0.8884545,-0.4589398,-735.92096,1157.231,8.571,0.00051,0.00021,4.39921
269.6,2000,0,91.24,0.000002697398,0.000002697398,0.000002697398,0.99999994,0,0,0,0,0,0,1,1,0,0,0,false,false,true,-437.53998,-1607.9,16.99,-0.0042214277,-0.0022199585,0.8798941,-0.4751458,-730.201,1147.521,8.571,0.00051,0.00030999997,4.4180098
269.60834,2000,0,91.24,0.000002697398,0.000002697398,0.000002697398,0.99999994,0,0,0,0,0,0,1,1,0,0,0,false,false,true,-443.62,-1598.34,16.99,-0.0041782693,-0.0023008804,0.8709998,-0.49126008,-724.05096,1138.281,8.571,0.00051,0.00040999998,4.43091
269.61667,2000,0,91.24,0.000002697398,0.000002697398,0.000002697398,0.99999994,0,0,0,0,0,0,1,1,0,0,0,false,false,true,-449.65,-1588.85,16.99,-0.004135111,-0.0023818025,0.86178225,-0.50725573,-717.52094,1129.5409,8.571,0.00051,0.00051,4.4380097
269.625,2000,0,91.24,0.000002697398,0.000002697398,0.000002697398,0.99999994,0,0,0,0,0,0,1,1,0,0,0,false,false,true,-455.63,-1579.44,16.99,-0.0040919525,-0.0024627245,0.85225433,-0.5231057,-710.67096,1121.3109,8.571,0.00051,0.00061,4.43951
269.63333,2000,0,91.24,0.000002697398,0.000002697398,0.000002697398,0.99999994,0,0,0,0,0,0,1,1,0,0,0,false,false,true,-461.55,-1570.1,16.99,-0.0040433994,-0.0025436464,0.84243435,-0.53877765,-703.55096,1113.601,8.571,0.00051,0.00071,4.4355097
269.64166,2000,0,91.24,0.000002697398,0.000002697398,0.000002697398,0.99999994,0,0,0,0,0,0,1,1,0,0,0,false,false,true,-467.41,-1560.82,16.99,-0.0039948463,-0.0026191734,0.83233285,-0.55425537,-696.23096,1106.4209,8.571,0.00051,0.00081,4.42621
269.65,2000,0,91.24,0.000002697398,0.000002697398,0.000002697398,0.99999994,0,0,0,0,0,0,1,1,0,0,0,false,false,true,-473.21,-1551.6,16.99,-0.003946293,-0.0026947006,0.8219691,-0.5695119,-688.77094,1099.781,8.571,0.00051,0.00091,4.41161
269.65833,2000,0,91.24,0.000002697398,0.000002697398,0.000002697398,0.99999994,0,0,0,0,0,0,1,1,0,0,0,false,false,true,-478.94998,-1542.44,16.99,-0.0038923454,-0.0027702278,0.811361,-0.5845257,-681.22095,1093.661,8.571,0.00051,0.0010099999,4.39191
269.66666,2000,0,91.24,0.000002697398,0.000002697398,0.000002697398,0.99999994,0,0,0,0,0,0,1,1,0,0,0,false,false,true,-484.62997,-1533.33,16.99,-0.0038383978,-0.002845755,0.8005288,-0.5992752,-673.641,1088.0609,8.561,0.00051,0.0010099999,4.36731
269.675,2000,0,91.24,0.000002697398,0.000002697398,0.000002697398,0.99999994,0,0,0,0,0,0,1,1,0,0,0,false,false,true,-490.24,-1524.26,16.99,-0.0037844495,-0.002921282,0.7894905,-0.613744,-666.09094,1082.9609,8.561,0.00040999998,0.0010099999,4.33781
269.68332,2000,0,91.24,0.000002697398,0.000002697398,0.000002697398,0.99999994,0,0,0,0,0,0,1,1,0,0,0,false,false,true,-495.78998,-1515.24,16.99,-0.0037305015,-0.0029914144,0.77827054,-0.6279108,-658.631,1078.341,8.561,0.00040999998,0.0010099999,4.30361
269.69168,2000,0,91.24,0.000002697398,0.000002697398,0.000002697398,0.99999994,0,0,0,0,0,0,1,1,0,0,0,false,false,true,-501.28,-1506.25,16.99,-0.0036765535,-0.0030615467,0.7668866,-0.6417647,-651.30096,1074.1809,8.561,0.00030999997,0.00111,4.26471
269.7,2000,0,91.24,0.000002697398,0.000002697398,0.000002697398,0.99999994,0,0,0,0,0,0,1,1,0,0,0,false,false,true,-506.71,-1497.2999,16.99,-0.003617211,-0.0031316795,0.75536263,-0.65528953,-644.16095,1070.4509,8.561,0.00030999997,0.0012099999,4.22131
269.70834,2000,0,91.24,0.000002697398,0.000002697398,0.000002697398,0.99999994,0,0,0,0,0,0,1,1,0,0,0,false,false,true,-512.08,-1488.38,16.99,-0.003557868,-0.0031964167,0.7437197,-0.6684744,-637.24097,1067.111,8.551001,0.00021,0.0012099999,4.17341
269.71667,2000,0,91.24,0.000002697398,0.000002697398,0.000002697398,0.99999994,0,0,0,0,0,0,1,1,0,0,0,false,false,true,-517.39,-1479.49,16.99,-0.003498525,-0.0032611538,0.73198545,-0.68130326,-630.59094,1064.141,8.551001,0.00021,0.0012099999,4.12111
269.725,2000,0,91.24,0.000002697398,0.000002697398,0.000002697398,0.99999994,0,0,0,0,0,0,1,1,0,0,0,false,false,true,-522.64,-1470.62,16.99,-0.0034391829,-0.0033258921,0.72018,-0.69377077,-624.251,1061.491,8.551001,0.00021,0.0012099999,4.06451
269.73334,2000,0,91.24,0.000002697398,0.000002697398,0.000002697398,0.99999994,0,0,0,0,0,0,1,1,0,0,0,false,false,true,-527.83997,-1461.77,16.99,-0.0033798397,-0.0033852346,0.7083292,-0.7058659,-618.251,1059.131,8.551001,0.00010999999,0.0012099999,4.00361
269.74167,2000,0,91.24,0.000002697398,0.000002697398,0.000002697398,0.99999994,0,0,0,0,0,0,1,1,0,0,0,false,false,true,-532.99,-1452.94,16.99,0.003320497,0.0034445773,-0.6964573,0.71758217,-612.621,1057.011,8.551001,0.00010999999,0.0012099999,3.93851
269.75,2000,0,91.24,0.000002697398,0.000002697398,0.000002697398,0.99999994,0,0,0,0,0,0,1,1,0,0,0,false,false,true,-538.1,-1444.13,16.99,0.0032611543,0.00350392,-0.68458873,0.7289137,-607.391,1055.101,8.541,0.00010999999,0.0012099999,3.86921
269.75833,2000,0,91.24,0.000002697398,0.000002697398,0.000002697398,0.99999994,0,0,0,0,0,0,1,1,0,0,0,false,false,true,-543.16,-1435.34,16.99,0.0032018116,0.003557868,-0.67274714,0.7398569,-602.571,1053.351,8.541,0,0.0012099999,3.79581
269.76666,2000,0,91.24,0.000002697398,0.000002697398,0.000002697398,0.99999994,0,0,0,0,0,0,1,1,0,0,0,false,false,true,-548.18,-1426.5599,16.99,0.0031424686,0.003611816,-0.6609594,0.75040627,-598.17096,1051.7009,8.541,0,0.0012099999,3.71851
269.775,2000,0,91.24,0.000002697398,0.000002697398,0.000002697398,0.99999994,0,0,0,0,0,0,1,1,0,0,0,false,false,true,-553.16,-1417.7999,16.99,0.003083126,0.003665764,-0.6492527,0.7605576,-594.18097,1050.101,8.541,0,0.0012099999,3.63811
269.78333,2000,0,91.24,0.000002697398,0.000002697398,0.000002697398,0.99999994,0,0,0,0,0,0,1,1,0,0,0,false,false,true,-558.11,-1409.0499,16.99,0.0030237832,0.0037143172,-0.63764846,0.7703125,-590.581,1048.521,8.541,0,0.0012099999,3.5555098
269.79166,2000,0,91.24,0.000002697398,0.000002697398,0.000002697398,0.99999994,0,0,0,0,0,0,1,1,0,0,0,false,false,true,-563.02997,-1400.3099,16.99,0.0029644405,0.0037628703,-0.6261683,0.7796731,-587.35095,1046.9409,8.541,-0.00010999999,0.0012099999,3.47131
269.8,2000,0,91.24,0.000002697398,0.000002697398,0.000002697398,0.99999994,0,0,0,0,0,0,1,1,0,0,0,false,false,true,-567.92,-1391.59,16.99,0.0029050978,0.0038114234,-0.61482835,0.7886463,-584.48096,1045.3309,8.531,-0.00010999999,0.00111,3.38601
269.80832,2000,0,91.24,0.000002697398,0.000002697398,0.000002697398,0.99999994,0,0,0,0,0,0,1,1,0,0,0,false,false,true,-572.79,-1382.88,16.99,0.0028457548,0.0038545819,-0.60363954,0.7972429,-581.951,1043.6709,8.531,-0.00021,0.0010099999,3.3001099
269.81668,2000,0,91.24,0.000002697398,0.000002697398,0.000002697398,0.99999994,0,0,0,0,0,0,1,1,0,0,0,false,false,true,-577.64,-1374.1799,16.99,0.002791807,0.0038977403,-0.5926179,0.80546933,-579.751,1041.9509,8.531,-0.00021,0.00091,3.21401
269.825,2000,0,91.24,0.000002697398,0.000002697398,0.000002697398,0.99999994,0,0,0,0,0,0,1,1,0,0,0,false,false,true,-582.47,-1365.5,16.99,0.002737859,0.003935504,-0.5817797,0.81333214,-577.871,1040.141,8.531,-0.00030999997,0.00081,3.12801
269.83334,2000,0,91.24,0.000002697398,0.000002697398,0.000002697398,0.99999994,0,0,0,0,0,0,1,1,0,0,0,false,false,true,-587.29,-1356.83,16.99,0.0026839112,0.0039732675,-0.5711304,0.8208453,-576.28094,1038.231,8.531,-0.00030999997,0.00071,3.04261
269.84167,2000,0,91.24,0.000002697398,0.000002697398,0.000002697398,0.99999994,0,0,0,0,0,0,1,1,0,0,0,false,false,true,-592.08997,-1348.1799,16.99,0.002629963,0.004011031,-0.56068057,0.8280182,-574.98096,1036.2009,8.531,-0.00030999997,0.00061,2.95801
269.85,2000,0,91.24,0.000002697398,0.000002697398,0.000002697398,0.99999994,0,0,0,0,0,0,1,1,0,0,0,false,false,true,-596.88,-1339.5399,16.99,0.002576015,0.004043399,-0.55043036,0.8348671,-573.941,1034.0409,8.531,-0.00030999997,0.00051,2.87451
269.85834,2000,0,91.24,0.000002697398,0.000002697398,0.000002697398,0.99999994,0,0,0,0,0,0,1,1,0,0,0,false,false,true,-601.66,-1330.9199,16.99,0.0025274619,0.0040757684,-0.5403907,0.8414005,-573.16095,1031.741,8.531,-0.00030999997,0.00040999998,2.79241
269.86667,2000,0,91.24,0.000002697398,0.000002697398,0.000002697398,0.99999994,0,0,0,0,0,0,1,1,0,0,0,false,false,true,-606.44,-1322.32,16.99,0.0024789087,0.004108137,-0.5305667,0.84762955,-572.61096,1029.2909,8.531,-0.00030999997,0.00030999997,2.71191
269.875,2000,0,91.24,0.000002697398,0.000002697398,0.000002697398,0.99999994,0,0,0,0,0,0,1,1,0,0,0,false,false,true,-611.20996,-1313.74,16.99,0.0024303556,0.004135111,-0.5209531,0.8535717,-572.28094,1026.6809,8.531,-0.00030999997,0.00021,2.63321
269.88333,2000,0,91.24,0.000002697398,0.000002697398,0.000002697398,0.99999994,0,0,0,0,0,0,1,1,0,0,0,false,false,true,-615.98,-1305.1799,16.99,0.0023818025,0.0041620852,-0.5115554,0.85923684,-572.16095,1023.90094,8.531,-0.00030999997,0.00010999999,2.55651
269.89166,2000,0,91.24,0.000002697398,0.000002697398,0.000002697398,0.99999994,0,0,0,0,0,0,1,1,0,0,0,false,false,true,-620.75,-1296.65,16.99,0.0023386441,0.004189059,-0.5023734,0.8646374,-572.23096,1020.9509,8.531,-0.00021,0,2.48191
269.9,2000,0,91.24,0.000002697398,0.000002697398,0.000002697398,0.99999994,0,0,0,0,0,0,1,1,0,0,0,false,false,true,-625.51996,-1288.14,16.99,0.0022954857,0.0042106383,-0.49340722,0.8697852,-572.48096,1017.821,8.531,-0.00021,0,2.40961
269.90833,2000,0,91.24,0.000002697398,0.000002697398,0.000002697398,0.99999994,0,0,0,0,0,0,1,1,0,0,0,false,false,true,-630.29,-1279.6599,16.99,0.0022523275,0.004232218,-0.4846515,0.87469417,-572.891,1014.5109,8.531,-0.00021,0,2.33971
269.91666,2000,0,91.24,0.000002697398,0.000002697398,0.000002697398,0.99999994,0,0,0,0,0,0,1,1,0,0,0,false,false,true,-635.06,-1271.21,16.99,0.002209169,0.0042537972,-0.47610068,0.87937766,-573.451,1011.02094,8.531,-0.00021,0,2.27221
269.925,2000,0,91.24,0.000002697398,0.000002697398,0.000002697398,0.99999994,0,0,0,0,0,0,1,1,0,0,0,false,false,true,-639.83997,-1262.78,16.99,0.0021660107,0.004275376,-0.46775487,0.88384515,-574.15094,1007.34094,8.531,-0.00010999999,-0.00010999999,2.20731
269.93332,2000,0,91.24,0.000002697398,0.000002697398,0.000002697398,0.99999994,0,0,0,0,0,0,1,1,0,0,0,false,false,true,-644.62,-1254.39,16.99,0.002128247,0.004296955,-0.45960873,0.8881085,-574.96094,1003.46094,8.521,0,-0.00021,2.1449099
269.94168,2000,0,91.24,0.000002697398,0.000002697398,0.000002697398,0.99999994,0,0,0,0,0,0,1,1,0,0,0,false,false,true,-649.41,-1246.03,16.99,0.0020904834,0.0043131392,-0.45165136,0.8921816,-575.85095,999.3909,8.521,0,-0.00030999997,2.08481
269.95834,2000,0,91.24,0.000002697398,0.000002697398,0.000002697398,0.99999994,0,0,0,0,0,0,1,1,0,0,0,false,false,true,-659.01996,-1229.4099,16.99,0.002014956,0.004345508,-0.43629768,0.89978945,-577.80096,990.71094,8.521,0,-0.00030999997,1.97091
269.96667,2000,0,91.24,0.000002697398,0.000002697398,0.000002697398,0.99999994,0,0,0,0,0,0,1,1,0,0,0,false,false,true,-663.82996,-1221.15,16.99,0.0019771927,0.0043616924,-0.42889604,0.90334105,-578.831,986.11096,8.521,0,-0.00030999997,1.9169099
269.975,2000,0,91.24,0.000002697398,0.000002697398,0.000002697398,0.99999994,0,0,0,0,0,0,1,1,0,0,0,false,false,true,-668.64996,-1212.9299,16.99,0.001944824,0.004377877,-0.42166695,0.90673804,-579.871,981.35095,8.521,0,-0.00030999997,1.86481
269.98334,2000,0,91.24,0.000002697398,0.000002697398,0.000002697398,0.99999994,0,0,0,0,0,0,1,1,0,0,0,false,false,true,-673.48,-1204.75,16.99,0.0019124552,0.0043940614,-0.41461056,0.90998626,-580.92096,976.441,8.521,0,-0.00040999998,1.81441
269.99167,2000,0,91.24,0.000002697398,0.000002697398,0.000002697398,0.99999994,0,0,0,0,0,0,1,1,0,0,0,false,false,true,-678.32,-1196.61,16.99,0.0018800865,0.004404851,-0.40772137,0.91309375,-581.96094,971.381,8.521,0,-0.00040999998,1.76571
270,2000,0,91.24,0.000002697398,0.000002697398,0.000002697398,0.99999994,0,0,0,0,0,0,1,1,0,0,0,false,false,true,-683.17,-1188.52,16.99,0.0018477174,0.00441564,-0.40099397,0.916068,-582.98096,966.18097,8.521,0,-0.00040999998,1.7186099
270.00833,2000,0,91.24,0.000002697398,0.000002697398,0.000002697398,0.99999994,0,0,0,0,0,0,1,1,0,0,0,false,false,true,-688.02997,-1180.47,16.99,0.0018153489,0.00442643,-0.39442316,0.9189164,-583.98096,960.85095,8.521,0.00010999999,-0.00040999998,1.67311
270.01666,2000,0,91.24,0.000002697398,0.000002697398,0.000002697398,0.99999994,0,0,0,0,0,0,1,1,0,0,0,false,false,true,-692.89996,-1172.46,16.99,0.0017829802,0.00443722,-0.38800868,0.92164326,-584.941,955.3909,8.521,0.00021,-0.00040999998,1.62901
270.025,2000,0,91.24,0.000002697398,0.000002697398,0.000002697398,0.99999994,0,0,0,0,0,0,1,1,0,0,0,false,false,true,-697.76996,-1164.5,16.99,0.0017560062,0.004448009,-0.3817453,0.92425513,-585.86096,949.821,8.521,0.00021,-0.00040999998,1.5864099
270.03333,2000,0,91.24,0.000002697398,0.000002697398,0.000002697398,0.99999994,0,0,0,0,0,0,1,1,0,0,0,false,false,true,-702.64996,-1156.58,16.99,0.0017290321,0.004458799,-0.3756276,0.9267583,-586.73096,944.1409,8.521,0.00021,-0.00040999998,1.54521
270.04166,2000,0,91.24,0.000002697398,0.000002697398,0.000002697398,0.99999994,0,0,0,0,0,0,1,1,0,0,0,false,false,true,-707.54,-1148.71,16.99,0.0017020581,0.0044695884,-0.36965555,0.9291565,-587.55096,938.35095,8.521,0.00021,-0.00040999998,1.5053099
270.05,2000,0,91.24,0.000002697398,0.000002697398,0.000002697398,0.99999994,0,0,0,0,0,0,1,1,0,0,0,false,false,true,-712.44,-1140.89,16.99,0.0016750842,0.0044803782,-0.36381835,0.9314576,-588.30096,932.46094,8.521,0.00021,-0.00040999998,1.46671
270.05832,2000,0,91.24,0.000002697398,0.000002697398,0.000002697398,0.99999994,0,0,0,0,0,0,1,1,0,0,0,false,false,true,-717.33997,-1133.12,16.99,0.0016481102,0.0044911676,-0.3581214,0.9336627,-588.99097,926.48096,8.521,0.00021,-0.00040999998,1.42931
270.06668,2000,0,91.24,0.000002697398,0.000002697398,0.000002697398,0.99999994,0,0,0,0,0,0,1,1,0,0,0,false,false,true,-722.25,-1125.4,16.99,0.0016211363,0.004501958,-0.352554,0.9357792,-589.61096,920.42096,8.521,0.00021,-0.00040999998,1.39311
270.075,2000,0,91.24,0.000002697398,0.000002697398,0.000002697398,0.99999994,0,0,0,0,0,0,1,1,0,0,0,false,false,true,-727.16,-1117.73,16.99,0.0015941623,0.0045073526,-0.347116,0.93781,-590.16095,914.28094,8.521,0.00021,-0.00040999998,1.35811
270.08334,2000,0,91.24,0.000002697398,0.000002697398,0.000002697398,0.99999994,0,0,0,0,0,0,1,1,0,0,0,false,false,true,-732.07996,-1110.11,16.99,0.0015725831,0.004512747,-0.3418021,0.93975973,-590.631,908.061,8.521,0.00030999997,-0.00040999998,1.3242099
270.09167,2000,0,91.24,0.000002697398,0.000002697398,0.000002697398,0.99999994,0,0,0,0,0,0,1,1,0,0,0,false,false,true,-737,-1102.5399,16.99,0.0015510039,0.0045181415,-0.33661225,0.9416312,-591.02094,901.77094,8.521,0.00030999997,-0.00030999997,1.29141
270.1,2000,0,91.24,0.000002697398,0.000002697398,0.000002697398,0.99999994,0,0,0,0,0,0,1,1,0,0,0,false,false,true,-741.93,-1095.03,16.99,0.0015294247,0.004523536,-0.33154115,0.94342864,-591.331,895.42096,8.521,0.00030999997,-0.00030999997,1.25971
270.10834,2000,0,91.24,0.000002697398,0.000002697398,0.000002697398,0.99999994,0,0,0,0,0,0,1,1,0,0,0,false,false,true,-746.86,-1087.57,16.99,0.0015078454,0.004528931,-0.3265833,0.9451562,-591.55096,889.011,8.521,0.00030999997,-0.00021,1.22911
270.11667,2000,0,91.24,0.000002697398,0.000002697398,0.000002697398,0.99999994,0,0,0,0,0,0,1,1,0,0,0,false,false,true,-751.79,-1080.16,16.99,0.0014862664,0.004534326,-0.32173875,0.9468164,-591.691,882.55096,8.521,0.00030999997,-0.00021,1.19951
270.125,2000,0,91.24,0.000002697398,0.000002697398,0.000002697398,0.99999994,0,0,0,0,0,0,1,1,0,0,0,false,false,true,-756.72,-1072.8099,16.99,0.0014646873,0.004539721,-0.31700218,0.9484128,-591.74097,876.04095,8.521,0.00030999997,-0.00010999999,1.17091
270.13333,2000,0,91.24,0.000002697398,0.000002697398,0.000002697398,0.99999994,0,0,0,0,0,0,1,1,0,0,0,false,false,true,-761.64996,-1065.51,16.99,0.0014431081,0.004545116,-0.3123734,0.9499474,-591.701,869.49097,8.521,0.00030999997,-0.00010999999,1.14331
270.14166,2000,0,91.24,0.000002697398,0.000002697398,0.000002697398,0.99999994,0,0,0,0,0,0,1,1,0,0,0,false,false,true,-766.57996,-1058.26,16.99,0.0014215289,0.004550511,-0.30784175,0.9514256,-591.571,862.90094,8.521,0.00030999997,-0.00010999999,1.1166099
270.15,2000,0,91.24,0.000002697398,0.000002697398,0.000002697398,0.99999994,0,0,0,0,0,0,1,1,0,0,0,false,false,true,-771.51,-1051.07,16.99,0.0013999495,0.0045559052,-0.30341256,0.9528473,-591.35095,856.27094,8.521,0.00030999997,0,1.09081
270.15833,2000,0,91.24,0.000002697398,0.000002697398,0.000002697398,0.99999994,0,0,0,0,0,0,1,1,0,0,0,false,false,true,-776.44,-1043.9299,16.99,0.0013783706,0.0045613004,-0.29908055,0.95421594,-591.04095,849.61096,8.521,0.00030999997,0,1.06591
270.16666,2000,0,91.24,0.000002697398,0.000002697398,0.000002697398,0.99999994,0,0,0,0,0,0,1,1,0,0,0,false,false,true,-781.37,-1036.85,16.99,0.0013567912,0.0045666946,-0.29484022,0.95553464,-590.631,842.92096,8.521,0.00030999997,0,1.0419099
270.175,2000,0,91.24,0.000002697398,0.000002697398,0.000002697398,0.99999994,0,0,0,0,0,0,1,1,0,0,0,false,false,true,-786.29,-1029.83,16.99,0.0013406068,0.0045720898,-0.29069158,0.9568049,-590.131,836.21094,8.521,0.00040999998,0,1.01881
270.18332,2000,0,91.24,0.000002697398,0.000002697398,0.000002697398,0.99999994,0,0,0,0,0,0,1,1,0,0,0,false,false,true,-791.20996,-1022.86,16.99,0.0013244225,0.004577485,-0.28662932,0.9580297,-589.53094,829.48096,8.521,0.00040999998,0,0.99650997
270.19168,2000,0,91.24,0.000002697398,0.000002697398,0.000002697398,0.99999994,0,0,0,0,0,0,1,1,0,0,0,false,false,true,-796.12,-1015.94995,16.99,0.001308238,0.004582879,-0.28264794,0.9592118,-588.84094,822.73096,8.521,0.00040999998,0,0.97501
270.2,2000,0,91.24,0.000002697398,0.000002697398,0.000002697398,0.99999994,0,0,0,0,0,0,1,1,0,0,0,false,false,true,-801.02997,-1009.08997,16.99,0.0012920536,0.004588274,-0.27874747,0.96035254,-588.05096,815.97095,8.521,0.00040999998,0,0.95441
270.20834,2000,0,91.24,0.000002697398,0.000002697398,0.000002697398,0.99999994,0,0,0,0,0,0,1,1,0,0,0,false,false,true,-805.93,-1002.29,16.99,0.0012758692,0.004593669,-0.27492794,0.96145296,-587.17096,809.201,8.521,0.00030999997,0,0.93461
270.21667,2000,0,91.24,0.000002697398,0.000002697398,0.000002697398,0.99999994,0,0,0,0,0,0,1,1,0,0,0,false,false,true,-810.82,-995.55,16.99,0.0012596849,0.0045990637,-0.27118397,0.96251565,-586.191,802.42096,8.521,0.00030999997,0,0.91551
270.225,2000,0,91.24,0.000002697398,0.000002697398,0.000002697398,0.99999994,0,0,0,0,0,0,1,1,0,0,0,false,false,true,-815.7,-988.86,16.99,0.0012435005,0.0046044583,-0.26751006,0.9635432,-585.121,795.631,8.521,0.00030999997,0,0.89721
270.23334,2000,0,91.24,0.000002697398,0.000002697398,0.000002697398,0.99999994,0,0,0,0,0,0,1,1,0,0,0,false,false,true,-820.57996,-982.23,16.99,0.0012273162,0.0046098535,-0.26390636,0.9645365,-583.96094,788.84094,8.521,0.00021,0,0.87971
270.24167,2000,0,91.24,0.000002697398,0.000002697398,0.000002697398,0.99999994,0,0,0,0,0,0,1,1,0,0,0,false,false,true,-825.44995,-975.66,16.99,0.0012111317,0.004615248,-0.26036733,0.9654978,-582.701,782.05096,8.521,0.00021,0,0.86291
270.25,2000,0,91.24,0.000002697398,0.000002697398,0.000002697398,0.99999994,0,0,0,0,0,0,1,1,0,0,0,false,false,true,-830.31,-969.13995,16.99,0.0011949473,0.004620643,-0.25689307,0.966428,-581.35095,775.261,8.521,0.00021,0,0.84691
270.25833,2000,0,91.24,0.000002697398,0.000002697398,0.000002697398,0.99999994,0,0,0,0,0,0,1,1,0,0,0,false,false,true,-835.14996,-962.68,16.99,0.001178763,0.004626038,-0.25348356,0.9673279,-579.90094,768.48096,8.521,0.00021,0,0.83160996
270.26666,2000,0,91.24,0.000002697398,0.000002697398,0.000002697398,0.99999994,0,0,0,0,0,0,1,1,0,0,0,false,false,true,-839.98,-956.27997,16.99,0.0011625786,0.0046314322,-0.25012797,0.9682009,-578.36096,761.701,8.521,0.00021,0,0.81701
270.275,2000,0,91.24,0.000002697398,0.000002697398,0.000002697398,0.99999994,0,0,0,0,0,0,1,1,0,0,0,false,false,true,-844.8,-949.93,16.99,0.0011463942,0.004636827,-0.24683173,0.96904653,-576.72095,754.93097,8.521,0.00021,-0.00010999999,0.80311
270.28333,2000,0,91.24,0.000002697398,0.000002697398,0.000002697398,0.99999994,0,0,0,0,0,0,1,1,0,0,0,false,false,true,-849.61,-943.63995,16.99,0.0011302099,0.0046422225,-0.24358948,0.96986663,-574.99097,748.17096,8.521,0.00021,-0.00010999999,0.78991
270.29166,2000,0,91.24,0.000002697398,0.000002697398,0.000002697398,0.99999994,0,0,0,0,0,0,1,1,0,0,0,false,false,true,-854.39996,-937.41,16.99,0.0011140254,0.0046476168,-0.24039574,0.97066313,-573.17096,741.42096,8.521,0.00021,-0.00021,0.77741
270.3,2000,0,91.24,0.000002697398,0.000002697398,0.000002697398,0.99999994,0,0,0,0,0,0,1,1,0,0,0,false,false,true,-859.18,-931.23,16.99,0.001097841,0.0046530114,-0.23725054,0.9714367,-571.251,734.691,8.521,0.00021,-0.00021,0.76561
270.30832,2000,0,91.24,0.000002697398,0.000002697398,0.000002697398,0.99999994,0,0,0,0,0,0,1,1,0,0,0,false,false,true,-863.94,-925.11,16.99,0.0010816565,0.004658406,-0.23414853,0.972189,-569.24097,727.98096,8.521,0.00021,-0.00030999997,0.75440997
270.31668,2000,0,91.24,0.000002697398,0.000002697398,0.000002697398,0.99999994,0,0,0,0,0,0,1,1,0,0,0,false,false,true,-868.68,-919.04,16.99,0.001070867,0.004658406,-0.23108968,0.97292066,-567.141,721.28094,8.521,0.00021,-0.00030999997,0.74391
270.325,2000,0,91.24,0.000002697398,0.000002697398,0.000002697398,0.99999994,0,0,0,0,0,0,1,1,0,0,0,false,false,true,-873.41,-913.02997,16.99,0.0010600775,0.004658406,-0.22807398,0.97363204,-564.951,714.60095,8.521,0.00021,-0.00030999997,0.73411
270.33334,2000,0,91.24,0.000002697398,0.000002697398,0.000002697398,0.99999994,0,0,0,0,0,0,1,1,0,0,0,false,false,true,-878.12,-907.07,16.99,0.0010492879,0.004658406,-0.22509602,0.9743248,-562.67096,707.951,8.521,0.00021,-0.00030999997,0.72491
270.34167,2000,0,91.24,0.000002697398,0.000002697398,0.000002697398,0.99999994,0,0,0,0,0,0,1,1,0,0,0,false,false,true,-882.81,-901.17,16.99,0.0010384984,0.0046584066,-0.22215047,0.9750007,-560.29095,701.321,8.521,0.00021,-0.00021,0.71641
270.35,2000,0,91.24,0.000002697398,0.000002697398,0.000002697398,0.99999994,0,0,0,0,0,0,1,1,0,0,0,false,false,true,-887.48,-895.32996,16.99,0.0010277088,0.0046584066,-0.21923728,0.9756599,-557.821,694.71094,8.521,0.00021,-0.00021,0.70851
270.35834,2000,0,91.24,0.000002697398,0.000002697398,0.000002697398,0.99999994,0,0,0,0,0,0,1,1,0,0,0,false,false,true,-892.13,-889.54,16.99,0.001016919,0.004658406,-0.21635644,0.97630274,-555.261,688.131,8.521,0.00021,-0.00010999999,0.70131
270.36667,2000,0,91.24,0.000002697398,0.000002697398,0.000002697398,0.99999994,0,0,0,0,0,0,1,1,0,0,0,false,false,true,-896.76,-883.81,16.99,0.0010061294,0.0046638013,-0.21350256,0.9769308,-552.61096,681.58093,8.521,0.00010999999,0,0.69471
270.375,2000,0,91.24,0.000002697398,0.000002697398,0.000002697398,0.99999994,0,0,0,0,0,0,1,1,0,0,0,false,false,true,-901.37,-878.13,16.99,0.00099534,0.0046691964,-0.2106757,0.9775443,-549.871,675.061,8.521,0,0,0.68871
270.38333,2000,0,91.24,0.000002697398,0.000002697398,0.000002697398,0.99999994,0,0,0,0,0,0,1,1,0,0,0,false,false,true,-905.94995,-872.5,16.99,0.0009845502,0.0046745907,-0.2078704,0.97814465,-547.04095,668.571,8.521,0,0,0.68341
270.39166,2000,0,91.24,0.000002697398,0.000002697398,0.000002697398,0.99999994,0,0,0,0,0,0,1,1,0,0,0,false,false,true,-910.51,-866.93,16.99,0.0009737606,0.004679985,-0.20508666,0.978732,-544.121,662.11096,8.521,0,-0.00010999999,0.67871
270.4,2000,0,91.24,0.000002697398,0.000002697398,0.000002697398,0.99999994,0,0,0,0,0,0,1,1,0,0,0,false,false,true,-915.04,-861.41,16.99,0.0009629711,0.0046799853,-0.2023191,0.97930795,-541.11096,655.68097,8.521,0,-0.00010999999,0.67471
270.40833,2000,0,91.24,0.000002697398,0.000002697398,0.000002697398,0.99999994,0,0,0,0,0,0,1,1,0,0,0,false,false,true,-919.55,-855.94995,16.99,0.0009521815,0.0046799853,-0.19956775,0.97987235,-538.011,649.28094,8.521,0,-0.00010999999,0.67131
270.41666,2000,0,91.24,0.000002697398,0.000002697398,0.000002697398,0.99999994,0,0,0,0,0,0,1,1,0,0,0,false,false,true,-924.02997,-850.54,16.99,0.0009413918,0.004679985,-0.19682719,0.98042643,-534.821,642.92096,8.521,0,-0.00010999999,0.66851
270.425,2000,0,91.24,0.000002697398,0.000002697398,0.000002697398,0.99999994,0,0,0,0,0,0,1,1,0,0,0,false,false,true,-928.49,-845.18,16.99,0.0009306024,0.004679986,-0.19409744,0.9809706,-531.54095,636.59094,8.521,0,-0.00010999999,0.66640997
270.43332,2000,0,91.24,0.000002697398,0.000002697398,0.000002697398,0.99999994,0,0,0,0,0,0,1,1,0,0,0,false,false,true,-932.92,-839.87,16.99,0.00091981277,0.0046799853,-0.19137302,0.98150575,-528.17096,630.30096,8.521,0,0,0.66491
270.44168,2000,0,91.24,0.000002697398,0.000002697398,0.000002697398,0.99999994,0,0,0,0,0,0,1,1,0,0,0,false,false,true,-937.32,-834.62,16.99,0.00090902316,0.0046799853,-0.18865404,0.982032,-524.71094,624.05096,8.521,0,0,0.66401
270.45,2000,0,91.24,0.000002697398,0.000002697398,0.000002697398,0.99999994,0,0,0,0,0,0,1,1,0,0,0,false,false,true,-941.69,-829.42,16.99,0.00089823356,0.0046799853,-0.18593507,0.98255044,-521.16095,617.84094,8.521,0,0,0.66381
270.45834,2000,0,91.24,0.000002697398,0.000002697398,0.000002697398,0.99999994,0,0,0,0,0,0,1,1,0,0,0,false,false,true,-946.02997,-824.26996,16.99,0.00088744395,0.0046799853,-0.18321608,0.9830611,-517.52094,611.67096,8.521,0,0,0.66421
270.46667,2000,0,91.24,0.000002697398,0.000002697398,0.000002697398,0.99999994,0,0,0,0,0,0,1,1,0,0,0,false,false,true,-950.33997,-819.17,16.99,0.00087665435,0.0046799853,-0.18049707,0.98356396,-513.79095,605.54095,8.521,-0.00010999999,0,0.66531
270.475,2000,0,91.24,0.000002697398,0.000002697398,0.000002697398,0.99999994,0,0,0,0,0,0,1,1,0,0,0,false,false,true,-954.62,-814.12,16.99,0.0008658648,0.0046799853,-0.17776729,0.984061,-509.961,599.451,8.521,-0.00010999999,0,0.66711
270.48334,2000,0,91.24,0.000002697398,0.000002697398,0.000002697398,0.99999994,0,0,0,0,0,0,1,1,0,0,0,false,false,true,-958.87,-809.12,16.99,0.0008550752,0.0046799853,-0.17503214,0.9845512,-506.041,593.41095,8.521,-0.00010999999,0.00010999999,0.66951
270.49167,2000,0,91.24,0.000002697398,0.000002697398,0.000002697398,0.99999994,0,0,0,0,0,0,1,1,0,0,0,false,false,true,-963.08997,-804.17,16.99,0.00083889085,0.004685381,-0.1722862,0.9850354,-502.031,587.41095,8.521,-0.00021,0.00010999999,0.67261
270.5,2000,0,91.24,0.000002697398,0.000002697398,0.000002697398,0.99999994,0,0,0,0,0,0,1,1,0,0,0,false,false,true,-967.26996,-799.26996,16.99,0.00082270644,0.0046853805,-0.169524,0.9855145,-497.931,581.46094,8.521,-0.00021,0.00010999999,0.67641
270.50833,2000,0,91.24,0.000002697398,0.000002697398,0.000002697398,0.99999994,0,0,0,0,0,0,1,1,0,0,0,false,false,true,-971.42,-794.42,16.99,0.000806522,0.00468538,-0.16674568,0.9859883,-493.741,575.561,8.521,-0.00021,0.00010999999,0.68081
270.51666,2000,0,91.24,0.000002697398,0.000002697398,0.000002697398,0.99999994,0,0,0,0,0,0,1,1,0,0,0,false,false,true,-975.52997,-789.62,16.99,0.00079033757,0.00468538,-0.16394576,0.98645777,-489.451,569.71094,8.521,-0.00010999999,0.00010999999,0.68591
270.525,2000,0,91.24,0.000002697398,0.000002697398,0.000002697398,0.99999994,0,0,0,0,0,0,1,1,0,0,0,false,false,true,-979.61,-784.87,16.99,0.0007741533,0.004685381,-0.16112432,0.9869227,-485.07098,563.91095,8.521,0,0.00010999999,0.69171
270.53333,2000,0,91.24,0.000002697398,0.000002697398,0.000002697398,0.99999994,0,0,0,0,0,0,1,1,0,0,0,false,false,true,-983.64996,-780.17,16.99,0.00075796887,0.004690775,-0.1582812,0.9873826,-480.591,558.16095,8.521,0,0.00021,0.69821
270.54166,2000,0,91.24,0.000002697398,0.000002697398,0.000002697398,0.99999994,0,0,0,0,0,0,1,1,0,0,0,false,false,true,-987.64996,-775.51996,16.99,0.00074178446,0.00469617,-0.15540577,0.9878392,-476.021,552.46094,8.521,0,0.00021,0.70551
270.55,2000,0,91.24,0.000002697398,0.000002697398,0.000002697398,0.99999994,0,0,0,0,0,0,1,1,0,0,0,false,false,true,-991.62,-770.92,16.99,0.00072560005,0.0047015646,-0.15250339,0.98829144,-471.35098,546.821,8.521,0,0.00010999999,0.71351
270.55832,2000,0,91.24,0.000002697398,0.000002697398,0.000002697398,0.99999994,0,0,0,0,0,0,1,1,0,0,0,false,false,true,-995.55,-766.36,16.99,0.0007094157,0.0047015646,-0.14956322,0.9887407,-466.581,541.24097,8.521,0,0,0.72221
270.56668,2000,0,91.24,0.000002697398,0.000002697398,0.000002697398,0.99999994,0,0,0,0,0,0,1,1,0,0,0,false,false,true,-999.44,-761.85,16.99,0.0006932313,0.0047015646,-0.14658524,0.9891866,-461.711,535.72095,8.521,0.00010999999,0,0.73171
270.575,2000,0,91.24,0.000002697398,0.000002697398,0.000002697398,0.99999994,0,0,0,0,0,0,1,1,0,0,0,false,false,true,-1003.29,-757.38995,16.99,0.00067704695,0.004701565,-0.14356957,0.9896288,-456.751,530.261,8.521,0.00021,0,0.74201
270.58334,2000,0,91.24,0.000002697398,0.000002697398,0.000002697398,0.99999994,0,0,0,0,0,0,1,1,0,0,0,false,false,true,-1007.1,-752.97,16.99,0.00066086254,0.0047015646,-0.14051071,0.9900677,-451.691,524.86096,8.521,0.00021,0,0.75301
270.59167,2000,0,91.24,0.000002697398,0.000002697398,0.000002697398,0.99999994,0,0,0,0,0,0,1,1,0,0,0,false,false,true,-1010.86,-748.6,16.99,0.00064467813,0.0047015646,-0.13740326,0.9905038,-446.521,519.52094,8.521,0.00030999997,0,0.76491
270.6,2000,0,91.24,0.000002697398,0.000002697398,0.000002697398,0.99999994,0,0,0,0,0,0,1,1,0,0,0,false,false,true,-1014.57996,-744.26996,16.99,0.0006284938,0.004701565,-0.13424732,0.99093646,-441.251,514.251,8.521,0.00030999997,0,0.77761
270.60834,2000,0,91.24,0.000002697398,0.000002697398,0.000002697398,0.99999994,0,0,0,0,0,0,1,1,0,0,0,false,false,true,-1018.25995,-739.98,16.99,0.0006123093,0.0047015646,-0.1310374,0.991366,-435.881,509.051,8.521,0.00040999998,0.00010999999,0.79111
270.61667,2000,0,91.24,0.000002697398,0.000002697398,0.000002697398,0.99999994,0,0,0,0,0,0,1,1,0,0,0,false,false,true,-1021.88995,-735.74,16.99,0.000596125,0.00470696,-0.12776817,0.9917927,-430.401,503.921,8.521,0.00040999998,0.00010999999,0.80551
270.625,2000,0,91.24,0.000002697398,0.000002697398,0.000002697398,0.99999994,0,0,0,0,0,0,1,1,0,0,0,false,false,true,-1025.48,-731.54,16.99,0.0005799406,0.00470696,-0.12443954,0.9922158,-424.82098,498.861,8.521,0.00040999998,0.00010999999,0.82071
270.63333,2000,0,91.24,0.000002697398,0.000002697398,0.000002697398,0.99999994,0,0,0,0,0,0,1,1,0,0,0,false,false,true,-1029.02,-727.38,16.99,0.00056375616,0.0047069597,-0.1210462,0.9926355,-419.131,493.88098,8.521,0.00051,0.00010999999,0.83691
270.64166,2000,0,91.24,0.000002697398,0.000002697398,0.000002697398,0.99999994,0,0,0,0,0,0,1,1,0,0,0,false,false,true,-1032.51,-723.26,16.99,0.0005475718,0.0047069597,-0.117582746,0.9930517,-413.331,488.981,8.521,0.00051,0.00010999999,0.85401
270.65,2000,0,91.24,0.000002697398,0.000002697398,0.000002697398,0.99999994,0,0,0,0,0,0,1,1,0,0,0,false,false,true,-1035.95,-719.19,16.99,0.0005313874,0.0047069597,-0.11404911,0.99346375,-407.421,484.161,8.521,0.00051,0.00010999999,0.87201
270.65833,2000,0,91.24,0.000002697398,0.000002697398,0.000002697398,0.99999994,0,0,0,0,0,0,1,1,0,0,0,false,false,true,-1039.35,-715.16,16.99,0.000515203,0.0047069597,-0.11043999,0.99387145,-401.401,479.421,8.521,0.00051,0.00010999999,0.89101
270.66666,2000,0,91.24,0.000002697398,0.000002697398,0.000002697398,0.99999994,0,0,0,0,0,0,1,1,0,0,0,false,false,true,-1042.69,-711.16,16.99,0.00049901864,0.0047069597,-0.10674995,0.99427456,-395.261,474.771,8.521,0.00051,0.00021,0.91100997
270.675,2000,0,91.24,0.000002697398,0.000002697398,0.000002697398,0.99999994,0,0,0,0,0,0,1,1,0,0,0,false,false,true,-1045.98,-707.2,16.99,0.0004828343,0.004712355,-0.10297356,0.9946728,-389.011,470.221,8.521,0.00051,0.00021,0.93211
270.68332,2000,0,91.24,0.000002697398,0.000002697398,0.000002697398,0.99999994,0,0,0,0,0,0,1,1,0,0,0,false,false,true,-1049.22,-703.27997,16.99,0.00046664986,0.004717749,-0.09911088,0.99506503,-382.641,465.761,8.521,0.00051,0.00021,0.95431
270.69168,2000,0,91.24,0.000002697398,0.000002697398,0.000002697398,0.99999994,0,0,0,0,0,0,1,1,0,0,0,false,false,true,-1052.41,-699.39996,16.99,0.00045046542,0.0047231433,-0.09515109,0.9954514,-376.151,461.401,8.521,0.00051,0.00010999999,0.97761
270.7,2000,0,91.24,0.000002697398,0.000002697398,0.000002697398,0.99999994,0,0,0,0,0,0,1,1,0,0,0,false,false,true,-1055.5399,-695.55,16.99,0.00043428104,0.0047231433,-0.09109416,0.99583083,-369.541,457.151,8.521,0.00051,0,1.00201
270.70834,2000,0,91.24,0.000002697398,0.000002697398,0.000002697398,0.99999994,0,0,0,0,0,0,1,1,0,0,0,false,false,true,-1058.62,-691.74,16.99,0.00041809664,0.0047231433,-0.08693477,0.9962026,-362.801,453.011,8.521,0.00051,0,1.02761
270.71667,2000,0,91.24,0.000002697398,0.000002697398,0.000002697398,0.99999994,0,0,0,0,0,0,1,1,0,0,0,false,false,true,-1061.64,-687.95996,16.99,0.00040191232,0.0047231438,-0.082667455,0.9965659,-355.941,448.981,8.521,0.00051,0,1.05451
270.725,2000,0,91.24,0.000002697398,0.000002697398,0.000002697398,0.99999994,0,0,0,0,0,0,1,1,0,0,0,false,false,true,-1064.61,-684.22,16.99,0.0003857279,0.0047231438,-0.07828688,0.9969196,-348.951,445.081,8.521,0.00040999998,0,1.08271
270.73334,2000,0,91.24,0.000002697398,0.000002697398,0.000002697398,0.99999994,0,0,0,0,0,0,1,1,0,0,0,false,false,true,-1067.52,-680.51,16.99,0.0003641487,0.0047231433,-0.07378761,0.9972626,-341.831,441.301,8.521,0.00030999997,0,1.1123099
270.74167,2000,0,91.24,0.000002697398,0.000002697398,0.000002697398,0.99999994,0,0,0,0,0,0,1,1,0,0,0,false,false,true,-1070.37,-676.82996,16.99,0.00034256955,0.0047231438,-0.06916423,0.997594,-334.571,437.661,8.521,0.00030999997,0.00010999999,1.14331
270.75,2000,0,91.24,0.000002697398,0.000002697398,0.000002697398,0.99999994,0,0,0,0,0,0,1,1,0,0,0,false,false,true,-1073.16,-673.18,16.99,0.0003209904,0.004723144,-0.064411424,0.99791217,-327.181,434.161,8.521,0.00030999997,0.00010999999,1.17581
270.75833,2000,0,91.24,0.000002697398,0.000002697398,0.000002697398,0.99999994,0,0,0,0,0,0,1,1,0,0,0,false,false,true,-1075.89,-669.56,16.99,0.0002994112,0.0047231438,-0.059523694,0.9982156,-319.651,430.811,8.521,0.00030999997,0.00010999999,1.20981
270.76666,2000,0,91.24,0.000002697398,0.000002697398,0.000002697398,0.99999994,0,0,0,0,0,0,1,1,0,0,0,false,false,true,-1078.5499,-665.97,16.99,0.000277832,0.0047231438,-0.05449035,0.998503,-311.981,427.621,8.521,0.00030999997,0.00010999999,1.24541
