time,ball_loc_x,ball_loc_y,ball_loc_z,ball_rot_x,ball_rot_y,ball_rot_z,ball_rot_w,ball_vel_x,ball_vel_y,ball_vel_z,ball_ang_x,ball_ang_y,ball_ang_z,player0_throttle,player0_steer,player0_pitch,player0_yaw,player0_roll,player0_jump,player0_boost,player0_handbrake,player0_loc_x,player0_loc_y,player0_loc_z,player0_rot_x,player0_rot_y,player0_rot_z,player0_rot_w,player0_vel_x,player0_vel_y,player0_vel_z,player0_ang_x,player0_ang_y,player0_ang_z
13.833333,2000,0,91.24,0.000002697398,0.000002697398,0.000002697398,0.99999994,0,0,0,0,0,0,0,0,0,0,0,false,false,false,0,0.14,17.01,-0.00336905,0.0033798397,0.7071014,0.7070959,0,0,8.321,-0.00051,0,0
13.841666,2000,0,73,0.000002697398,0.000002697398,0.000002697398,0.99999994,0,0,0,0,0,0,1,1,0,0,0,false,false,true,0,0,16.94,0.0000026973983,0.0000026973983,0.70710677,0.70710677,-3.251,12.181,2.041,-0.050809998,0,0.090909995
13.85,2000,0,87.6,0.000002697398,0.000002697398,0.000002697398,0.99999994,0,0,0,0,0,0,1,1,0,0,0,false,false,true,-0.03,0.099999994,16.89,-0.00014835689,0.00015375168,0.7073763,0.706837,-6.2809997,24.071,3.8809998,-0.085609995,0,0.17571
13.858334,2000,0,90.52,0.000002697398,0.000002697398,0.000002697398,0.99999994,0,0,0,0,0,0,1,1,0,0,0,false,false,true,-0.08,0.29999998,16.85,-0.00040191232,0.00040730712,0.70789325,0.7063191,-9.1310005,35.670998,5.481,-0.107209995,0,0.25501
13.866667,2000,0,91.1,0.000002697398,0.000002697398,0.000002697398,0.99999994,0,0,0,0,0,0,1,1,0,0,0,false,false,true,-0.16,0.59999996,16.83,-0.00072020525,0.00072560005,0.7086455,0.7055638,-11.831,46.961,6.791,-0.11630999,0,0.32931
13.875,2000,0,91.22,0.000002697398,0.000002697398,0.000002697398,0.99999994,0,0,0,0,0,0,1,1,0,0,0,false,false,true,-0.26,0.98999995,16.82,-0.0010654721,0.0010654721,0.7096102,0.7045927,-14.431,57.961,7.7409997,-0.114609994,-0.00010999999,0.39961
13.883333,2000,0,91.24,0.000002697398,0.000002697398,0.000002697398,0.99999994,0,0,0,0,0,0,1,1,0,0,0,false,false,true,-0.38,1.4699999,16.82,-0.0014053443,0.0013999495,0.7107802,0.7034113,-16.931,68.651,8.431,-0.10660999,-0.00010999999,0.46571
13.891666,2000,0,91.24,0.000002697398,0.000002697398,0.000002697398,0.99999994,0,0,0,0,0,0,1,1,0,0,0,false,false,true,-0.52,2.04,16.82,-0.0017182425,0.0017128477,0.71214294,0.7020302,-19.351,79.041,8.9210005,-0.09520999,-0.00010999999,0.52781
13.9,2000,0,91.24,0.000002697398,0.000002697398,0.000002697398,0.99999994,0,0,0,0,0,0,1,1,0,0,0,false,false,true,-0.68,2.7,16.83,-0.0019987717,0.0019933768,0.71368563,0.70046026,-21.700998,89.131,9.281,-0.082509995,-0.00021,0.58621
13.908334,2000,0,91.24,0.000002697398,0.000002697398,0.000002697398,0.99999994,0,0,0,0,0,0,1,1,0,0,0,false,false,true,-0.85999995,3.4399998,16.84,-0.0022469326,0.002230748,0.71539557,0.6987124,-24.001,98.910995,9.521,-0.06961,-0.00030999997,0.64111
13.916667,2000,0,91.24,0.000002697398,0.000002697398,0.000002697398,0.99999994,0,0,0,0,0,0,1,1,0,0,0,false,false,true,-1.06,4.2599998,16.85,-0.0024573295,0.0024303556,0.7172597,0.69679725,-26.270998,108.391,9.6710005,-0.057509996,-0.00030999997,0.69271
13.925,2000,0,91.24,0.000002697398,0.000002697398,0.000002697398,0.99999994,0,0,0,0,0,0,1,1,0,0,0,false,false,true,-1.28,5.16,16.859999,-0.0026299627,0.0025921992,0.7192653,0.6947255,-28.511,117.561,9.761001,-0.046609998,-0.00030999997,0.74121
13.933333,2000,0,91.24,0.000002697398,0.000002697398,0.000002697398,0.99999994,0,0,0,0,0,0,1,1,0,0,0,false,false,true,-1.52,6.14,16.869999,-0.0027756225,0.0027216745,0.7214045,0.6925029,-30.730999,126.431,9.811,-0.037109997,-0.00040999998,0.78691
13.941667,2000,0,91.24,0.000002697398,0.000002697398,0.000002697398,0.99999994,0,0,0,0,0,0,1,1,0,0,0,false,false,true,-1.78,7.19,16.88,-0.0028943084,0.0028241759,0.72366965,0.69013464,-32.931,135.001,9.831,-0.02911,-0.00040999998,0.82991
13.95,2000,0,91.24,0.000002697398,0.000002697398,0.000002697398,0.99999994,0,0,0,0,0,0,1,1,0,0,0,false,false,true,-2.05,8.32,16.89,-0.0029914144,0.0028997029,0.726053,0.687626,-35.121,143.27101,9.811,-0.022809999,-0.00051,0.87051
13.958333,2000,0,91.24,0.000002697398,0.000002697398,0.000002697398,0.99999994,0,0,0,0,0,0,1,1,0,0,0,false,false,true,-2.34,9.51,16.9,-0.0030669416,0.0029590456,0.7285418,0.68498796,-37.310997,151.241,9.761001,-0.01821,-0.00061,0.90881
13.966666,2000,0,91.24,0.000002697398,0.000002697398,0.000002697398,0.99999994,0,0,0,0,0,0,1,1,0,0,0,false,false,true,-2.6499999,10.7699995,16.91,-0.0031316793,0.003002204,0.7311285,0.6822258,-39.490997,158.921,9.681,-0.01481,-0.00071,0.94501
13.975,2000,0,91.24,0.000002697398,0.000002697398,0.000002697398,0.99999994,0,0,0,0,0,0,1,1,0,0,0,false,false,true,-2.98,12.09,16.92,-0.0031856268,0.0030345726,0.7338107,0.6793395,-41.670998,166.30101,9.591001,-0.012209999,-0.00081,0.97931
13.983334,2000,0,91.24,0.000002697398,0.000002697398,0.000002697398,0.99999994,0,0,0,0,0,0,1,1,0,0,0,false,false,true,-3.33,13.48,16.93,-0.0032341806,0.0030561523,0.73657596,0.67634016,-43.841,173.391,9.491,-0.010209999,-0.00091,1.01191
13.991667,2000,0,91.24,0.000002697398,0.000002697398,0.000002697398,0.99999994,0,0,0,0,0,0,1,1,0,0,0,false,false,true,-3.6999998,14.92,16.94,-0.003277338,0.003072336,0.7394219,0.67322713,-46.001,180.22101,9.391,-0.008609999,-0.0010099999,1.04251
14,2000,0,91.24,0.000002697398,0.000002697398,0.000002697398,0.99999994,0,0,0,0,0,0,1,1,0,0,0,false,false,true,-4.08,16.42,16.949999,-0.003320497,0.003083126,0.7423413,0.6700065,-48.141,186.80101,9.281,-0.00731,-0.0010099999,1.0721099
14.008333,2000,0,91.24,0.000002697398,0.000002697398,0.000002697398,0.99999994,0,0,0,0,0,0,1,1,0,0,0,false,false,true,-4.48,17.98,16.96,-0.0033582605,0.0030885208,0.74532706,0.6666833,-50.260998,193.11101,9.1710005,-0.00621,-0.0010099999,1.10051
14.016666,2000,0,91.24,0.000002697398,0.000002697398,0.000002697398,0.99999994,0,0,0,0,0,0,1,1,0,0,0,false,false,true,-4.9,19.59,16.97,-0.0033906293,0.0030885208,0.74837697,0.66325766,-52.350998,199.161,9.061,-0.00531,-0.0010099999,1.12781
14.025,2000,0,91.24,0.000002697398,0.000002697398,0.000002697398,0.99999994,0,0,0,0,0,0,1,1,0,0,0,false,false,true,-5.3399997,21.25,16.98,-0.0034229981,0.0030885208,0.7514842,0.65973485,-54.400997,204.97101,8.951,-0.00461,-0.0010099999,1.1547099
14.033334,2000,0,91.24,0.000002697398,0.000002697398,0.000002697398,0.99999994,0,0,0,0,0,0,1,1,0,0,0,false,false,true,-5.79,22.96,16.99,-0.003455367,0.003083126,0.7546514,0.6561095,-56.400997,210.531,8.841001,-0.00401,-0.0010099999,1.18091
14.041667,2000,0,91.24,0.000002697398,0.000002697398,0.000002697398,0.99999994,0,0,0,0,0,0,1,1,0,0,0,false,false,true,-6.2599998,24.71,17,-0.0034823408,0.0030777312,0.75787157,0.65238714,-58.470997,216.051,8.731,-0.00351,-0.0010099999,1.20701
14.05,2000,0,91.24,0.000002697398,0.000002697398,0.000002697398,0.99999994,0,0,0,0,0,0,1,1,0,0,0,false,false,true,-6.75,26.51,17.01,-0.0035093152,0.0030669419,0.7611428,0.64856756,-60.621,221.531,8.621,-0.00301,-0.0010099999,1.23311
14.058333,2000,0,91.24,0.000002697398,0.000002697398,0.000002697398,0.99999994,0,0,0,0,0,0,1,1,0,0,0,false,false,true,-7.2599998,28.359999,17.01,-0.003536289,0.0030561523,0.76446724,0.6446456,-62.841,226.97101,8.511001,-0.00261,-0.00091,1.25911
14.066667,2000,0,91.24,0.000002697398,0.000002697398,0.000002697398,0.99999994,0,0,0,0,0,0,1,1,0,0,0,false,false,true,-7.7799997,30.25,17.01,-0.0035632628,0.0030453624,0.7678383,0.6406264,-65.141,232.36101,8.441,-0.0023100001,-0.00091,1.28511
14.075,2000,0,91.24,0.000002697398,0.000002697398,0.000002697398,0.99999994,0,0,0,0,0,0,1,1,0,0,0,false,false,true,-8.32,32.19,17.01,-0.003590237,0.003029178,0.77125835,0.63650477,-67.520996,237.701,8.391,-0.00201,-0.00091,1.31111
14.083333,2000,0,91.24,0.000002697398,0.000002697398,0.000002697398,0.99999994,0,0,0,0,0,0,1,1,0,0,0,false,false,true,-8.88,34.17,17.01,-0.0036172108,0.0030129936,0.774725,0.63228065,-69.980995,242.991,8.361,-0.0017099999,-0.00081,1.3371099
14.091666,2000,0,91.24,0.000002697398,0.000002697398,0.000002697398,0.99999994,0,0,0,0,0,0,1,1,0,0,0,false,false,true,-9.46,36.19,17.01,-0.00363879,0.0029968093,0.7782361,0.62795395,-72.511,248.211,8.341001,-0.00151,-0.00071,1.36311
14.1,2000,0,91.24,0.000002697398,0.000002697398,0.000002697398,0.99999994,0,0,0,0,0,0,1,1,0,0,0,false,false,true,-10.059999,38.26,17.01,-0.0036603692,0.0029806248,0.78178924,0.6235248,-75.120995,253.381,8.331,-0.00131,-0.00071,1.38901
14.108334,2000,0,91.24,0.000002697398,0.000002697398,0.000002697398,0.99999994,0,0,0,0,0,0,1,1,0,0,0,false,false,true,-10.69,40.37,17.01,-0.0036819484,0.0029644405,0.7853863,0.61898774,-77.821,258.501,8.321,-0.00111,-0.00071,1.41491
14.116667,2000,0,91.24,0.000002697398,0.000002697398,0.000002697398,0.99999994,0,0,0,0,0,0,1,1,0,0,0,false,false,true,-11.34,42.52,17.01,-0.0037035279,0.0029428615,0.7890208,0.6143483,-80.611,263.561,8.321,-0.0010099999,-0.00071,1.44071
14.125,2000,0,91.24,0.000002697398,0.000002697398,0.000002697398,0.99999994,0,0,0,0,0,0,1,1,0,0,0,false,false,true,-12.009999,44.719997,17.01,-0.0037251068,0.002921282,0.7926943,0.60960084,-83.491,268.571,8.321,-0.00091,-0.00061,1.4665099
14.133333,2000,0,91.24,0.000002697398,0.000002697398,0.000002697398,0.99999994,0,0,0,0,0,0,1,1,0,0,0,false,false,true,-12.71,46.96,17.01,-0.003746686,0.0028997029,0.7964046,0.60474545,-86.471,273.521,8.321,-0.00081,-0.00061,1.49221
14.141666,2000,0,91.24,0.000002697398,0.000002697398,0.000002697398,0.99999994,0,0,0,0,0,0,1,1,0,0,0,false,false,true,-13.429999,49.239998,17.01,-0.0037682652,0.0028781237,0.80014914,0.5997822,-89.550995,278.431,8.321,-0.00071,-0.00051,1.51781
14.15,2000,0,91.24,0.000002697398,0.000002697398,0.000002697398,0.99999994,0,0,0,0,0,0,1,1,0,0,0,false,false,true,-14.179999,51.559998,17.01,-0.0037898445,0.0028565447,0.8039254,0.5947112,-92.730995,283.281,8.321,-0.00061,-0.00051,1.5433099
14.158334,2000,0,91.24,0.000002697398,0.000002697398,0.000002697398,0.99999994,0,0,0,0,0,0,1,1,0,0,0,false,false,true,-14.95,53.92,17.01,-0.0038114234,0.0028349652,0.8077348,0.5895267,-96.010994,288.071,8.321,-0.00051,-0.00040999998,1.56871
14.166667,2000,0,91.24,0.000002697398,0.000002697398,0.000002697398,0.99999994,0,0,0,0,0,0,1,1,0,0,0,false,false,true,-15.75,56.32,17.01,-0.0038330026,0.0028133863,0.81157106,0.5842343,-99.391,292.801,8.321,-0.00040999998,-0.00040999998,1.59401
14.175,2000,0,91.24,0.000002697398,0.000002697398,0.000002697398,0.99999994,0,0,0,0,0,0,1,1,0,0,0,false,false,true,-16.58,58.76,17.01,-0.0038545814,0.002786412,0.8154351,0.5788287,-102.870995,297.461,8.321,-0.00030999997,-0.00040999998,1.61921
14.183333,2000,0,91.24,0.000002697398,0.000002697398,0.000002697398,0.99999994,0,0,0,0,0,0,1,1,0,0,0,false,false,true,-17.44,61.239998,17.01,-0.003876161,0.0027594382,0.8193209,0.57331526,-106.451,302.051,8.321,-0.00021,-0.00040999998,1.64441
14.191667,2000,0,91.24,0.000002697398,0.000002697398,0.000002697398,0.99999994,0,0,0,0,0,0,1,1,0,0,0,false,false,true,-18.33,63.76,17.01,-0.0038977403,0.002732464,0.8232296,0.56768847,-110.141,306.571,8.321,-0.00021,-0.00030999997,1.66951
14.2,2000,0,91.24,0.000002697398,0.000002697398,0.000002697398,0.99999994,0,0,0,0,0,0,1,1,0,0,0,false,false,true,-19.25,66.31,17.01,-0.0039193192,0.0027054902,0.82715845,0.56194836,-113.931,311.011,8.321,-0.00021,-0.00021,1.69451
14.208333,2000,0,91.24,0.000002697398,0.000002697398,0.000002697398,0.99999994,0,0,0,0,0,0,1,1,0,0,0,false,false,true,-20.199999,68.9,17.01,-0.0039408985,0.0026785163,0.831105,0.556095,-117.821,315.371,8.321,-0.00010999999,-0.00021,1.71941
14.216666,2000,0,91.24,0.000002697398,0.000002697398,0.000002697398,0.99999994,0,0,0,0,0,0,1,1,0,0,0,false,false,true,-21.18,71.53,17.01,-0.0039624777,0.0026515422,0.83506644,0.55012834,-121.811,319.651,8.321,-0.00010999999,-0.00021,1.74421
14.225,2000,0,91.24,0.000002697398,0.000002697398,0.000002697398,0.99999994,0,0,0,0,0,0,1,1,0,0,0,false,false,true,-22.199999,74.189995,17.01,-0.003984057,0.0026245683,0.8390437,0.544043,-125.90099,323.841,8.321,0,-0.00010999999,1.7689099
14.233334,2000,0,91.24,0.000002697398,0.000002697398,0.000002697398,0.99999994,0,0,0,0,0,0,1,1,0,0,0,false,false,true,-23.25,76.89,17.01,-0.004005636,0.0025975944,0.8430306,0.5378443,-130.101,327.951,8.321,0,-0.00010999999,1.79351
14.241667,2000,0,91.24,0.000002697398,0.000002697398,0.000002697398,0.99999994,0,0,0,0,0,0,1,1,0,0,0,false,false,true,-24.33,79.619995,17.01,-0.004027215,0.0025652254,0.8470277,0.5315269,-134.401,331.961,8.321,0,-0.00010999999,1.81801
14.25,2000,0,91.24,0.000002697398,0.000002697398,0.000002697398,0.99999994,0,0,0,0,0,0,1,1,0,0,0,false,false,true,-25.449999,82.39,17.01,-0.0040487945,0.0025328568,0.8510292,0.5250964,-138.80101,335.881,8.321,0,0,1.84241
14.258333,2000,0,91.24,0.000002697398,0.000002697398,0.000002697398,0.99999994,0,0,0,0,0,0,1,1,0,0,0,false,false,true,-26.609999,85.189995,17.01,-0.0040703737,0.002500488,0.85503566,0.518547,-143.30101,339.701,8.321,0,0,1.86671
14.266666,2000,0,91.24,0.000002697398,0.000002697398,0.000002697398,0.99999994,0,0,0,0,0,0,1,1,0,0,0,false,false,true,-27.8,88.02,17.01,-0.0040919525,0.0024681191,0.8590442,0.511879,-147.901,343.411,8.321,0,0,1.8910099
14.275,2000,0,91.24,0.000002697398,0.000002697398,0.000002697398,0.99999994,0,0,0,0,0,0,1,1,0,0,0,false,false,true,-29.029999,90.88,17.01,-0.0041135317,0.0024357503,0.86305195,0.5050924,-152.601,347.021,8.321,0,0,1.91521
14.283334,2000,0,91.24,0.000002697398,0.000002697398,0.000002697398,0.99999994,0,0,0,0,0,0,1,1,0,0,0,false,false,true,-30.3,93.77,17.01,-0.0041351104,0.0024033813,0.8670562,0.49818704,-157.401,350.521,8.321,0,0,1.93931
14.291667,2000,0,91.24,0.000002697398,0.000002697398,0.000002697398,0.99999994,0,0,0,0,0,0,1,1,0,0,0,false,false,true,-31.609999,96.689995,17.01,-0.00415669,0.002371013,0.8710545,0.491163,-162.291,353.901,8.321,0,0,1.96331
14.3,2000,0,91.24,0.000002697398,0.000002697398,0.000002697398,0.99999994,0,0,0,0,0,0,1,1,0,0,0,false,false,true,-32.96,99.64,17.01,-0.0041782693,0.0023386441,0.87504363,0.48402026,-167.281,357.171,8.321,0,0.00010999999,1.9872099
14.308333,2000,0,91.24,0.000002697398,0.000002697398,0.000002697398,0.99999994,0,0,0,0,0,0,1,1,0,0,0,false,false,true,-34.35,102.619995,17.01,-0.0041944534,0.002306275,0.8790209,0.4767588,-172.371,360.32098,8.321,0.00010999999,0.00010999999,2.01101
14.316667,2000,0,91.24,0.000002697398,0.000002697398,0.000002697398,0.99999994,0,0,0,0,0,0,1,1,0,0,0,false,false,true,-35.79,105.619995,17.01,-0.0042106383,0.0022685118,0.8829839,0.4693787,-177.55101,363.341,8.321,0.00010999999,0.00010999999,2.03471
14.325,2000,0,91.24,0.000002697398,0.000002697398,0.000002697398,0.99999994,0,0,0,0,0,0,1,1,0,0,0,false,false,true,-37.27,108.649994,17.01,-0.0042268224,0.002230748,0.8869323,0.46187454,-182.821,366.241,8.321,0.00010999999,0.00010999999,2.05831
14.333333,2000,0,91.24,0.000002697398,0.000002697398,0.000002697398,0.99999994,0,0,0,0,0,0,1,1,0,0,0,false,false,true,-38.79,111.7,17.01,-0.004243007,0.0021929846,0.8908605,0.4542517,-188.181,369.001,8.321,0.00010999999,0.00010999999,2.08181
14.341666,2000,0,91.24,0.000002697398,0.000002697398,0.000002697398,0.99999994,0,0,0,0,0,0,1,1,0,0,0,false,false,true,-40.36,114.78,17.01,-0.004259192,0.0021552213,0.89476854,0.4465047,-193.631,371.631,8.321,0,0,2.10521
14.35,2000,0,91.24,0.000002697398,0.000002697398,0.000002697398,0.99999994,0,0,0,0,0,0,1,1,0,0,0,false,false,true,-41.969997,117.88,17.01,-0.004275376,0.0021174573,0.8986506,0.43863907,-199.171,374.121,8.321,0,0,2.12851
14.358334,2000,0,91.24,0.000002697398,0.000002697398,0.000002697398,0.99999994,0,0,0,0,0,0,1,1,0,0,0,false,false,true,-43.629997,121,17.01,-0.0042915605,0.002079694,0.9025067,0.43064934,-204.791,376.471,8.321,0,0,2.15171
14.366667,2000,0,91.24,0.000002697398,0.000002697398,0.000002697398,0.99999994,0,0,0,0,0,0,1,1,0,0,0,false,false,true,-45.34,124.14,17.01,-0.004307745,0.0020419306,0.9063313,0.42254093,-210.491,378.681,8.321,0,0,2.17481
14.375,2000,0,91.24,0.000002697398,0.000002697398,0.000002697398,0.99999994,0,0,0,0,0,0,1,1,0,0,0,false,false,true,-47.09,127.299995,17.01,-0.0043239295,0.0020041668,0.910124,0.4143085,-216.271,380.741,8.321,0,0,2.19781
14.383333,2000,0,91.24,0.000002697398,0.000002697398,0.000002697398,0.99999994,0,0,0,0,0,0,1,1,0,0,0,false,false,true,-48.89,130.47,17.01,-0.004340113,0.001966403,0.9138796,0.40595722,-222.131,382.651,8.321,0,0,2.22071
14.391666,2000,0,91.24,0.000002697398,0.000002697398,0.000002697398,0.99999994,0,0,0,0,0,0,1,1,0,0,0,false,false,true,-50.739998,133.66,17.01,-0.0043562977,0.0019286396,0.91759753,0.397482,-228.061,384.401,8.321,0,0,2.24351
14.4,2000,0,91.24,0.000002697398,0.000002697398,0.000002697398,0.99999994,0,0,0,0,0,0,1,1,0,0,0,false,false,true,-52.64,136.86,17.01,-0.0043724827,0.0018854814,0.92127264,0.38888812,-234.061,386.001,8.321,0,-0.00010999999,2.2662098
14.408334,2000,0,91.24,0.000002697398,0.000002697398,0.000002697398,0.99999994,0,0,0,0,0,0,1,1,0,0,0,false,false,true,-54.59,140.08,17.01,-0.0043886667,0.0018423229,0.9249043,0.38017002,-240.131,387.441,8.321,0,-0.00010999999,2.28891
14.416667,2000,0,91.24,0.000002697398,0.000002697398,0.000002697398,0.99999994,0,0,0,0,0,0,1,1,0,0,0,false,false,true,-56.59,143.31,17.01,-0.004404851,0.0017991646,0.92848736,0.37133333,-246.271,388.711,8.321,0,-0.00010999999,2.3115098
14.425,2000,0,91.24,0.000002697398,0.000002697398,0.000002697398,0.99999994,0,0,0,0,0,0,1,1,0,0,0,false,false,true,-58.64,146.55,17.01,-0.0044210353,0.0017560062,0.93202114,0.3623725,-252.47101,389.82098,8.321,0,-0.00021,2.33401
14.433333,2000,0,91.24,0.000002697398,0.000002697398,0.000002697398,0.99999994,0,0,0,0,0,0,1,1,0,0,0,false,false,true,-60.739998,149.8,17.01,-0.0044372194,0.0017128475,0.93550044,0.35329303,-258.731,390.761,8.321,0,-0.00021,2.35641
14.441667,2000,0,91.24,0.000002697398,0.000002697398,0.000002697398,0.99999994,0,0,0,0,0,0,1,1,0,0,0,false,false,true,-62.899998,153.06,17.01,-0.0044534043,0.0016696895,0.93892473,0.34408957,-265.04102,391.531,8.321,0,-0.00021,2.37871
14.45,2000,0,91.24,0.000002697398,0.000002697398,0.000002697398,0.99999994,0,0,0,0,0,0,1,1,0,0,0,false,false,true,-65.11,156.31999,17.01,-0.004469588,0.0016265309,0.9422887,0.33476722,-271.401,392.121,8.321,0,-0.00021,2.40091
14.458333,2000,0,91.24,0.000002697398,0.000002697398,0.000002697398,0.99999994,0,0,0,0,0,0,1,1,0,0,0,false,false,true,-67.369995,159.59,17.01,-0.004485773,0.0015833727,0.9455898,0.32532635,-277.811,392.541,8.321,0,-0.00021,2.4230099
14.466666,2000,0,91.24,0.000002697398,0.000002697398,0.000002697398,0.99999994,0,0,0,0,0,0,1,1,0,0,0,false,false,true,-69.689995,162.86,17.01,-0.0045019574,0.0015402143,0.9488267,0.3157613,-284.271,392.781,8.321,0,-0.00021,2.44501
14.475,2000,0,91.24,0.000002697398,0.000002697398,0.000002697398,0.99999994,0,0,0,0,0,0,1,1,0,0,0,false,false,true,-72.06,166.12999,17.01,-0.0045181415,0.0014916611,0.9519946,0.30607763,-290.761,392.841,8.321,0,-0.00021,2.46691
14.483334,2000,0,91.24,0.000002697398,0.000002697398,0.000002697398,0.99999994,0,0,0,0,0,0,1,1,0,0,0,false,false,true,-74.479996,169.4,17.01,-0.004534326,0.001443108,0.9550907,0.2962752,-297.29102,392.711,8.321,0,-0.00021,2.48871
14.491667,2000,0,91.24,0.000002697398,0.000002697398,0.000002697398,0.99999994,0,0,0,0,0,0,1,1,0,0,0,false,false,true,-76.96,172.67,17.01,-0.004550511,0.0013945549,0.958112,0.28635418,-303.851,392.401,8.321,0,-0.00021,2.5104098
14.5,2000,0,91.24,0.000002697398,0.000002697398,0.000002697398,0.99999994,0,0,0,0,0,0,1,1,0,0,0,false,false,true,-79.49,175.94,17.01,-0.004566694,0.0013460015,0.96105534,0.2763144,-310.441,391.901,8.321,0,-0.00021,2.5320098
14.508333,2000,0,91.24,0.000002697398,0.000002697398,0.000002697398,0.99999994,0,0,0,0,0,0,1,1,0,0,0,false,false,true,-82.08,179.20999,17.01,-0.004582879,0.0012974484,0.96391666,0.26616135,-317.051,391.211,8.321,0,-0.00021,2.55351
14.516666,2000,0,91.24,0.000002697398,0.000002697398,0.000002697398,0.99999994,0,0,0,0,0,0,1,1,0,0,0,false,false,true,-84.72,182.47,17.01,-0.0045990637,0.0012488953,0.9666942,0.25588965,-323.681,390.331,8.321,0,-0.00021,2.57491
14.525,2000,0,91.24,0.000002697398,0.000002697398,0.000002697398,0.99999994,0,0,0,0,0,0,1,1,0,0,0,false,false,true,-87.42,185.72,17.01,-0.0046152477,0.001200342,0.96938354,0.24550459,-330.321,389.261,8.321,0,-0.00010999999,2.59621
14.533334,2000,0,91.24,0.000002697398,0.000002697398,0.000002697398,0.99999994,0,0,0,0,0,0,1,1,0,0,0,false,false,true,-90.17,188.95999,17.01,-0.004626038,0.0011517891,0.9719821,0.23500636,-336.971,387.991,8.321,0,0,2.6175098
14.541667,2000,0,91.24,0.000002697398,0.000002697398,0.000002697398,0.99999994,0,0,0,0,0,0,1,1,0,0,0,false,false,true,-92.979996,192.19,17.01,-0.0046368265,0.0011032356,0.9744878,0.22438927,-343.621,386.531,8.321,0,0,2.63871
14.55,2000,0,91.24,0.000002697398,0.000002697398,0.000002697398,0.99999994,0,0,0,0,0,0,1,1,0,0,0,false,false,true,-95.84,195.40999,17.01,-0.0046476168,0.0010546827,0.97689545,0.21366444,-350.271,384.871,8.321,0,0,2.6598098
14.558333,2000,0,91.24,0.000002697398,0.000002697398,0.000002697398,0.99999994,0,0,0,0,0,0,1,1,0,0,0,false,false,true,-98.759995,198.62,17.01,-0.004658406,0.0010007346,0.9792031,0.20282622,-356.911,383.011,8.321,0,0,2.68081
14.566667,2000,0,91.24,0.000002697398,0.000002697398,0.000002697398,0.99999994,0,0,0,0,0,0,1,1,0,0,0,false,false,true,-101.729996,201.81,17.01,-0.0046691964,0.0009467868,0.9814078,0.19187479,-363.541,380.961,8.321,0,0,2.70171
14.575,2000,0,91.24,0.000002697398,0.000002697398,0.000002697398,0.99999994,0,0,0,0,0,0,1,1,0,0,0,false,false,true,-104.759995,204.98,17.01,-0.004679985,0.00089283864,0.98350537,0.18081534,-370.151,378.711,8.321,0,0,2.7225099
14.583333,2000,0,91.24,0.000002697398,0.000002697398,0.000002697398,0.99999994,0,0,0,0,0,0,1,1,0,0,0,false,false,true,-107.84,208.14,17.01,-0.004690775,0.0008388908,0.9854931,0.16964813,-376.741,376.261,8.321,0,0,2.7432098
14.591666,2000,0,91.24,0.000002697398,0.000002697398,0.000002697398,0.99999994,0,0,0,0,0,0,1,1,0,0,0,false,false,true,-110.979996,211.28,17.01,-0.0047015646,0.0007849428,0.9873678,0.15837292,-383.301,373.611,8.321,0,0,2.76391
14.6,2000,0,91.24,0.000002697398,0.000002697398,0.000002697398,0.99999994,0,0,0,0,0,0,1,1,0,0,0,false,false,true,-114.17,214.39,17.01,-0.004712354,0.0007309948,0.9891263,0.14698988,-389.831,370.761,8.321,0,0,2.78451
14.608334,2000,0,91.24,0.000002697398,0.000002697398,0.000002697398,0.99999994,0,0,0,0,0,0,1,1,0,0,0,false,false,true,-117.42,217.48,17.01,-0.0047231438,0.0006770469,0.9907652,0.13550429,-396.32098,367.711,8.321,0,0,2.8050098
14.616667,2000,0,91.24,0.000002697398,0.000002697398,0.000002697398,0.99999994,0,0,0,0,0,0,1,1,0,0,0,false,false,true,-120.71999,220.54,17.01,-0.0047285384,0.0006230989,0.99228114,0.123916276,-402.771,364.461,8.321,0,0,2.82541
14.625,2000,0,91.24,0.000002697398,0.000002697398,0.000002697398,0.99999994,0,0,0,0,0,0,1,1,0,0,0,false,false,true,-124.079994,223.58,17.01,-0.004733933,0.0005691509,0.9936712,0.11222565,-409.171,361.011,8.321,0,0,2.84571
14.633333,2000,0,91.24,0.000002697398,0.000002697398,0.000002697398,0.99999994,0,0,0,0,0,0,1,1,0,0,0,false,false,true,-127.49,226.59,17.01,-0.004739328,0.00051520293,0.99493176,0.10043803,-415.511,357.371,8.321,0,0,2.86591
14.641666,2000,0,91.24,0.000002697398,0.000002697398,0.000002697398,0.99999994,0,0,0,0,0,0,1,1,0,0,0,false,false,true,-130.95,229.56999,17.01,-0.0047447234,0.0004612551,0.9960605,0.08854783,-421.791,353.531,8.321,0,0,2.8861098
14.65,2000,0,91.24,0.000002697398,0.000002697398,0.000002697398,0.99999994,0,0,0,0,0,0,1,1,0,0,0,false,false,true,-134.45999,232.51999,17.01,-0.004750118,0.00040191234,0.9970531,0.0765659,-428.011,349.491,8.321,0,0,2.90621
14.658334,2000,0,91.24,0.000002697398,0.000002697398,0.000002697398,0.99999994,0,0,0,0,0,0,1,1,0,0,0,false,false,true,-138.03,235.43,17.01,-0.0047555133,0.00034256958,0.99790716,0.06448695,-434.161,345.261,8.321,0,0,2.92621
14.666667,2000,0,91.24,0.000002697398,0.000002697398,0.000002697398,0.99999994,0,0,0,0,0,0,1,1,0,0,0,false,false,true,-141.65,238.31,17.01,-0.0047609075,0.00028322678,0.99861914,0.052316204,-440.231,340.841,8.321,0,0,2.94611
14.675,2000,0,91.24,0.000002697398,0.000002697398,0.000002697398,0.99999994,0,0,0,0,0,0,1,1,0,0,0,false,false,true,-145.31999,241.15,17.01,-0.0047663026,0.00022388405,0.9991861,0.040053837,-446.221,336.221,8.321,0,0,2.9660099
14.683333,2000,0,91.24,0.000002697398,0.000002697398,0.000002697398,0.99999994,0,0,0,0,0,0,1,1,0,0,0,false,false,true,-149.04,243.95,17.01,-0.004766302,0.00016454128,0.9996047,0.02770506,-452.131,331.411,8.321,0,0,2.98581
14.691667,2000,0,91.24,0.000002697398,0.000002697398,0.000002697398,0.99999994,0,0,0,0,0,0,1,1,0,0,0,false,false,true,-152.81,246.70999,17.01,-0.004766302,0.000105198524,0.9998721,0.01526466,-457.951,326.411,8.321,0,0,3.0055099
14.7,2000,0,91.24,0.000002697398,0.000002697398,0.000002697398,0.99999994,0,0,0,0,0,0,1,1,0,0,0,false,false,true,-156.62999,249.43,17.01,-0.0047663026,0.00004585577,0.99998486,0.002743254,-463.671,321.231,8.321,0,0,3.02521
14.708333,2000,0,91.24,0.000002697398,0.000002697398,0.000002697398,0.99999994,0,0,0,0,0,0,1,1,0,0,0,false,false,true,-160.48999,252.11,17.01,-0.004766302,-0.000013486991,0.99994,-0.009859032,-469.291,315.861,8.321,0,0,3.0448098
14.716666,2000,0,91.24,0.000002697398,0.000002697398,0.000002697398,0.99999994,0,0,0,0,0,0,1,1,0,0,0,false,false,true,-164.4,254.73999,17.01,-0.0047663026,-0.00007282975,0.9997345,-0.022542242,-474.801,310.311,8.321,0,0,3.0643098
14.725,2000,0,91.24,0.000002697398,0.000002697398,0.000002697398,0.99999994,0,0,0,0,0,0,1,1,0,0,0,false,false,true,-168.36,257.33,17.01,-0.0047663017,-0.00013217248,0.99936503,-0.035306364,-480.201,304.581,8.321,0,0,3.0838099
14.733334,2000,0,91.24,0.000002697398,0.000002697398,0.000002697398,0.99999994,0,0,0,0,0,0,1,1,0,0,0,false,false,true,-172.36,259.87,17.01,-0.0047663026,-0.00019151528,0.9988289,-0.04814603,-485.481,298.671,8.321,0,0,3.10321
14.741667,2000,0,91.24,0.000002697398,0.000002697398,0.000002697398,0.99999994,0,0,0,0,0,0,1,1,0,0,0,false,false,true,-176.41,262.36,17.01,-0.0047609075,-0.00025085802,0.99812293,-0.061055858,-490.641,292.591,8.321,0,0,3.12251
14.75,2000,0,91.24,0.000002697398,0.000002697398,0.000002697398,0.99999994,0,0,0,0,0,0,1,1,0,0,0,false,false,true,-180.5,264.8,17.01,-0.0047555133,-0.0003102008,0.9972442,-0.074035786,-495.681,286.341,8.321,0,0,3.14181
14.758333,2000,0,91.24,0.000002697398,0.000002697398,0.000002697398,0.99999994,0,0,0,0,0,0,1,1,0,0,0,false,false,true,-184.62999,267.19,17.01,-0.0047501177,-0.00037493833,0.99618936,-0.087085836,-500.591,279.921,8.321,0.00010999999,0,3.16101
14.766666,2000,0,91.24,0.000002697398,0.000002697398,0.000002697398,0.99999994,0,0,0,0,0,0,1,1,0,0,0,false,false,true,-188.8,269.52,17.01,-0.004744723,-0.00043967587,0.9949558,-0.10020062,-505.361,273.331,8.321,0.00010999999,0,3.1802099
14.775,2000,0,91.24,0.000002697398,0.000002697398,0.000002697398,0.99999994,0,0,0,0,0,0,1,1,0,0,0,false,false,true,-193.01,271.8,17.01,-0.0047393283,-0.00050441345,0.9935408,-0.11337476,-509.991,266.581,8.321,0.00010999999,0,3.1993098
14.783334,2000,0,91.24,0.000002697398,0.000002697398,0.000002697398,0.99999994,0,0,0,0,0,0,1,1,0,0,0,false,false,true,-197.26,274.02,17.01,-0.0047339336,-0.00056915096,0.9919413,-0.12660824,-514.48096,259.671,8.321,0.00010999999,0,3.2183099
14.791667,2000,0,91.24,0.000002697398,0.000002697398,0.000002697398,0.99999994,0,0,0,0,0,0,1,1,0,0,0,false,false,true,-201.55,276.18,17.01,-0.0047285384,-0.0006338885,0.9901547,-0.13989569,-518.821,252.601,8.321,0.00010999999,0,3.23731
14.8,2000,0,91.24,0.000002697398,0.000002697398,0.000002697398,0.99999994,0,0,0,0,0,0,1,1,0,0,0,false,false,true,-205.87,278.28,17.01,-0.004717749,-0.0006986261,0.9881779,-0.15323707,-523.011,245.381,8.321,0,0,3.25631
14.808333,2000,0,91.24,0.000002697398,0.000002697398,0.000002697398,0.99999994,0,0,0,0,0,0,1,1,0,0,0,false,false,true,-210.23,280.32,17.01,-0.0047069597,-0.00076336367,0.9860075,-0.1666324,-527.04095,238.011,8.321,0,0,3.27521
14.816667,2000,0,91.24,0.000002697398,0.000002697398,0.000002697398,0.99999994,0,0,0,0,0,0,1,1,0,0,0,false,false,true,-214.62,282.3,17.01,-0.0046961703,-0.00082810124,0.98364204,-0.18007089,-530.91095,230.501,8.321,0,0,3.2941098
14.825,2000,0,91.24,0.000002697398,0.000002697398,0.000002697398,0.99999994,0,0,0,0,0,0,1,1,0,0,0,false,false,true,-219.04,284.22,17.01,-0.00468538,-0.00089283864,0.98107815,-0.19355254,-534.621,222.851,8.321,0,0,3.3129098
14.833333,2000,0,91.24,0.000002697398,0.000002697398,0.000002697398,0.99999994,0,0,0,0,0,0,1,1,0,0,0,false,false,true,-223.5,286.08,17.01,-0.00467459,-0.0009575762,0.9783128,-0.20707734,-538.16095,215.061,8.321,0,0,3.3317099
14.841666,2000,0,91.24,0.000002697398,0.000002697398,0.000002697398,0.99999994,0,0,0,0,0,0,1,1,0,0,0,false,false,true,-227.98,287.87,17.01,-0.0046584066,-0.001022314,0.97534364,-0.22063993,-541.53094,207.131,8.321,0,0,3.35041
14.85,2000,0,91.24,0.000002697398,0.000002697398,0.000002697398,0.99999994,0,0,0,0,0,0,1,1,0,0,0,false,false,true,-232.48999,289.6,17.01,-0.0046422225,-0.0010870515,0.9721683,-0.23423485,-544.72095,199.08101,8.321,0,0,3.3691099
14.858334,2000,0,91.24,0.000002697398,0.000002697398,0.000002697398,0.99999994,0,0,0,0,0,0,1,1,0,0,0,false,false,true,-237.03,291.25998,17.01,-0.0046260376,-0.001151789,0.9687849,-0.24785675,-547.74097,190.901,8.321,0,0,3.38781
14.866667,2000,0,91.24,0.000002697398,0.000002697398,0.000002697398,0.99999994,0,0,0,0,0,0,1,1,0,0,0,false,false,true,-241.59,292.85,17.01,-0.0046098535,-0.0012165266,0.9651901,-0.2615057,-550.571,182.601,8.321,0,0,3.40641
14.875,2000,0,91.24,0.000002697398,0.000002697398,0.000002697398,0.99999994,0,0,0,0,0,0,1,1,0,0,0,false,false,true,-246.18,294.37,17.01,-0.004593669,-0.001281264,0.9613819,-0.2751761,-553.22095,174.181,8.321,0,0,3.42501
14.883333,2000,0,91.24,0.000002697398,0.000002697398,0.000002697398,0.99999994,0,0,0,0,0,0,1,1,0,0,0,false,false,true,-250.79,295.82,17.01,-0.0045774844,-0.0013460016,0.9573569,-0.28886813,-555.68097,165.651,8.321,0,0,3.44361
14.891666,2000,0,91.24,0.000002697398,0.000002697398,0.000002697398,0.99999994,0,0,0,0,0,0,1,1,0,0,0,false,false,true,-255.42,297.19998,17.01,-0.0045559052,-0.0014107391,0.95311314,-0.30257636,-557.951,157.011,8.321,0,0,3.46211
14.9,2000,0,91.24,0.000002697398,0.000002697398,0.000002697398,0.99999994,0,0,0,0,0,0,1,1,0,0,0,false,false,true,-260.07,298.50998,17.01,-0.004534326,-0.0014754768,0.9486487,-0.31629542,-560.03094,148.261,8.321,0,0,3.48061
14.908334,2000,0,91.24,0.000002697398,0.000002697398,0.000002697398,0.99999994,0,0,0,0,0,0,1,1,0,0,0,false,false,true,-264.74,299.75,17.01,-0.0045127473,-0.0015402144,0.9439619,-0.33001986,-561.91095,139.41101,8.321,0,0,3.49911
14.916667,2000,0,91.24,0.000002697398,0.000002697398,0.000002697398,0.99999994,0,0,0,0,0,0,1,1,0,0,0,false,false,true,-269.41998,300.91,17.01,-0.0044911676,-0.0016049518,0.93905115,-0.34374422,-563.59094,130.461,8.321,0,0,3.5176098
14.925,2000,0,91.24,0.000002697398,0.000002697398,0.000002697398,0.99999994,0,0,0,0,0,0,1,1,0,0,0,false,false,true,-274.12,302,17.01,-0.004469589,-0.0016696895,0.93391293,-0.35746866,-565.071,121.421,8.321,0,0,3.53601
14.933333,2000,0,91.24,0.000002697398,0.000002697398,0.000002697398,0.99999994,0,0,0,0,0,0,1,1,0,0,0,false,false,true,-278.83,303.00998,17.01,-0.004442614,-0.0017344267,0.9285455,-0.37118766,-566.35095,112.291,8.321,0,0.00010999999,3.55441
14.941667,2000,0,91.24,0.000002697398,0.000002697398,0.000002697398,0.99999994,0,0,0,0,0,0,1,1,0,0,0,false,false,true,-283.55,303.94998,17.01,-0.004415641,-0.0017991647,0.92294765,-0.38489592,-567.42096,103.08099,8.321,0,0.00010999999,3.57281
14.95,2000,0,91.24,0.000002697398,0.000002697398,0.000002697398,0.99999994,0,0,0,0,0,0,1,1,0,0,0,false,false,true,-288.28,304.81,17.01,-0.0043886667,-0.0018639021,0.91711533,-0.39859334,-568.28094,93.791,8.321,0,0.00010999999,3.59121
14.958333,2000,0,91.24,0.000002697398,0.000002697398,0.000002697398,0.99999994,0,0,0,0,0,0,1,1,0,0,0,false,false,true,-293.02,305.59,17.01,-0.004361692,-0.0019286394,0.9110494,-0.4122692,-568.93097,84.421,8.321,0,0.00010999999,3.60951
14.966666,2000,0,91.24,0.000002697398,0.000002697398,0.000002697398,0.99999994,0,0,0,0,0,0,1,1,0,0,0,false,false,true,-297.75998,306.28998,17.01,-0.0043293242,-0.0019933772,0.9047466,-0.4259235,-569.371,74.980995,8.321,0,0.00010999999,3.62781
14.975,2000,0,91.24,0.000002697398,0.000002697398,0.000002697398,0.99999994,0,0,0,0,0,0,1,1,0,0,0,false,false,true,-302.5,306.91,17.01,-0.004296955,-0.0020581146,0.89820504,-0.4395508,-569.59094,65.471,8.321,0,0.00010999999,3.6461098
14.983334,2000,0,91.24,0.000002697398,0.000002697398,0.000002697398,0.99999994,0,0,0,0,0,0,1,1,0,0,0,false,false,true,-307.25,307.46,17.01,-0.004264586,-0.0021228523,0.89142364,-0.4531457,-569.60095,55.891,8.321,0,0.00010999999,3.66431
14.991667,2000,0,91.24,0.000002697398,0.000002697398,0.000002697398,0.99999994,0,0,0,0,0,0,1,1,0,0,0,false,false,true,-312,307.93,17.01,-0.0042322176,-0.0021875896,0.88440126,-0.46670288,-569.381,46.251,8.321,0,0.00010999999,3.68251
15,2000,0,91.24,0.000002697398,0.000002697398,0.000002697398,0.99999994,0,0,0,0,0,0,1,1,0,0,0,false,false,true,-316.74,308.32,17.01,-0.004199849,-0.0022523275,0.87713677,-0.48021698,-568.941,36.551,8.321,0,0.00010999999,3.7007098
15.008333,2000,0,91.24,0.000002697398,0.000002697398,0.000002697398,0.99999994,0,0,0,0,0,0,1,1,0,0,0,false,false,true,-321.47998,308.62,17.01,-0.0041620852,-0.002317065,0.8696292,-0.49368235,-568.28094,26.800999,8.321,0,0.00010999999,3.7188098
15.016666,2000,0,91.24,0.000002697398,0.000002697398,0.000002697398,0.99999994,0,0,0,0,0,0,1,1,0,0,0,false,false,true,-326.22,308.84,17.01,-0.004124321,-0.0023818023,0.86187434,-0.5070992,-567.391,17.001,8.321,0,0.00010999999,3.7369099
15.025,2000,0,91.24,0.000002697398,0.000002697398,0.000002697398,0.99999994,0,0,0,0,0,0,1,1,0,0,0,false,false,true,-330.94998,308.97998,17.01,-0.004086558,-0.00244654,0.8538746,-0.52045685,-566.27094,7.161,8.321,-0.00010999999,0.00010999999,3.75491
15.033334,2000,0,91.24,0.000002697398,0.000002697398,0.000002697398,0.99999994,0,0,0,0,0,0,1,1,0,0,0,false,false,true,-335.66998,309.03998,17.01,-0.0040487945,-0.0025112776,0.84562904,-0.53374964,-564.92096,-2.721,8.321,-0.00010999999,0,3.7729099
15.041667,2000,0,91.24,0.000002697398,0.000002697398,0.000002697398,0.99999994,0,0,0,0,0,0,1,1,0,0,0,false,false,true,-340.38,309.02,17.01,-0.004011031,-0.0025760152,0.83713347,-0.54697776,-563.331,-12.641,8.321,-0.00021,0,3.7908099
15.05,2000,0,91.24,0.000002697398,0.000002697398,0.000002697398,0.99999994,0,0,0,0,0,0,1,1,0,0,0,false,false,true,-345.07,308.91,17.01,-0.0039678724,-0.0026407526,0.8283907,-0.5601303,-561.501,-22.591,8.321,-0.00030999997,0,3.80861
15.058333,2000,0,91.24,0.000002697398,0.000002697398,0.000002697398,0.99999994,0,0,0,0,0,0,1,1,0,0,0,false,false,true,-349.75,308.72,17.01,-0.003924714,-0.0027000955,0.8193964,-0.5732074,-559.43097,-32.571,8.321,-0.00030999997,0,3.82631
15.066667,2000,0,91.24,0.000002697398,0.000002697398,0.000002697398,0.99999994,0,0,0,0,0,0,1,1,0,0,0,false,false,true,-354.41,308.44998,17.01,-0.0038815557,-0.0027594382,0.81015366,-0.5861981,-557.09094,-42.531,8.321,-0.00030999997,0,3.84511
15.075,2000,0,91.24,0.000002697398,0.000002697398,0.000002697398,0.99999994,0,0,0,0,0,0,1,1,0,0,0,false,false,true,-359.05,308.1,17.01,-0.0038383976,-0.002818781,0.80065817,-0.59910244,-554.47095,-52.461,8.321,-0.00030999997,0,3.86531
15.083333,2000,0,91.24,0.000002697398,0.000002697398,0.000002697398,0.99999994,0,0,0,0,0,0,1,1,0,0,0,false,false,true,-363.66998,307.66,17.01,-0.0037898442,-0.0028781237,0.79090476,-0.6119206,-551.571,-62.341,8.321,-0.00021,0,3.8868098
15.091666,2000,0,91.24,0.000002697398,0.000002697398,0.000002697398,0.99999994,0,0,0,0,0,0,1,1,0,0,0,false,false,true,-368.27,307.13998,17.01,-0.0037412911,-0.0029374664,0.7808927,-0.6246469,-548.391,-72.171,8.321,-0.00021,0,3.90971
15.1,2000,0,91.24,0.000002697398,0.000002697398,0.000002697398,0.99999994,0,0,0,0,0,0,1,1,0,0,0,false,false,true,-372.84,306.53998,17.01,-0.0036927382,-0.0029968095,0.77061176,-0.6372871,-544.93097,-81.940994,8.321,-0.00010999999,0,3.93391
15.108334,2000,0,91.24,0.000002697398,0.000002697398,0.000002697398,0.99999994,0,0,0,0,0,0,1,1,0,0,0,false,false,true,-377.38,305.86,17.01,-0.003644185,-0.003056152,0.76006466,-0.6498299,-541.191,-91.651,8.321,-0.00010999999,0,3.95941
15.116667,2000,0,91.24,0.000002697398,0.000002697398,0.000002697398,0.99999994,0,0,0,0,0,0,1,1,0,0,0,false,false,true,-381.88998,305.1,17.01,-0.0035956316,-0.0031154947,0.7492402,-0.66228116,-537.18097,-101.291,8.321,0,0,3.9862099
15.125,2000,0,91.24,0.000002697398,0.000002697398,0.000002697398,0.99999994,0,0,0,0,0,0,1,1,0,0,0,false,false,true,-386.37,304.25998,17.01,-0.0035416838,-0.0031748374,0.7381358,-0.6746353,-532.90094,-110.851,8.321,0,0,4.01431
15.133333,2000,0,91.24,0.000002697398,0.000002697398,0.000002697398,0.99999994,0,0,0,0,0,0,1,1,0,0,0,false,false,true,-390.81,303.34,17.01,-0.0034877358,-0.0032341804,0.72674865,-0.6868869,-528.35095,-120.33099,8.321,0,0,4.04361
15.141666,2000,0,91.24,0.000002697398,0.000002697398,0.000002697398,0.99999994,0,0,0,0,0,0,1,1,0,0,0,false,false,true,-395.21,302.34,17.01,-0.0034337877,-0.003293523,0.7150758,-0.69903064,-523.53094,-129.711,8.321,0,0,4.0742097
15.15,2000,0,91.24,0.000002697398,0.000002697398,0.000002697398,0.99999994,0,0,0,0,0,0,1,1,0,0,0,false,false,true,-399.56998,301.25998,17.01,0.0033798397,0.0033528658,-0.70310915,0.7110659,-518.441,-139.001,8.321,0,0,4.10611
15.158334,2000,0,91.24,0.000002697398,0.000002697398,0.000002697398,0.99999994,0,0,0,0,0,0,1,1,0,0,0,false,false,true,-403.88998,300.1,17.01,0.003320497,0.0034122085,-0.6908414,0.7229906,-513.081,-148.181,8.321,0,0,4.1392097
15.166667,2000,0,91.24,0.000002697398,0.000002697398,0.000002697398,0.99999994,0,0,0,0,0,0,1,1,0,0,0,false,false,true,-408.16998,298.87,17.01,0.0032611543,0.0034715512,-0.6782714,0.7347959,-507.461,-157.251,8.321,0,0,4.1736097
15.175,2000,0,91.24,0.000002697398,0.000002697398,0.000002697398,0.99999994,0,0,0,0,0,0,1,1,0,0,0,false,false,true,-412.4,297.56,17.01,0.0032018118,0.0035254995,-0.665394,0.7464771,-501.561,-166.19101,8.321,0,0,4.20911
15.183333,2000,0,91.24,0.000002697398,0.000002697398,0.000002697398,0.99999994,0,0,0,0,0,0,1,1,0,0,0,false,false,true,-416.58,296.18,17.01,0.003137074,0.0035794473,-0.65219826,0.7580334,-495.331,-174.961,8.321,0,0,4.24501
15.191667,2000,0,91.24,0.000002697398,0.000002697398,0.000002697398,0.99999994,0,0,0,0,0,0,1,1,0,0,0,false,false,true,-420.71,294.72,17.01,0.0030723363,0.0036333953,-0.63868964,0.76944965,-488.771,-183.541,8.321,0,0,4.2814097
15.2,2000,0,91.24,0.000002697398,0.000002697398,0.000002697398,0.99999994,0,0,0,0,0,0,1,1,0,0,0,false,false,true,-424.78,293.19,17.01,0.003007599,0.003687343,-0.6248627,0.78072006,-481.891,-191.921,8.321,0,0,4.31821
15.208333,2000,0,91.24,0.000002697398,0.000002697398,0.000002697398,0.99999994,0,0,0,0,0,0,1,1,0,0,0,false,false,true,-428.8,291.59,17.01,0.0029428615,0.0037412914,-0.61071754,0.7918342,-474.701,-200.091,8.321,0,0,4.3555098
15.216666,2000,0,91.24,0.000002697398,0.000002697398,0.000002697398,0.99999994,0,0,0,0,0,0,1,1,0,0,0,false,false,true,-432.75998,289.91998,17.01,0.002872729,0.0037952391,-0.5962486,0.80278563,-467.201,-208.041,8.321,0,0,4.39321
15.225,2000,0,91.24,0.000002697398,0.000002697398,0.000002697398,0.99999994,0,0,0,0,0,0,1,1,0,0,0,false,false,true,-436.65,288.19,17.01,0.0028025967,0.0038491872,-0.58145607,0.81356376,-459.401,-215.761,8.321,0,0,4.43141
15.233334,2000,0,91.24,0.000002697398,0.000002697398,0.000002697398,0.99999994,0,0,0,0,0,0,1,1,0,0,0,false,false,true,-440.47998,286.38998,17.01,0.002732464,0.0038977403,-0.56633437,0.82416177,-451.301,-223.231,8.321,0,0,4.47011
15.241667,2000,0,91.24,0.000002697398,0.000002697398,0.000002697398,0.99999994,0,0,0,0,0,0,1,1,0,0,0,false,false,true,-444.24,284.53,17.01,0.002656937,0.003946293,-0.550889,0.83456486,-442.921,-230.44101,8.321,0,0,4.50921
15.25,2000,0,91.24,0.000002697398,0.000002697398,0.000002697398,0.99999994,0,0,0,0,0,0,1,1,0,0,0,false,false,true,-447.93,282.61,17.01,0.0025814099,0.0039948463,-0.5351145,0.844766,-434.261,-237.381,8.321,0,0,4.54881
15.258333,2000,0,91.24,0.000002697398,0.000002697398,0.000002697398,0.99999994,0,0,0,0,0,0,1,1,0,0,0,false,false,true,-451.55,280.63,17.01,0.0025058826,0.0040433994,-0.5190056,0.85475755,-425.331,-244.041,8.321,0,0,4.58891
15.266666,2000,0,91.24,0.000002697398,0.000002697398,0.000002697398,0.99999994,0,0,0,0,0,0,1,1,0,0,0,false,false,true,-455.09,278.6,17.01,0.0024303559,0.004091953,-0.5025677,0.8645247,-416.141,-250.411,8.321,0,0.00010999999,4.62951
15.275,2000,0,91.24,0.000002697398,0.000002697398,0.000002697398,0.99999994,0,0,0,0,0,0,1,1,0,0,0,false,false,true,-458.56,276.50998,17.01,0.0023494337,0.004140506,-0.48580056,0.87405664,-406.771,-256.411,8.321,0,0.00010999999,4.66991
15.283334,2000,0,91.24,0.000002697398,0.000002697398,0.000002697398,0.99999994,0,0,0,0,0,0,1,1,0,0,0,false,false,true,-461.94998,274.37,17.01,0.0022685118,0.0041836645,-0.46870437,0.8833422,-397.251,-262.021,8.321,-0.00010999999,0.00010999999,4.70981
15.291667,2000,0,91.24,0.000002697398,0.000002697398,0.000002697398,0.99999994,0,0,0,0,0,0,1,1,0,0,0,false,false,true,-465.25998,272.19,17.01,0.0021875896,0.0042268224,-0.45127913,0.8923701,-387.601,-267.241,8.321,-0.00010999999,0.00021,4.74931
15.3,2000,0,91.24,0.000002697398,0.000002697398,0.000002697398,0.99999994,0,0,0,0,0,0,1,1,0,0,0,false,false,true,-468.49,269.96,17.01,0.002101273,0.004269981,-0.43353555,0.9011238,-377.831,-272.071,8.321,-0.00021,0.00030999997,4.7884097
15.308333,2000,0,91.24,0.000002697398,0.000002697398,0.000002697398,0.99999994,0,0,0,0,0,0,1,1,0,0,0,false,false,true,-471.63998,267.69,17.01,0.0020149564,0.0043131397,-0.41547376,0.9095927,-367.961,-276.501,8.321,-0.00021,0.00030999997,4.82711
15.316667,2000,0,91.24,0.000002697398,0.000002697398,0.000002697398,0.99999994,0,0,0,0,0,0,1,1,0,0,0,false,false,true,-474.71,265.38998,17.01,0.0019286394,0.004356297,-0.39709893,0.9177633,-358.011,-280.531,8.321,-0.00030999997,0.00030999997,4.8653097
15.325,2000,0,91.24,0.000002697398,0.000002697398,0.000002697398,0.99999994,0,0,0,0,0,0,1,1,0,0,0,false,false,true,-477.69,263.05,17.01,0.0018369281,0.0043940614,-0.37841132,0.9256252,-348.021,-284.121,8.321,-0.00030999997,0.00030999997,4.90271
15.333333,2000,0,91.24,0.000002697398,0.000002697398,0.000002697398,0.99999994,0,0,0,0,0,0,1,1,0,0,0,false,false,true,-480.59,260.68,17.01,0.0017452167,0.004431825,-0.35942698,0.933161,-338.011,-287.271,8.321,-0.00030999997,0.00030999997,4.93921
15.341666,2000,0,91.24,0.000002697398,0.000002697398,0.000002697398,0.99999994,0,0,0,0,0,0,1,1,0,0,0,false,false,true,-483.41,258.29,17.01,0.001653505,0.0044695884,-0.3401459,0.94036055,-328.001,-290.001,8.321,-0.00030999997,0.00030999997,4.97471
15.35,2000,0,91.24,0.000002697398,0.000002697398,0.000002697398,0.99999994,0,0,0,0,0,0,1,1,0,0,0,false,false,true,-486.13998,255.87,17.01,0.0015563988,0.004501958,-0.3205843,0.947208,-318.021,-292.301,8.321,-0.00030999997,0.00030999997,5.00921
15.358334,2000,0,91.24,0.000002697398,0.000002697398,0.000002697398,0.99999994,0,0,0,0,0,0,1,1,0,0,0,false,false,true,-488.78998,253.43,17.01,0.0014592924,0.004534326,-0.3007475,0.95369184,-308.081,-294.191,8.321,-0.00030999997,0.00030999997,5.0426097
15.366667,2000,0,91.24,0.000002697398,0.000002697398,0.000002697398,0.99999994,0,0,0,0,0,0,1,1,0,0,0,false,false,true,-491.36,250.98,17.01,0.001362186,0.0045666946,-0.28064644,0.9597993,-298.211,-295.681,8.321,-0.00030999997,0.00030999997,5.07481
15.375,2000,0,91.24,0.000002697398,0.000002697398,0.000002697398,0.99999994,0,0,0,0,0,0,1,1,0,0,0,false,false,true,-493.84998,248.51999,17.01,0.0012650797,0.004593669,-0.2602918,0.9655182,-288.421,-296.771,8.321,-0.00030999997,0.00030999997,5.10571
15.383333,2000,0,91.24,0.000002697398,0.000002697398,0.000002697398,0.99999994,0,0,0,0,0,0,1,1,0,0,0,false,false,true,-496.25,246.04999,17.01,0.0011679734,0.004620643,-0.23969442,0.97083664,-278.731,-297.481,8.321,-0.00030999997,0.00040999998,5.1353097
15.391666,2000,0,91.24,0.000002697398,0.000002697398,0.000002697398,0.99999994,0,0,0,0,0,0,1,1,0,0,0,false,false,true,-498.56998,243.56999,17.01,0.0010654721,0.0046476168,-0.21887042,0.9757422,-269.171,-297.831,8.321,-0.00040999998,0.00040999998,5.1634097
15.4,2000,0,91.24,0.000002697398,0.000002697398,0.000002697398,0.99999994,0,0,0,0,0,0,1,1,0,0,0,false,false,true,-500.81,241.09,17.01,0.0009629711,0.004669196,-0.19783063,0.98022455,-259.751,-297.821,8.321,-0.00040999998,0.00040999998,5.18981
15.408334,2000,0,91.24,0.000002697398,0.000002697398,0.000002697398,0.99999994,0,0,0,0,0,0,1,1,0,0,0,false,false,true,-502.97,238.61,17.01,0.00086047,0.004690775,-0.17659123,0.98427266,-250.491,-297.481,8.321,-0.00040999998,0.00051,5.21441
15.416667,2000,0,91.24,0.000002697398,0.000002697398,0.000002697398,0.99999994,0,0,0,0,0,0,1,1,0,0,0,false,false,true,-505.06,236.12999,17.01,0.0007579689,0.004712355,-0.15516843,0.9878765,-241.36101,-296.821,8.321,-0.00040999998,0.00051,5.23691
15.425,2000,0,91.24,0.000002697398,0.000002697398,0.000002697398,0.99999994,0,0,0,0,0,0,1,1,0,0,0,false,false,true,-507.06998,233.65999,17.01,0.00065546774,0.0047285384,-0.13357835,0.9910267,-232.321,-295.851,8.321,-0.00051,0.00051,5.25711
15.433333,2000,0,91.24,0.000002697398,0.000002697398,0.000002697398,0.99999994,0,0,0,0,0,0,1,1,0,0,0,false,false,true,-509.00998,231.19,17.01,0.0005475718,0.004744723,-0.111837246,0.993715,-223.401,-294.571,8.321,-0.00051,0.00051,5.27481
15.441667,2000,0,91.24,0.000002697398,0.000002697398,0.000002697398,0.99999994,0,0,0,0,0,0,1,1,0,0,0,false,false,true,-510.87,228.73999,17.01,0.00043967582,0.0047555123,-0.08997204,0.9959327,-214.621,-293.001,8.321,-0.00051,0.00040999998,5.2898097
15.45,2000,0,91.24,0.000002697398,0.000002697398,0.000002697398,0.99999994,0,0,0,0,0,0,1,1,0,0,0,false,false,true,-512.66,226.29999,17.01,0.00033177994,0.0047663017,-0.06799895,0.9976738,-206.011,-291.161,8.321,-0.00051,0.00040999998,5.30161
15.458333,2000,0,91.24,0.000002697398,0.000002697398,0.000002697398,0.99999994,0,0,0,0,0,0,1,1,0,0,0,false,false,true,-514.38,223.87,17.01,0.00022388404,0.004771697,-0.045944948,0.9989325,-197.601,-289.061,8.321,-0.00040999998,0.00040999998,5.3095098
15.466666,2000,0,91.24,0.000002697398,0.000002697398,0.000002697398,0.99999994,0,0,0,0,0,0,1,1,0,0,0,false,false,true,-516.02997,221.45999,17.01,0.00011598813,0.0047770925,-0.023836993,0.9997044,-189.461,-286.701,8.321,-0.00040999998,0.00040999998,5.31131
15.475,2000,0,91.24,0.000002697398,0.000002697398,0.000002697398,0.99999994,0,0,0,0,0,0,1,1,0,0,0,false,false,true,-517.61,219.06999,17.01,0.000008092195,0.004782487,-0.001707453,0.99998707,-181.591,-284.121,8.311,-0.00030999997,0.00040999998,5.3070097
15.483334,2000,0,91.24,0.000002697398,0.000002697398,0.000002697398,0.99999994,0,0,0,0,0,0,1,1,0,0,0,false,false,true,-519.12,216.7,17.01,-0.00009980373,0.0047824867,0.0204059,0.9997803,-173.621,-281.151,8.311,-0.00030999997,0.00030999997,5.30671
15.491667,2000,0,91.24,0.000002697398,0.000002697398,0.000002697398,0.99999994,0,0,0,0,0,0,1,1,0,0,0,false,false,true,-520.57,214.36,17.01,-0.00020769966,0.004782487,0.042503074,0.99908483,-165.66101,-277.831,8.311,-0.00030999997,0.00021,5.30801
15.5,2000,0,91.24,0.000002697398,0.000002697398,0.000002697398,0.99999994,0,0,0,0,0,0,1,1,0,0,0,false,false,true,-521.95,212.04,17.01,-0.00031559556,0.004777092,0.06458945,0.99790037,-157.761,-274.171,8.311,-0.00030999997,0,5.3105097
15.508333,2000,0,91.24,0.000002697398,0.000002697398,0.000002697398,0.99999994,0,0,0,0,0,0,1,1,0,0,0,false,false,true,-523.26,209.76,17.01,-0.00042349144,0.0047716964,0.08665424,0.9962268,-149.94101,-270.171,8.311,-0.00030999997,-0.00010999999,5.31391
15.516666,2000,0,91.24,0.000002697398,0.000002697398,0.000002697398,0.99999994,0,0,0,0,0,0,1,1,0,0,0,false,false,true,-524.51,207.51,17.01,-0.0005313874,0.0047609075,0.108686686,0.99406445,-142.231,-265.841,8.311,-0.00021,-0.00021,5.3182096
15.525,2000,0,91.24,0.000002697398,0.000002697398,0.000002697398,0.99999994,0,0,0,0,0,0,1,1,0,0,0,false,false,true,-525.7,205.29,17.01,-0.0006392834,0.0047447234,0.13068676,0.9914121,-134.651,-261.181,8.311,-0.00021,-0.00030999997,5.32341
15.533334,2000,0,91.24,0.000002697398,0.000002697398,0.000002697398,0.99999994,0,0,0,0,0,0,1,1,0,0,0,false,false,true,-526.82,203.11,17.01,-0.00074717926,0.0047285384,0.15264365,0.9882696,-127.22099,-256.201,8.311,-0.00010999999,-0.00030999997,5.3295097
15.541667,2000,0,91.24,0.000002697398,0.000002697398,0.000002697398,0.99999994,0,0,0,0,0,0,1,1,0,0,0,false,false,true,-527.88,200.98,17.01,-0.00085507525,0.00470696,0.17455201,0.9846363,-119.951,-250.901,8.311,0,-0.00030999997,5.33671
15.55,2000,0,91.24,0.000002697398,0.000002697398,0.000002697398,0.99999994,0,0,0,0,0,0,1,1,0,0,0,false,false,true,-528.88,198.89,17.01,-0.0009575762,0.00468538,0.196401,0.98051184,-112.861,-245.281,8.311,0,-0.00030999997,5.34511
15.558333,2000,0,91.24,0.000002697398,0.000002697398,0.000002697398,0.99999994,0,0,0,0,0,0,1,1,0,0,0,false,false,true,-529.82,196.84999,17.01,-0.0010600775,0.0046638013,0.21818528,0.9758956,-105.951,-239.341,8.311,0,-0.00030999997,5.35491
15.566667,2000,0,91.24,0.000002697398,0.000002697398,0.000002697398,0.99999994,0,0,0,0,0,0,1,1,0,0,0,false,false,true,-530.7,194.86,17.01,-0.0011625786,0.004636827,0.23990482,0.9707846,-99.251,-233.091,8.311,0,-0.00040999998,5.3663096
15.575,2000,0,91.24,0.000002697398,0.000002697398,0.000002697398,0.99999994,0,0,0,0,0,0,1,1,0,0,0,false,false,true,-531.52997,192.92,17.01,-0.0012650798,0.0046098535,0.26154885,0.9651784,-92.760994,-226.531,8.311,0,-0.00040999998,5.37951
15.583333,2000,0,91.24,0.000002697398,0.000002697398,0.000002697398,0.99999994,0,0,0,0,0,0,1,1,0,0,0,false,false,true,-532.3,191.03,17.01,-0.0013675808,0.0045774844,0.2831173,0.9590733,-86.501,-219.651,8.311,0,-0.00040999998,5.39471
15.591666,2000,0,91.24,0.000002697398,0.000002697398,0.000002697398,0.99999994,0,0,0,0,0,0,1,1,0,0,0,false,false,true,-533.01996,189.2,17.01,-0.0014700819,0.004545115,0.30459943,0.9524684,-80.480995,-212.461,8.311,0,-0.00040999998,5.4123096
15.6,2000,0,91.24,0.000002697398,0.000002697398,0.000002697398,0.99999994,0,0,0,0,0,0,1,1,0,0,0,false,false,true,-533.69,187.43,17.01,-0.0015725831,0.004507352,0.3260007,0.94535744,-74.721,-204.961,8.311,0.00010999999,-0.00040999998,5.43241
15.608334,2000,0,91.24,0.000002697398,0.000002697398,0.000002697398,0.99999994,0,0,0,0,0,0,1,1,0,0,0,false,false,true,-534.31,185.72,17.01,-0.0016750842,0.0044695884,0.3473156,0.9377361,-69.230995,-197.271,8.311,0.00010999999,-0.00040999998,5.4517097
15.616667,2000,0,91.24,0.000002697398,0.000002697398,0.000002697398,0.99999994,0,0,0,0,0,0,1,1,0,0,0,false,false,true,-534.89,184.08,17.01,-0.0017775855,0.0044264304,0.36852267,0.9296065,-64.011,-189.381,8.311,0.00010999999,-0.00030999997,5.4706097
15.625,2000,0,91.24,0.000002697398,0.000002697398,0.000002697398,0.99999994,0,0,0,0,0,0,1,1,0,0,0,false,false,true,-535.42,182.5,17.01,-0.0018800863,0.004383271,0.38961637,0.9209647,-59.060997,-181.291,8.311,0.00010999999,-0.00021,5.48931
15.633333,2000,0,91.24,0.000002697398,0.000002697398,0.000002697398,0.99999994,0,0,0,0,0,0,1,1,0,0,0,false,false,true,-535.91,180.98999,17.01,-0.0019771927,0.004340113,0.41057527,0.91181415,-54.380997,-173.001,8.311,0.00010999999,-0.00010999999,5.49991
15.641666,2000,0,91.24,0.000002697398,0.000002697398,0.000002697398,0.99999994,0,0,0,0,0,0,1,1,0,0,0,false,false,true,-536.36,179.55,17.01,-0.0020742991,0.0042915605,0.43136153,0.90216655,-50.051,-164.521,8.311,0.00010999999,-0.00010999999,5.50001
15.65,2000,0,91.24,0.000002697398,0.000002697398,0.000002697398,0.99999994,0,0,0,0,0,0,1,1,0,0,0,false,false,true,-536.77997,178.18,17.01,-0.0021714051,0.0042430065,0.45192102,0.892045,-46.080997,-155.86101,8.311,0.00010999999,-0.00010999999,5.50001
15.658334,2000,0,91.24,0.000002697398,0.000002697398,0.000002697398,0.99999994,0,0,0,0,0,0,1,1,0,0,0,false,false,true,-537.16,176.87999,17.01,-0.0022685118,0.004189059,0.47224334,0.8814553,-42.481,-147.041,8.311,0.00010999999,-0.00010999999,5.49991
15.666667,2000,0,91.24,0.000002697398,0.000002697398,0.000002697398,0.99999994,0,0,0,0,0,0,1,1,0,0,0,false,false,true,-537.51,175.65,17.01,-0.0023656182,0.0041351113,0.4923175,0.87040263,-39.271,-138.061,8.311,0.00010999999,0,5.50001
15.675,2000,0,91.24,0.000002697398,0.000002697398,0.000002697398,0.99999994,0,0,0,0,0,0,1,1,0,0,0,false,false,true,-537.83997,174.5,17.01,-0.0024573295,0.004081163,0.5121326,0.8588931,-36.451,-128.94101,8.311,0.00021,0,5.49991
15.683333,2000,0,91.24,0.000002697398,0.000002697398,0.000002697398,0.99999994,0,0,0,0,0,0,1,1,0,0,0,false,false,true,-538.14,173.43,17.01,-0.002549041,0.00402182,0.531678,0.84693307,-34.041,-119.701,8.311,0.00021,0,5.49991
15.691667,2000,0,91.24,0.000002697398,0.000002697398,0.000002697398,0.99999994,0,0,0,0,0,0,1,1,0,0,0,false,false,true,-538.42,172.43,17.01,-0.0026407526,0.0039624777,0.55094296,0.8345292,-32.041,-110.351,8.311,0.00021,0,5.50001
15.7,2000,0,91.24,0.000002697398,0.000002697398,0.000002697398,0.99999994,0,0,0,0,0,0,1,1,0,0,0,false,false,true,-538.69,171.51,17.01,-0.002732464,0.003903135,0.5699219,0.82168496,-30.460999,-100.901,8.311,0.00021,0,5.50001
15.708333,2000,0,91.24,0.000002697398,0.000002697398,0.000002697398,0.99999994,0,0,0,0,0,0,1,1,0,0,0,false,false,true,-538.94,170.67,17.01,-0.002818781,0.0038383976,0.5885988,0.8084112,-29.310999,-91.370995,8.311,0.00030999997,0,5.50001
15.716666,2000,0,91.24,0.000002697398,0.000002697398,0.000002697398,0.99999994,0,0,0,0,0,0,1,1,0,0,0,false,false,true,-539.18,169.91,17.01,-0.0029050978,0.00377366,0.6069681,0.7947118,-28.591,-81.781,8.311,0.00030999997,0.00010999999,5.50001
15.725,2000,0,91.24,0.000002697398,0.000002697398,0.000002697398,0.99999994,0,0,0,0,0,0,1,1,0,0,0,false,false,true,-539.42,169.23,17.01,-0.0029914144,0.0037035276,0.62501913,0.7805948,-28.310999,-72.141,8.311,0.00030999997,0.00021,5.49991
15.733334,2000,0,91.24,0.000002697398,0.000002697398,0.000002697398,0.99999994,0,0,0,0,0,0,1,1,0,0,0,false,false,true,-539.66,168.62999,17.01,-0.0030723363,0.0036333953,0.64274114,0.7660686,-28.480999,-62.470997,8.311,0.00030999997,0.00030999997,5.50001
15.741667,2000,0,91.24,0.000002697398,0.000002697398,0.000002697398,0.99999994,0,0,0,0,0,0,1,1,0,0,0,false,false,true,-539.89996,168.11,17.01,-0.0031532582,0.0035632628,0.66012865,0.7511374,-29.100998,-52.781,8.311,0.00030999997,0.00040999998,5.50001
15.75,2000,0,91.24,0.000002697398,0.000002697398,0.000002697398,0.99999994,0,0,0,0,0,0,1,1,0,0,0,false,false,true,-540.14,167.67,17.01,-0.0032341804,0.0034931304,0.6771655,0.7358152,-30.180998,-43.091,8.311,0.00030999997,0.00040999998,5.50001
15.758333,2000,0,91.24,0.000002697398,0.000002697398,0.000002697398,0.99999994,0,0,0,0,0,0,1,1,0,0,0,false,false,true,-540.39,167.31,17.01,-0.0033097074,0.0034176034,0.6938462,0.7201074,-31.720999,-33.420998,8.311,0.00030999997,0.00051,5.50001
15.766666,2000,0,91.24,0.000002697398,0.000002697398,0.000002697398,0.99999994,0,0,0,0,0,0,1,1,0,0,0,false,false,true,-540.64996,167.03,17.01,-0.0033852346,0.0033420762,0.71016324,0.70402086,-33.731,-23.790998,8.311,0.00030999997,0.00051,5.50001
15.775,2000,0,91.24,0.000002697398,0.000002697398,0.000002697398,0.99999994,0,0,0,0,0,0,1,1,0,0,0,false,false,true,-540.93,166.83,17.01,-0.0034607616,0.003266549,0.72611064,0.6875613,-36.211,-14.211,8.311,0.00030999997,0.00061,5.50001
15.783334,2000,0,91.24,0.000002697398,0.000002697398,0.000002697398,0.99999994,0,0,0,0,0,0,1,1,0,0,0,false,false,true,-541.23,166.70999,17.01,-0.0035308942,0.003185627,0.741677,0.67074025,-39.170998,-4.691,8.311,0.00030999997,0.00061,5.50001
15.791667,2000,0,91.24,0.000002697398,0.000002697398,0.000002697398,0.99999994,0,0,0,0,0,0,1,1,0,0,0,false,false,true,-541.56,166.67,17.01,-0.0036010265,0.0031047051,0.75685227,0.65356857,-42.600998,4.7209997,8.311,0.00030999997,0.00071,5.50001
15.8,2000,0,91.24,0.000002697398,0.000002697398,0.000002697398,0.99999994,0,0,0,0,0,0,1,1,0,0,0,false,false,true,-541.91,166.70999,17.01,-0.003665764,0.0030237832,0.77163184,0.6360516,-46.451,13.901,8.311,0.00030999997,0.00071,5.49991
15.808333,2000,0,91.24,0.000002697398,0.000002697398,0.000002697398,0.99999994,0,0,0,0,0,0,1,1,0,0,0,false,false,true,-542.3,166.83,17.01,-0.0037305015,0.0029374664,0.78600204,0.61820555,-50.711,22.841,8.311,0.00021,0.00071,5.49991
15.816667,2000,0,91.24,0.000002697398,0.000002697398,0.000002697398,0.99999994,0,0,0,0,0,0,1,1,0,0,0,false,false,true,-542.72,167.01999,17.01,-0.0037952391,0.0028511498,0.79996306,0.60003036,-55.290997,31.491,8.311,0.00010999999,0.00071,5.50001
15.825,2000,0,91.24,0.000002697398,0.000002697398,0.000002697398,0.99999994,0,0,0,0,0,0,1,1,0,0,0,false,false,true,-543.18,167.28,17.01,-0.0038545819,0.002764833,0.8135022,0.5815423,-60.170998,39.850998,8.311,0,0.00071,5.49991
15.833333,2000,0,91.24,0.000002697398,0.000002697398,0.000002697398,0.99999994,0,0,0,0,0,0,1,1,0,0,0,false,false,true,-543.68,167.61,17.01,-0.0039139246,0.0026785163,0.8266157,0.56274676,-65.340996,47.920998,8.311,0,0.00061,5.49991
15.841666,2000,0,91.24,0.000002697398,0.000002697398,0.000002697398,0.99999994,0,0,0,0,0,0,1,1,0,0,0,false,false,true,-544.22,168.01,17.01,-0.003973267,0.0025921995,0.83929205,0.54366,-70.791,55.690998,8.311,-0.00010999999,0.00051,5.49831
15.85,2000,0,91.24,0.000002697398,0.000002697398,0.000002697398,0.99999994,0,0,0,0,0,0,1,1,0,0,0,false,false,true,-544.81,168.47,17.01,-0.0040326104,0.0025004882,0.8515249,0.52429265,-76.510994,63.161,8.311,-0.00010999999,0.00040999998,5.49491
15.858334,2000,0,91.24,0.000002697398,0.000002697398,0.000002697398,0.99999994,0,0,0,0,0,0,1,1,0,0,0,false,false,true,-545.45,169,17.01,-0.0040865573,0.0024087762,0.8633045,0.5046608,-82.501,70.321,8.311,-0.00010999999,0.00030999997,5.48981
15.866667,2000,0,91.24,0.000002697398,0.000002697398,0.000002697398,0.99999994,0,0,0,0,0,0,1,1,0,0,0,false,false,true,-546.14,169.59,17.01,-0.004140506,0.002317065,0.87462264,0.48478094,-88.751,77.171,8.311,-0.00021,0.00021,5.48301
15.875,2000,0,91.24,0.000002697398,0.000002697398,0.000002697398,0.99999994,0,0,0,0,0,0,1,1,0,0,0,false,false,true,-546.88,170.23,17.01,-0.0041944543,0.0022253536,0.88546884,0.46467447,-95.241,83.701,8.311,-0.00021,0.00010999999,5.47471
15.883333,2000,0,91.24,0.000002697398,0.000002697398,0.000002697398,0.99999994,0,0,0,0,0,0,1,1,0,0,0,false,false,true,-547.67,170.93,17.01,-0.004243007,0.002128247,0.8958369,0.44435754,-101.971,89.910995,8.311,-0.00021,0.00010999999,5.4650097
15.891666,2000,0,91.24,0.000002697398,0.000002697398,0.000002697398,0.99999994,0,0,0,0,0,0,1,1,0,0,0,false,false,true,-548.51996,171.68,17.01,-0.00429156,0.0020311407,0.90572155,0.42384645,-108.921,95.791,8.311,-0.00030999997,0,5.45401
15.9,2000,0,91.24,0.000002697398,0.000002697398,0.000002697398,0.99999994,0,0,0,0,0,0,1,1,0,0,0,false,false,true,-549.43,172.48,17.01,-0.004334719,0.0019340345,0.91511834,0.40315735,-116.08099,101.340996,8.311,-0.00030999997,0,5.4418097
15.908334,2000,0,91.24,0.000002697398,0.000002697398,0.000002697398,0.99999994,0,0,0,0,0,0,1,1,0,0,0,false,false,true,-550.39996,173.31999,17.01,-0.004377877,0.0018369281,0.92402333,0.38230637,-123.440994,106.541,8.311,-0.00040999998,0,5.42861
15.916667,2000,0,91.24,0.000002697398,0.000002697398,0.000002697398,0.99999994,0,0,0,0,0,0,1,1,0,0,0,false,false,true,-551.43,174.20999,17.01,-0.0044210353,0.0017398217,0.93243366,0.36130974,-130.94101,111.251,8.311,-0.00040999998,0,5.41521
15.925,2000,0,91.24,0.000002697398,0.000002697398,0.000002697398,0.99999994,0,0,0,0,0,0,1,1,0,0,0,false,false,true,-552.51996,175.14,17.01,-0.004458799,0.0016427154,0.9403489,0.34017822,-138.571,115.480995,8.311,-0.00030999997,0,5.40151
15.933333,2000,0,91.24,0.000002697398,0.000002697398,0.000002697398,0.99999994,0,0,0,0,0,0,1,1,0,0,0,false,false,true,-553.67,176.09999,17.01,-0.0044965623,0.0015456091,0.94776696,0.31892803,-146.311,119.241,8.311,-0.00021,-0.00010999999,5.38761
