time,ball_loc_x,ball_loc_y,ball_loc_z,ball_rot_x,ball_rot_y,ball_rot_z,ball_rot_w,ball_vel_x,ball_vel_y,ball_vel_z,ball_ang_x,ball_ang_y,ball_ang_z,player0_throttle,player0_steer,player0_pitch,player0_yaw,player0_roll,player0_jump,player0_boost,player0_handbrake,player0_loc_x,player0_loc_y,player0_loc_z,player0_rot_x,player0_rot_y,player0_rot_z,player0_rot_w,player0_vel_x,player0_vel_y,player0_vel_z,player0_ang_x,player0_ang_y,player0_ang_z
187.75,2000,0,91.24,0.000002697398,0.000002697398,0.000002697398,0.99999994,0,0,0,0,0,0,1,0,0,0,0,false,true,false,0,-4223.61,16.99,-0.00336905,0.003374445,0.70711225,0.70708513,-0.031,1501.601,8.411,-0.00061,0,0
187.75833,2000,0,91.24,0.000002697398,0.000002697398,0.000002697398,0.99999994,0,0,0,0,0,0,0,1,0,0,0,false,false,true,0,-4211.1,16.99,-0.00336905,0.003374445,0.70711225,0.70708513,-11.511,1500.3209,8.471001,-0.00061,0.00301,0.31921
187.76666,2000,0,91.24,0.000002697398,0.000002697398,0.000002697398,0.99999994,0,0,0,0,0,0,0,1,0,0,0,false,false,true,-0.099999994,-4198.6,16.99,-0.00336905,0.0033798397,0.70804965,0.7061464,-21.120998,1499.2009,8.501,-0.00061,0.00421,0.57241
187.775,2000,0,91.24,0.000002697398,0.000002697398,0.000002697398,0.99999994,0,0,0,0,0,0,0,1,0,0,0,false,false,true,-0.28,-4186.11,16.99,-0.00336905,0.0033852346,0.7097296,0.7044579,-30.491,1498.0809,8.521,-0.00051,0.00451,0.79460996
187.78334,2000,0,91.24,0.000002697398,0.000002697398,0.000002697398,0.99999994,0,0,0,0,0,0,0,1,0,0,0,false,false,true,-0.53,-4173.63,16.99,-0.00336905,0.0033906293,0.7120565,0.70210576,-39.990997,1496.9109,8.541,-0.00051,0.0043099998,0.99121
187.79167,2000,0,91.24,0.000002697398,0.000002697398,0.000002697398,0.99999994,0,0,0,0,0,0,0,1,0,0,0,false,false,true,-0.85999995,-4161.1597,16.99,-0.00336905,0.0033906293,0.714949,0.69916016,-49.880997,1495.651,8.551001,-0.00040999998,0.00391,1.16671
187.8,2000,0,91.24,0.000002697398,0.000002697398,0.000002697398,0.99999994,0,0,0,0,0,0,0,1,0,0,0,false,false,true,-1.28,-4148.6997,16.99,-0.003374445,0.0033852346,0.7183406,0.6956751,-60.281,1494.261,8.561,-0.00040999998,0.00331,1.32461
187.80833,2000,0,91.24,0.000002697398,0.000002697398,0.000002697398,0.99999994,0,0,0,0,0,0,0,1,0,0,0,false,false,true,-1.78,-4136.25,16.99,-0.0033852346,0.0033798397,0.7221699,0.6916991,-71.251,1492.7009,8.561,-0.00040999998,0.00261,1.4679099
187.81667,2000,0,91.24,0.000002697398,0.000002697398,0.000002697398,0.99999994,0,0,0,0,0,0,0,1,0,0,0,false,false,true,-2.37,-4123.81,16.99,-0.003401419,0.00336905,0.7263862,0.68727,-82.800995,1490.9309,8.561,-0.00030999997,0.00201,1.59881
187.825,2000,0,91.24,0.000002697398,0.000002697398,0.000002697398,0.99999994,0,0,0,0,0,0,0,1,0,0,0,false,false,true,-3.06,-4111.39,16.99,-0.0034176034,0.0033528658,0.73094946,0.68241465,-94.881,1488.9309,8.561,-0.00021,0.0014099999,1.71901
187.83333,2000,0,91.24,0.000002697398,0.000002697398,0.000002697398,0.99999994,0,0,0,0,0,0,0,1,0,0,0,false,false,true,-3.85,-4098.98,16.99,-0.0034391826,0.0033312866,0.73582006,0.6771601,-107.431,1486.6709,8.571,-0.00021,0.00091,1.8300099
187.84166,2000,0,91.24,0.000002697398,0.000002697398,0.000002697398,0.99999994,0,0,0,0,0,0,0,1,0,0,0,false,false,true,-4.75,-4086.5898,16.99,-0.0034607616,0.0033097074,0.7409637,0.67152786,-120.361,1484.141,8.571,-0.00021,0.00051,1.93281
187.85,2000,0,91.24,0.000002697398,0.000002697398,0.000002697398,0.99999994,0,0,0,0,0,0,0,1,0,0,0,false,false,true,-5.75,-4074.22,16.99,-0.0034877358,0.0032827335,0.74634707,0.6655396,-133.571,1481.3309,8.571,-0.00010999999,0.00010999999,2.02831
187.85834,2000,0,91.24,0.000002697398,0.000002697398,0.000002697398,0.99999994,0,0,0,0,0,0,0,1,0,0,0,false,false,true,-6.8599997,-4061.88,16.99,-0.0035147096,0.0032557594,0.75194687,0.65920615,-146.931,1478.231,8.571,-0.00010999999,-0.00010999999,2.1170099
187.86667,2000,0,91.24,0.000002697398,0.000002697398,0.000002697398,0.99999994,0,0,0,0,0,0,0,1,0,0,0,false,false,true,-8.08,-4049.5598,16.99,-0.0035416838,0.0032233908,0.7577313,0.65254897,-160.321,1474.861,8.571,0,-0.00030999997,2.19931
187.875,2000,0,91.24,0.000002697398,0.000002697398,0.000002697398,0.99999994,0,0,0,0,0,0,0,1,0,0,0,false,false,true,-9.42,-4037.27,16.99,-0.0035740524,0.003191022,0.76367855,0.6455788,-173.591,1471.241,8.571,0,-0.00051,2.27561
187.88333,2000,0,91.24,0.000002697398,0.000002697398,0.000002697398,0.99999994,0,0,0,0,0,0,0,1,0,0,0,false,false,true,-10.87,-4025.01,16.99,-0.0036064212,0.0031532582,0.7697672,0.6383066,-186.61101,1467.401,8.571,0,-0.00071,2.34601
187.89166,2000,0,91.24,0.000002697398,0.000002697398,0.000002697398,0.99999994,0,0,0,0,0,0,0,1,0,0,0,false,false,true,-12.429999,-4012.78,16.99,-0.00363879,0.0031154947,0.7759681,0.6307539,-199.22101,1463.391,8.571,0,-0.00081,2.41051
187.9,2000,0,91.24,0.000002697398,0.000002697398,0.000002697398,0.99999994,0,0,0,0,0,0,0,1,0,0,0,false,false,true,-14.09,-4000.5898,16.99,-0.0036711588,0.0030777312,0.78226596,0.622926,-211.261,1459.271,8.571,0,-0.00091,2.46911
187.90834,2000,0,91.24,0.000002697398,0.000002697398,0.000002697398,0.99999994,0,0,0,0,0,0,0,1,0,0,0,false,false,true,-15.849999,-3988.43,16.99,-0.0037035276,0.0030399675,0.78863364,0.61484456,-222.571,1455.111,8.571,0,-0.0010099999,2.52181
187.91667,2000,0,91.24,0.000002697398,0.000002697398,0.000002697398,0.99999994,0,0,0,0,0,0,0,1,0,0,0,false,false,true,-17.699999,-3976.2998,16.99,-0.003735896,0.002996809,0.7950493,0.60652566,-232.991,1451.001,8.571,0.00010999999,-0.00111,2.56841
187.925,2000,0,91.24,0.000002697398,0.000002697398,0.000002697398,0.99999994,0,0,0,0,0,0,0,1,0,0,0,false,false,true,-19.64,-3964.21,16.99,-0.00377366,0.002953651,0.8014964,0.5979803,-242.341,1447.0609,8.571,0.00010999999,-0.0012099999,2.60871
187.93333,2000,0,91.24,0.000002697398,0.000002697398,0.000002697398,0.99999994,0,0,0,0,0,0,0,1,0,0,0,false,false,true,-21.66,-3952.15,16.99,-0.0038114234,0.0029104925,0.8079471,0.58923537,-250.451,1443.4109,8.571,0.00021,-0.00131,2.64251
187.94167,2000,0,91.24,0.000002697398,0.000002697398,0.000002697398,0.99999994,0,0,0,0,0,0,0,1,0,0,0,false,false,true,-23.75,-3940.1199,16.99,-0.0038491872,0.0028619394,0.8143875,0.5803015,-257.141,1440.2009,8.571,0.00030999997,-0.0014099999,2.66951
187.95,2000,0,91.24,0.000002697398,0.000002697398,0.000002697398,0.99999994,0,0,0,0,0,0,0,1,0,0,0,false,false,true,-25.89,-3928.1199,16.99,-0.0038869507,0.0028133863,0.8207927,0.5712059,-262.241,1437.601,8.561,0.00040999998,-0.0014099999,2.6895099
187.95833,2000,0,91.24,0.000002697398,0.000002697398,0.000002697398,0.99999994,0,0,0,0,0,0,0,1,0,0,0,false,false,true,-28.08,-3916.14,16.99,-0.003924714,0.002764833,0.82714367,0.56196994,-267.54102,1434.751,8.561,0.00040999998,-0.00131,2.70871
187.96666,2000,0,91.24,0.000002697398,0.000002697398,0.000002697398,0.99999994,0,0,0,0,0,0,0,1,0,0,0,false,false,true,-30.31,-3904.18,16.99,-0.003957083,0.0027162798,0.8334333,0.55259913,-273.031,1431.641,8.561,0.00040999998,-0.0012099999,2.7274098
187.975,2000,0,91.24,0.000002697398,0.000002697398,0.000002697398,0.99999994,0,0,0,0,0,0,0,1,0,0,0,false,false,true,-32.59,-3892.25,16.99,-0.0039894516,0.0026677267,0.83965844,0.5430935,-278.691,1428.271,8.561,0.00040999998,-0.00111,2.7455099
187.98334,2000,0,91.24,0.000002697398,0.000002697398,0.000002697398,0.99999994,0,0,0,0,0,0,0,1,0,0,0,false,false,true,-34.91,-3880.3499,16.99,-0.0040218206,0.0026191736,0.8458161,0.533453,-284.501,1424.631,8.561,0.00040999998,-0.0010099999,2.76311
187.99167,2000,0,91.24,0.000002697398,0.000002697398,0.000002697398,0.99999994,0,0,0,0,0,0,0,1,0,0,0,false,false,true,-37.28,-3868.48,16.99,-0.004054189,0.0025706203,0.8519029,0.5236776,-290.451,1420.721,8.561,0.00040999998,-0.00091,2.78021
188,2000,0,91.24,0.000002697398,0.000002697398,0.000002697398,0.99999994,0,0,0,0,0,0,0,1,0,0,0,false,false,true,-39.7,-3856.64,16.99,-0.0040865573,0.002522067,0.8579128,0.51377255,-296.511,1416.531,8.561,0.00040999998,-0.00081,2.79671
188.00833,2000,0,91.24,0.000002697398,0.000002697398,0.000002697398,0.99999994,0,0,0,0,0,0,0,1,0,0,0,false,false,true,-42.17,-3844.8398,16.99,-0.004118927,0.002473514,0.86384284,0.5037383,-302.661,1412.0709,8.561,0.00040999998,-0.00081,2.81271
188.01666,2000,0,91.24,0.000002697398,0.000002697398,0.000002697398,0.99999994,0,0,0,0,0,0,0,1,0,0,0,false,false,true,-44.69,-3833.0698,16.99,-0.0041512954,0.002419566,0.86968714,0.49357986,-308.891,1407.3309,8.561,0.00051,-0.00071,2.82811
188.025,2000,0,91.24,0.000002697398,0.000002697398,0.000002697398,0.99999994,0,0,0,0,0,0,0,1,0,0,0,false,false,true,-47.26,-3821.3398,16.99,-0.004183665,0.0023656182,0.875443,0.4832974,-315.171,1402.3109,8.561,0.00051,-0.00061,2.84291
188.03334,2000,0,91.24,0.000002697398,0.000002697398,0.000002697398,0.99999994,0,0,0,0,0,0,0,1,0,0,0,false,false,true,-49.89,-3809.65,16.99,-0.0042106383,0.00231167,0.881105,0.47289613,-321.491,1397.011,8.561,0.00051,-0.00051,2.85711
188.04167,2000,0,91.24,0.000002697398,0.000002697398,0.000002697398,0.99999994,0,0,0,0,0,0,0,1,0,0,0,false,false,true,-52.57,-3798.01,16.99,-0.0042376127,0.0022577224,0.88667077,0.4623763,-327.831,1391.4309,8.561,0.00040999998,-0.00040999998,2.87071
188.05,2000,0,91.24,0.000002697398,0.000002697398,0.000002697398,0.99999994,0,0,0,0,0,0,0,1,0,0,0,false,false,true,-55.3,-3786.41,16.99,-0.0042645857,0.002203774,0.89213777,0.45173758,-334.171,1385.5809,8.561,0.00040999998,-0.00040999998,2.88371
188.05833,2000,0,91.24,0.000002697398,0.000002697398,0.000002697398,0.99999994,0,0,0,0,0,0,0,1,0,0,0,false,false,true,-58.079998,-3774.8599,16.99,-0.00429156,0.0021498261,0.8975012,0.4409858,-340.491,1379.4609,8.561,0.00030999997,-0.00040999998,2.89601
188.06667,2000,0,91.24,0.000002697398,0.000002697398,0.000002697398,0.99999994,0,0,0,0,0,0,0,1,0,0,0,false,false,true,-60.92,-3763.3599,16.99,-0.004318534,0.0020958781,0.90275604,0.430126,-346.771,1373.0709,8.561,0.00030999997,-0.00030999997,2.9077098
188.075,2000,0,91.24,0.000002697398,0.000002697398,0.000002697398,0.99999994,0,0,0,0,0,0,0,1,0,0,0,false,false,true,-63.809998,-3751.92,16.99,-0.004345508,0.00204193,0.9079003,0.4191583,-352.991,1366.4209,8.561,0.00030999997,-0.00030999997,2.91871
188.08333,2000,0,91.24,0.000002697398,0.000002697398,0.000002697398,0.99999994,0,0,0,0,0,0,0,1,0,0,0,false,false,true,-66.75,-3740.53,16.99,-0.004372482,0.0019879823,0.91292983,0.40808818,-359.141,1359.511,8.561,0.00030999997,-0.00021,2.92901
188.09166,2000,0,91.24,0.000002697398,0.000002697398,0.000002697398,0.99999994,0,0,0,0,0,0,0,1,0,0,0,false,false,true,-69.74,-3729.2,16.99,-0.0043940614,0.0019340344,0.9178425,0.39691556,-365.201,1352.361,8.561,0.00030999997,-0.00021,2.9386098
188.1,2000,0,91.24,0.000002697398,0.000002697398,0.000002697398,0.99999994,0,0,0,0,0,0,0,1,0,0,0,false,false,true,-72.78,-3717.93,16.99,-0.00441564,0.0018800863,0.9226343,0.38564572,-371.151,1344.971,8.561,0.00030999997,-0.00021,2.9474099
188.10834,2000,0,91.24,0.000002697398,0.000002697398,0.000002697398,0.99999994,0,0,0,0,0,0,0,1,0,0,0,false,false,true,-75.869995,-3706.72,16.99,-0.00443722,0.0018261385,0.9273015,0.3742843,-376.981,1337.351,8.561,0.00030999997,-0.00021,2.95541
188.11667,2000,0,91.24,0.000002697398,0.000002697398,0.000002697398,0.99999994,0,0,0,0,0,0,0,1,0,0,0,false,false,true,-79.009995,-3695.5798,16.99,-0.0044587995,0.0017721907,0.9318404,0.36283648,-382.671,1329.511,8.561,0.00030999997,-0.00021,2.96261
188.125,2000,0,91.24,0.000002697398,0.000002697398,0.000002697398,0.99999994,0,0,0,0,0,0,0,1,0,0,0,false,false,true,-82.2,-3684.5,16.99,-0.0044803782,0.0017128477,0.93624765,0.35130778,-388.211,1321.4609,8.561,0.00030999997,-0.00021,2.9690099
188.13333,2000,0,91.24,0.000002697398,0.000002697398,0.000002697398,0.99999994,0,0,0,0,0,0,0,1,0,0,0,false,false,true,-85.439995,-3673.49,16.99,-0.004501958,0.0016535051,0.94052225,0.3396981,-393.591,1313.2109,8.561,0.00030999997,-0.00021,2.97451
188.14166,2000,0,91.24,0.000002697398,0.000002697398,0.000002697398,0.99999994,0,0,0,0,0,0,0,1,0,0,0,false,false,true,-88.72,-3662.5498,16.99,-0.004523536,0.0015941622,0.94466096,0.32801294,-398.791,1304.781,8.561,0.00030999997,-0.00021,2.97921
188.15,2000,0,91.24,0.000002697398,0.000002697398,0.000002697398,0.99999994,0,0,0,0,0,0,0,1,0,0,0,false,false,true,-92.04,-3651.68,16.99,-0.004545116,0.0015348196,0.94865936,0.31626302,-403.801,1296.1809,8.561,0.00021,-0.00021,2.98291
188.15834,2000,0,91.24,0.000002697398,0.000002697398,0.000002697398,0.99999994,0,0,0,0,0,0,0,1,0,0,0,false,false,true,-95.409996,-3640.88,16.99,-0.0045666946,0.0014754768,0.9525167,0.3044484,-408.611,1287.4209,8.561,0.00021,-0.00021,2.98571
188.16667,2000,0,91.24,0.000002697398,0.000002697398,0.000002697398,0.99999994,0,0,0,0,0,0,0,1,0,0,0,false,false,true,-98.82,-3630.15,16.99,-0.004582879,0.001416134,0.9562307,0.29257438,-413.211,1278.521,8.561,0.00021,-0.00010999999,2.98751
188.175,2000,0,91.24,0.000002697398,0.000002697398,0.000002697398,0.99999994,0,0,0,0,0,0,0,1,0,0,0,false,false,true,-102.259995,-3619.5,16.99,-0.0045990637,0.0013567912,0.9597992,0.28064647,-417.591,1269.491,8.561,0.00021,-0.00010999999,2.9883099
188.18333,2000,0,91.24,0.000002697398,0.000002697398,0.000002697398,0.99999994,0,0,0,0,0,0,0,1,0,0,0,false,false,true,-105.74,-3608.92,16.99,-0.004615248,0.0012974484,0.9632188,0.26867533,-421.741,1260.351,8.561,0.00010999999,-0.00010999999,2.9881098
188.19167,2000,0,91.24,0.000002697398,0.000002697398,0.000002697398,0.99999994,0,0,0,0,0,0,0,1,0,0,0,false,false,true,-109.25,-3598.42,16.99,-0.0046314322,0.0012381057,0.9664895,0.25666112,-425.651,1251.111,8.561,0.00010999999,-0.00010999999,2.9869099
188.2,2000,0,91.24,0.000002697398,0.000002697398,0.000002697398,0.99999994,0,0,0,0,0,0,0,1,0,0,0,false,false,true,-112.799995,-3587.99,16.99,-0.0046476168,0.0011787629,0.9696085,0.24461447,-429.32098,1241.7909,8.561,0.00010999999,-0.00010999999,2.9846098
188.20833,2000,0,91.24,0.000002697398,0.000002697398,0.000002697398,0.99999994,0,0,0,0,0,0,0,1,0,0,0,false,false,true,-116.38,-3577.64,16.99,-0.0046638013,0.0011194202,0.972576,0.23253553,-432.751,1232.4109,8.561,0.00010999999,-0.00010999999,2.98121
188.21666,2000,0,91.24,0.000002697398,0.000002697398,0.000002697398,0.99999994,0,0,0,0,0,0,0,1,0,0,0,false,false,true,-119.99,-3567.3699,16.99,-0.0046799853,0.0010600775,0.97538984,0.2204349,-435.931,1222.991,8.561,0.00010999999,-0.00010999999,2.97661
188.225,2000,0,91.24,0.000002697398,0.000002697398,0.000002697398,0.99999994,0,0,0,0,0,0,0,1,0,0,0,false,false,true,-123.619995,-3557.18,16.99,-0.004690775,0.0010007346,0.97804815,0.20832351,-438.85098,1213.5409,8.561,0.00010999999,0,2.9709098
188.23334,2000,0,91.24,0.000002697398,0.000002697398,0.000002697398,0.99999994,0,0,0,0,0,0,0,1,0,0,0,false,false,true,-127.28,-3547.0698,16.99,-0.0047015646,0.0009413919,0.98055184,0.1962014,-441.521,1204.0809,8.561,0.00010999999,0,2.96401
188.24167,2000,0,91.24,0.000002697398,0.000002697398,0.000002697398,0.99999994,0,0,0,0,0,0,0,1,0,0,0,false,false,true,-130.95999,-3537.04,16.99,-0.004712355,0.0008820492,0.98289967,0.18407923,-443.931,1194.631,8.561,0.00010999999,0,2.9558098
188.25,2000,0,91.24,0.000002697398,0.000002697398,0.000002697398,0.99999994,0,0,0,0,0,0,0,1,0,0,0,false,false,true,-134.66,-3527.0798,16.99,-0.0047231433,0.0008227063,0.9850917,0.17196248,-446.091,1185.2009,8.561,0.00010999999,0,2.94631
188.25833,2000,0,91.24,0.000002697398,0.000002697398,0.000002697398,0.99999994,0,0,0,0,0,0,0,1,0,0,0,false,false,true,-138.37999,-3517.2,16.99,-0.0047339336,0.00076336367,0.98712856,0.15985648,-448.001,1175.8209,8.561,0.00010999999,0,2.93561
188.26666,2000,0,91.24,0.000002697398,0.000002697398,0.000002697398,0.99999994,0,0,0,0,0,0,0,1,0,0,0,false,false,true,-142.11,-3507.4,16.99,-0.004744723,0.0007040209,0.98900974,0.14777215,-449.661,1166.501,8.561,0.00010999999,0,2.9235098
188.275,2000,0,91.24,0.000002697398,0.000002697398,0.000002697398,0.99999994,0,0,0,0,0,0,0,1,0,0,0,false,false,true,-145.86,-3497.68,16.99,-0.004755513,0.00064467813,0.9907363,0.1357147,-451.07098,1157.251,8.561,0.00010999999,0,2.91011
188.28334,2000,0,91.24,0.000002697398,0.000002697398,0.000002697398,0.99999994,0,0,0,0,0,0,0,1,0,0,0,false,false,true,-149.62,-3488.04,16.99,-0.004760908,0.0005853354,0.99230933,0.1236897,-452.241,1148.101,8.561,0.00010999999,0,2.89531
188.29167,2000,0,91.24,0.000002697398,0.000002697398,0.000002697398,0.99999994,0,0,0,0,0,0,0,1,0,0,0,false,false,true,-153.39,-3478.47,16.99,-0.004766302,0.0005259926,0.9937295,0.11170777,-453.181,1139.0609,8.561,0.00010999999,0,2.87901
188.3,2000,0,91.24,0.000002697398,0.000002697398,0.000002697398,0.99999994,0,0,0,0,0,0,0,1,0,0,0,false,false,true,-157.17,-3468.98,16.99,-0.004771697,0.00046664986,0.9949979,0.099779874,-453.891,1130.141,8.561,0.00010999999,0,2.86131
188.30833,2000,0,91.24,0.000002697398,0.000002697398,0.000002697398,0.99999994,0,0,0,0,0,0,0,1,0,0,0,false,false,true,-160.95,-3459.5598,16.99,-0.004777092,0.00040730712,0.9961167,0.08791123,-454.381,1121.361,8.561,0.00010999999,0,2.84211
188.31667,2000,0,91.24,0.000002697398,0.000002697398,0.000002697398,0.99999994,0,0,0,0,0,0,0,1,0,0,0,false,false,true,-164.73999,-3450.21,16.99,-0.004782487,0.00034796438,0.9970881,0.076107346,-454.661,1112.741,8.561,0.00010999999,0,2.82131
188.325,2000,0,91.24,0.000002697398,0.000002697398,0.000002697398,0.99999994,0,0,0,0,0,0,0,1,0,0,0,false,false,true,-168.53,-3440.94,16.99,-0.004787882,0.0002886216,0.99791396,0.06437906,-454.741,1104.2909,8.561,0.00010999999,0,2.79901
188.33333,2000,0,91.24,0.000002697398,0.000002697398,0.000002697398,0.99999994,0,0,0,0,0,0,0,1,0,0,0,false,false,true,-172.31999,-3431.74,16.99,-0.004793276,0.00023467363,0.99859685,0.052736998,-454.631,1096.031,8.561,0.00010999999,0,2.77511
188.34166,2000,0,91.24,0.000002697398,0.000002697398,0.000002697398,0.99999994,0,0,0,0,0,0,0,1,0,0,0,false,false,true,-176.11,-3422.6099,16.99,-0.004793276,0.00018072566,0.9991399,0.04118674,-454.35098,1087.9609,8.561,0.00010999999,0,2.74951
188.35,2000,0,91.24,0.000002697398,0.000002697398,0.000002697398,0.99999994,0,0,0,0,0,0,0,1,0,0,0,false,false,true,-179.9,-3413.54,16.99,-0.004793276,0.0001267777,0.9995462,0.029738897,-453.901,1080.101,8.561,0.00010999999,0,2.72221
188.35834,2000,0,91.24,0.000002697398,0.000002697398,0.000002697398,0.99999994,0,0,0,0,0,0,0,1,0,0,0,false,false,true,-183.68,-3404.54,16.99,-0.0047932756,0.00007282974,0.9998191,0.018399034,-453.301,1072.4609,8.561,0.00021,0,2.69321
188.36667,2000,0,91.24,0.000002697398,0.000002697398,0.000002697398,0.99999994,0,0,0,0,0,0,0,1,0,0,0,false,false,true,-187.45999,-3395.5999,16.99,-0.0047932765,0.000018881788,0.99996275,0.0071777767,-452.57098,1065.0609,8.561,0.00021,0,2.66241
188.375,2000,0,91.24,0.000002697398,0.000002697398,0.000002697398,0.99999994,0,0,0,0,0,0,0,1,0,0,0,false,false,true,-191.23,-3386.72,16.99,-0.004793276,-0.000035066172,0.9999808,-0.0039139246,-451.711,1057.901,8.561,0.00030999997,0,2.62971
188.38333,2000,0,91.24,0.000002697398,0.000002697398,0.000002697398,0.99999994,0,0,0,0,0,0,0,1,0,0,0,false,false,true,-194.98999,-3377.9,16.99,-0.004793276,-0.00008901414,0.99987787,-0.014870798,-450.751,1050.991,8.561,0.00030999997,0,2.59511
188.39166,2000,0,91.24,0.000002697398,0.000002697398,0.000002697398,0.99999994,0,0,0,0,0,0,0,1,0,0,0,false,false,true,-198.75,-3369.14,16.99,-0.0047932756,-0.00014296208,0.9996585,-0.02568201,-449.691,1044.341,8.561,0.00030999997,0,2.55851
188.4,2000,0,91.24,0.000002697398,0.000002697398,0.000002697398,0.99999994,0,0,0,0,0,0,0,1,0,0,0,false,false,true,-202.5,-3360.44,16.99,-0.004793276,-0.00019691006,0.999328,-0.036336776,-448.531,1037.891,8.561,0.00030999997,0,2.52221
188.40834,2000,0,91.24,0.000002697398,0.000002697398,0.000002697398,0.99999994,0,0,0,0,0,0,0,1,0,0,0,false,false,true,-206.23999,-3351.79,16.99,-0.0047932756,-0.000250858,0.99889094,-0.046835087,-447.251,1031.601,8.561,0.00030999997,0,2.48781
188.41667,2000,0,91.24,0.000002697398,0.000002697398,0.000002697398,0.99999994,0,0,0,0,0,0,0,1,0,0,0,false,false,true,-209.97,-3343.19,16.99,-0.004787882,-0.00029941121,0.9983519,-0.05718775,-445.861,1025.481,8.561,0.00021,0,2.4551098
188.425,2000,0,91.24,0.000002697398,0.000002697398,0.000002697398,0.99999994,0,0,0,0,0,0,0,1,0,0,0,false,false,true,-213.69,-3334.64,16.99,-0.0047824867,-0.00034796435,0.9977148,-0.06739474,-444.381,1019.54095,8.561,0.00021,0,2.42401
188.43333,2000,0,91.24,0.000002697398,0.000002697398,0.000002697398,0.99999994,0,0,0,0,0,0,0,1,0,0,0,false,false,true,-217.39,-3326.14,16.99,-0.0047770916,-0.00039651748,0.99698323,-0.07746686,-442.82098,1013.79095,8.561,0.00021,0,2.39441
188.44167,2000,0,91.24,0.000002697398,0.000002697398,0.000002697398,0.99999994,0,0,0,0,0,0,0,1,0,0,0,false,false,true,-221.08,-3317.69,16.99,-0.0047716973,-0.0004450707,0.9961609,-0.087409526,-441.121,1008.131,8.561,0.00010999999,0,2.36881
188.45,2000,0,91.24,0.000002697398,0.000002697398,0.000002697398,0.99999994,0,0,0,0,0,0,0,1,0,0,0,false,false,true,-224.76,-3309.29,16.99,-0.0047663017,-0.0004936238,0.9952494,-0.097238876,-439.271,1002.53094,8.561,0,0,2.3482099
188.45833,2000,0,91.24,0.000002697398,0.000002697398,0.000002697398,0.99999994,0,0,0,0,0,0,0,1,0,0,0,false,false,true,-228.42,-3300.94,16.99,-0.0047609075,-0.000542177,0.99425054,-0.10697114,-437.271,997.001,8.561,0,0,2.3324099
188.46666,2000,0,91.24,0.000002697398,0.000002697398,0.000002697398,0.99999994,0,0,0,0,0,0,0,1,0,0,0,false,false,true,-232.06,-3292.63,16.99,-0.004755513,-0.00059073017,0.99316406,-0.116627865,-435.141,991.55096,8.561,-0.00010999999,0,2.32131
188.475,2000,0,91.24,0.000002697398,0.000002697398,0.000002697398,0.99999994,0,0,0,0,0,0,0,1,0,0,0,false,false,true,-235.68999,-3284.3699,16.99,-0.004750118,-0.0006338886,0.9919893,-0.12623061,-432.881,986.2009,8.561,-0.00021,-0.00010999999,2.31471
188.48334,2000,0,91.24,0.000002697398,0.000002697398,0.000002697398,0.99999994,0,0,0,0,0,0,0,1,0,0,0,false,false,true,-239.29999,-3276.15,16.99,-0.0047447234,-0.00067704695,0.990726,-0.13579023,-430.501,980.96094,8.561,-0.00030999997,-0.00010999999,2.31251
188.49167,2000,0,91.24,0.000002697398,0.000002697398,0.000002697398,0.99999994,0,0,0,0,0,0,0,1,0,0,0,false,false,true,-242.89,-3267.98,16.99,-0.0047393288,-0.0007202053,0.98937184,-0.14532827,-428.001,975.84094,8.561,-0.00040999998,-0.00010999999,2.31461
188.5,2000,0,91.24,0.000002697398,0.000002697398,0.000002697398,0.99999994,0,0,0,0,0,0,0,1,0,0,0,false,false,true,-246.45999,-3259.8499,16.99,-0.0047339336,-0.00076336367,0.9879246,-0.15486091,-425.401,970.86096,8.561,-0.00040999998,-0.00010999999,2.32091
188.50833,2000,0,91.24,0.000002697398,0.000002697398,0.000002697398,0.99999994,0,0,0,0,0,0,0,1,0,0,0,false,false,true,-250,-3251.76,16.99,-0.0047285384,-0.00080652203,0.9863804,-0.16440974,-422.711,966.03094,8.561,-0.00051,-0.00010999999,2.33141
188.51666,2000,0,91.24,0.000002697398,0.000002697398,0.000002697398,0.99999994,0,0,0,0,0,0,0,1,0,0,0,false,false,true,-253.51999,-3243.71,16.99,-0.0047231438,-0.0008496804,0.98473644,-0.17398554,-419.931,961.35095,8.561,-0.00051,-0.00010999999,2.34601
188.525,2000,0,91.24,0.000002697398,0.000002697398,0.000002697398,0.99999994,0,0,0,0,0,0,0,1,0,0,0,false,false,true,-257.02,-3235.7,16.99,-0.004712355,-0.0008928388,0.9829885,-0.18360452,-417.07098,956.821,8.561,-0.00051,-0.00010999999,2.36431
188.53334,2000,0,91.24,0.000002697398,0.000002697398,0.000002697398,0.99999994,0,0,0,0,0,0,0,1,0,0,0,false,false,true,-260.5,-3227.73,16.99,-0.0047015646,-0.0009359971,0.9811324,-0.19327737,-414.081,952.311,8.561,-0.00051,-0.00010999999,2.38341
188.54167,2000,0,91.24,0.000002697398,0.000002697398,0.000002697398,0.99999994,0,0,0,0,0,0,0,1,0,0,0,false,false,true,-263.94998,-3219.79,16.99,-0.004690775,-0.0009791554,0.97916496,-0.20300964,-410.971,947.84094,8.561,-0.00051,-0.00021,2.40331
188.55,2000,0,91.24,0.000002697398,0.000002697398,0.000002697398,0.99999994,0,0,0,0,0,0,0,1,0,0,0,false,false,true,-267.37,-3211.89,16.99,-0.004679985,-0.0010223137,0.97708243,-0.2128066,-407.751,943.40094,8.561,-0.00051,-0.00021,2.4242098
188.55833,2000,0,91.24,0.000002697398,0.000002697398,0.000002697398,0.99999994,0,0,0,0,0,0,0,1,0,0,0,false,false,true,-270.77,-3204.03,16.99,-0.0046691955,-0.001065472,0.97488356,-0.22266293,-404.441,939.02094,8.561,-0.00040999998,-0.00030999997,2.44571
188.56667,2000,0,91.24,0.000002697398,0.000002697398,0.000002697398,0.99999994,0,0,0,0,0,0,0,1,0,0,0,false,false,true,-274.13998,-3196.2,16.99,-0.004658406,-0.0011086306,0.97256446,-0.23258403,-401.041,934.71094,8.561,-0.00030999997,-0.00030999997,2.46781
188.575,2000,0,91.24,0.000002697398,0.000002697398,0.000002697398,0.99999994,0,0,0,0,0,0,0,1,0,0,0,false,false,true,-277.47998,-3188.41,16.99,-0.0046476163,-0.0011571837,0.970122,-0.24256982,-397.561,930.48096,8.561,-0.00030999997,-0.00030999997,2.49061
188.58333,2000,0,91.24,0.000002697398,0.000002697398,0.000002697398,0.99999994,0,0,0,0,0,0,0,1,0,0,0,false,false,true,-280.79,-3180.66,16.99,-0.0046368274,-0.001205737,0.9675522,-0.2526258,-393.961,926.261,8.561,-0.00030999997,-0.00030999997,2.51241
188.59166,2000,0,91.24,0.000002697398,0.000002697398,0.000002697398,0.99999994,0,0,0,0,0,0,0,1,0,0,0,false,false,true,-284.07,-3172.94,16.99,-0.0046260376,-0.0012542901,0.9648544,-0.26274106,-390.211,921.99097,8.561,-0.00021,-0.00030999997,2.53191
188.6,2000,0,91.24,0.000002697398,0.000002697398,0.000002697398,0.99999994,0,0,0,0,0,0,0,1,0,0,0,false,false,true,-287.32,-3165.26,16.99,-0.0046152477,-0.0013028431,0.9620289,-0.27290487,-386.311,917.691,8.561,-0.00021,-0.00021,2.54911
188.60834,2000,0,91.24,0.000002697398,0.000002697398,0.000002697398,0.99999994,0,0,0,0,0,0,0,1,0,0,0,false,false,true,-290.54,-3157.6099,16.99,-0.004599064,-0.0013513966,0.95907646,-0.28310654,-382.271,913.381,8.561,-0.00010999999,-0.00010999999,2.56401
188.61667,2000,0,91.24,0.000002697398,0.000002697398,0.000002697398,0.99999994,0,0,0,0,0,0,0,1,0,0,0,false,false,true,-293.72998,-3150,16.99,-0.0045828796,-0.0013999497,0.95599765,-0.2933351,-378.081,909.061,8.561,-0.00010999999,-0.00010999999,2.57671
188.625,2000,0,91.24,0.000002697398,0.000002697398,0.000002697398,0.99999994,0,0,0,0,0,0,0,1,0,0,0,false,false,true,-296.88,-3142.42,16.99,-0.0045666946,-0.0014485028,0.9527939,-0.3035798,-373.761,904.751,8.561,0,-0.00010999999,2.58721
188.63333,2000,0,91.24,0.000002697398,0.000002697398,0.000002697398,0.99999994,0,0,0,0,0,0,0,1,0,0,0,false,false,true,-299.99,-3134.88,16.99,-0.0045505106,-0.0014970559,0.9494653,-0.31383535,-369.311,900.46094,8.561,0,-0.00010999999,2.59551
188.64166,2000,0,91.24,0.000002697398,0.000002697398,0.000002697398,0.99999994,0,0,0,0,0,0,0,1,0,0,0,false,false,true,-303.07,-3127.38,16.99,-0.004534326,-0.0015456091,0.9460156,-0.3240855,-364.731,896.2009,8.561,0,-0.00010999999,2.6017098
188.65,2000,0,91.24,0.000002697398,0.000002697398,0.000002697398,0.99999994,0,0,0,0,0,0,0,1,0,0,0,false,false,true,-306.11,-3119.91,16.99,-0.004518141,-0.0015941621,0.9424475,-0.33431944,-360.031,891.99097,8.561,0,-0.00010999999,2.60581
188.65834,2000,0,91.24,0.000002697398,0.000002697398,0.000002697398,0.99999994,0,0,0,0,0,0,0,1,0,0,0,false,false,true,-309.11,-3112.48,16.99,-0.004501958,-0.0016427155,0.93876237,-0.3445319,-355.221,887.83093,8.561,0,0,2.60781
188.66667,2000,0,91.24,0.000002697398,0.000002697398,0.000002697398,0.99999994,0,0,0,0,0,0,0,1,0,0,0,false,false,true,-312.07,-3105.0798,16.99,-0.004485773,-0.0016912686,0.9349633,-0.3547119,-350.311,883.73096,8.561,0,0,2.60781
188.675,2000,0,91.24,0.000002697398,0.000002697398,0.000002697398,0.99999994,0,0,0,0,0,0,0,1,0,0,0,false,false,true,-314.99,-3097.72,16.99,-0.004469589,-0.0017398219,0.9310544,-0.3648488,-345.311,879.71094,8.561,0.00010999999,0,2.60581
188.68333,2000,0,91.24,0.000002697398,0.000002697398,0.000002697398,0.99999994,0,0,0,0,0,0,0,1,0,0,0,false,false,true,-317.87,-3090.39,16.99,-0.004448009,-0.001788375,0.9270378,-0.37493706,-340.221,875.77094,8.561,0.00010999999,0,2.6019099
188.69167,2000,0,91.24,0.000002697398,0.000002697398,0.000002697398,0.99999994,0,0,0,0,0,0,0,1,0,0,0,false,false,true,-320.71,-3083.0898,16.99,-0.0044264304,-0.0018369282,0.92291826,-0.38496608,-335.061,871.92096,8.561,0.00010999999,0,2.5961099
188.7,2000,0,91.24,0.000002697398,0.000002697398,0.000002697398,0.99999994,0,0,0,0,0,0,0,1,0,0,0,false,false,true,-323.5,-3075.8198,16.99,-0.0044048512,-0.0018854814,0.9187009,-0.3949249,-329.831,868.17096,8.561,0.00021,0,2.58841
188.70833,2000,0,91.24,0.000002697398,0.000002697398,0.000002697398,0.99999994,0,0,0,0,0,0,0,1,0,0,0,false,false,true,-326.25,-3068.5798,16.99,-0.0043832716,-0.0019340344,0.914389,-0.40480813,-324.541,864.53094,8.561,0.00021,0,2.57881
188.71666,2000,0,91.24,0.000002697398,0.000002697398,0.000002697398,0.99999994,0,0,0,0,0,0,0,1,0,0,0,false,false,true,-328.94998,-3061.38,16.99,-0.0043616924,-0.0019825874,0.90998626,-0.41461056,-319.211,861.001,8.561,0.00021,0,2.56741
188.725,2000,0,91.24,0.000002697398,0.000002697398,0.000002697398,0.99999994,0,0,0,0,0,0,0,1,0,0,0,false,false,true,-331.61,-3054.2,16.99,-0.004340113,-0.0020311407,0.905499,-0.4243212,-313.841,857.59094,8.561,0.00021,0,2.55421
188.73334,2000,0,91.24,0.000002697398,0.000002697398,0.000002697398,0.99999994,0,0,0,0,0,0,0,1,0,0,0,false,false,true,-334.22998,-3047.05,16.99,-0.0043185344,-0.002079694,0.9009315,-0.43393484,-308.451,854.30096,8.561,0.00021,0,2.53931
188.74167,2000,0,91.24,0.000002697398,0.000002697398,0.000002697398,0.99999994,0,0,0,0,0,0,0,1,0,0,0,false,false,true,-336.8,-3039.93,16.99,-0.004296955,-0.002128247,0.89629096,-0.44344044,-303.051,851.131,8.561,0.00021,0.00010999999,2.52261
188.75,2000,0,91.24,0.000002697398,0.000002697398,0.000002697398,0.99999994,0,0,0,0,0,0,0,1,0,0,0,false,false,true,-339.33,-3032.8398,16.99,-0.0042753764,-0.0021768005,0.89157975,-0.45283824,-297.641,848.09094,8.561,0.00021,0.00010999999,2.50431
188.75833,2000,0,91.24,0.000002697398,0.000002697398,0.000002697398,0.99999994,0,0,0,0,0,0,0,1,0,0,0,false,false,true,-341.81,-3025.77,16.99,-0.0042537972,-0.0022199587,0.8868058,-0.46211734,-292.241,845.18097,8.561,0.00021,0.00010999999,2.48431
188.76666,2000,0,91.24,0.000002697398,0.000002697398,0.000002697398,0.99999994,0,0,0,0,0,0,0,1,0,0,0,false,false,true,-344.25,-3018.73,16.99,-0.0042322176,-0.0022631169,0.88197464,-0.4712723,-286.861,842.40094,8.561,0.00021,0.00021,2.46271
188.775,2000,0,91.24,0.000002697398,0.000002697398,0.000002697398,0.99999994,0,0,0,0,0,0,0,1,0,0,0,false,false,true,-346.63998,-3011.71,16.99,-0.0042106383,-0.0023062753,0.87709224,-0.48029786,-281.511,839.761,8.561,0.00021,0.00030999997,2.4395099
188.78334,2000,0,91.24,0.000002697398,0.000002697398,0.000002697398,0.99999994,0,0,0,0,0,0,0,1,0,0,0,false,false,true,-348.99,-3004.71,16.99,-0.004183665,-0.002349434,0.87216485,-0.48918852,-276.201,837.251,8.561,0.00021,0.00040999998,2.41471
188.79167,2000,0,91.24,0.000002697398,0.000002697398,0.000002697398,0.99999994,0,0,0,0,0,0,0,1,0,0,0,false,false,true,-351.28998,-2997.73,16.99,-0.00415669,-0.002392592,0.86719877,-0.4979389,-270.941,834.871,8.561,0.00021,0.00040999998,2.38831
188.8,2000,0,91.24,0.000002697398,0.000002697398,0.000002697398,0.99999994,0,0,0,0,0,0,0,1,0,0,0,false,false,true,-353.55,-2990.77,16.99,-0.004129716,-0.0024357503,0.8622009,-0.5065436,-265.741,832.621,8.561,0.00021,0.00040999998,2.36041
188.80833,2000,0,91.24,0.000002697398,0.000002697398,0.000002697398,0.99999994,0,0,0,0,0,0,0,1,0,0,0,false,false,true,-355.75998,-2983.8298,16.99,-0.0041027423,-0.0024789087,0.85717833,-0.51499724,-260.611,830.501,8.561,0.00021,0.00040999998,2.33111
188.81667,2000,0,91.24,0.000002697398,0.000002697398,0.000002697398,0.99999994,0,0,0,0,0,0,0,1,0,0,0,false,false,true,-357.93,-2976.91,16.99,-0.0040757684,-0.0025220672,0.852135,-0.52329993,-255.561,828.511,8.561,0.00021,0.00040999998,2.30031
188.825,2000,0,91.24,0.000002697398,0.000002697398,0.000002697398,0.99999994,0,0,0,0,0,0,0,1,0,0,0,false,false,true,-360.06,-2970.01,16.99,-0.0040487945,-0.0025652256,0.84708184,-0.5314407,-250.591,826.6409,8.561,0.00021,0.00030999997,2.26811
188.83333,2000,0,91.24,0.000002697398,0.000002697398,0.000002697398,0.99999994,0,0,0,0,0,0,0,1,0,0,0,false,false,true,-362.15,-2963.1199,16.99,-0.00402182,-0.002602989,0.8420234,-0.5394196,-245.72101,824.8909,8.551001,0.00021,0.00030999997,2.23451
188.84166,2000,0,91.24,0.000002697398,0.000002697398,0.000002697398,0.99999994,0,0,0,0,0,0,0,1,0,0,0,false,false,true,-364.19998,-2956.25,16.99,-0.0039948463,-0.0026407526,0.8369641,-0.54723674,-240.951,823.261,8.551001,0.00021,0.00021,2.19961
188.85,2000,0,91.24,0.000002697398,0.000002697398,0.000002697398,0.99999994,0,0,0,0,0,0,0,1,0,0,0,false,false,true,-366.21,-2949.39,16.99,-0.003967872,-0.002678516,0.83191216,-0.55488646,-236.291,821.74097,8.551001,0.00021,0.00021,2.16331
188.85834,2000,0,91.24,0.000002697398,0.000002697398,0.000002697398,0.99999994,0,0,0,0,0,0,0,1,0,0,0,false,false,true,-368.18,-2942.54,16.99,-0.0039408985,-0.0027162798,0.82687604,-0.56236374,-231.751,820.33093,8.551001,0.00021,0.00021,2.12581
188.86667,2000,0,91.24,0.000002697398,0.000002697398,0.000002697398,0.99999994,0,0,0,0,0,0,0,1,0,0,0,false,false,true,-370.11,-2935.7,16.99,-0.0039139246,-0.0027540433,0.82186437,-0.569663,-227.33101,819.03094,8.551001,0.00021,0.00021,2.08701
188.875,2000,0,91.24,0.000002697398,0.000002697398,0.000002697398,0.99999994,0,0,0,0,0,0,0,1,0,0,0,false,false,true,-372,-2928.8699,16.99,-0.0038869507,-0.002791807,0.81687874,-0.5767895,-223.031,817.83093,8.551001,0.00021,0.00010999999,2.04701
188.88333,2000,0,91.24,0.000002697398,0.000002697398,0.000002697398,0.99999994,0,0,0,0,0,0,0,1,0,0,0,false,false,true,-373.86,-2922.05,16.99,-0.0038653715,-0.0028241756,0.81192786,-0.583738,-218.871,816.72095,8.551001,0.00021,0,2.00581
188.89166,2000,0,91.24,0.000002697398,0.000002697398,0.000002697398,0.99999994,0,0,0,0,0,0,0,1,0,0,0,false,false,true,-375.68,-2915.24,16.99,-0.0038437922,-0.0028565445,0.807021,-0.59050316,-214.841,815.701,8.551001,0.00021,0,1.9635099
188.9,2000,0,91.24,0.000002697398,0.000002697398,0.000002697398,0.99999994,0,0,0,0,0,0,0,1,0,0,0,false,false,true,-377.47,-2908.44,16.99,-0.003822213,-0.0028889133,0.8021637,-0.5970848,-210.951,814.761,8.551001,0.00021,0,1.92011
188.90834,2000,0,91.24,0.000002697398,0.000002697398,0.000002697398,0.99999994,0,0,0,0,0,0,0,1,0,0,0,false,false,true,-379.22998,-2901.65,16.99,-0.0038006334,-0.0029212818,0.7973613,-0.60348296,-207.211,813.90094,8.551001,0.00021,0.00010999999,1.87561
188.91667,2000,0,91.24,0.000002697398,0.000002697398,0.000002697398,0.99999994,0,0,0,0,0,0,0,1,0,0,0,false,false,true,-380.96,-2894.8699,16.99,-0.0037790546,-0.002953651,0.7926193,-0.6096979,-203.61101,813.11096,8.551001,0.00010999999,0.00010999999,1.83011
188.925,2000,0,91.24,0.000002697398,0.000002697398,0.000002697398,0.99999994,0,0,0,0,0,0,0,1,0,0,0,false,false,true,-382.66,-2888.0898,16.99,-0.0037574756,-0.0029806248,0.7879473,-0.6157239,-200.161,812.381,8.551001,0.00010999999,0.00010999999,1.78361
188.93333,2000,0,91.24,0.000002697398,0.000002697398,0.000002697398,0.99999994,0,0,0,0,0,0,0,1,0,0,0,false,false,true,-384.33,-2881.3198,16.99,-0.0037358964,-0.003007599,0.7833509,-0.6215611,-196.86101,811.71094,8.551001,0.00010999999,0.00021,1.73621
188.94167,2000,0,91.24,0.000002697398,0.000002697398,0.000002697398,0.99999994,0,0,0,0,0,0,0,1,0,0,0,false,false,true,-385.97,-2874.5598,16.99,-0.0037143168,-0.0030345726,0.7788357,-0.6272094,-193.711,811.10095,8.551001,0.00010999999,0.00030999997,1.68791
188.95,2000,0,91.24,0.000002697398,0.000002697398,0.000002697398,0.99999994,0,0,0,0,0,0,0,1,0,0,0,false,false,true,-387.58,-2867.8,16.99,-0.003692738,-0.0030615467,0.7744073,-0.63266903,-190.711,810.54095,8.541,0.00010999999,0.00030999997,1.63871
188.95833,2000,0,91.24,0.000002697398,0.000002697398,0.000002697398,0.99999994,0,0,0,0,0,0,0,1,0,0,0,false,false,true,-389.16998,-2861.05,16.99,-0.0036711588,-0.0030885208,0.77007127,-0.63793975,-187.86101,810.02094,8.541,0.00010999999,0.00030999997,1.58871
188.96666,2000,0,91.24,0.000002697398,0.000002697398,0.000002697398,0.99999994,0,0,0,0,0,0,0,1,0,0,0,false,false,true,-390.74,-2854.3,16.99,-0.0036495796,-0.0031154947,0.76583284,-0.64302164,-185.161,809.54095,8.541,0,0.00030999997,1.53801
188.975,2000,0,91.24,0.000002697398,0.000002697398,0.000002697398,0.99999994,0,0,0,0,0,0,0,1,0,0,0,false,false,true,-392.28,-2847.55,16.99,-0.0036280004,-0.003137074,0.76169765,-0.64791477,-182.61101,809.10095,8.541,0,0.00030999997,1.48671
188.98334,2000,0,91.24,0.000002697398,0.000002697398,0.000002697398,0.99999994,0,0,0,0,0,0,0,1,0,0,0,false,false,true,-393.8,-2840.8098,16.99,-0.0036064212,-0.0031586532,0.75767094,-0.65261906,-180.201,808.691,8.541,0,0.00030999997,1.4348099
188.99167,2000,0,91.24,0.000002697398,0.000002697398,0.000002697398,0.99999994,0,0,0,0,0,0,0,1,0,0,0,false,false,true,-395.3,-2834.0698,16.99,-0.0035848422,-0.0031802326,0.753758,-0.6571346,-177.921,808.311,8.541,0,0.00030999997,1.38251
189,2000,0,91.24,0.000002697398,0.000002697398,0.000002697398,0.99999994,0,0,0,0,0,0,0,1,0,0,0,false,false,true,-396.78,-2827.3298,16.99,-0.0035632628,-0.0032018116,0.74995923,-0.66146654,-175.781,807.951,8.541,0,0.00030999997,1.3299099
189.00833,2000,0,91.24,0.000002697398,0.000002697398,0.000002697398,0.99999994,0,0,0,0,0,0,0,1,0,0,0,false,false,true,-398.24,-2820.5999,16.99,-0.0035470785,-0.0032233908,0.7462844,-0.6656098,-173.761,807.61096,8.541,0,0.00030999997,1.27711
189.01666,2000,0,91.24,0.000002697398,0.000002697398,0.000002697398,0.99999994,0,0,0,0,0,0,0,1,0,0,0,false,false,true,-399.69,-2813.8699,16.99,-0.0035308942,-0.0032449698,0.7427337,-0.6695696,-171.871,807.29095,8.541,0,0.00030999997,1.22421
189.025,2000,0,91.24,0.000002697398,0.000002697398,0.000002697398,0.99999994,0,0,0,0,0,0,0,1,0,0,0,false,false,true,-401.12,-2807.14,16.99,-0.0035147096,-0.0032611543,0.739307,-0.67335135,-170.091,806.98096,8.541,0,0.00030999997,1.1712099
189.03334,2000,0,91.24,0.000002697398,0.000002697398,0.000002697398,0.99999994,0,0,0,0,0,0,0,1,0,0,0,false,false,true,-402.53998,-2800.41,16.99,-0.0034985254,-0.0032773386,0.7360136,-0.6769497,-168.421,806.68097,8.541,0,0.00030999997,1.11831
189.04167,2000,0,91.24,0.000002697398,0.000002697398,0.000002697398,0.99999994,0,0,0,0,0,0,0,1,0,0,0,false,false,true,-403.94,-2793.69,16.99,-0.0034823408,-0.003293523,0.732853,-0.68037003,-166.86101,806.3909,8.541,0,0.00030999997,1.06551
189.05,2000,0,91.24,0.000002697398,0.000002697398,0.000002697398,0.99999994,0,0,0,0,0,0,0,1,0,0,0,false,false,true,-405.33,-2786.97,16.99,-0.0034661568,-0.0033097076,0.7298245,-0.6836177,-165.401,806.11096,8.541,0,0.00030999997,1.01281
189.05833,2000,0,91.24,0.000002697398,0.000002697398,0.000002697398,0.99999994,0,0,0,0,0,0,0,1,0,0,0,false,false,true,-406.71,-2780.25,16.99,-0.0034499725,-0.0033258921,0.72693187,-0.6866928,-164.041,805.84094,8.541,0,0.00030999997,0.96041
189.06667,2000,0,91.24,0.000002697398,0.000002697398,0.000002697398,0.99999994,0,0,0,0,0,0,0,1,0,0,0,false,false,true,-408.08,-2773.53,16.99,-0.0034337877,-0.0033420762,0.72417915,-0.6895951,-162.771,805.58093,8.541,0,0.00021,0.90821
189.075,2000,0,91.24,0.000002697398,0.000002697398,0.000002697398,0.99999994,0,0,0,0,0,0,0,1,0,0,0,false,false,true,-409.44,-2766.8198,16.99,-0.0034229981,-0.0033582605,0.72156465,-0.6923303,-161.591,805.321,8.541,0,0.00010999999,0.85640997
189.08333,2000,0,91.24,0.000002697398,0.000002697398,0.000002697398,0.99999994,0,0,0,0,0,0,0,1,0,0,0,false,false,true,-410.78998,-2760.1099,16.99,-0.003412208,-0.0033690496,0.71909195,-0.6948982,-160.491,805.061,8.541,0,0.00010999999,0.80491
189.09166,2000,0,91.24,0.000002697398,0.000002697398,0.000002697398,0.99999994,0,0,0,0,0,0,0,1,0,0,0,false,false,true,-412.13,-2753.4,16.99,-0.0034014184,-0.0033798392,0.716759,-0.69730425,-159.47101,804.80096,8.541,0,0.00010999999,0.75381
189.1,2000,0,91.24,0.000002697398,0.000002697398,0.000002697398,0.99999994,0,0,0,0,0,0,0,1,0,0,0,false,false,true,-413.46,-2746.69,16.99,-0.0033906293,-0.0033906293,0.71456355,-0.69955397,-158.521,804.55096,8.541,0,0.00010999999,0.70311
189.10834,2000,0,91.24,0.000002697398,0.000002697398,0.000002697398,0.99999994,0,0,0,0,0,0,0,1,0,0,0,false,false,true,-414.78,-2739.99,16.99,-0.00337984,-0.0034014191,0.7125136,-0.70164186,-157.641,804.30096,8.541,0,0.00010999999,0.65291
189.11667,2000,0,91.24,0.000002697398,0.000002697398,0.000002697398,0.99999994,0,0,0,0,0,0,0,1,0,0,0,false,false,true,-416.09,-2733.29,16.99,-0.0033690496,-0.003412208,0.7106012,-0.7035785,-156.83101,804.05096,8.541,0,0.00010999999,0.60321
189.125,2000,0,91.24,0.000002697398,0.000002697398,0.000002697398,0.99999994,0,0,0,0,0,0,0,1,0,0,0,false,false,true,-417.4,-2726.5898,16.99,-0.0033582605,-0.0034229981,0.70882875,-0.70536417,-156.08101,803.80096,8.541,0,0,0.55391
189.13333,2000,0,91.24,0.000002697398,0.000002697398,0.000002697398,0.99999994,0,0,0,0,0,0,0,1,0,0,0,false,false,true,-418.69998,-2719.89,16.99,-0.003352866,-0.0034283933,0.7071984,-0.7069989,-155.381,803.55096,8.541,0,0,0.50511
189.14166,2000,0,91.24,0.000002697398,0.000002697398,0.000002697398,0.99999994,0,0,0,0,0,0,0,1,0,0,0,false,false,true,-419.99,-2713.19,16.99,0.003347471,0.0034337877,-0.70570946,0.708485,-154.731,803.30096,8.541,0,0,0.45691
189.15,2000,0,91.24,0.000002697398,0.000002697398,0.000002697398,0.99999994,0,0,0,0,0,0,0,1,0,0,0,false,false,true,-421.28,-2706.5,16.99,0.0033420762,0.0034391826,-0.7043608,0.7098259,-154.131,803.05096,8.541,0,0,0.40921
189.15834,2000,0,91.24,0.000002697398,0.000002697398,0.000002697398,0.99999994,0,0,0,0,0,0,0,1,0,0,0,false,false,true,-422.56,-2699.81,16.99,0.0033366815,0.0034445773,-0.70314693,0.7110283,-153.571,802.80096,8.541,0,0,0.36201
189.16667,2000,0,91.24,0.000002697398,0.000002697398,0.000002697398,0.99999994,0,0,0,0,0,0,0,1,0,0,0,false,false,true,-423.84,-2693.1199,16.99,0.0033312866,0.0034499723,-0.70207334,0.7120884,-153.041,802.55096,8.541,0,0,0.31541002
189.175,2000,0,91.24,0.000002697398,0.000002697398,0.000002697398,0.99999994,0,0,0,0,0,0,0,1,0,0,0,false,false,true,-425.12,-2686.43,16.99,0.003325892,0.003455367,-0.7011346,0.7130127,-152.55101,802.30096,8.541,0,0,0.26931
189.18333,2000,0,91.24,0.000002697398,0.000002697398,0.000002697398,0.99999994,0,0,0,0,0,0,0,1,0,0,0,false,false,true,-426.38998,-2679.74,16.99,0.003320497,0.0034607616,-0.7003362,0.7137969,-152.091,802.05096,8.541,0,0,0.22370999
189.19167,2000,0,91.24,0.000002697398,0.000002697398,0.000002697398,0.99999994,0,0,0,0,0,0,0,1,0,0,0,false,false,true,-427.66,-2673.06,16.99,0.0033151023,0.0034661565,-0.69967264,0.7144474,-151.651,801.80096,8.541,0,0,0.17871
189.2,2000,0,91.24,0.000002697398,0.000002697398,0.000002697398,0.99999994,0,0,0,0,0,0,0,1,0,0,0,false,false,true,-428.91998,-2666.38,16.99,0.0033151023,0.0034661565,-0.6991386,0.71497,-151.231,801.55096,8.541,0,0,0.13420999
189.20833,2000,0,91.24,0.000002697398,0.000002697398,0.000002697398,0.99999994,0,0,0,0,0,0,0,1,0,0,0,false,false,true,-430.18,-2659.7,16.99,0.0033151025,0.0034661568,-0.6987394,0.71536016,-150.83101,801.30096,8.541,0,0,0.09031
189.21666,2000,0,91.24,0.000002697398,0.000002697398,0.000002697398,0.99999994,0,0,0,0,0,0,0,1,0,0,0,false,false,true,-431.44,-2653.02,16.99,0.0033151023,0.0034661565,-0.6984696,0.71562356,-150.44101,801.05096,8.541,0,0,0.04691
189.225,2000,0,91.24,0.000002697398,0.000002697398,0.000002697398,0.99999994,0,0,0,0,0,0,0,1,0,0,0,false,false,true,-432.69,-2646.3398,16.99,0.0033151023,0.0034661565,-0.6983293,0.7157604,-150.061,800.811,8.541,0,0,0.00411
189.23334,2000,0,91.24,0.000002697398,0.000002697398,0.000002697398,0.99999994,0,0,0,0,0,0,0,1,0,0,0,false,false,true,-433.94,-2639.67,16.99,0.0033151023,0.0034661565,-0.69831854,0.71577096,-149.681,800.571,8.541,0,0,-0.03811
189.24167,2000,0,91.24,0.000002697398,0.000002697398,0.000002697398,0.99999994,0,0,0,0,0,0,0,1,0,0,0,false,false,true,-435.19,-2633,16.99,0.0033151025,0.0034661568,-0.6984319,0.7156604,-149.30101,800.33093,8.541,0,0,-0.07971
189.25,2000,0,91.24,0.000002697398,0.000002697398,0.000002697398,0.99999994,0,0,0,0,0,0,0,1,0,0,0,false,false,true,-436.43,-2626.3298,16.99,0.0033151023,0.0034661565,-0.6986692,0.71542865,-148.921,800.10095,8.541,0,0,-0.120809995
189.25833,2000,0,91.24,0.000002697398,0.000002697398,0.000002697398,0.99999994,0,0,0,0,0,0,0,1,0,0,0,false,false,true,-437.66998,-2619.66,16.99,0.0033151023,0.0034661565,-0.69903064,0.71507555,-148.531,799.871,8.541,0,0,-0.16130999
189.26666,2000,0,91.24,0.000002697398,0.000002697398,0.000002697398,0.99999994,0,0,0,0,0,0,0,1,0,0,0,false,false,true,-438.91,-2612.99,16.99,0.0033151023,0.0034661565,-0.6995108,0.7146058,-148.131,799.65094,8.541,0,0,-0.20131
189.275,2000,0,91.24,0.000002697398,0.000002697398,0.000002697398,0.99999994,0,0,0,0,0,0,0,1,0,0,0,false,false,true,-440.13998,-2606.3298,16.99,0.003320497,0.0034607616,-0.7001096,0.7140192,-147.72101,799.43097,8.541,0,0,-0.24080999
189.28334,2000,0,91.24,0.000002697398,0.000002697398,0.000002697398,0.99999994,0,0,0,0,0,0,0,1,0,0,0,false,false,true,-441.37,-2599.67,16.99,0.003325892,0.003455367,-0.7008271,0.71331495,-147.291,799.22095,8.541,0,0,-0.27971
189.29167,2000,0,91.24,0.000002697398,0.000002697398,0.000002697398,0.99999994,0,0,0,0,0,0,0,1,0,0,0,false,false,true,-442.59998,-2593.01,16.99,0.0033312866,0.0034499723,-0.70165795,0.71249765,-146.841,799.011,8.541,0,0,-0.31811002
189.3,2000,0,91.24,0.000002697398,0.000002697398,0.000002697398,0.99999994,0,0,0,0,0,0,0,1,0,0,0,false,false,true,-443.81998,-2586.3499,16.99,0.0033366818,0.0034445776,-0.7026021,0.71156675,-146.36101,798.811,8.541,0,0,-0.35591
189.30833,2000,0,91.24,0.000002697398,0.000002697398,0.000002697398,0.99999994,0,0,0,0,0,0,0,1,0,0,0,false,false,true,-445.03998,-2579.69,16.99,0.0033420762,0.0034391826,-0.70365405,0.71052647,-145.86101,798.61096,8.541,0,0,-0.39321
189.31667,2000,0,91.24,0.000002697398,0.000002697398,0.000002697398,0.99999994,0,0,0,0,0,0,0,1,0,0,0,false,false,true,-446.25998,-2573.03,16.99,0.003347471,0.0034337877,-0.7048193,0.7093705,-145.33101,798.42096,8.541,0,0,-0.43001
189.325,2000,0,91.24,0.000002697398,0.000002697398,0.000002697398,0.99999994,0,0,0,0,0,0,0,1,0,0,0,false,false,true,-447.47,-2566.38,16.99,0.0033528658,0.003428393,-0.7060871,0.7081086,-144.761,798.24097,8.541,0,0,-0.46621
189.33333,2000,0,91.24,0.000002697398,0.000002697398,0.000002697398,0.99999994,0,0,0,0,0,0,0,1,0,0,0,false,false,true,-448.68,-2559.73,16.99,-0.00335826,-0.0034229977,0.7074625,-0.7067344,-144.16101,798.061,8.541,0,0,-0.50191
189.34166,2000,0,91.24,0.000002697398,0.000002697398,0.000002697398,0.99999994,0,0,0,0,0,0,0,1,0,0,0,false,false,true,-449.88,-2553.0798,16.99,-0.0033636554,-0.0034176034,0.70894146,-0.7052509,-143.52101,797.8909,8.541,0,0,-0.53701
189.35,2000,0,91.24,0.000002697398,0.000002697398,0.000002697398,0.99999994,0,0,0,0,0,0,0,1,0,0,0,false,false,true,-451.08,-2546.43,16.99,-0.0033690496,-0.003412208,0.71051574,-0.7036648,-142.83101,797.73096,8.541,0,0,-0.57151
189.35834,2000,0,91.24,0.000002697398,0.000002697398,0.000002697398,0.99999994,0,0,0,0,0,0,0,1,0,0,0,false,false,true,-452.27,-2539.78,16.99,-0.00337984,-0.003406814,0.7121894,-0.70197093,-142.101,797.571,8.541,0,-0.00010999999,-0.60551
189.36667,2000,0,91.24,0.000002697398,0.000002697398,0.000002697398,0.99999994,0,0,0,0,0,0,0,1,0,0,0,false,false,true,-453.44998,-2533.13,16.99,-0.0033906293,-0.0033960242,0.7139557,-0.70017433,-141.321,797.42096,8.541,0,-0.00010999999,-0.63891
189.375,2000,0,91.24,0.000002697398,0.000002697398,0.000002697398,0.99999994,0,0,0,0,0,0,0,1,0,0,0,false,false,true,-454.63,-2526.48,16.99,-0.003401419,-0.0033852346,0.71581835,-0.69826996,-140.491,797.27094,8.541,0,-0.00010999999,-0.67171
189.38333,2000,0,91.24,0.000002697398,0.000002697398,0.000002697398,0.99999994,0,0,0,0,0,0,0,1,0,0,0,false,false,true,-455.8,-2519.8398,16.99,-0.0034122085,-0.003374445,0.71777046,-0.69626313,-139.61101,797.131,8.541,0,-0.00010999999,-0.70391
189.39166,2000,0,91.24,0.000002697398,0.000002697398,0.000002697398,0.99999994,0,0,0,0,0,0,0,1,0,0,0,false,false,true,-456.96,-2513.2,16.99,-0.0034229984,-0.0033636556,0.71981066,-0.69415385,-138.671,796.99097,8.541,0,-0.00010999999,-0.73551
189.4,2000,0,91.24,0.000002697398,0.000002697398,0.000002697398,0.99999994,0,0,0,0,0,0,0,1,0,0,0,false,false,true,-458.12,-2506.56,16.99,-0.0034337877,-0.0033528658,0.7219371,-0.6919419,-137.671,796.85095,8.541,0,-0.00010999999,-0.76651
189.40834,2000,0,91.24,0.000002697398,0.000002697398,0.000002697398,0.99999994,0,0,0,0,0,0,0,1,0,0,0,false,false,true,-459.27,-2499.92,16.99,-0.0034445773,-0.0033420762,0.72414315,-0.6896329,-136.61101,796.72095,8.541,0,-0.00010999999,-0.79691
189.41667,2000,0,91.24,0.000002697398,0.000002697398,0.000002697398,0.99999994,0,0,0,0,0,0,0,1,0,0,0,false,false,true,-460.41,-2493.28,16.99,-0.0034553672,-0.0033312868,0.726427,-0.68722683,-135.491,796.59094,8.541,0,-0.00010999999,-0.82671
189.425,2000,0,91.24,0.000002697398,0.000002697398,0.000002697398,0.99999994,0,0,0,0,0,0,0,1,0,0,0,false,false,true,-461.53998,-2486.64,16.99,-0.0034661565,-0.003320497,0.72879195,-0.6847182,-134.311,796.46094,8.541,0,-0.00010999999,-0.85581
189.43333,2000,0,91.24,0.000002697398,0.000002697398,0.000002697398,0.99999994,0,0,0,0,0,0,0,1,0,0,0,false,false,true,-462.66,-2480,16.99,-0.0034769464,-0.0033097076,0.7312314,-0.6821126,-133.061,796.33093,8.541,0,-0.00010999999,-0.88431
189.44167,2000,0,91.24,0.000002697398,0.000002697398,0.000002697398,0.99999994,0,0,0,0,0,0,0,1,0,0,0,false,false,true,-463.77,-2473.3599,16.99,-0.0034877358,-0.0032989178,0.73373824,-0.6794151,-131.741,796.201,8.541,0,-0.00021,-0.91211
189.45,2000,0,91.24,0.000002697398,0.000002697398,0.000002697398,0.99999994,0,0,0,0,0,0,0,1,0,0,0,false,false,true,-464.87,-2466.72,16.99,-0.0034985254,-0.0032827335,0.7363161,-0.6766206,-130.351,796.071,8.541,0,-0.00021,-0.93921
189.45833,2000,0,91.24,0.000002697398,0.000002697398,0.000002697398,0.99999994,0,0,0,0,0,0,0,1,0,0,0,false,false,true,-465.96,-2460.0898,16.99,-0.003509315,-0.003266549,0.73895794,-0.67373437,-128.891,795.93097,8.541,0,-0.00021,-0.96560997
189.46666,2000,0,91.24,0.000002697398,0.000002697398,0.000002697398,0.99999994,0,0,0,0,0,0,0,1,0,0,0,false,false,true,-467.03,-2453.46,16.99,-0.0035254993,-0.0032503647,0.741662,-0.67075646,-127.361,795.79095,8.541,0,-0.00030999997,-0.99131
189.475,2000,0,91.24,0.000002697398,0.000002697398,0.000002697398,0.99999994,0,0,0,0,0,0,0,1,0,0,0,false,false,true,-468.09,-2446.8298,16.99,-0.0035416838,-0.0032341804,0.7444268,-0.66768676,-125.751,795.6409,8.541,0,-0.00030999997,-1.01631
189.48334,2000,0,91.24,0.000002697398,0.000002697398,0.000002697398,0.99999994,0,0,0,0,0,0,0,1,0,0,0,false,false,true,-469.13998,-2440.2,16.99,-0.003557868,-0.0032179959,0.7472454,-0.6645308,-124.071,795.48096,8.541,0,-0.00030999997,-1.04071
189.49167,2000,0,91.24,0.000002697398,0.000002697398,0.000002697398,0.99999994,0,0,0,0,0,0,0,1,0,0,0,false,false,true,-470.16998,-2433.5698,16.99,-0.003574052,-0.0032018113,0.75012094,-0.6612831,-122.311,795.311,8.541,0,-0.00030999997,-1.06441
189.5,2000,0,91.24,0.000002697398,0.000002697398,0.000002697398,0.99999994,0,0,0,0,0,0,0,1,0,0,0,false,false,true,-471.19,-2426.94,16.99,-0.003590237,-0.003185627,0.753047,-0.65794915,-120.480995,795.131,8.541,0,-0.00021,-1.08741
189.50833,2000,0,91.24,0.000002697398,0.000002697398,0.000002697398,0.99999994,0,0,0,0,0,0,0,1,0,0,0,false,false,true,-472.19,-2420.31,16.99,-0.0036064214,-0.003169443,0.75602174,-0.65452886,-118.58099,794.941,8.541,0,-0.00021,-1.10981
189.51666,2000,0,91.24,0.000002697398,0.000002697398,0.000002697398,0.99999994,0,0,0,0,0,0,0,1,0,0,0,false,false,true,-473.18,-2413.69,16.99,-0.0036226057,-0.0031532582,0.75903875,-0.65102756,-116.601,794.73096,8.541,0,-0.00021,-1.13161
189.525,2000,0,91.24,0.000002697398,0.000002697398,0.000002697398,0.99999994,0,0,0,0,0,0,0,1,0,0,0,false,false,true,-474.15,-2407.0698,16.99,-0.00363879,-0.003137074,0.7621011,-0.6474401,-114.550995,794.511,8.541,0,-0.00021,-1.15271
189.53334,2000,0,91.24,0.000002697398,0.000002697398,0.000002697398,0.99999994,0,0,0,0,0,0,0,1,0,0,0,false,false,true,-475.09998,-2400.45,16.99,-0.003654974,-0.0031208894,0.7652025,-0.64377147,-112.431,794.27094,8.541,0,-0.00021,-1.17321
189.54167,2000,0,91.24,0.000002697398,0.000002697398,0.000002697398,0.99999994,0,0,0,0,0,0,0,1,0,0,0,false,false,true,-476.03998,-2393.8298,16.99,-0.0036711588,-0.0031047051,0.7683413,-0.64002216,-110.230995,794.011,8.541,-0.00010999999,-0.00021,-1.19311
189.55,2000,0,91.24,0.000002697398,0.000002697398,0.000002697398,0.99999994,0,0,0,0,0,0,0,1,0,0,0,false,false,true,-476.96,-2387.21,16.99,-0.003687343,-0.003083126,0.77151585,-0.63619184,-107.961,793.73096,8.541,-0.00010999999,-0.00021,-1.21241
189.55833,2000,0,91.24,0.000002697398,0.000002697398,0.000002697398,0.99999994,0,0,0,0,0,0,0,1,0,0,0,false,false,true,-477.86,-2380.5999,16.99,-0.0037035276,-0.0030615467,0.77472013,-0.63228595,-105.620995,793.42096,8.541,-0.00010999999,-0.00021,-1.23121
189.56667,2000,0,91.24,0.000002697398,0.000002697398,0.000002697398,0.99999994,0,0,0,0,0,0,0,1,0,0,0,false,false,true,-478.74,-2373.99,16.99,-0.003719712,-0.0030399675,0.7779525,-0.6283046,-103.211,793.09094,8.541,-0.00010999999,-0.00010999999,-1.24941
189.575,2000,0,91.24,0.000002697398,0.000002697398,0.000002697398,0.99999994,0,0,0,0,0,0,0,1,0,0,0,false,false,true,-479.59998,-2367.38,16.99,-0.0037358967,-0.0030183888,0.7812117,-0.6242477,-100.730995,792.73096,8.541,-0.00010999999,-0.00010999999,-1.26711
189.58333,2000,0,91.24,0.000002697398,0.000002697398,0.000002697398,0.99999994,0,0,0,0,0,0,0,1,0,0,0,false,false,true,-480.44,-2360.77,16.99,-0.0037520807,-0.0029968093,0.7844959,-0.6201153,-98.181,792.34094,8.541,-0.00010999999,-0.00010999999,-1.28421
189.59166,2000,0,91.24,0.000002697398,0.000002697398,0.000002697398,0.99999994,0,0,0,0,0,0,0,1,0,0,0,false,false,true,-481.25998,-2354.17,16.99,-0.0037682652,-0.00297523,0.7878039,-0.6159073,-95.561,791.92096,8.541,-0.00010999999,-0.00010999999,-1.30081
189.6,2000,0,91.24,0.000002697398,0.000002697398,0.000002697398,0.99999994,0,0,0,0,0,0,0,1,0,0,0,false,false,true,-482.06,-2347.57,16.99,-0.003784449,-0.0029536507,0.7911298,-0.6116292,-92.881,791.46094,8.541,-0.00010999999,0,-1.31681
189.60834,2000,0,91.24,0.000002697398,0.000002697398,0.000002697398,0.99999994,0,0,0,0,0,0,0,1,0,0,0,false,false,true,-482.83,-2340.97,16.99,-0.0038006338,-0.0029320717,0.7944725,-0.607281,-90.131,790.97095,8.541,0,0,-1.33231
189.61667,2000,0,91.24,0.000002697398,0.000002697398,0.000002697398,0.99999994,0,0,0,0,0,0,0,1,0,0,0,false,false,true,-483.58,-2334.38,16.99,-0.003816818,-0.0029104922,0.7978304,-0.6028626,-87.321,790.441,8.541,0,0,-1.34731
189.625,2000,0,91.24,0.000002697398,0.000002697398,0.000002697398,0.99999994,0,0,0,0,0,0,0,1,0,0,0,false,false,true,-484.31,-2327.79,16.99,-0.0038330026,-0.0028889133,0.8012023,-0.5983742,-84.440994,789.871,8.541,0,0,-1.36181
189.63333,2000,0,91.24,0.000002697398,0.000002697398,0.000002697398,0.99999994,0,0,0,0,0,0,0,1,0,0,0,false,false,true,-485.00998,-2321.21,16.99,-0.0038491872,-0.002867334,0.8045828,-0.5938209,-81.501,789.261,8.541,0,0,-1.37581
189.64166,2000,0,91.24,0.000002697398,0.000002697398,0.000002697398,0.99999994,0,0,0,0,0,0,0,1,0,0,0,false,false,true,-485.69,-2314.63,16.99,-0.0038653715,-0.0028457548,0.80797464,-0.5891976,-78.501,788.61096,8.541,0,0,-1.38931
189.65,2000,0,91.24,0.000002697398,0.000002697398,0.000002697398,0.99999994,0,0,0,0,0,0,0,1,0,0,0,false,false,true,-486.34,-2308.06,16.99,-0.0038815557,-0.0028241756,0.8113726,-0.5845095,-75.451,787.92096,8.541,0,0,-1.40241
189.65834,2000,0,91.24,0.000002697398,0.000002697398,0.000002697398,0.99999994,0,0,0,0,0,0,0,1,0,0,0,false,false,true,-486.97,-2301.49,16.99,-0.0038977403,-0.0028025967,0.81477547,-0.5797566,-72.340996,787.18097,8.541,0,0,-1.41501
189.66667,2000,0,91.24,0.000002697398,0.000002697398,0.000002697398,0.99999994,0,0,0,0,0,0,0,1,0,0,0,false,false,true,-487.56998,-2294.93,16.99,-0.0039139246,-0.0027810175,0.81817824,-0.5749445,-69.181,786.40094,8.541,0,0,-1.42711
189.675,2000,0,91.24,0.000002697398,0.000002697398,0.000002697398,0.99999994,0,0,0,0,0,0,0,1,0,0,0,false,false,true,-488.15,-2288.38,16.99,-0.0039301086,-0.0027594382,0.8215837,-0.5700676,-65.961,785.571,8.541,0,0,-1.43881
189.68333,2000,0,91.24,0.000002697398,0.000002697398,0.000002697398,0.99999994,0,0,0,0,0,0,0,1,0,0,0,false,false,true,-488.69998,-2281.8298,16.99,-0.0039462927,-0.0027378588,0.8249869,-0.56513125,-62.690998,784.691,8.541,0,0,-1.45001
189.69167,2000,0,91.24,0.000002697398,0.000002697398,0.000002697398,0.99999994,0,0,0,0,0,0,0,1,0,0,0,false,false,true,-489.22,-2275.29,16.99,-0.0039624777,-0.0027162798,0.82838684,-0.5601357,-59.371,783.761,8.541,-0.00010999999,-0.00010999999,-1.46081
189.7,2000,0,91.24,0.000002697398,0.000002697398,0.000002697398,0.99999994,0,0,0,0,0,0,0,1,0,0,0,false,false,true,-489.71,-2268.76,16.99,-0.0039786617,-0.0026893057,0.83178246,-0.5550807,-56.010998,782.78094,8.541,-0.00010999999,-0.00010999999,-1.47121
189.70833,2000,0,91.24,0.000002697398,0.000002697398,0.000002697398,0.99999994,0,0,0,0,0,0,0,1,0,0,0,false,false,true,-490.18,-2262.24,16.99,-0.0039948463,-0.0026623318,0.83516926,-0.5499719,-52.600998,781.74097,8.541,-0.00010999999,-0.00010999999,-1.48111
189.71666,2000,0,91.24,0.000002697398,0.000002697398,0.000002697398,0.99999994,0,0,0,0,0,0,0,1,0,0,0,false,false,true,-490.62,-2255.73,16.99,-0.0040110312,-0.0026353581,0.83854634,-0.5448091,-49.150997,780.65094,8.541,-0.00010999999,-0.00010999999,-1.49061
189.725,2000,0,91.24,0.000002697398,0.000002697398,0.000002697398,0.99999994,0,0,0,0,0,0,0,1,0,0,0,false,false,true,-491.03,-2249.22,16.99,-0.0040272153,-0.0026083838,0.84191275,-0.53959227,-45.661,779.501,8.541,-0.00010999999,-0.00010999999,-1.49971
189.73334,2000,0,91.24,0.000002697398,0.000002697398,0.000002697398,0.99999994,0,0,0,0,0,0,0,1,0,0,0,false,false,true,-491.41,-2242.72,16.99,-0.0040433994,-0.0025814099,0.84526765,-0.5343215,-42.130997,778.30096,8.541,-0.00010999999,-0.00010999999,-1.50841
189.74167,2000,0,91.24,0.000002697398,0.000002697398,0.000002697398,0.99999994,0,0,0,0,0,0,0,1,0,0,0,false,false,true,-491.75998,-2236.23,16.99,-0.0040595834,-0.0025544357,0.8486101,-0.52899677,-38.560997,777.04095,8.541,-0.00010999999,-0.00010999999,-1.5167099
189.75,2000,0,91.24,0.000002697398,0.000002697398,0.000002697398,0.99999994,0,0,0,0,0,0,0,1,0,0,0,false,false,true,-492.08,-2229.75,16.99,-0.004075769,-0.002527462,0.85193616,-0.52362365,-34.961,775.72095,8.541,0,-0.00010999999,-1.5246099
189.75833,2000,0,91.24,0.000002697398,0.000002697398,0.000002697398,0.99999994,0,0,0,0,0,0,0,1,0,0,0,false,false,true,-492.37,-2223.29,16.99,-0.0040919525,-0.002500488,0.8552449,-0.51820177,-31.331,774.34094,8.541,0,-0.00010999999,-1.53211
189.76666,2000,0,91.24,0.000002697398,0.000002697398,0.000002697398,0.99999994,0,0,0,0,0,0,0,1,0,0,0,false,false,true,-492.62997,-2216.8398,16.99,-0.004108137,-0.002473514,0.8585356,-0.51273143,-27.671,772.90094,8.541,0,-0.00010999999,-1.53921
189.775,2000,0,91.24,0.000002697398,0.000002697398,0.000002697398,0.99999994,0,0,0,0,0,0,0,1,0,0,0,false,false,true,-492.86,-2210.4,16.99,-0.004124321,-0.0024465397,0.86180747,-0.5072125,-23.980999,771.40094,8.541,0,-0.00010999999,-1.54591
189.78334,2000,0,91.24,0.000002697398,0.000002697398,0.000002697398,0.99999994,0,0,0,0,0,0,0,1,0,0,0,false,false,true,-493.06,-2203.97,16.99,-0.004140506,-0.002419566,0.865057,-0.5016505,-20.261,769.84094,8.541,0,-0.00010999999,-1.55221
189.79167,2000,0,91.24,0.000002697398,0.000002697398,0.000002697398,0.99999994,0,0,0,0,0,0,0,1,0,0,0,false,false,true,-493.22998,-2197.55,16.99,-0.00415669,-0.002392592,0.86828333,-0.49604532,-16.521,768.21094,8.541,0,-0.00010999999,-1.55811
189.8,2000,0,91.24,0.000002697398,0.000002697398,0.000002697398,0.99999994,0,0,0,0,0,0,0,1,0,0,0,false,false,true,-493.37,-2191.15,16.99,-0.004172875,-0.0023656182,0.87148595,-0.49039695,-12.761,766.52094,8.541,0,-0.00010999999,-1.56371
189.80833,2000,0,91.24,0.000002697398,0.000002697398,0.000002697398,0.99999994,0,0,0,0,0,0,0,1,0,0,0,false,false,true,-493.47998,-2184.76,16.99,-0.004189059,-0.0023386441,0.87466127,-0.4847108,-8.981,764.77094,8.541,0,-0.00010999999,-1.56891
