time,ball_loc_x,ball_loc_y,ball_loc_z,ball_rot_x,ball_rot_y,ball_rot_z,ball_rot_w,ball_vel_x,ball_vel_y,ball_vel_z,ball_ang_x,ball_ang_y,ball_ang_z,player0_throttle,player0_steer,player0_pitch,player0_yaw,player0_roll,player0_jump,player0_boost,player0_handbrake,player0_loc_x,player0_loc_y,player0_loc_z,player0_rot_x,player0_rot_y,player0_rot_z,player0_rot_w,player0_vel_x,player0_vel_y,player0_vel_z,player0_ang_x,player0_ang_y,player0_ang_z
75.88333,2000,0,91.24,0.000002697398,0.000002697398,0.000002697398,0.99999994,0,0,0,0,0,0,0,0,0,0,0,false,false,false,0,0.14,17.01,-0.00336905,0.0033798397,0.7071014,0.7070959,0,0.011,8.321,-0.00051,0,0
75.89167,2000,0,73,0.000002697398,0.000002697398,0.000002697398,0.99999994,0,0,0,0,0,0,0.5984252,0,0,0,0,false,false,false,0,0,16.94,0.0000026973983,0.0000026973983,0.70710677,0.70710677,0,0,2.041,-0.050809998,0,0
75.9,2000,0,87.6,0.000002697398,0.000002697398,0.000002697398,0.99999994,0,0,0,0,0,0,0.5984252,0,0,0,0,false,false,false,0,0,16.89,-0.00014835689,0.00015375168,0.7071067,0.7071067,0,7.9709997,3.8809998,-0.085609995,0,0
75.90833,2000,0,90.52,0.000002697398,0.000002697398,0.000002697398,0.99999994,0,0,0,0,0,0,0.5984252,0,0,0,0,false,false,false,0,0.07,16.85,-0.00040191234,0.00040730715,0.70710653,0.70710677,0,15.901,5.481,-0.107209995,0,0
75.916664,2000,0,91.1,0.000002697398,0.000002697398,0.000002697398,0.99999994,0,0,0,0,0,0,0.5984252,0,0,0,0,false,false,false,0,0.19999999,16.83,-0.00072020525,0.00072560005,0.7071067,0.707106,0,23.790998,6.791,-0.11630999,0,0
75.925,2000,0,91.22,0.000002697398,0.000002697398,0.000002697398,0.99999994,0,0,0,0,0,0,0.5984252,0,0,0,0,false,false,false,0,0.39999998,16.82,-0.0010654721,0.001070867,0.70710516,0.7071067,0,31.640999,7.7409997,-0.114609994,0,0
75.933334,2000,0,91.24,0.000002697398,0.000002697398,0.000002697398,0.99999994,0,0,0,0,0,0,0.5984252,0,0,0,0,false,false,false,0,0.65999997,16.82,-0.0014053443,0.0014107391,0.7071067,0.70710397,0,39.451,8.431,-0.10660999,0,0
75.941666,2000,0,91.24,0.000002697398,0.000002697398,0.000002697398,0.99999994,0,0,0,0,0,0,0.5984252,0,0,0,0,false,false,false,0,0.98999995,16.82,-0.0017182427,0.0017236375,0.707108,0.70710135,0,47.220997,8.9210005,-0.09511,0,0
75.95,2000,0,91.24,0.000002697398,0.000002697398,0.000002697398,0.99999994,0,0,0,0,0,0,0.5984252,0,0,0,0,false,false,false,0,1.38,16.83,-0.001998772,0.0020041666,0.70710653,0.7071013,0,54.950996,9.281,-0.08231,0,0
75.958336,2000,0,91.24,0.000002697398,0.000002697398,0.000002697398,0.99999994,0,0,0,0,0,0,0.5984252,0,0,0,0,false,false,false,0,1.8399999,16.84,-0.0022415377,0.0022469326,0.70710504,0.7071013,0,62.641,9.521,-0.069409996,0,0
75.96667,2000,0,91.24,0.000002697398,0.000002697398,0.000002697398,0.99999994,0,0,0,0,0,0,0.5984252,0,0,0,0,false,false,false,0,2.36,16.85,-0.00244654,0.0024519349,0.70710367,0.7071013,0,70.291,9.6710005,-0.057309996,0,0
75.975,2000,0,91.24,0.000002697398,0.000002697398,0.000002697398,0.99999994,0,0,0,0,0,0,0.5984252,0,0,0,0,false,false,false,0,2.95,16.859999,-0.0026137787,0.0026191734,0.7071025,0.7071013,0,77.901,9.771,-0.046409998,0,0
75.98333,2000,0,91.24,0.000002697398,0.000002697398,0.000002697398,0.99999994,0,0,0,0,0,0,0.5984252,0,0,0,0,false,false,false,0,3.6,16.869999,-0.0027486486,0.0027540433,0.70710146,0.7071013,0,85.480995,9.821,-0.036909997,0,0
75.99167,2000,0,91.24,0.000002697398,0.000002697398,0.000002697398,0.99999994,0,0,0,0,0,0,0.5984252,0,0,0,0,false,false,false,0,4.31,16.88,-0.0028565445,0.0028619394,0.70710063,0.7071013,0,93.020996,9.841001,-0.02881,0,0
76,2000,0,91.24,0.000002697398,0.000002697398,0.000002697398,0.99999994,0,0,0,0,0,0,0.5984252,0,0,0,0,false,false,false,0,5.0899997,16.89,-0.0029428613,0.002948256,0.7071013,0.7070999,0,100.520996,9.821,-0.02261,0,0
76.00833,2000,0,91.24,0.000002697398,0.000002697398,0.000002697398,0.99999994,0,0,0,0,0,0,0.5984252,0,0,0,0,false,false,false,0,5.93,16.9,-0.003007599,0.0030129936,0.7070993,0.7071013,0,107.980995,9.761001,-0.01811,0,0
76.01667,2000,0,91.24,0.000002697398,0.000002697398,0.000002697398,0.99999994,0,0,0,0,0,0,0.5984252,0,0,0,0,false,false,false,0,6.83,16.91,-0.0030615467,0.0030669416,0.7071013,0.7070989,0,115.40099,9.681,-0.014709999,0,0
76.025,2000,0,91.24,0.000002697398,0.000002697398,0.000002697398,0.99999994,0,0,0,0,0,0,0.5984252,0,0,0,0,false,false,false,0,7.79,16.92,-0.0031047051,0.0031101,0.7070985,0.7071013,0,122.781,9.591001,-0.01211,0,0
76.03333,2000,0,91.24,0.000002697398,0.000002697398,0.000002697398,0.99999994,0,0,0,0,0,0,0.5984252,0,0,0,0,false,false,false,0,8.809999,16.93,-0.0031424686,0.0031478636,0.7070959,0.70710355,0,130.131,9.491,-0.010109999,0,0
76.041664,2000,0,91.24,0.000002697398,0.000002697398,0.000002697398,0.99999994,0,0,0,0,0,0,0.5984252,0,0,0,0,false,false,false,0,9.889999,16.94,-0.0031748374,0.0031802324,0.7070959,0.70710325,0,137.44101,9.391,-0.008509999,0,0
76.05,2000,0,91.24,0.000002697398,0.000002697398,0.000002697398,0.99999994,0,0,0,0,0,0,0.5984252,0,0,0,0,false,false,false,0,11.04,16.949999,-0.0032018116,0.0032072063,0.7070959,0.707103,0,144.711,9.281,-0.00721,0,0
76.058334,2000,0,91.24,0.000002697398,0.000002697398,0.000002697398,0.99999994,0,0,0,0,0,0,0.5984252,0,0,0,0,false,false,false,0,12.25,16.96,-0.0032233908,0.0032287855,0.7070959,0.70710284,0,151.94101,9.1710005,-0.00611,0,0
76.066666,2000,0,91.24,0.000002697398,0.000002697398,0.000002697398,0.99999994,0,0,0,0,0,0,0.5984252,0,0,0,0,false,false,false,0,13.5199995,16.97,-0.003239575,0.0032449698,0.7070959,0.70710266,0,159.141,9.061,-0.00521,0,0
76.075,2000,0,91.24,0.000002697398,0.000002697398,0.000002697398,0.99999994,0,0,0,0,0,0,0.5984252,0,0,0,0,false,false,false,0,14.849999,16.98,-0.0032557594,0.0032611543,0.7070959,0.70710254,0,166.30101,8.951,-0.00451,0,0
76.083336,2000,0,91.24,0.000002697398,0.000002697398,0.000002697398,0.99999994,0,0,0,0,0,0,0.5984252,0,0,0,0,false,false,false,0,16.24,16.99,-0.003266549,0.003271944,0.7070959,0.7071024,0,173.421,8.841001,-0.00391,0,0
76.09167,2000,0,91.24,0.000002697398,0.000002697398,0.000002697398,0.99999994,0,0,0,0,0,0,0.5984252,0,0,0,0,false,false,false,0,17.69,17,-0.0032773386,0.0032827335,0.7070959,0.7071023,0,180.511,8.731,-0.00341,0,0
76.1,2000,0,91.24,0.000002697398,0.000002697398,0.000002697398,0.99999994,0,0,0,0,0,0,0.5984252,0,0,0,0,false,false,false,0,19.189999,17.01,-0.0032881282,0.003293523,0.7070959,0.70710224,0,187.561,8.621,-0.00301,0,0
76.10833,2000,0,91.24,0.000002697398,0.000002697398,0.000002697398,0.99999994,0,0,0,0,0,0,0.5984252,0,0,0,0,false,false,false,0,20.75,17.01,-0.0032989178,0.0033043127,0.7070959,0.7071021,0,194.571,8.511001,-0.00261,0,0
76.11667,2000,0,91.24,0.000002697398,0.000002697398,0.000002697398,0.99999994,0,0,0,0,0,0,0.5984252,0,0,0,0,false,false,false,0,22.369999,17.01,-0.0033043127,0.0033097074,0.7070959,0.70710206,0,201.55101,8.441,-0.00221,0,0
76.125,2000,0,91.24,0.000002697398,0.000002697398,0.000002697398,0.99999994,0,0,0,0,0,0,0.5984252,0,0,0,0,false,false,false,0,24.05,17.01,-0.0033097074,0.0033151023,0.7070959,0.707102,0,208.491,8.391,-0.00201,0,0
76.13333,2000,0,91.24,0.000002697398,0.000002697398,0.000002697398,0.99999994,0,0,0,0,0,0,0.5984252,0,0,0,0,false,false,false,0,25.789999,17.01,-0.0033151023,0.003320497,0.7070959,0.707102,0,215.401,8.361,-0.0018099999,0,0
76.14167,2000,0,91.24,0.000002697398,0.000002697398,0.000002697398,0.99999994,0,0,0,0,0,0,0.5984252,0,0,0,0,false,false,false,0,27.59,17.01,-0.0033204972,0.0033258921,0.707096,0.70710194,0,222.271,8.341001,-0.0016099999,0,0
76.15,2000,0,91.24,0.000002697398,0.000002697398,0.000002697398,0.99999994,0,0,0,0,0,0,0.5984252,0,0,0,0,false,false,false,0,29.439999,17.01,-0.003325892,0.0033312866,0.7070959,0.7071019,0,229.101,8.331,-0.0014099999,0,0
76.15833,2000,0,91.24,0.000002697398,0.000002697398,0.000002697398,0.99999994,0,0,0,0,0,0,0.5984252,0,0,0,0,false,false,false,0,31.349998,17.01,-0.0033312866,0.0033366815,0.7070959,0.7071018,0,235.901,8.321,-0.0012099999,0,0
76.166664,2000,0,91.24,0.000002697398,0.000002697398,0.000002697398,0.99999994,0,0,0,0,0,0,0.5984252,0,0,0,0,false,false,false,0,33.32,17.01,-0.0033366815,0.0033420762,0.7070959,0.70710176,0,242.671,8.321,-0.0010099999,0,0
76.175,2000,0,91.24,0.000002697398,0.000002697398,0.000002697398,0.99999994,0,0,0,0,0,0,0.5984252,0,0,0,0,false,false,false,0,35.34,17.01,-0.0033420762,0.003347471,0.7070959,0.7071017,0,249.401,8.321,-0.00091,0,0
76.183334,2000,0,91.24,0.000002697398,0.000002697398,0.000002697398,0.99999994,0,0,0,0,0,0,0.5984252,0,0,0,0,false,false,false,0,37.42,17.01,-0.0033420762,0.0033528658,0.7070959,0.7071017,0,256.101,8.321,-0.00071,0,0
76.191666,2000,0,91.24,0.000002697398,0.000002697398,0.000002697398,0.99999994,0,0,0,0,0,0,0.5984252,0,0,0,0,false,false,false,0,39.55,17.01,-0.0033420762,0.0033528658,0.7070959,0.7071017,0,262.761,8.321,-0.00061,0,0
76.2,2000,0,91.24,0.000002697398,0.000002697398,0.000002697398,0.99999994,0,0,0,0,0,0,0.5984252,0,0,0,0,false,false,false,0,41.739998,17.01,-0.0033420762,0.0033528658,0.7070959,0.7071017,0,269.391,8.321,-0.00051,0,0
76.208336,2000,0,91.24,0.000002697398,0.000002697398,0.000002697398,0.99999994,0,0,0,0,0,0,0.5984252,0,0,0,0,false,false,false,0,43.98,17.01,-0.0033420762,0.0033528658,0.7070959,0.7071017,0,275.981,8.321,-0.00051,0,0
76.21667,2000,0,91.24,0.000002697398,0.000002697398,0.000002697398,0.99999994,0,0,0,0,0,0,0.5984252,0,0,0,0,false,false,false,0,46.28,17.01,-0.0033420762,0.0033528658,0.7070959,0.7071017,0,282.54102,8.321,-0.00051,0,0
76.225,2000,0,91.24,0.000002697398,0.000002697398,0.000002697398,0.99999994,0,0,0,0,0,0,0.5984252,0,0,0,0,false,false,false,0,48.629997,17.01,-0.0033420762,0.0033528658,0.7070959,0.7071017,0,289.071,8.321,-0.00051,0,0
76.23333,2000,0,91.24,0.000002697398,0.000002697398,0.000002697398,0.99999994,0,0,0,0,0,0,0.5984252,0,0,0,0,false,false,false,0,51.039997,17.01,-0.0033420762,0.0033528658,0.7070959,0.7071017,0,295.561,8.321,-0.00051,0,0
76.24167,2000,0,91.24,0.000002697398,0.000002697398,0.000002697398,0.99999994,0,0,0,0,0,0,0.5984252,0,0,0,0,false,false,false,0,53.5,17.01,-0.0033420762,0.0033528658,0.7070959,0.7071017,0,302.021,8.321,-0.00051,0,0
76.25,2000,0,91.24,0.000002697398,0.000002697398,0.000002697398,0.99999994,0,0,0,0,0,0,0.5984252,0,0,0,0,false,false,false,0,56.02,17.01,-0.0033420762,0.0033528658,0.7070959,0.7071017,0,308.451,8.321,-0.00051,0,0
76.25833,2000,0,91.24,0.000002697398,0.000002697398,0.000002697398,0.99999994,0,0,0,0,0,0,0.5984252,0,0,0,0,false,false,false,0,58.59,17.01,-0.0033420762,0.0033528658,0.7070959,0.7071017,0,314.841,8.321,-0.00051,0,0
76.26667,2000,0,91.24,0.000002697398,0.000002697398,0.000002697398,0.99999994,0,0,0,0,0,0,0.5984252,0,0,0,0,false,false,false,0,61.21,17.01,-0.0033420762,0.0033528658,0.7070959,0.7071017,0,321.201,8.321,-0.00051,0,0
76.275,2000,0,91.24,0.000002697398,0.000002697398,0.000002697398,0.99999994,0,0,0,0,0,0,0.5984252,0,0,0,0,false,false,false,0,63.89,17.01,-0.0033420762,0.0033528658,0.7070959,0.7071017,0,327.531,8.321,-0.00051,0,0
76.28333,2000,0,91.24,0.000002697398,0.000002697398,0.000002697398,0.99999994,0,0,0,0,0,0,0.5984252,0,0,0,0,false,false,false,0,66.619995,17.01,-0.0033420762,0.0033528658,0.7070959,0.7071017,0,333.831,8.321,-0.00051,0,0
76.291664,2000,0,91.24,0.000002697398,0.000002697398,0.000002697398,0.99999994,0,0,0,0,0,0,0.5984252,0,0,0,0,false,false,false,0,69.4,17.01,-0.0033420762,0.0033528658,0.7070959,0.7071017,0,340.091,8.321,-0.00051,0,0
76.3,2000,0,91.24,0.000002697398,0.000002697398,0.000002697398,0.99999994,0,0,0,0,0,0,0.5984252,0,0,0,0,false,false,false,0,72.229996,17.01,-0.0033420762,0.0033528658,0.7070959,0.7071017,0,346.321,8.321,-0.00051,0,0
76.308334,2000,0,91.24,0.000002697398,0.000002697398,0.000002697398,0.99999994,0,0,0,0,0,0,0.5984252,0,0,0,0,false,false,false,0,75.119995,17.01,-0.0033420762,0.0033528658,0.7070959,0.7071017,0,352.521,8.321,-0.00051,0,0
76.316666,2000,0,91.24,0.000002697398,0.000002697398,0.000002697398,0.99999994,0,0,0,0,0,0,0.5984252,0,0,0,0,false,false,false,0,78.06,17.01,-0.0033420762,0.0033528658,0.7070959,0.7071017,0,358.691,8.321,-0.00051,0,0
76.325,2000,0,91.24,0.000002697398,0.000002697398,0.000002697398,0.99999994,0,0,0,0,0,0,0.5984252,0,0,0,0,false,false,false,0,81.049995,17.01,-0.0033420762,0.0033528658,0.7070959,0.7071017,0,364.831,8.321,-0.00051,0,0
76.333336,2000,0,91.24,0.000002697398,0.000002697398,0.000002697398,0.99999994,0,0,0,0,0,0,0.5984252,0,0,0,0,false,false,false,0,84.09,17.01,-0.0033420762,0.0033528658,0.7070959,0.7071017,0,370.931,8.321,-0.00051,0,0
76.34167,2000,0,91.24,0.000002697398,0.000002697398,0.000002697398,0.99999994,0,0,0,0,0,0,0.5984252,0,0,0,0,false,false,false,0,87.18,17.01,-0.0033420762,0.0033528658,0.7070959,0.7071017,0,377.001,8.321,-0.00051,0,0
76.35,2000,0,91.24,0.000002697398,0.000002697398,0.000002697398,0.99999994,0,0,0,0,0,0,0.5984252,0,0,0,0,false,false,false,0,90.32,17.01,-0.0033420762,0.0033528658,0.7070959,0.7071017,0,383.041,8.321,-0.00051,0,0
76.35833,2000,0,91.24,0.000002697398,0.000002697398,0.000002697398,0.99999994,0,0,0,0,0,0,0.5984252,0,0,0,0,false,false,false,0,93.509995,17.01,-0.0033420762,0.0033528658,0.7070959,0.7071017,0,389.051,8.321,-0.00051,0,0
76.36667,2000,0,91.24,0.000002697398,0.000002697398,0.000002697398,0.99999994,0,0,0,0,0,0,0.5984252,0,0,0,0,false,false,false,0,96.75,17.01,-0.0033420762,0.0033528658,0.7070959,0.7071017,0,395.031,8.321,-0.00051,0,0
76.375,2000,0,91.24,0.000002697398,0.000002697398,0.000002697398,0.99999994,0,0,0,0,0,0,0.5984252,0,0,0,0,false,false,false,0,100.04,17.01,-0.0033420762,0.0033528658,0.7070959,0.7071017,0,400.981,8.321,-0.00051,0,0
76.38333,2000,0,91.24,0.000002697398,0.000002697398,0.000002697398,0.99999994,0,0,0,0,0,0,0.5984252,0,0,0,0,false,false,false,0,103.38,17.01,-0.0033420762,0.0033528658,0.7070959,0.7071017,0,406.901,8.321,-0.00051,0,0
76.39167,2000,0,91.24,0.000002697398,0.000002697398,0.000002697398,0.99999994,0,0,0,0,0,0,0.5984252,0,0,0,0,false,false,false,0,106.77,17.01,-0.0033420762,0.0033528658,0.7070959,0.7071017,0,412.791,8.321,-0.00051,0,0
76.4,2000,0,91.24,0.000002697398,0.000002697398,0.000002697398,0.99999994,0,0,0,0,0,0,0.5984252,0,0,0,0,false,false,false,0,110.21,17.01,-0.0033420762,0.0033528658,0.7070959,0.7071017,0,418.651,8.321,-0.00051,0,0
76.40833,2000,0,91.24,0.000002697398,0.000002697398,0.000002697398,0.99999994,0,0,0,0,0,0,0.5984252,0,0,0,0,false,false,false,0,113.7,17.01,-0.0033420762,0.0033528658,0.7070959,0.7071017,0,424.481,8.321,-0.00051,0,0
76.416664,2000,0,91.24,0.000002697398,0.000002697398,0.000002697398,0.99999994,0,0,0,0,0,0,0.5984252,0,0,0,0,false,false,false,0,117.24,17.01,-0.0033420762,0.0033528658,0.7070959,0.7071017,0,430.281,8.321,-0.00051,0,0
76.425,2000,0,91.24,0.000002697398,0.000002697398,0.000002697398,0.99999994,0,0,0,0,0,0,0.5984252,0,0,0,0,false,false,false,0,120.829994,17.01,-0.0033420762,0.0033528658,0.7070959,0.7071017,0,436.051,8.321,-0.00051,0,0
76.433334,2000,0,91.24,0.000002697398,0.000002697398,0.000002697398,0.99999994,0,0,0,0,0,0,0.5984252,0,0,0,0,false,false,false,0,124.46,17.01,-0.0033420762,0.0033528658,0.7070959,0.7071017,0,441.791,8.321,-0.00051,0,0
76.441666,2000,0,91.24,0.000002697398,0.000002697398,0.000002697398,0.99999994,0,0,0,0,0,0,0.5984252,0,0,0,0,false,false,false,0,128.14,17.01,-0.0033420762,0.0033528658,0.7070959,0.7071017,0,447.501,8.321,-0.00051,0,0
76.45,2000,0,91.24,0.000002697398,0.000002697398,0.000002697398,0.99999994,0,0,0,0,0,0,0.5984252,0,0,0,0,false,false,false,0,131.87,17.01,-0.0033420762,0.0033528658,0.7070959,0.7071017,0,453.181,8.321,-0.00051,0,0
76.458336,2000,0,91.24,0.000002697398,0.000002697398,0.000002697398,0.99999994,0,0,0,0,0,0,0.5984252,0,0,0,0,false,false,false,0,135.65,17.01,-0.0033420762,0.0033528658,0.7070959,0.7071017,0,458.831,8.321,-0.00051,0,0
76.46667,2000,0,91.24,0.000002697398,0.000002697398,0.000002697398,0.99999994,0,0,0,0,0,0,0.5984252,0,0,0,0,false,false,false,0,139.47,17.01,-0.0033420762,0.0033528658,0.7070959,0.7071017,0,464.451,8.321,-0.00051,0,0
76.475,2000,0,91.24,0.000002697398,0.000002697398,0.000002697398,0.99999994,0,0,0,0,0,0,0.5984252,0,0,0,0,false,false,false,0,143.34,17.01,-0.0033420762,0.0033528658,0.7070959,0.7071017,0,470.041,8.321,-0.00051,0,0
76.48333,2000,0,91.24,0.000002697398,0.000002697398,0.000002697398,0.99999994,0,0,0,0,0,0,0.5984252,0,0,0,0,false,false,false,0,147.26,17.01,-0.0033420762,0.0033528658,0.7070959,0.7071017,0,475.60098,8.321,-0.00051,0,0
76.49167,2000,0,91.24,0.000002697398,0.000002697398,0.000002697398,0.99999994,0,0,0,0,0,0,0.5984252,0,0,0,0,false,false,false,0,151.22,17.01,-0.0033420762,0.0033528658,0.7070959,0.7071017,0,481.141,8.321,-0.00051,0,0
76.5,2000,0,91.24,0.000002697398,0.000002697398,0.000002697398,0.99999994,0,0,0,0,0,0,0.5984252,0,0,0,0,false,false,false,0,155.23,17.01,-0.0033420762,0.0033528658,0.7070959,0.7071017,0,486.651,8.321,-0.00051,0,0
76.50833,2000,0,91.24,0.000002697398,0.000002697398,0.000002697398,0.99999994,0,0,0,0,0,0,0.5984252,0,0,0,0,false,false,false,0,159.29,17.01,-0.0033420762,0.0033528658,0.7070959,0.7071017,0,492.13098,8.321,-0.00061,0,0
76.51667,2000,0,91.24,0.000002697398,0.000002697398,0.000002697398,0.99999994,0,0,0,0,0,0,0.5984252,0,0,0,0,false,false,false,0,163.39,17.01,-0.0033420762,0.0033528658,0.7070959,0.7071017,0,497.581,8.321,-0.00061,0,0
76.525,2000,0,91.24,0.000002697398,0.000002697398,0.000002697398,0.99999994,0,0,0,0,0,0,0.5984252,0,0,0,0,false,false,false,0,167.54,17.01,-0.0033420762,0.0033528658,0.7070959,0.7071017,0,503.001,8.321,-0.00061,0,0
76.53333,2000,0,91.24,0.000002697398,0.000002697398,0.000002697398,0.99999994,0,0,0,0,0,0,0.5984252,0,0,0,0,false,false,false,0,171.73,17.01,-0.0033420762,0.0033528658,0.7070959,0.7071017,0,508.401,8.321,-0.00061,0,0
76.541664,2000,0,91.24,0.000002697398,0.000002697398,0.000002697398,0.99999994,0,0,0,0,0,0,0.5984252,0,0,0,0,false,false,false,0,175.97,17.01,-0.0033420762,0.0033528658,0.7070959,0.7071017,0,513.77094,8.321,-0.00061,0,0
76.55,2000,0,91.24,0.000002697398,0.000002697398,0.000002697398,0.99999994,0,0,0,0,0,0,0.5984252,0,0,0,0,false,false,false,0,180.25,17.01,-0.0033420762,0.0033528658,0.7070959,0.7071017,0,519.11096,8.321,-0.00061,0,0
76.558334,2000,0,91.24,0.000002697398,0.000002697398,0.000002697398,0.99999994,0,0,0,0,0,0,0.5984252,0,0,0,0,false,false,false,0,184.58,17.01,-0.0033420762,0.0033528658,0.7070959,0.7071017,0,524.42096,8.321,-0.00061,0,0
76.566666,2000,0,91.24,0.000002697398,0.000002697398,0.000002697398,0.99999994,0,0,0,0,0,0,0.5984252,0,0,0,0,false,false,false,0,188.95,17.01,-0.0033420762,0.0033528658,0.7070959,0.7071017,0,529.71094,8.321,-0.00061,0,0
76.575,2000,0,91.24,0.000002697398,0.000002697398,0.000002697398,0.99999994,0,0,0,0,0,0,0.5984252,0,0,0,0,false,false,false,0,193.36,17.01,-0.0033420762,0.0033528658,0.7070959,0.7071017,0,534.97095,8.321,-0.00061,0,0
76.583336,2000,0,91.24,0.000002697398,0.000002697398,0.000002697398,0.99999994,0,0,0,0,0,0,0.5984252,0,0,0,0,false,false,false,0,197.81999,17.01,-0.0033420762,0.0033528658,0.7070959,0.7071017,0,540.201,8.321,-0.00061,0,0
76.59167,2000,0,91.24,0.000002697398,0.000002697398,0.000002697398,0.99999994,0,0,0,0,0,0,0.5984252,0,0,0,0,false,false,false,0,202.31999,17.01,-0.0033420762,0.0033528658,0.7070959,0.7071017,0,545.40094,8.321,-0.00061,0,0
76.6,2000,0,91.24,0.000002697398,0.000002697398,0.000002697398,0.99999994,0,0,0,0,0,0,0.5984252,0,0,0,0,false,false,false,0,206.86,17.01,-0.0033420762,0.0033528658,0.7070959,0.7071017,0,550.581,8.321,-0.00061,0,0
76.60833,2000,0,91.24,0.000002697398,0.000002697398,0.000002697398,0.99999994,0,0,0,0,0,0,0.5984252,0,0,0,0,false,false,false,0,211.45,17.01,-0.0033420762,0.0033528658,0.7070959,0.7071017,0,555.73096,8.321,-0.00061,0,0
76.61667,2000,0,91.24,0.000002697398,0.000002697398,0.000002697398,0.99999994,0,0,0,0,0,0,0.5984252,0,0,0,0,false,false,false,0,216.08,17.01,-0.0033420762,0.0033528658,0.7070959,0.7071017,0,560.85095,8.321,-0.00061,0,0
76.625,2000,0,91.24,0.000002697398,0.000002697398,0.000002697398,0.99999994,0,0,0,0,0,0,0.5984252,0,0,0,0,false,false,false,0,220.75,17.01,-0.0033420762,0.0033528658,0.7070959,0.7071017,0,565.951,8.321,-0.00061,0,0
76.63333,2000,0,91.24,0.000002697398,0.000002697398,0.000002697398,0.99999994,0,0,0,0,0,0,0.5984252,0,0,0,0,false,false,false,0,225.47,17.01,-0.0033420762,0.0033528658,0.7070959,0.7071017,0,571.02094,8.321,-0.00061,0,0
76.64167,2000,0,91.24,0.000002697398,0.000002697398,0.000002697398,0.99999994,0,0,0,0,0,0,0.5984252,0,0,0,0,false,false,false,0,230.23,17.01,-0.0033420762,0.0033528658,0.7070959,0.7071017,0,576.071,8.321,-0.00061,0,0
76.65,2000,0,91.24,0.000002697398,0.000002697398,0.000002697398,0.99999994,0,0,0,0,0,0,0.5984252,0,0,0,0,false,false,false,0,235.03,17.01,-0.0033420762,0.0033528658,0.7070959,0.7071017,0,581.09094,8.321,-0.00061,0,0
76.65833,2000,0,91.24,0.000002697398,0.000002697398,0.000002697398,0.99999994,0,0,0,0,0,0,0.5984252,0,0,0,0,false,false,false,0,239.87,17.01,-0.0033420762,0.0033528658,0.7070959,0.7071017,0,586.081,8.321,-0.00061,0,0
76.666664,2000,0,91.24,0.000002697398,0.000002697398,0.000002697398,0.99999994,0,0,0,0,0,0,0.5984252,0,0,0,0,false,false,false,0,244.75,17.01,-0.0033420762,0.0033528658,0.7070959,0.7071017,0,591.05096,8.321,-0.00061,0,0
76.675,2000,0,91.24,0.000002697398,0.000002697398,0.000002697398,0.99999994,0,0,0,0,0,0,0.5984252,0,0,0,0,false,false,false,0,249.68,17.01,-0.0033420762,0.0033528658,0.7070959,0.7071017,0,595.99097,8.321,-0.00061,0,0
76.683334,2000,0,91.24,0.000002697398,0.000002697398,0.000002697398,0.99999994,0,0,0,0,0,0,0.5984252,0,0,0,0,false,false,false,0,254.65,17.01,-0.0033420762,0.0033528658,0.7070959,0.7071017,0,600.91095,8.321,-0.00061,0,0
76.691666,2000,0,91.24,0.000002697398,0.000002697398,0.000002697398,0.99999994,0,0,0,0,0,0,0,1,0,0,0,false,false,true,0,259.66,17.01,-0.0033420762,0.0033528658,0.7070959,0.7071017,-12.151,597.24097,8.351,-0.00091,0.00301,0.33141
76.7,2000,0,91.24,0.000002697398,0.000002697398,0.000002697398,0.99999994,0,0,0,0,0,0,0,1,0,0,0,false,false,true,-0.099999994,264.63998,17.01,-0.0033420762,0.0033582605,0.7080714,0.70612484,-20.581,594.66095,8.361,-0.00111,0.00391,0.55781
76.708336,2000,0,91.24,0.000002697398,0.000002697398,0.000002697398,0.99999994,0,0,0,0,0,0,0,1,0,0,0,false,false,true,-0.26999998,269.6,17.01,-0.0033420762,0.0033636554,0.70970845,0.70447946,-28.110998,592.36096,8.361,-0.0012099999,0.00401,0.75181
76.71667,2000,0,91.24,0.000002697398,0.000002697398,0.000002697398,0.99999994,0,0,0,0,0,0,0,1,0,0,0,false,false,true,-0.5,274.54,17.01,-0.0033420762,0.00336905,0.71191317,0.7022514,-34.990997,590.27094,8.361,-0.0012099999,0.00371,0.91780996
76.725,2000,0,91.24,0.000002697398,0.000002697398,0.000002697398,0.99999994,0,0,0,0,0,0,0,1,0,0,0,false,false,true,-0.78999996,279.46,17.01,-0.0033474704,0.0033690496,0.71459556,0.69952154,-41.391,588.34094,8.361,-0.00111,0.00311,1.05981
76.73333,2000,0,91.24,0.000002697398,0.000002697398,0.000002697398,0.99999994,0,0,0,0,0,0,0,1,0,0,0,false,false,true,-1.13,284.36,17.01,-0.0033582605,0.00336905,0.7176765,0.6963603,-47.431,586.54095,8.361,-0.00111,0.00241,1.18151
76.74167,2000,0,91.24,0.000002697398,0.000002697398,0.000002697398,0.99999994,0,0,0,0,0,0,0,1,0,0,0,false,false,true,-1.53,289.25,17.01,-0.00336905,0.0033636554,0.7210936,0.6928212,-53.211,584.831,8.361,-0.0010099999,0.0017099999,1.28591
76.75,2000,0,91.24,0.000002697398,0.000002697398,0.000002697398,0.99999994,0,0,0,0,0,0,0,1,0,0,0,false,false,true,-1.9699999,294.12,17.01,-0.0033852346,0.0033528658,0.7247952,0.68894774,-58.790997,583.18097,8.361,-0.00091,0.00111,1.37571
76.75833,2000,0,91.24,0.000002697398,0.000002697398,0.000002697398,0.99999994,0,0,0,0,0,0,0,1,0,0,0,false,false,true,-2.46,298.97998,17.01,-0.003401419,0.0033420762,0.7287314,0.684783,-64.221,581.571,8.351,-0.00081,0.00051,1.45311
76.76667,2000,0,91.24,0.000002697398,0.000002697398,0.000002697398,0.99999994,0,0,0,0,0,0,0,1,0,0,0,false,false,true,-3,303.83,17.01,-0.0034229984,0.0033258921,0.7328631,0.6803593,-69.511,579.99097,8.351,-0.00071,0,1.52001
76.775,2000,0,91.24,0.000002697398,0.000002697398,0.000002697398,0.99999994,0,0,0,0,0,0,0,1,0,0,0,false,false,true,-3.58,308.66,17.01,-0.0034445773,0.0033043127,0.73715794,0.6757035,-74.681,578.42096,8.351,-0.00061,-0.00030999997,1.57801
76.78333,2000,0,91.24,0.000002697398,0.000002697398,0.000002697398,0.99999994,0,0,0,0,0,0,0,1,0,0,0,false,false,true,-4.2,313.47998,17.01,-0.0034715515,0.0032827337,0.7415842,0.67084277,-79.721,576.86096,8.351,-0.00051,-0.00061,1.62841
76.791664,2000,0,91.24,0.000002697398,0.000002697398,0.000002697398,0.99999994,0,0,0,0,0,0,0,1,0,0,0,false,false,true,-4.8599997,318.28998,17.01,-0.0034985254,0.0032611543,0.7461209,0.6657932,-84.631,575.30096,8.351,-0.00040999998,-0.00081,1.67221
76.8,2000,0,91.24,0.000002697398,0.000002697398,0.000002697398,0.99999994,0,0,0,0,0,0,0,1,0,0,0,false,false,true,-5.5699997,323.08,17.01,-0.0035254995,0.0032341806,0.7507435,0.66057646,-89.391,573.74097,8.341001,-0.00030999997,-0.0010099999,1.71041
76.808334,2000,0,91.24,0.000002697398,0.000002697398,0.000002697398,0.99999994,0,0,0,0,0,0,0,1,0,0,0,false,false,true,-6.31,327.86,17.01,-0.0035524734,0.0032072063,0.7554327,0.6552086,-93.980995,572.191,8.341001,-0.00021,-0.00111,1.74361
76.816666,2000,0,91.24,0.000002697398,0.000002697398,0.000002697398,0.99999994,0,0,0,0,0,0,0,1,0,0,0,false,false,true,-7.0899997,332.63,17.01,-0.0035794473,0.0031802324,0.76017517,0.6497004,-98.381,570.65094,8.341001,-0.00010999999,-0.0012099999,1.7725099
76.825,2000,0,91.24,0.000002697398,0.000002697398,0.000002697398,0.99999994,0,0,0,0,0,0,0,1,0,0,0,false,false,true,-7.91,337.38998,17.01,-0.0036064212,0.0031532582,0.76495296,0.64406824,-102.550995,569.131,8.341001,0,-0.0012099999,1.7975099
76.833336,2000,0,91.24,0.000002697398,0.000002697398,0.000002697398,0.99999994,0,0,0,0,0,0,0,1,0,0,0,false,false,true,-8.76,342.13,17.01,-0.0036333953,0.0031208897,0.7697538,0.63832283,-106.471,567.65094,8.341001,0,-0.0012099999,1.8191099
76.84167,2000,0,91.24,0.000002697398,0.000002697398,0.000002697398,0.99999994,0,0,0,0,0,0,0,1,0,0,0,false,false,true,-9.65,346.86,17.01,-0.0036603687,0.0030885206,0.77457035,0.6324694,-110.101,566.22095,8.341001,0,-0.0012099999,1.83751
76.85,2000,0,91.24,0.000002697398,0.000002697398,0.000002697398,0.99999994,0,0,0,0,0,0,0,1,0,0,0,false,false,true,-10.57,351.58,17.01,-0.003687343,0.003056152,0.7793914,0.6265189,-113.410995,564.871,8.331,0,-0.0012099999,1.85311
76.85833,2000,0,91.24,0.000002697398,0.000002697398,0.000002697398,0.99999994,0,0,0,0,0,0,0,1,0,0,0,false,false,true,-11.5199995,356.28998,17.01,-0.0037143172,0.0030237832,0.78420585,0.62048215,-116.361,563.621,8.331,0,-0.0012099999,1.86601
76.86667,2000,0,91.24,0.000002697398,0.000002697398,0.000002697398,0.99999994,0,0,0,0,0,0,0,1,0,0,0,false,false,true,-12.49,360.99,17.01,-0.0037412914,0.0029914146,0.7890078,0.6143645,-118.90099,562.501,8.331,0,-0.0012099999,1.87641
76.875,2000,0,91.24,0.000002697398,0.000002697398,0.000002697398,0.99999994,0,0,0,0,0,0,0,1,0,0,0,false,false,true,-13.48,365.68,17.01,-0.0037682655,0.0029590458,0.79378724,0.60817665,-120.991,561.54095,8.331,0,-0.00111,1.88441
76.88333,2000,0,91.24,0.000002697398,0.000002697398,0.000002697398,0.99999994,0,0,0,0,0,0,0,1,0,0,0,false,false,true,-14.49,370.36,17.01,-0.0037952394,0.002926677,0.798539,0.601924,-122.58099,560.78094,8.331,0,-0.00111,1.8902099
76.89167,2000,0,91.24,0.000002697398,0.000002697398,0.000002697398,0.99999994,0,0,0,0,0,0,0,1,0,0,0,false,false,true,-15.509999,375.03,17.01,-0.003822213,0.0028943082,0.8032538,0.5956174,-124.241,559.96094,8.331,0,-0.0010099999,1.89581
76.9,2000,0,91.24,0.000002697398,0.000002697398,0.000002697398,0.99999994,0,0,0,0,0,0,0,1,0,0,0,false,false,true,-16.55,379.69998,17.01,-0.0038491874,0.0028619396,0.8079353,0.58925164,-125.97099,559.071,8.331,0,-0.00091,1.90121
76.90833,2000,0,91.24,0.000002697398,0.000002697398,0.000002697398,0.99999994,0,0,0,0,0,0,0,1,0,0,0,false,false,true,-17.6,384.36,17.01,-0.003876161,0.0028295706,0.8125787,0.5828317,-127.760994,558.121,8.331,0.00010999999,-0.00081,1.90651
76.916664,2000,0,91.24,0.000002697398,0.000002697398,0.000002697398,0.99999994,0,0,0,0,0,0,0,1,0,0,0,false,false,true,-18.66,389.00998,17.01,-0.003903135,0.0027972017,0.8171832,0.5763579,-129.61101,557.10095,8.331,0.00010999999,-0.00071,1.91161
76.925,2000,0,91.24,0.000002697398,0.000002697398,0.000002697398,0.99999994,0,0,0,0,0,0,0,1,0,0,0,false,false,true,-19.74,393.65,17.01,-0.0039301086,0.002764833,0.8217483,0.56983024,-131.511,556.02094,8.331,0.00021,-0.00061,1.91661
76.933334,2000,0,91.24,0.000002697398,0.000002697398,0.000002697398,0.99999994,0,0,0,0,0,0,0,1,0,0,0,false,false,true,-20.84,398.28,17.01,-0.003951688,0.002732464,0.82627356,0.56324846,-133.461,554.871,8.331,0.00021,-0.00051,1.92141
76.941666,2000,0,91.24,0.000002697398,0.000002697398,0.000002697398,0.99999994,0,0,0,0,0,0,0,1,0,0,0,false,false,true,-21.949999,402.9,17.01,-0.003973267,0.0027000955,0.83075804,0.55661285,-135.461,553.65094,8.331,0.00021,-0.00040999998,1.92601
76.95,2000,0,91.24,0.000002697398,0.000002697398,0.000002697398,0.99999994,0,0,0,0,0,0,0,1,0,0,0,false,false,true,-23.08,407.50998,17.01,-0.0039948463,0.0026677267,0.8351977,0.5499287,-137.501,552.36096,8.331,0.00021,-0.00040999998,1.9305099
76.958336,2000,0,91.24,0.000002697398,0.000002697398,0.000002697398,0.99999994,0,0,0,0,0,0,0,1,0,0,0,false,false,true,-24.23,412.11,17.01,-0.004016426,0.0026353581,0.8395956,0.54319066,-139.58101,551.001,8.331,0.00021,-0.00040999998,1.9348099
76.96667,2000,0,91.24,0.000002697398,0.000002697398,0.000002697398,0.99999994,0,0,0,0,0,0,0,1,0,0,0,false,false,true,-25.39,416.69998,17.01,-0.004038005,0.0026029893,0.84394765,0.53640395,-141.701,549.571,8.331,0.00021,-0.00040999998,1.93901
76.975,2000,0,91.24,0.000002697398,0.000002697398,0.000002697398,0.99999994,0,0,0,0,0,0,0,1,0,0,0,false,false,true,-26.57,421.28,17.01,-0.004059584,0.0025706203,0.84825337,0.5295687,-143.851,548.071,8.331,0.00021,-0.00040999998,1.94301
76.98333,2000,0,91.24,0.000002697398,0.000002697398,0.000002697398,0.99999994,0,0,0,0,0,0,0,1,0,0,0,false,false,true,-27.769999,425.84998,17.01,-0.004081163,0.0025382515,0.8525123,0.52268493,-146.031,546.501,8.331,0.00021,-0.00040999998,1.94681
76.99167,2000,0,91.24,0.000002697398,0.000002697398,0.000002697398,0.99999994,0,0,0,0,0,0,0,1,0,0,0,false,false,true,-28.99,430.4,17.01,-0.0041027423,0.0025058826,0.8567241,0.5157525,-148.231,544.86096,8.331,0.00030999997,-0.00040999998,1.9505099
77,2000,0,91.24,0.000002697398,0.000002697398,0.000002697398,0.99999994,0,0,0,0,0,0,0,1,0,0,0,false,false,true,-30.23,434.94,17.01,-0.0041243215,0.0024681191,0.860888,0.50877166,-150.451,543.15094,8.331,0.00030999997,-0.00040999998,1.95401
77.00833,2000,0,91.24,0.000002697398,0.000002697398,0.000002697398,0.99999994,0,0,0,0,0,0,0,1,0,0,0,false,false,true,-31.48,439.47,17.01,-0.0041459007,0.0024303556,0.86500067,0.5017476,-152.69101,541.371,8.331,0.00030999997,-0.00030999997,1.95731
77.01667,2000,0,91.24,0.000002697398,0.000002697398,0.000002697398,0.99999994,0,0,0,0,0,0,0,1,0,0,0,false,false,true,-32.75,443.97998,17.01,-0.0041674804,0.0023925921,0.86906475,0.494675,-154.951,539.52094,8.331,0.00030999997,-0.00021,1.96041
77.025,2000,0,91.24,0.000002697398,0.000002697398,0.000002697398,0.99999994,0,0,0,0,0,0,0,1,0,0,0,false,false,true,-34.04,448.47998,17.01,-0.004189059,0.0023548284,0.8730766,0.48755926,-157.22101,537.60095,8.331,0.00030999997,-0.00010999999,1.96341
77.03333,2000,0,91.24,0.000002697398,0.000002697398,0.000002697398,0.99999994,0,0,0,0,0,0,0,1,0,0,0,false,false,true,-35.35,452.96,17.01,-0.004205243,0.002317065,0.8770361,0.48040035,-159.501,535.61096,8.331,0.00021,-0.00010999999,1.96621
77.041664,2000,0,91.24,0.000002697398,0.000002697398,0.000002697398,0.99999994,0,0,0,0,0,0,0,1,0,0,0,false,false,true,-36.68,457.41998,17.01,-0.004221428,0.0022793016,0.8809429,0.47319826,-161.781,533.55096,8.331,0.00010999999,-0.00010999999,1.96881
77.05,2000,0,91.24,0.000002697398,0.000002697398,0.000002697398,0.99999994,0,0,0,0,0,0,0,1,0,0,0,false,false,true,-38.03,461.87,17.01,-0.004237612,0.0022415374,0.8847963,0.46595296,-164.061,531.42096,8.331,0,-0.00010999999,1.97121
77.058334,2000,0,91.24,0.000002697398,0.000002697398,0.000002697398,0.99999994,0,0,0,0,0,0,0,1,0,0,0,false,false,true,-39.399998,466.3,17.01,-0.0042537972,0.002209169,0.8885937,0.45867008,-166.341,529.23096,8.331,0,-0.00010999999,1.9735099
77.066666,2000,0,91.24,0.000002697398,0.000002697398,0.000002697398,0.99999994,0,0,0,0,0,0,0,1,0,0,0,false,false,true,-40.79,470.71,17.01,-0.004269981,0.0021714054,0.89233446,0.45134923,-168.61101,526.97095,8.331,0,-0.00010999999,1.97561
77.075,2000,0,91.24,0.000002697398,0.000002697398,0.000002697398,0.99999994,0,0,0,0,0,0,0,1,0,0,0,false,false,true,-42.2,475.09998,17.01,-0.004286165,0.0021336416,0.89601845,0.44399065,-170.881,524.641,8.331,0,-0.00010999999,1.97751
77.083336,2000,0,91.24,0.000002697398,0.000002697398,0.000002697398,0.99999994,0,0,0,0,0,0,0,1,0,0,0,false,false,true,-43.62,479.47,17.01,-0.0043023503,0.0020958784,0.8996456,0.4365945,-173.141,522.251,8.331,0,-0.00010999999,1.97921
77.09167,2000,0,91.24,0.000002697398,0.000002697398,0.000002697398,0.99999994,0,0,0,0,0,0,0,1,0,0,0,false,false,true,-45.059998,483.81998,17.01,-0.004318534,0.0020581146,0.9032156,0.42916033,-175.381,519.79095,8.331,0,-0.00010999999,1.9807099
77.1,2000,0,91.24,0.000002697398,0.000002697398,0.000002697398,0.99999994,0,0,0,0,0,0,0,1,0,0,0,false,false,true,-46.52,488.15,17.01,-0.004334718,0.002020351,0.90672547,0.42169386,-177.601,517.27094,8.331,0,-0.00010999999,1.9821099
77.10833,2000,0,91.24,0.000002697398,0.000002697398,0.000002697398,0.99999994,0,0,0,0,0,0,0,1,0,0,0,false,false,true,-48,492.46,17.01,-0.004350903,0.0019825874,0.9101779,0.4141898,-179.811,514.691,8.331,-0.00010999999,-0.00010999999,1.98331
77.11667,2000,0,91.24,0.000002697398,0.000002697398,0.000002697398,0.99999994,0,0,0,0,0,0,0,1,0,0,0,false,false,true,-49.5,496.75,17.01,-0.0043670875,0.001944824,0.91357005,0.40665317,-181.991,512.05096,8.331,-0.00010999999,-0.00010999999,1.9843099
77.125,2000,0,91.24,0.000002697398,0.000002697398,0.000002697398,0.99999994,0,0,0,0,0,0,0,1,0,0,0,false,false,true,-51.02,501.02,17.01,-0.004383271,0.0019070603,0.91690165,0.39908424,-184.151,509.35098,8.331,-0.00010999999,-0.00010999999,1.9851099
77.13333,2000,0,91.24,0.000002697398,0.000002697398,0.000002697398,0.99999994,0,0,0,0,0,0,0,1,0,0,0,false,false,true,-52.55,505.25998,17.01,-0.0043994565,0.001869297,0.9201706,0.3914884,-186.281,506.591,8.331,-0.00010999999,-0.00010999999,1.9857099
77.14167,2000,0,91.24,0.000002697398,0.000002697398,0.000002697398,0.99999994,0,0,0,0,0,0,0,1,0,0,0,false,false,true,-54.1,509.47998,17.01,-0.0044156406,0.0018315333,0.9233788,0.38386005,-188.381,503.781,8.331,-0.00021,-0.00010999999,1.98611
77.15,2000,0,91.24,0.000002697398,0.000002697398,0.000002697398,0.99999994,0,0,0,0,0,0,0,1,0,0,0,false,false,true,-55.67,513.68,17.01,-0.0044318247,0.0017937698,0.9265241,0.37620485,-190.451,500.911,8.331,-0.00021,-0.00010999999,1.98631
77.15833,2000,0,91.24,0.000002697398,0.000002697398,0.000002697398,0.99999994,0,0,0,0,0,0,0,1,0,0,0,false,false,true,-57.26,517.85,17.01,-0.0044480097,0.0017560063,0.92960644,0.36852267,-192.491,497.991,8.331,-0.00021,-0.00010999999,1.98631
77.166664,2000,0,91.24,0.000002697398,0.000002697398,0.000002697398,0.99999994,0,0,0,0,0,0,0,1,0,0,0,false,false,true,-58.859997,522,17.01,-0.004464194,0.0017182427,0.9326236,0.36081883,-194.491,495.021,8.331,-0.00021,-0.00010999999,1.98611
77.175,2000,0,91.24,0.000002697398,0.000002697398,0.000002697398,0.99999994,0,0,0,0,0,0,0,1,0,0,0,false,false,true,-60.48,526.13,17.01,-0.0044803787,0.0016804792,0.9355778,0.35308808,-196.451,492.001,8.331,-0.00021,-0.00010999999,1.9857099
77.183334,2000,0,91.24,0.000002697398,0.000002697398,0.000002697398,0.99999994,0,0,0,0,0,0,0,1,0,0,0,false,false,true,-62.12,530.23,17.01,-0.0044965623,0.0016427154,0.93846697,0.34533572,-198.371,488.941,8.331,-0.00021,-0.00010999999,1.9851099
77.191666,2000,0,91.24,0.000002697398,0.000002697398,0.000002697398,0.99999994,0,0,0,0,0,0,0,1,0,0,0,false,false,true,-63.77,534.3,17.01,-0.004512747,0.0016049518,0.94129115,0.33756176,-200.251,485.831,8.331,-0.00021,0,1.9844099
77.2,2000,0,91.24,0.000002697398,0.000002697398,0.000002697398,0.99999994,0,0,0,0,0,0,0,1,0,0,0,false,false,true,-65.439995,538.35,17.01,-0.0045235357,0.0015671882,0.9440503,0.32976624,-202.091,482.681,8.331,-0.00021,0,1.98351
77.208336,2000,0,91.24,0.000002697398,0.000002697398,0.000002697398,0.99999994,0,0,0,0,0,0,0,1,0,0,0,false,false,true,-67.119995,542.37,17.01,-0.004534326,0.0015294247,0.94674295,0.3219546,-203.881,479.491,8.331,-0.00021,0,1.98241
77.21667,2000,0,91.24,0.000002697398,0.000002697398,0.000002697398,0.99999994,0,0,0,0,0,0,0,1,0,0,0,false,false,true,-68.82,546.37,17.01,-0.0045451154,0.0014916611,0.94937074,0.31412128,-205.631,476.261,8.331,-0.00021,0,1.98111
77.225,2000,0,91.24,0.000002697398,0.000002697398,0.000002697398,0.99999994,0,0,0,0,0,0,0,1,0,0,0,false,false,true,-70.53,550.33997,17.01,-0.0045559052,0.0014538976,0.951932,0.30627185,-207.33101,472.991,8.331,-0.00021,0,1.97961
77.23333,2000,0,91.24,0.000002697398,0.000002697398,0.000002697398,0.99999994,0,0,0,0,0,0,0,1,0,0,0,false,false,true,-72.26,554.27997,17.01,-0.0045666946,0.001416134,0.9544252,0.2984116,-208.981,469.691,8.331,-0.00021,0,1.9779099
77.24167,2000,0,91.24,0.000002697398,0.000002697398,0.000002697398,0.99999994,0,0,0,0,0,0,0,1,0,0,0,false,false,true,-74,558.19,17.01,-0.004577485,0.0013783706,0.9568524,0.29053515,-210.58101,466.35098,8.331,-0.00021,0,1.97601
77.25,2000,0,91.24,0.000002697398,0.000002697398,0.000002697398,0.99999994,0,0,0,0,0,0,0,1,0,0,0,false,false,true,-75.75,562.08,17.01,-0.004588274,0.0013406068,0.95921177,0.28264794,-212.121,462.981,8.331,-0.00021,-0.00010999999,1.97391
77.25833,2000,0,91.24,0.000002697398,0.000002697398,0.000002697398,0.99999994,0,0,0,0,0,0,0,1,0,0,0,false,false,true,-77.52,565.94,17.01,-0.0045990637,0.0013028432,0.9615038,0.27474988,-213.61101,459.591,8.331,-0.00021,-0.00010999999,1.97161
77.26667,2000,0,91.24,0.000002697398,0.000002697398,0.000002697398,0.99999994,0,0,0,0,0,0,0,1,0,0,0,false,false,true,-79.299995,569.76996,17.01,-0.0046098535,0.0012650798,0.96372867,0.26684114,-215.041,456.171,8.331,-0.00021,-0.00010999999,1.96911
77.275,2000,0,91.24,0.000002697398,0.000002697398,0.000002697398,0.99999994,0,0,0,0,0,0,0,1,0,0,0,false,false,true,-81.09,573.57,17.01,-0.004620643,0.0012273161,0.96588504,0.25892693,-216.421,452.731,8.331,-0.00021,-0.00010999999,1.9664099
77.28333,2000,0,91.24,0.000002697398,0.000002697398,0.000002697398,0.99999994,0,0,0,0,0,0,0,1,0,0,0,false,false,true,-82.89,577.33997,17.01,-0.0046314322,0.0011895525,0.9679747,0.2510019,-217.741,449.271,8.331,-0.00021,-0.00010999999,1.9635099
77.291664,2000,0,91.24,0.000002697398,0.000002697398,0.000002697398,0.99999994,0,0,0,0,0,0,0,1,0,0,0,false,false,true,-84.7,581.08,17.01,-0.004642222,0.001151789,0.96999514,0.24307695,-219.011,445.791,8.331,-0.00021,-0.00010999999,1.96041
77.3,2000,0,91.24,0.000002697398,0.000002697398,0.000002697398,0.99999994,0,0,0,0,0,0,0,1,0,0,0,false,false,true,-86.53,584.79,17.01,-0.0046530114,0.0011140254,0.9719481,0.23514661,-220.22101,442.291,8.331,-0.00021,-0.00010999999,1.9571099
77.308334,2000,0,91.24,0.000002697398,0.000002697398,0.000002697398,0.99999994,0,0,0,0,0,0,0,1,0,0,0,false,false,true,-88.369995,588.48,17.01,-0.0046638013,0.0010762617,0.9738338,0.22721078,-221.371,438.781,8.331,-0.00021,-0.00010999999,1.95361
77.316666,2000,0,91.24,0.000002697398,0.000002697398,0.000002697398,0.99999994,0,0,0,0,0,0,0,1,0,0,0,false,false,true,-90.21,592.14,17.01,-0.0046745907,0.0010384982,0.97565126,0.21927503,-222.461,435.251,8.331,-0.00021,-0.00010999999,1.9499099
77.325,2000,0,91.24,0.000002697398,0.000002697398,0.000002697398,0.99999994,0,0,0,0,0,0,0,1,0,0,0,false,false,true,-92.06,595.76996,17.01,-0.0046853805,0.0010007346,0.97740096,0.21133928,-223.491,431.711,8.331,-0.00021,-0.00010999999,1.94601
77.333336,2000,0,91.24,0.000002697398,0.000002697398,0.000002697398,0.99999994,0,0,0,0,0,0,0,1,0,0,0,false,false,true,-93.92,599.37,17.01,-0.0046961694,0.000962971,0.979082,0.20340884,-224.461,428.171,8.331,-0.00021,0,1.9419099
77.34167,2000,0,91.24,0.000002697398,0.000002697398,0.000002697398,0.99999994,0,0,0,0,0,0,0,1,0,0,0,false,false,true,-95.79,602.94,17.01,-0.004701564,0.00092520745,0.98069614,0.19547848,-225.371,424.621,8.331,-0.00021,0,1.93751
77.35,2000,0,91.24,0.000002697398,0.000002697398,0.000002697398,0.99999994,0,0,0,0,0,0,0,1,0,0,0,false,false,true,-97.67,606.48,17.01,-0.00470696,0.000887444,0.9822427,0.18755347,-226.22101,421.07098,8.331,-0.00021,0,1.93291
77.35833,2000,0,91.24,0.000002697398,0.000002697398,0.000002697398,0.99999994,0,0,0,0,0,0,0,1,0,0,0,false,false,true,-99.56,609.99,17.01,-0.0047123544,0.0008496804,0.98372084,0.1796393,-227.021,417.521,8.331,-0.00021,0,1.92811
77.36667,2000,0,91.24,0.000002697398,0.000002697398,0.000002697398,0.99999994,0,0,0,0,0,0,0,1,0,0,0,false,false,true,-101.45,613.47,17.01,-0.004717749,0.00081191683,0.9851323,0.17173052,-227.761,413.971,8.331,-0.00021,0,1.92311
77.375,2000,0,91.24,0.000002697398,0.000002697398,0.000002697398,0.99999994,0,0,0,0,0,0,0,1,0,0,0,false,false,true,-103.35,616.92,17.01,-0.004723144,0.0007741533,0.98647654,0.16383247,-228.44101,410.421,8.331,-0.00010999999,0,1.91791
77.38333,2000,0,91.24,0.000002697398,0.000002697398,0.000002697398,0.99999994,0,0,0,0,0,0,0,1,0,0,0,false,false,true,-105.25,620.33997,17.01,-0.0047285384,0.00073638966,0.98775405,0.15594526,-229.061,406.881,8.331,-0.00010999999,-0.00010999999,1.9125099
77.39167,2000,0,91.24,0.000002697398,0.000002697398,0.000002697398,0.99999994,0,0,0,0,0,0,0,1,0,0,0,false,false,true,-107.159996,623.73,17.01,-0.004733933,0.00069862604,0.98896533,0.14806885,-229.621,403.351,8.331,-0.00010999999,-0.00010999999,1.90691
77.4,2000,0,91.24,0.000002697398,0.000002697398,0.000002697398,0.99999994,0,0,0,0,0,0,0,1,0,0,0,false,false,true,-109.07,627.08997,17.01,-0.0047393283,0.00066086254,0.9901104,0.14020856,-230.121,399.831,8.331,-0.00010999999,-0.00010999999,1.9011099
77.40833,2000,0,91.24,0.000002697398,0.000002697398,0.000002697398,0.99999994,0,0,0,0,0,0,0,1,0,0,0,false,false,true,-110.99,630.42,17.01,-0.0047447234,0.000623099,0.99119025,0.13235915,-230.561,396.32098,8.331,-0.00010999999,-0.00010999999,1.89511
77.416664,2000,0,91.24,0.000002697398,0.000002697398,0.000002697398,0.99999994,0,0,0,0,0,0,0,1,0,0,0,false,false,true,-112.909996,633.72,17.01,-0.004750118,0.0005853354,0.9922048,0.1245259,-230.951,392.831,8.331,-0.00010999999,-0.00010999999,1.8889099
77.425,2000,0,91.24,0.000002697398,0.000002697398,0.000002697398,0.99999994,0,0,0,0,0,0,0,1,0,0,0,false,false,true,-114.829994,636.99,17.01,-0.004755513,0.0005475718,0.993154,0.11671414,-231.281,389.351,8.331,-0.00010999999,-0.00010999999,1.88251
77.433334,2000,0,91.24,0.000002697398,0.000002697398,0.000002697398,0.99999994,0,0,0,0,0,0,0,1,0,0,0,false,false,true,-116.759995,640.23,17.01,-0.0047609075,0.0005098082,0.99403906,0.10891866,-231.561,385.891,8.331,-0.00010999999,-0.00010999999,1.87601
77.441666,2000,0,91.24,0.000002697398,0.000002697398,0.000002697398,0.99999994,0,0,0,0,0,0,0,1,0,0,0,false,false,true,-118.689995,643.45,17.01,-0.0047663026,0.0004720447,0.9948602,0.10114476,-231.781,382.451,8.331,-0.00010999999,-0.00010999999,1.86931
77.45,2000,0,91.24,0.000002697398,0.000002697398,0.000002697398,0.99999994,0,0,0,0,0,0,0,1,0,0,0,false,false,true,-120.619995,646.64,17.01,-0.004771697,0.0004342811,0.9956178,0.09339235,-231.951,379.031,8.331,-0.00010999999,-0.00010999999,1.86241
77.458336,2000,0,91.24,0.000002697398,0.000002697398,0.000002697398,0.99999994,0,0,0,0,0,0,0,1,0,0,0,false,false,true,-122.549995,649.8,17.01,-0.004777092,0.0003965175,0.9963127,0.085661605,-232.061,375.641,8.331,-0.00010999999,-0.00010999999,1.85531
77.46667,2000,0,91.24,0.000002697398,0.000002697398,0.000002697398,0.99999994,0,0,0,0,0,0,0,1,0,0,0,false,false,true,-124.479996,652.93,17.01,-0.0047824862,0.0003587539,0.99694496,0.07795783,-232.121,372.271,8.331,-0.00010999999,0,1.84801
77.475,2000,0,91.24,0.000002697398,0.000002697398,0.000002697398,0.99999994,0,0,0,0,0,0,0,1,0,0,0,false,false,true,-126.409996,656.02997,17.01,-0.004782487,0.0003209904,0.9975157,0.07028096,-232.131,368.931,8.331,-0.00010999999,0,1.84051
77.48333,2000,0,91.24,0.000002697398,0.000002697398,0.000002697398,0.99999994,0,0,0,0,0,0,0,1,0,0,0,false,false,true,-128.34,659.1,17.01,-0.004782487,0.0002832268,0.99802524,0.062631145,-232.091,365.621,8.331,-0.00010999999,0,1.8328099
77.49167,2000,0,91.24,0.000002697398,0.000002697398,0.000002697398,0.99999994,0,0,0,0,0,0,0,1,0,0,0,false,false,true,-130.27,662.14996,17.01,-0.0047824867,0.00024546322,0.99847436,0.055008207,-232.001,362.341,8.331,-0.00010999999,0,1.8249099
77.5,2000,0,91.24,0.000002697398,0.000002697398,0.000002697398,0.99999994,0,0,0,0,0,0,0,1,0,0,0,false,false,true,-132.2,665.17,17.01,-0.0047824867,0.00020769965,0.9988639,0.047412336,-231.871,359.101,8.331,-0.00010999999,0,1.81681
77.50833,2000,0,91.24,0.000002697398,0.000002697398,0.000002697398,0.99999994,0,0,0,0,0,0,0,1,0,0,0,false,false,true,-134.12999,668.16,17.01,-0.0047824867,0.00016993607,0.9991942,0.03984883,-231.69101,355.891,8.331,-0.00010999999,-0.00010999999,1.80851
77.51667,2000,0,91.24,0.000002697398,0.000002697398,0.000002697398,0.99999994,0,0,0,0,0,0,0,1,0,0,0,false,false,true,-136.06,671.13,17.01,-0.0047824867,0.0001321725,0.9994661,0.03231761,-231.47101,352.721,8.331,-0.00010999999,-0.00010999999,1.80001
77.525,2000,0,91.24,0.000002697398,0.000002697398,0.000002697398,0.99999994,0,0,0,0,0,0,0,1,0,0,0,false,false,true,-137.98999,674.07,17.01,-0.0047824867,0.00009440893,0.99968046,0.024818843,-231.201,349.581,8.331,-0.00010999999,-0.00010999999,1.79131
77.53333,2000,0,91.24,0.000002697398,0.000002697398,0.000002697398,0.99999994,0,0,0,0,0,0,0,1,0,0,0,false,false,true,-139.92,676.98,17.01,-0.004782487,0.000056645364,0.9998379,0.017357843,-230.891,346.481,8.331,-0.00010999999,-0.00021,1.78241
77.541664,2000,0,91.24,0.000002697398,0.000002697398,0.000002697398,0.99999994,0,0,0,0,0,0,0,1,0,0,0,false,false,true,-141.84,679.87,17.01,-0.0047824867,0.000024276582,0.99993914,0.009934517,-230.541,343.421,8.331,-0.00021,-0.00021,1.77331
77.55,2000,0,91.24,0.000002697398,0.000002697398,0.000002697398,0.99999994,0,0,0,0,0,0,0,1,0,0,0,false,false,true,-143.76,682.73,17.01,-0.004782487,-0.000008092195,0.9999853,0.0025436466,-230.151,340.401,8.331,-0.00021,-0.00021,1.76401
77.558334,2000,0,91.24,0.000002697398,0.000002697398,0.000002697398,0.99999994,0,0,0,0,0,0,0,1,0,0,0,false,false,true,-145.68,685.57,17.01,-0.004782487,-0.000040460975,0.999977,-0.0048040664,-229.731,337.421,8.331,-0.00021,-0.00021,1.7545099
77.566666,2000,0,91.24,0.000002697398,0.000002697398,0.000002697398,0.99999994,0,0,0,0,0,0,0,1,0,0,0,false,false,true,-147.59,688.38,17.01,-0.0047824867,-0.000072829745,0.9999151,-0.012114056,-229.271,334.491,8.331,-0.00010999999,-0.00021,1.74481
77.575,2000,0,91.24,0.000002697398,0.000002697398,0.000002697398,0.99999994,0,0,0,0,0,0,0,1,0,0,0,false,false,true,-149.5,691.17,17.01,-0.0047824867,-0.000105198524,0.9998007,-0.01938089,-228.781,331.601,8.331,0,-0.00021,1.73491
77.583336,2000,0,91.24,0.000002697398,0.000002697398,0.000002697398,0.99999994,0,0,0,0,0,0,0,1,0,0,0,false,false,true,-151.41,693.93,17.01,-0.0047824867,-0.0001375673,0.9996344,-0.026609916,-228.251,328.761,8.331,0,-0.00021,1.72481
77.59167,2000,0,91.24,0.000002697398,0.000002697398,0.000002697398,0.99999994,0,0,0,0,0,0,0,1,0,0,0,false,false,true,-153.31,696.67,17.01,-0.0047824867,-0.00016993607,0.99941725,-0.033795826,-227.69101,325.961,8.331,0,-0.00021,1.71451
77.6,2000,0,91.24,0.000002697398,0.000002697398,0.000002697398,0.99999994,0,0,0,0,0,0,0,1,0,0,0,false,false,true,-155.20999,699.39,17.01,-0.004782487,-0.00020230487,0.9991504,-0.040933188,-227.101,323.211,8.331,0,-0.00021,1.70401
77.60833,2000,0,91.24,0.000002697398,0.000002697398,0.000002697398,0.99999994,0,0,0,0,0,0,0,1,0,0,0,false,false,true,-157.09999,702.07996,17.01,-0.0047824867,-0.00023467363,0.9988345,-0.04802734,-226.481,320.511,8.331,0,-0.00021,1.69331
77.61667,2000,0,91.24,0.000002697398,0.000002697398,0.000002697398,0.99999994,0,0,0,0,0,0,0,1,0,0,0,false,false,true,-158.98999,704.75,17.01,-0.0047824867,-0.0002670424,0.9984708,-0.055072986,-225.841,317.861,8.331,0,-0.00021,1.68241
77.625,2000,0,91.24,0.000002697398,0.000002697398,0.000002697398,0.99999994,0,0,0,0,0,0,0,1,0,0,0,false,false,true,-160.87,707.39996,17.01,-0.004782487,-0.00029941121,0.9980602,-0.062070083,-225.171,315.261,8.331,0,-0.00010999999,1.6712099
77.63333,2000,0,91.24,0.000002697398,0.000002697398,0.000002697398,0.99999994,0,0,0,0,0,0,0,1,0,0,0,false,false,true,-162.75,710.02997,17.01,-0.004782487,-0.00033178,0.99760383,-0.06901858,-224.481,312.711,8.331,0,-0.00010999999,1.65981
77.64167,2000,0,91.24,0.000002697398,0.000002697398,0.000002697398,0.99999994,0,0,0,0,0,0,0,1,0,0,0,false,false,true,-164.62,712.63995,17.01,-0.0047824867,-0.00036414873,0.99710244,-0.07591856,-223.771,310.211,8.331,0.00010999999,0,1.6482099
77.65,2000,0,91.24,0.000002697398,0.000002697398,0.000002697398,0.99999994,0,0,0,0,0,0,0,1,0,0,0,false,false,true,-166.48,715.23,17.01,-0.0047824867,-0.0003965175,0.99655753,-0.08276456,-223.041,307.761,8.331,0.00010999999,0,1.63641
77.65833,2000,0,91.24,0.000002697398,0.000002697398,0.000002697398,0.99999994,0,0,0,0,0,0,0,1,0,0,0,false,false,true,-168.34,717.79,17.01,-0.004777092,-0.0004288863,0.99597013,-0.08955665,-222.291,305.361,8.331,0.00010999999,0,1.6244099
77.666664,2000,0,91.24,0.000002697398,0.000002697398,0.000002697398,0.99999994,0,0,0,0,0,0,0,1,0,0,0,false,false,true,-170.19,720.32996,17.01,-0.004771697,-0.00046125508,0.99534124,-0.09629479,-221.531,303.011,8.321,0.00010999999,0,1.6122099
77.675,2000,0,91.24,0.000002697398,0.000002697398,0.000002697398,0.99999994,0,0,0,0,0,0,0,1,0,0,0,false,false,true,-172.04,722.86,17.01,-0.004766302,-0.00049362384,0.99467194,-0.102978945,-220.761,300.721,8.321,0.00010999999,0,1.59971
77.683334,2000,0,91.24,0.000002697398,0.000002697398,0.000002697398,0.99999994,0,0,0,0,0,0,0,1,0,0,0,false,false,true,-173.87999,725.37,17.01,-0.0047609075,-0.0005259926,0.9939632,-0.109609194,-219.97101,298.481,8.321,0.00010999999,0,1.58701
77.691666,2000,0,91.24,0.000002697398,0.000002697398,0.000002697398,0.99999994,0,0,0,0,0,0,0,1,0,0,0,false,false,true,-175.70999,727.86,17.01,-0.004755513,-0.00055836135,0.9932166,-0.1161801,-219.171,296.29102,8.321,0.00010999999,0,1.57411
77.7,2000,0,91.24,0.000002697398,0.000002697398,0.000002697398,0.99999994,0,0,0,0,0,0,0,1,0,0,0,false,false,true,-177.54,730.32996,17.01,-0.0047501177,-0.00059073017,0.99243325,-0.12269162,-218.36101,294.161,8.321,0.00010999999,0,1.56091
77.708336,2000,0,91.24,0.000002697398,0.000002697398,0.000002697398,0.99999994,0,0,0,0,0,0,0,1,0,0,0,false,false,true,-179.36,732.77997,17.01,-0.0047447234,-0.000623099,0.9916143,-0.12914385,-217.541,292.061,8.321,0.00010999999,0,1.54811
77.71667,2000,0,91.24,0.000002697398,0.000002697398,0.000002697398,0.99999994,0,0,0,0,0,0,0,1,0,0,0,false,false,true,-181.17,735.20996,17.01,-0.0047393288,-0.0006554678,0.99076074,-0.13553667,-216.701,290.001,8.321,0.00010999999,-0.00010999999,1.53571
77.725,2000,0,91.24,0.000002697398,0.000002697398,0.000002697398,0.99999994,0,0,0,0,0,0,0,1,0,0,0,false,false,true,-182.98,737.63,17.01,-0.0047339336,-0.0006878365,0.9898729,-0.1418756,-215.841,287.981,8.321,0.00010999999,-0.00010999999,1.52371
77.73333,2000,0,91.24,0.000002697398,0.000002697398,0.000002697398,0.99999994,0,0,0,0,0,0,0,1,0,0,0,false,false,true,-184.78,740.02997,17.01,-0.004728538,-0.0007202052,0.9889524,-0.14815512,-214.97101,286.001,8.321,0.00010999999,-0.00010999999,1.51211
77.74167,2000,0,91.24,0.000002697398,0.000002697398,0.000002697398,0.99999994,0,0,0,0,0,0,0,1,0,0,0,false,false,true,-186.56999,742.41,17.01,-0.0047231438,-0.00075257407,0.9879998,-0.15438077,-214.08101,284.051,8.321,0.00010999999,-0.00021,1.5009099
77.75,2000,0,91.24,0.000002697398,0.000002697398,0.000002697398,0.99999994,0,0,0,0,0,0,0,1,0,0,0,false,false,true,-188.34999,744.77997,17.01,-0.0047177486,-0.00078494276,0.9870147,-0.16055784,-213.181,282.141,8.321,0,-0.00021,1.4901099
77.75833,2000,0,91.24,0.000002697398,0.000002697398,0.000002697398,0.99999994,0,0,0,0,0,0,0,1,0,0,0,false,false,true,-190.12999,747.13,17.01,-0.0047123544,-0.00081191683,0.9859992,-0.16668095,-212.271,280.271,8.321,0,-0.00021,1.47961
77.76667,2000,0,91.24,0.000002697398,0.000002697398,0.000002697398,0.99999994,0,0,0,0,0,0,0,1,0,0,0,false,false,true,-191.9,749.47,17.01,-0.0047069597,-0.0008388908,0.98495305,-0.17275552,-211.351,278.441,8.321,0,-0.00021,1.46951
77.775,2000,0,91.24,0.000002697398,0.000002697398,0.000002697398,0.99999994,0,0,0,0,0,0,0,1,0,0,0,false,false,true,-193.65999,751.79,17.01,-0.004701565,-0.00086586486,0.9838772,-0.17878154,-210.421,276.651,8.321,0,-0.00021,1.45971
77.78333,2000,0,91.24,0.000002697398,0.000002697398,0.000002697398,0.99999994,0,0,0,0,0,0,0,1,0,0,0,false,false,true,-195.40999,754.1,17.01,-0.00469617,-0.00089283875,0.98277116,-0.18476439,-209.481,274.901,8.321,0,-0.00021,1.45021
77.791664,2000,0,91.24,0.000002697398,0.000002697398,0.000002697398,0.99999994,0,0,0,0,0,0,0,1,0,0,0,false,false,true,-197.15999,756.38995,17.01,-0.004690775,-0.00091981277,0.98163694,-0.19069867,-208.541,273.201,8.321,0,-0.00021,1.44111
77.8,2000,0,91.24,0.000002697398,0.000002697398,0.000002697398,0.99999994,0,0,0,0,0,0,0,1,0,0,0,false,false,true,-198.9,758.67,17.01,-0.0046853805,-0.0009467867,0.9804741,-0.19658983,-207.591,271.54102,8.321,0,-0.00021,1.43231
77.808334,2000,0,91.24,0.000002697398,0.000002697398,0.000002697398,0.99999994,0,0,0,0,0,0,0,1,0,0,0,false,false,true,-200.62999,760.93,17.01,-0.004679986,-0.0009737608,0.97928345,-0.2024378,-206.641,269.921,8.321,0,-0.00021,1.42381
77.816666,2000,0,91.24,0.000002697398,0.000002697398,0.000002697398,0.99999994,0,0,0,0,0,0,0,1,0,0,0,false,false,true,-202.34999,763.18,17.01,-0.004674591,-0.0010007347,0.9780655,-0.20824264,-205.69101,268.341,8.321,0,-0.00021,1.41561
77.825,2000,0,91.24,0.000002697398,0.000002697398,0.000002697398,0.99999994,0,0,0,0,0,0,0,1,0,0,0,false,false,true,-204.06,765.42,17.01,-0.0046691964,-0.0010277088,0.9768198,-0.21400969,-204.741,266.801,8.321,0,-0.00021,1.40771
77.833336,2000,0,91.24,0.000002697398,0.000002697398,0.000002697398,0.99999994,0,0,0,0,0,0,0,1,0,0,0,false,false,true,-205.76999,767.63995,17.01,-0.0046638013,-0.0010546827,0.97554815,-0.21973358,-203.791,265.311,8.321,0,-0.00021,1.40011
77.84167,2000,0,91.24,0.000002697398,0.000002697398,0.000002697398,0.99999994,0,0,0,0,0,0,0,1,0,0,0,false,false,true,-207.47,769.85,17.01,-0.004658406,-0.0010816565,0.97424996,-0.2254197,-202.841,263.861,8.321,0.00010999999,-0.00021,1.39271
77.85,2000,0,91.24,0.000002697398,0.000002697398,0.000002697398,0.99999994,0,0,0,0,0,0,0,1,0,0,0,false,false,true,-209.15999,772.05,17.01,-0.004653011,-0.0011086304,0.97292566,-0.23106807,-201.891,262.441,8.321,0.00010999999,-0.00021,1.38581
77.85833,2000,0,91.24,0.000002697398,0.000002697398,0.000002697398,0.99999994,0,0,0,0,0,0,0,1,0,0,0,false,false,true,-210.84,774.24,17.01,-0.0046476168,-0.0011356046,0.97157484,-0.23668408,-200.921,261.051,8.321,0.00010999999,-0.00021,1.37971
77.86667,2000,0,91.24,0.000002697398,0.000002697398,0.000002697398,0.99999994,0,0,0,0,0,0,0,1,0,0,0,false,false,true,-212.51,776.42,17.01,-0.0046422225,-0.0011625787,0.9701976,-0.24226776,-199.94101,259.681,8.321,0.00010999999,-0.00021,1.3745099
77.875,2000,0,91.24,0.000002697398,0.000002697398,0.000002697398,0.99999994,0,0,0,0,0,0,0,1,0,0,0,false,false,true,-214.18,778.57996,17.01,-0.0046368274,-0.0011895526,0.9687945,-0.24781899,-198.94101,258.341,8.321,0.00010999999,-0.00021,1.37011
77.88333,2000,0,91.24,0.000002697398,0.000002697398,0.000002697398,0.99999994,0,0,0,0,0,0,0,1,0,0,0,false,false,true,-215.84,780.73,17.01,-0.004631432,-0.0012165264,0.96736443,-0.25334325,-197.931,257.031,8.321,0.00010999999,-0.00021,1.36651
77.89167,2000,0,91.24,0.000002697398,0.000002697398,0.000002697398,0.99999994,0,0,0,0,0,0,0,1,0,0,0,false,false,true,-217.48999,782.87,17.01,-0.004626038,-0.0012435006,0.9659067,-0.258846,-196.911,255.741,8.321,0.00010999999,-0.00010999999,1.36361
77.9,2000,0,91.24,0.000002697398,0.000002697398,0.000002697398,0.99999994,0,0,0,0,0,0,0,1,0,0,0,false,false,true,-219.12999,785,17.01,-0.004620643,-0.0012704745,0.9644211,-0.26432714,-195.881,254.481,8.321,0,-0.00010999999,1.36151
77.90833,2000,0,91.24,0.000002697398,0.000002697398,0.000002697398,0.99999994,0,0,0,0,0,0,0,1,0,0,0,false,false,true,-220.76,787.12,17.01,-0.004615248,-0.0012974484,0.9629066,-0.26979205,-194.841,253.251,8.321,0,-0.00010999999,1.36001
77.916664,2000,0,91.24,0.000002697398,0.000002697398,0.000002697398,0.99999994,0,0,0,0,0,0,0,1,0,0,0,false,false,true,-222.37999,789.23,17.01,-0.0046098526,-0.0013244223,0.96136165,-0.2752462,-193.781,252.021,8.321,0,-0.00010999999,1.3587099
77.925,2000,0,91.24,0.000002697398,0.000002697398,0.000002697398,0.99999994,0,0,0,0,0,0,0,1,0,0,0,false,false,true,-223.98999,791.32996,17.01,-0.004604459,-0.0013513966,0.95978814,-0.28068423,-192.701,250.801,8.321,0,0,1.35761
77.933334,2000,0,91.24,0.000002697398,0.000002697398,0.000002697398,0.99999994,0,0,0,0,0,0,0,1,0,0,0,false,false,true,-225.59999,793.42,17.01,-0.0045990637,-0.0013783704,0.95818424,-0.2861114,-191.591,249.591,8.321,0,0,1.35671
77.941666,2000,0,91.24,0.000002697398,0.000002697398,0.000002697398,0.99999994,0,0,0,0,0,0,0,1,0,0,0,false,false,true,-227.2,795.5,17.01,-0.004593669,-0.0014053443,0.9565519,-0.29152238,-190.461,248.381,8.321,0,0,1.35591
77.95,2000,0,91.24,0.000002697398,0.000002697398,0.000002697398,0.99999994,0,0,0,0,0,0,0,1,0,0,0,false,false,true,-228.79,797.57,17.01,-0.0045882734,-0.0014323182,0.9548893,-0.2969226,-189.321,247.181,8.321,0,0,1.35531
77.958336,2000,0,91.24,0.000002697398,0.000002697398,0.000002697398,0.99999994,0,0,0,0,0,0,0,1,0,0,0,false,false,true,-230.37,799.63,17.01,-0.004577485,-0.0014592925,0.9531969,-0.30231205,-188.161,245.991,8.321,0,0,1.35491
77.96667,2000,0,91.24,0.000002697398,0.000002697398,0.000002697398,0.99999994,0,0,0,0,0,0,0,1,0,0,0,false,false,true,-231.94,801.68,17.01,-0.0045666946,-0.0014862664,0.95147425,-0.30769068,-186.981,244.821,8.321,0,0,1.35461
77.975,2000,0,91.24,0.000002697398,0.000002697398,0.000002697398,0.99999994,0,0,0,0,0,0,0,1,0,0,0,false,false,true,-233.5,803.72,17.01,-0.0045559052,-0.0015132403,0.94972163,-0.3130585,-185.781,243.661,8.321,0,0,1.3544099
77.98333,2000,0,91.24,0.000002697398,0.000002697398,0.000002697398,0.99999994,0,0,0,0,0,0,0,1,0,0,0,false,false,true,-235.04999,805.75,17.01,-0.004545116,-0.0015402144,0.94793904,-0.3184156,-184.571,242.511,8.321,0,0,1.3544099
77.99167,2000,0,91.24,0.000002697398,0.000002697398,0.000002697398,0.99999994,0,0,0,0,0,0,0,1,0,0,0,false,false,true,-236.59,807.76996,17.01,-0.004534326,-0.0015671883,0.9461264,-0.32376182,-183.341,241.381,8.321,0,0,1.35451
78,2000,0,91.24,0.000002697398,0.000002697398,0.000002697398,0.99999994,0,0,0,0,0,0,0,1,0,0,0,false,false,true,-238.12,809.77997,17.01,-0.004523536,-0.0015941622,0.9442838,-0.3290973,-182.101,240.261,8.321,0,0,1.35481
78.00833,2000,0,91.24,0.000002697398,0.000002697398,0.000002697398,0.99999994,0,0,0,0,0,0,0,1,0,0,0,false,false,true,-239.64,811.77997,17.01,-0.0045127473,-0.0016211363,0.9424112,-0.334422,-180.851,239.161,8.321,-0.00010999999,-0.00010999999,1.35521
78.01667,2000,0,91.24,0.000002697398,0.000002697398,0.000002697398,0.99999994,0,0,0,0,0,0,0,1,0,0,0,false,false,true,-241.15,813.76996,17.01,-0.004501958,-0.0016481103,0.9405086,-0.33973593,-179.591,238.071,8.321,-0.00010999999,-0.00010999999,1.35571
78.025,2000,0,91.24,0.000002697398,0.000002697398,0.000002697398,0.99999994,0,0,0,0,0,0,0,1,0,0,0,false,false,true,-242.65,815.75,17.01,-0.0044911676,-0.0016750842,0.9385741,-0.34504437,-178.321,237.001,8.321,-0.00010999999,-0.00021,1.35631
