time,ball_loc_x,ball_loc_y,ball_loc_z,ball_rot_x,ball_rot_y,ball_rot_z,ball_rot_w,ball_vel_x,ball_vel_y,ball_vel_z,ball_ang_x,ball_ang_y,ball_ang_z,player0_throttle,player0_steer,player0_pitch,player0_yaw,player0_roll,player0_jump,player0_boost,player0_handbrake,player0_loc_x,player0_loc_y,player0_loc_z,player0_rot_x,player0_rot_y,player0_rot_z,player0_rot_w,player0_vel_x,player0_vel_y,player0_vel_z,player0_ang_x,player0_ang_y,player0_ang_z
147.24167,2000,0,91.24,0.000002697398,0.000002697398,0.000002697398,0.99999994,0,0,0,0,0,0,0,0,0,0,0,false,false,false,0,0.14,17.01,-0.00336905,0.0033798397,0.7071014,0.7070959,0,0,8.321,-0.00051,0,0
147.25,2000,0,73,0.000002697398,0.000002697398,0.000002697398,0.99999994,0,0,0,0,0,0,1,0,0,0,0,false,false,false,0,0,16.94,0.0000026973983,0.0000026973983,0.70710677,0.70710677,0,13.331,2.041,-0.050809998,0,0
147.25833,2000,0,87.6,0.000002697398,0.000002697398,0.000002697398,0.99999994,0,0,0,0,0,0,1,0,0,0,0,false,false,false,0,0.11,16.89,-0.00014835689,0.00015375168,0.7071067,0.7071067,0,26.550999,3.8809998,-0.085609995,0,0
147.26666,2000,0,90.52,0.000002697398,0.000002697398,0.000002697398,0.99999994,0,0,0,0,0,0,1,0,0,0,0,false,false,false,0,0.32999998,16.85,-0.00040191234,0.00040730715,0.70710653,0.70710677,0,39.650997,5.481,-0.107209995,0,0
147.275,2000,0,91.1,0.000002697398,0.000002697398,0.000002697398,0.99999994,0,0,0,0,0,0,1,0,0,0,0,false,false,false,0,0.65999997,16.83,-0.00072020525,0.00072560005,0.7071067,0.707106,0,52.641,6.791,-0.11621,0,0
147.28334,2000,0,91.22,0.000002697398,0.000002697398,0.000002697398,0.99999994,0,0,0,0,0,0,1,0,0,0,0,false,false,false,0,1.1,16.82,-0.0010600775,0.0010654721,0.70710516,0.7071067,0,65.520996,7.7409997,-0.11450999,0,0
147.29167,2000,0,91.24,0.000002697398,0.000002697398,0.000002697398,0.99999994,0,0,0,0,0,0,1,0,0,0,0,false,false,false,0,1.65,16.82,-0.0013999495,0.0014053443,0.7071067,0.70710397,0,78.291,8.431,-0.10641,0,0
147.3,2000,0,91.24,0.000002697398,0.000002697398,0.000002697398,0.99999994,0,0,0,0,0,0,1,0,0,0,0,false,false,false,0,2.3,16.82,-0.0017128479,0.0017182427,0.707108,0.70710135,0,90.951,8.9210005,-0.094909996,0,0
147.30833,2000,0,91.24,0.000002697398,0.000002697398,0.000002697398,0.99999994,0,0,0,0,0,0,1,0,0,0,0,false,false,false,0,3.06,16.83,-0.001993377,0.001998772,0.70710653,0.7071013,0,103.501,9.281,-0.082109995,0,0
147.31667,2000,0,91.24,0.000002697398,0.000002697398,0.000002697398,0.99999994,0,0,0,0,0,0,1,0,0,0,0,false,false,false,0,3.9199998,16.84,-0.002236143,0.0022415377,0.7071051,0.7071013,0,115.940994,9.521,-0.06921,0,0
147.325,2000,0,91.24,0.000002697398,0.000002697398,0.000002697398,0.99999994,0,0,0,0,0,0,1,0,0,0,0,false,false,false,0,4.89,16.85,-0.0024411452,0.00244654,0.7071037,0.7071013,0,128.281,9.6710005,-0.05701,0,0
147.33333,2000,0,91.24,0.000002697398,0.000002697398,0.000002697398,0.99999994,0,0,0,0,0,0,1,0,0,0,0,false,false,false,0,5.96,16.859999,-0.002608384,0.002613779,0.70710254,0.70710135,0,140.511,9.771,-0.04601,0,0
147.34166,2000,0,91.24,0.000002697398,0.000002697398,0.000002697398,0.99999994,0,0,0,0,0,0,1,0,0,0,0,false,false,false,0,7.1299996,16.869999,-0.0027432537,0.0027486486,0.7071015,0.7071013,0,152.641,9.821,-0.03651,0,0
147.35,2000,0,91.24,0.000002697398,0.000002697398,0.000002697398,0.99999994,0,0,0,0,0,0,1,0,0,0,0,false,false,false,0,8.4,16.88,-0.0028511498,0.0028565445,0.70710063,0.7071013,0,164.66101,9.841001,-0.02841,0,0
147.35834,2000,0,91.24,0.000002697398,0.000002697398,0.000002697398,0.99999994,0,0,0,0,0,0,1,0,0,0,0,false,false,false,0,9.7699995,16.89,-0.0029374664,0.0029428613,0.7071013,0.7070999,0,176.58101,9.821,-0.02221,0,0
147.36667,2000,0,91.24,0.000002697398,0.000002697398,0.000002697398,0.99999994,0,0,0,0,0,0,1,0,0,0,0,false,false,false,0,11.24,16.9,-0.003002204,0.003007599,0.7070994,0.7071013,0,188.401,9.761001,-0.01771,0,0
147.375,2000,0,91.24,0.000002697398,0.000002697398,0.000002697398,0.99999994,0,0,0,0,0,0,1,0,0,0,0,false,false,false,0,12.809999,16.91,-0.003056152,0.0030615467,0.7071013,0.7070989,0,200.11101,9.681,-0.014409999,0,0
147.38333,2000,0,91.24,0.000002697398,0.000002697398,0.000002697398,0.99999994,0,0,0,0,0,0,1,0,0,0,0,false,false,false,0,14.48,16.92,-0.0030993104,0.0031047051,0.70709854,0.7071013,0,211.72101,9.591001,-0.011809999,0,0
147.39166,2000,0,91.24,0.000002697398,0.000002697398,0.000002697398,0.99999994,0,0,0,0,0,0,1,0,0,0,0,false,false,false,0,16.24,16.93,-0.0031316795,0.0031370742,0.707096,0.70710367,0,223.231,9.491,-0.00981,0,0
147.4,2000,0,91.24,0.000002697398,0.000002697398,0.000002697398,0.99999994,0,0,0,0,0,0,1,0,0,0,0,false,false,false,0,18.1,16.94,-0.0031586532,0.0031640478,0.7070959,0.70710343,0,234.651,9.391,-0.0083099995,0,0
147.40834,2000,0,91.24,0.000002697398,0.000002697398,0.000002697398,0.99999994,0,0,0,0,0,0,1,0,0,0,0,false,false,false,0,20.06,16.949999,-0.003185627,0.003191022,0.7070959,0.70710313,0,245.97101,9.281,-0.00711,0,0
147.41667,2000,0,91.24,0.000002697398,0.000002697398,0.000002697398,0.99999994,0,0,0,0,0,0,1,0,0,0,0,false,false,false,0,22.109999,16.96,-0.0032072063,0.0032126012,0.7070959,0.70710295,0,257.191,9.1710005,-0.00611,0,0
147.425,2000,0,91.24,0.000002697398,0.000002697398,0.000002697398,0.99999994,0,0,0,0,0,0,1,0,0,0,0,false,false,false,0,24.25,16.97,-0.0032233908,0.0032287855,0.7070959,0.70710284,0,268.321,9.061,-0.00521,0,0
147.43333,2000,0,91.24,0.000002697398,0.000002697398,0.000002697398,0.99999994,0,0,0,0,0,0,1,0,0,0,0,false,false,false,0,26.49,16.98,-0.003239575,0.0032449698,0.7070959,0.70710266,0,279.351,8.951,-0.00451,0,0
147.44167,2000,0,91.24,0.000002697398,0.000002697398,0.000002697398,0.99999994,0,0,0,0,0,0,1,0,0,0,0,false,false,false,0,28.82,16.99,-0.0032503647,0.0032557594,0.7070959,0.7071026,0,290.29102,8.841001,-0.00391,0,0
147.45,2000,0,91.24,0.000002697398,0.000002697398,0.000002697398,0.99999994,0,0,0,0,0,0,1,0,0,0,0,false,false,false,0,31.24,17,-0.0032611543,0.003266549,0.7070959,0.7071025,0,301.131,8.731,-0.00341,0,0
147.45833,2000,0,91.24,0.000002697398,0.000002697398,0.000002697398,0.99999994,0,0,0,0,0,0,1,0,0,0,0,false,false,false,0,33.75,17.01,-0.003271944,0.0032773386,0.7070959,0.70710236,0,311.881,8.621,-0.00301,0,0
147.46666,2000,0,91.24,0.000002697398,0.000002697398,0.000002697398,0.99999994,0,0,0,0,0,0,1,0,0,0,0,false,false,false,0,36.35,17.01,-0.0032827335,0.0032881282,0.7070959,0.7071023,0,322.541,8.511001,-0.00261,0,0
147.475,2000,0,91.24,0.000002697398,0.000002697398,0.000002697398,0.99999994,0,0,0,0,0,0,1,0,0,0,0,false,false,false,0,39.04,17.01,-0.0032881282,0.003293523,0.7070959,0.70710224,0,333.101,8.441,-0.0023100001,0,0
147.48334,2000,0,91.24,0.000002697398,0.000002697398,0.000002697398,0.99999994,0,0,0,0,0,0,1,0,0,0,0,false,false,false,0,41.82,17.01,-0.0032935233,0.003298918,0.707096,0.7071022,0,343.571,8.391,-0.00201,0,0
147.49167,2000,0,91.24,0.000002697398,0.000002697398,0.000002697398,0.99999994,0,0,0,0,0,0,1,0,0,0,0,false,false,false,0,44.68,17.01,-0.0032989178,0.0033043127,0.7070959,0.7071021,0,353.951,8.361,-0.0018099999,0,0
147.5,2000,0,91.24,0.000002697398,0.000002697398,0.000002697398,0.99999994,0,0,0,0,0,0,1,0,0,0,0,false,false,false,0,47.629997,17.01,-0.0033043127,0.0033097074,0.7070959,0.70710206,0,364.251,8.341001,-0.0016099999,0,0
147.50833,2000,0,91.24,0.000002697398,0.000002697398,0.000002697398,0.99999994,0,0,0,0,0,0,1,0,0,0,0,false,false,false,0,50.67,17.01,-0.0033097074,0.0033151023,0.7070959,0.707102,0,374.461,8.331,-0.0014099999,0,0
147.51666,2000,0,91.24,0.000002697398,0.000002697398,0.000002697398,0.99999994,0,0,0,0,0,0,1,0,0,0,0,false,false,false,0,53.789997,17.01,-0.0033151023,0.003320497,0.7070959,0.707102,0,384.581,8.321,-0.00131,0,0
147.525,2000,0,91.24,0.000002697398,0.000002697398,0.000002697398,0.99999994,0,0,0,0,0,0,1,0,0,0,0,false,false,false,0,56.989998,17.01,-0.0033204972,0.0033258921,0.707096,0.70710194,0,394.611,8.321,-0.00111,0,0
147.53334,2000,0,91.24,0.000002697398,0.000002697398,0.000002697398,0.99999994,0,0,0,0,0,0,1,0,0,0,0,false,false,false,0,60.28,17.01,-0.003325892,0.0033312866,0.7070959,0.7071019,0,404.561,8.321,-0.0010099999,0,0
147.54167,2000,0,91.24,0.000002697398,0.000002697398,0.000002697398,0.99999994,0,0,0,0,0,0,1,0,0,0,0,false,false,false,0,63.649998,17.01,-0.0033312866,0.0033366815,0.7070959,0.7071018,0,414.421,8.321,-0.00081,0,0
147.55,2000,0,91.24,0.000002697398,0.000002697398,0.000002697398,0.99999994,0,0,0,0,0,0,1,0,0,0,0,false,false,false,0,67.1,17.01,-0.0033312866,0.0033366815,0.7070959,0.7071018,0,424.201,8.321,-0.00061,0,0
147.55833,2000,0,91.24,0.000002697398,0.000002697398,0.000002697398,0.99999994,0,0,0,0,0,0,1,0,0,0,0,false,false,false,0,70.64,17.01,-0.0033312866,0.0033366815,0.7070959,0.7071018,0,433.891,8.321,-0.00051,0,0
147.56667,2000,0,91.24,0.000002697398,0.000002697398,0.000002697398,0.99999994,0,0,0,0,0,0,1,0,0,0,0,false,false,false,0,74.26,17.01,-0.0033312866,0.0033366815,0.7070959,0.7071018,0,443.501,8.321,-0.00051,0,0
147.575,2000,0,91.24,0.000002697398,0.000002697398,0.000002697398,0.99999994,0,0,0,0,0,0,1,0,0,0,0,false,false,false,0,77.96,17.01,-0.0033312866,0.0033366815,0.7070959,0.7071018,0,453.031,8.321,-0.00051,0,0
147.58333,2000,0,91.24,0.000002697398,0.000002697398,0.000002697398,0.99999994,0,0,0,0,0,0,1,0,0,0,0,false,false,false,0,81.74,17.01,-0.0033312866,0.0033366815,0.7070959,0.7071018,0,462.481,8.321,-0.00051,0,0
147.59166,2000,0,91.24,0.000002697398,0.000002697398,0.000002697398,0.99999994,0,0,0,0,0,0,1,0,0,0,0,false,false,false,0,85.59,17.01,-0.0033312866,0.0033366815,0.7070959,0.7071018,0,471.85098,8.321,-0.00051,0,0
147.6,2000,0,91.24,0.000002697398,0.000002697398,0.000002697398,0.99999994,0,0,0,0,0,0,1,0,0,0,0,false,false,false,0,89.52,17.01,-0.0033312866,0.0033366815,0.7070959,0.7071018,0,481.141,8.321,-0.00051,0,0
147.60834,2000,0,91.24,0.000002697398,0.000002697398,0.000002697398,0.99999994,0,0,0,0,0,0,1,0,0,0,0,false,false,false,0,93.53,17.01,-0.0033312866,0.0033366815,0.7070959,0.7071018,0,490.35098,8.321,-0.00051,0,0
147.61667,2000,0,91.24,0.000002697398,0.000002697398,0.000002697398,0.99999994,0,0,0,0,0,0,1,0,0,0,0,false,false,false,0,97.619995,17.01,-0.0033312866,0.0033366815,0.7070959,0.7071018,0,499.481,8.321,-0.00051,0,0
147.625,2000,0,91.24,0.000002697398,0.000002697398,0.000002697398,0.99999994,0,0,0,0,0,0,1,0,0,0,0,false,false,false,0,101.78,17.01,-0.0033312866,0.0033366815,0.7070959,0.7071018,0,508.531,8.321,-0.00051,0,0
147.63333,2000,0,91.24,0.000002697398,0.000002697398,0.000002697398,0.99999994,0,0,0,0,0,0,1,0,0,0,0,false,false,false,0,106.02,17.01,-0.0033312866,0.0033366815,0.7070959,0.7071018,0,517.501,8.321,-0.00051,0,0
147.64166,2000,0,91.24,0.000002697398,0.000002697398,0.000002697398,0.99999994,0,0,0,0,0,0,1,0,0,0,0,false,false,false,0,110.329994,17.01,-0.0033312866,0.0033366815,0.7070959,0.7071018,0,526.391,8.321,-0.00051,0,0
147.65,2000,0,91.24,0.000002697398,0.000002697398,0.000002697398,0.99999994,0,0,0,0,0,0,1,0,0,0,0,false,false,false,0,114.72,17.01,-0.0033312866,0.0033366815,0.7070959,0.7071018,0,535.21094,8.321,-0.00051,0,0
147.65834,2000,0,91.24,0.000002697398,0.000002697398,0.000002697398,0.99999994,0,0,0,0,0,0,1,0,0,0,0,false,false,false,0,119.18,17.01,-0.0033312866,0.0033366815,0.7070959,0.7071018,0,543.951,8.321,-0.00061,0,0
147.66667,2000,0,91.24,0.000002697398,0.000002697398,0.000002697398,0.99999994,0,0,0,0,0,0,1,0,0,0,0,false,false,false,0,123.71,17.01,-0.0033312866,0.0033366815,0.7070959,0.7071018,0,552.621,8.321,-0.00061,0,0
147.675,2000,0,91.24,0.000002697398,0.000002697398,0.000002697398,0.99999994,0,0,0,0,0,0,1,0,0,0,0,false,false,false,0,128.31999,17.01,-0.0033312866,0.0033366815,0.7070959,0.7071018,0,561.21094,8.321,-0.00061,0,0
147.68333,2000,0,91.24,0.000002697398,0.000002697398,0.000002697398,0.99999994,0,0,0,0,0,0,1,0,0,0,0,false,false,false,0,133,17.01,-0.0033312866,0.0033366815,0.7070959,0.7071018,0,569.73096,8.321,-0.00061,0,0
147.69167,2000,0,91.24,0.000002697398,0.000002697398,0.000002697398,0.99999994,0,0,0,0,0,0,1,0,0,0,0,false,false,false,0,137.75,17.01,-0.0033312866,0.0033366815,0.7070959,0.7071018,0,578.18097,8.321,-0.00061,0,0
147.7,2000,0,91.24,0.000002697398,0.000002697398,0.000002697398,0.99999994,0,0,0,0,0,0,1,0,0,0,0,false,false,false,0,142.56999,17.01,-0.0033312866,0.0033366815,0.7070959,0.7071018,0,586.55096,8.321,-0.00061,0,0
147.70833,2000,0,91.24,0.000002697398,0.000002697398,0.000002697398,0.99999994,0,0,0,0,0,0,1,0,0,0,0,false,false,false,0,147.45999,17.01,-0.0033312866,0.0033366815,0.7070959,0.7071018,0,594.85095,8.321,-0.00061,0,0
147.71666,2000,0,91.24,0.000002697398,0.000002697398,0.000002697398,0.99999994,0,0,0,0,0,0,1,0,0,0,0,false,false,false,0,152.42,17.01,-0.0033312866,0.0033366815,0.7070959,0.7071018,0,603.08093,8.321,-0.00061,0,0
147.725,2000,0,91.24,0.000002697398,0.000002697398,0.000002697398,0.99999994,0,0,0,0,0,0,1,0,0,0,0,false,false,false,0,157.45,17.01,-0.0033312866,0.0033366815,0.7070959,0.7071018,0,611.24097,8.321,-0.00061,0,0
147.73334,2000,0,91.24,0.000002697398,0.000002697398,0.000002697398,0.99999994,0,0,0,0,0,0,1,0,0,0,0,false,false,false,0,162.54,17.01,-0.0033312866,0.0033366815,0.7070959,0.7071018,0,619.33093,8.321,-0.00061,0,0
147.74167,2000,0,91.24,0.000002697398,0.000002697398,0.000002697398,0.99999994,0,0,0,0,0,0,1,0,0,0,0,false,false,false,0,167.7,17.01,-0.0033312866,0.0033366815,0.7070959,0.7071018,0,627.35095,8.321,-0.00071,0,0
147.75,2000,0,91.24,0.000002697398,0.000002697398,0.000002697398,0.99999994,0,0,0,0,0,0,1,0,0,0,0,false,false,false,0,172.93,17.01,-0.0033312866,0.0033366815,0.7070959,0.7071018,0,635.30096,8.321,-0.00071,0,0
147.75833,2000,0,91.24,0.000002697398,0.000002697398,0.000002697398,0.99999994,0,0,0,0,0,0,1,0,0,0,0,false,false,false,0,178.22,17.01,-0.0033312866,0.0033366815,0.7070959,0.7071018,0,643.18097,8.321,-0.00071,0,0
147.76666,2000,0,91.24,0.000002697398,0.000002697398,0.000002697398,0.99999994,0,0,0,0,0,0,1,0,0,0,0,false,false,false,0,183.58,17.01,-0.0033312866,0.0033366815,0.7070959,0.7071018,0,651.001,8.321,-0.00071,0,0
147.775,2000,0,91.24,0.000002697398,0.000002697398,0.000002697398,0.99999994,0,0,0,0,0,0,1,0,0,0,0,false,false,false,0,189.01,17.01,-0.0033312866,0.0033366815,0.7070959,0.7071018,0,658.751,8.321,-0.00071,0,0
147.78334,2000,0,91.24,0.000002697398,0.000002697398,0.000002697398,0.99999994,0,0,0,0,0,0,1,0,0,0,0,false,false,false,0,194.5,17.01,-0.0033312866,0.0033366815,0.7070959,0.7071018,0,666.43097,8.321,-0.00071,0,0
147.79167,2000,0,91.24,0.000002697398,0.000002697398,0.000002697398,0.99999994,0,0,0,0,0,0,1,0,0,0,0,false,false,false,0,200.05,17.01,-0.0033312866,0.0033366815,0.7070959,0.7071018,0,674.05096,8.321,-0.00071,0,0
147.8,2000,0,91.24,0.000002697398,0.000002697398,0.000002697398,0.99999994,0,0,0,0,0,0,1,0,0,0,0,false,false,false,0,205.67,17.01,-0.0033312866,0.0033366815,0.7070959,0.7071018,0,681.60095,8.321,-0.00071,0,0
147.80833,2000,0,91.24,0.000002697398,0.000002697398,0.000002697398,0.99999994,0,0,0,0,0,0,1,0,0,0,0,false,false,false,0,211.34999,17.01,-0.0033312866,0.0033366815,0.7070959,0.7071018,0,689.09094,8.321,-0.00071,0,0
147.81667,2000,0,91.24,0.000002697398,0.000002697398,0.000002697398,0.99999994,0,0,0,0,0,0,1,0,0,0,0,false,false,false,0,217.09,17.01,-0.0033312866,0.0033366815,0.7070959,0.7071018,0,696.511,8.321,-0.00071,0,0
147.825,2000,0,91.24,0.000002697398,0.000002697398,0.000002697398,0.99999994,0,0,0,0,0,0,1,0,0,0,0,false,false,false,0,222.89,17.01,-0.0033312866,0.0033366815,0.7070959,0.7071018,0,703.871,8.321,-0.00071,0,0
147.83333,2000,0,91.24,0.000002697398,0.000002697398,0.000002697398,0.99999994,0,0,0,0,0,0,1,0,0,0,0,false,false,false,0,228.76,17.01,-0.0033312866,0.0033366815,0.7070959,0.7071018,0,711.17096,8.321,-0.00071,0,0
147.84166,2000,0,91.24,0.000002697398,0.000002697398,0.000002697398,0.99999994,0,0,0,0,0,0,1,0,0,0,0,false,false,false,0,234.68999,17.01,-0.0033312866,0.0033366815,0.7070959,0.7071018,0,718.40094,8.321,-0.00081,0,0
147.85,2000,0,91.24,0.000002697398,0.000002697398,0.000002697398,0.99999994,0,0,0,0,0,0,1,0,0,0,0,false,false,false,0,240.68,17.01,-0.0033312866,0.0033366815,0.7070959,0.7071018,0,725.571,8.321,-0.00081,0,0
147.85834,2000,0,91.24,0.000002697398,0.000002697398,0.000002697398,0.99999994,0,0,0,0,0,0,1,0,0,0,0,false,false,false,0,246.73,17.01,-0.0033312866,0.0033366815,0.7070959,0.7071018,0,732.68097,8.321,-0.00081,0,0
147.86667,2000,0,91.24,0.000002697398,0.000002697398,0.000002697398,0.99999994,0,0,0,0,0,0,1,0,0,0,0,false,false,false,0,252.84,17.01,-0.0033312866,0.0033366815,0.7070959,0.7071018,0,739.73096,8.321,-0.00081,0,0
147.875,2000,0,91.24,0.000002697398,0.000002697398,0.000002697398,0.99999994,0,0,0,0,0,0,1,0,0,0,0,false,false,false,0,259,17.01,-0.0033312866,0.0033366815,0.7070959,0.7071018,0,746.72095,8.321,-0.00081,0,0
147.88333,2000,0,91.24,0.000002697398,0.000002697398,0.000002697398,0.99999994,0,0,0,0,0,0,1,0,0,0,0,false,false,false,0,265.22,17.01,-0.0033312866,0.0033366815,0.7070959,0.7071018,0,753.65094,8.321,-0.00081,0,0
147.89166,2000,0,91.24,0.000002697398,0.000002697398,0.000002697398,0.99999994,0,0,0,0,0,0,1,0,0,0,0,false,false,false,0,271.5,17.01,-0.0033312866,0.0033366815,0.7070959,0.7071018,0,760.52094,8.321,-0.00081,0,0
147.9,2000,0,91.24,0.000002697398,0.000002697398,0.000002697398,0.99999994,0,0,0,0,0,0,1,0,0,0,0,false,false,false,0,277.84,17.01,-0.0033312866,0.0033366815,0.7070959,0.7071018,0,767.33093,8.321,-0.00081,0,0
147.90834,2000,0,91.24,0.000002697398,0.000002697398,0.000002697398,0.99999994,0,0,0,0,0,0,1,0,0,0,0,false,false,false,0,284.22998,17.01,-0.0033312866,0.0033366815,0.7070959,0.7071018,0,774.08093,8.321,-0.00081,0,0
147.91667,2000,0,91.24,0.000002697398,0.000002697398,0.000002697398,0.99999994,0,0,0,0,0,0,1,0,0,0,0,false,false,false,0,290.68,17.01,-0.0033312866,0.0033366815,0.7070959,0.7071018,0,780.77094,8.321,-0.00081,0,0
147.925,2000,0,91.24,0.000002697398,0.000002697398,0.000002697398,0.99999994,0,0,0,0,0,0,1,0,0,0,0,false,false,false,0,297.19,17.01,-0.0033312866,0.0033366815,0.7070959,0.7071018,0,787.41095,8.321,-0.00081,0,0
147.93333,2000,0,91.24,0.000002697398,0.000002697398,0.000002697398,0.99999994,0,0,0,0,0,0,1,0,0,0,0,false,false,false,0,303.75,17.01,-0.0033312866,0.0033366815,0.7070959,0.7071018,0,793.99097,8.321,-0.00081,0,0
147.94167,2000,0,91.24,0.000002697398,0.000002697398,0.000002697398,0.99999994,0,0,0,0,0,0,1,0,0,0,0,false,false,false,0,310.37,17.01,-0.0033312866,0.0033366815,0.7070959,0.7071018,0,800.511,8.321,-0.00081,0,0
147.95,2000,0,91.24,0.000002697398,0.000002697398,0.000002697398,0.99999994,0,0,0,0,0,0,1,0,0,0,0,false,false,false,0,317.03998,17.01,-0.0033312866,0.0033366815,0.7070959,0.7071018,0,806.98096,8.321,-0.00091,0,0
147.95833,2000,0,91.24,0.000002697398,0.000002697398,0.000002697398,0.99999994,0,0,0,0,0,0,1,0,0,0,0,false,false,false,0,323.75998,17.01,-0.0033312866,0.0033420762,0.7070959,0.7071018,0,813.3909,8.321,-0.00091,0,0
147.96666,2000,0,91.24,0.000002697398,0.000002697398,0.000002697398,0.99999994,0,0,0,0,0,0,1,0,0,0,0,false,false,false,0,330.53998,17.01,-0.0033312866,0.003347471,0.7070959,0.70710176,0,819.751,8.321,-0.00091,0,0
147.975,2000,0,91.24,0.000002697398,0.000002697398,0.000002697398,0.99999994,0,0,0,0,0,0,1,0,0,0,0,false,false,false,0,337.37,17.01,-0.0033312868,0.003352866,0.707096,0.70710176,0,826.05096,8.321,-0.00081,0,0
147.98334,2000,0,91.24,0.000002697398,0.000002697398,0.000002697398,0.99999994,0,0,0,0,0,0,1,0,0,0,0,false,false,false,0,344.25,17.01,-0.0033312868,0.003352866,0.707096,0.70710176,0,832.30096,8.321,-0.00071,-0.00010999999,0
147.99167,2000,0,91.24,0.000002697398,0.000002697398,0.000002697398,0.99999994,0,0,0,0,0,0,1,0,0,0,0,false,false,false,0,351.19,17.01,-0.0033312868,0.003352866,0.707096,0.70710176,0,838.501,8.321,-0.00071,-0.00010999999,0
148,2000,0,91.24,0.000002697398,0.000002697398,0.000002697398,0.99999994,0,0,0,0,0,0,1,0,0,0,0,false,false,false,0,358.18,17.01,-0.0033312868,0.003352866,0.707096,0.70710176,0,844.6409,8.321,-0.00071,-0.00010999999,0
148.00833,2000,0,91.24,0.000002697398,0.000002697398,0.000002697398,0.99999994,0,0,0,0,0,0,1,0,0,0,0,false,false,false,0,365.22,17.01,-0.0033312868,0.003352866,0.707096,0.70710176,0,850.73096,8.321,-0.00071,-0.00010999999,0
148.01666,2000,0,91.24,0.000002697398,0.000002697398,0.000002697398,0.99999994,0,0,0,0,0,0,1,0,0,0,0,false,false,false,0,372.31,17.01,-0.0033312868,0.003352866,0.707096,0.70710176,0,856.77094,8.321,-0.00071,-0.00010999999,0
148.025,2000,0,91.24,0.000002697398,0.000002697398,0.000002697398,0.99999994,0,0,0,0,0,0,1,0,0,0,0,false,false,false,0,379.44998,17.01,-0.0033312868,0.003352866,0.707096,0.70710176,0,862.761,8.321,-0.00071,-0.00010999999,0
148.03334,2000,0,91.24,0.000002697398,0.000002697398,0.000002697398,0.99999994,0,0,0,0,0,0,1,0,0,0,0,false,false,false,0,386.63998,17.01,-0.0033312868,0.003352866,0.707096,0.70710176,0,868.691,8.321,-0.00071,-0.00010999999,0
148.04167,2000,0,91.24,0.000002697398,0.000002697398,0.000002697398,0.99999994,0,0,0,0,0,0,1,0,0,0,0,false,false,false,0,393.88,17.01,-0.0033312868,0.003352866,0.707096,0.70710176,0,874.571,8.321,-0.00071,-0.00010999999,0
148.05,2000,0,91.24,0.000002697398,0.000002697398,0.000002697398,0.99999994,0,0,0,0,0,0,1,0,0,0,0,false,false,false,0,401.16998,17.01,-0.0033312868,0.003352866,0.707096,0.70710176,0,880.40094,8.321,-0.00071,-0.00010999999,0
148.05833,2000,0,91.24,0.000002697398,0.000002697398,0.000002697398,0.99999994,0,0,0,0,0,0,1,0,0,0,0,false,false,false,0,408.50998,17.01,-0.0033312868,0.003352866,0.707096,0.70710176,0,886.18097,8.321,-0.00071,-0.00010999999,0
148.06667,2000,0,91.24,0.000002697398,0.000002697398,0.000002697398,0.99999994,0,0,0,0,0,0,1,0,0,0,0,false,false,false,0,415.88998,17.01,-0.0033312868,0.003352866,0.707096,0.70710176,0,891.91095,8.321,-0.00071,-0.00010999999,0
148.075,2000,0,91.24,0.000002697398,0.000002697398,0.000002697398,0.99999994,0,0,0,0,0,0,1,0,0,0,0,false,false,false,0,423.31998,17.01,-0.0033312868,0.003352866,0.707096,0.70710176,0,897.59094,8.321,-0.00071,-0.00010999999,0
148.08333,2000,0,91.24,0.000002697398,0.000002697398,0.000002697398,0.99999994,0,0,0,0,0,0,1,0,0,0,0,false,false,false,0,430.8,17.01,-0.0033312868,0.003352866,0.707096,0.70710176,0,903.23096,8.321,-0.00071,-0.00010999999,0
148.09166,2000,0,91.24,0.000002697398,0.000002697398,0.000002697398,0.99999994,0,0,0,0,0,0,1,0,0,0,0,false,false,false,0,438.33,17.01,-0.0033312868,0.003352866,0.707096,0.70710176,0,908.821,8.321,-0.00071,-0.00010999999,0
148.1,2000,0,91.24,0.000002697398,0.000002697398,0.000002697398,0.99999994,0,0,0,0,0,0,1,0,0,0,0,false,false,false,0,445.9,17.01,-0.0033312868,0.003352866,0.707096,0.70710176,0,914.36096,8.321,-0.00071,-0.00010999999,0
148.10834,2000,0,91.24,0.000002697398,0.000002697398,0.000002697398,0.99999994,0,0,0,0,0,0,1,0,0,0,0,false,false,false,0,453.52,17.01,-0.0033312868,0.003352866,0.707096,0.70710176,0,919.85095,8.321,-0.00071,-0.00010999999,0
148.11667,2000,0,91.24,0.000002697398,0.000002697398,0.000002697398,0.99999994,0,0,0,0,0,0,1,0,0,0,0,false,false,false,0,461.19,17.01,-0.0033312868,0.003352866,0.707096,0.70710176,0,925.30096,8.321,-0.00071,-0.00010999999,0
148.125,2000,0,91.24,0.000002697398,0.000002697398,0.000002697398,0.99999994,0,0,0,0,0,0,1,0,0,0,0,false,false,false,0,468.9,17.01,-0.0033312868,0.003352866,0.707096,0.70710176,0,930.7009,8.321,-0.00071,-0.00010999999,0
148.13333,2000,0,91.24,0.000002697398,0.000002697398,0.000002697398,0.99999994,0,0,0,0,0,0,1,0,0,0,0,false,false,false,0,476.66,17.01,-0.0033312868,0.003352866,0.707096,0.70710176,0,936.05096,8.321,-0.00071,-0.00010999999,0
148.14166,2000,0,91.24,0.000002697398,0.000002697398,0.000002697398,0.99999994,0,0,0,0,0,0,1,0,0,0,0,false,false,false,0,484.46,17.01,-0.0033312868,0.003352866,0.707096,0.70710176,0,941.36096,8.321,-0.00071,-0.00010999999,0
148.15,2000,0,91.24,0.000002697398,0.000002697398,0.000002697398,0.99999994,0,0,0,0,0,0,1,0,0,0,0,false,false,false,0,492.3,17.01,-0.0033312868,0.003352866,0.707096,0.70710176,0,946.621,8.321,-0.00081,-0.00010999999,0
148.15834,2000,0,91.24,0.000002697398,0.000002697398,0.000002697398,0.99999994,0,0,0,0,0,0,1,0,0,0,0,false,false,false,0,500.19,17.01,-0.0033312868,0.003352866,0.707096,0.70710176,0,951.84094,8.321,-0.00081,-0.00010999999,0
148.16667,2000,0,91.24,0.000002697398,0.000002697398,0.000002697398,0.99999994,0,0,0,0,0,0,1,0,0,0,0,false,false,false,0,508.12,17.01,-0.0033312868,0.003352866,0.707096,0.70710176,0,957.0109,8.321,-0.00081,-0.00010999999,0
148.175,2000,0,91.24,0.000002697398,0.000002697398,0.000002697398,0.99999994,0,0,0,0,0,0,1,0,0,0,0,false,false,false,0,516.1,17.01,-0.0033312868,0.003352866,0.707096,0.70710176,0,962.1409,8.321,-0.00081,-0.00010999999,0
148.18333,2000,0,91.24,0.000002697398,0.000002697398,0.000002697398,0.99999994,0,0,0,0,0,0,1,0,0,0,0,false,false,false,0,524.12,17.01,-0.0033312868,0.003352866,0.707096,0.70710176,0,967.22095,8.321,-0.00081,-0.00010999999,0
148.19167,2000,0,91.24,0.000002697398,0.000002697398,0.000002697398,0.99999994,0,0,0,0,0,0,1,0,0,0,0,false,false,false,0,532.18,17.01,-0.0033312868,0.003352866,0.707096,0.70710176,0,972.2609,8.321,-0.00081,-0.00010999999,0
148.2,2000,0,91.24,0.000002697398,0.000002697398,0.000002697398,0.99999994,0,0,0,0,0,0,1,0,0,0,0,false,false,false,0,540.27997,17.01,-0.0033312868,0.003352866,0.707096,0.70710176,0,977.2609,8.321,-0.00081,-0.00010999999,0
148.20833,2000,0,91.24,0.000002697398,0.000002697398,0.000002697398,0.99999994,0,0,0,0,0,0,1,0,0,0,0,false,false,false,0,548.42,17.01,-0.0033312868,0.003352866,0.707096,0.70710176,0,982.21094,8.321,-0.00081,-0.00010999999,0
148.21666,2000,0,91.24,0.000002697398,0.000002697398,0.000002697398,0.99999994,0,0,0,0,0,0,1,0,0,0,0,false,false,false,0,556.61,17.01,-0.0033312868,0.003352866,0.707096,0.70710176,0,987.121,8.321,-0.00081,-0.00010999999,0
148.225,2000,0,91.24,0.000002697398,0.000002697398,0.000002697398,0.99999994,0,0,0,0,0,0,1,0,0,0,0,false,false,false,0,564.83997,17.01,-0.0033312868,0.003352866,0.707096,0.70710176,0,991.99097,8.321,-0.00081,-0.00010999999,0
148.23334,2000,0,91.24,0.000002697398,0.000002697398,0.000002697398,0.99999994,0,0,0,0,0,0,1,0,0,0,0,false,false,false,0,573.11,17.01,-0.0033312868,0.003352866,0.707096,0.70710176,0,996.821,8.321,-0.00081,-0.00010999999,0
148.24167,2000,0,91.24,0.000002697398,0.000002697398,0.000002697398,0.99999994,0,0,0,0,0,0,1,0,0,0,0,false,false,false,0,581.42,17.01,-0.0033312868,0.003352866,0.707096,0.70710176,0,1001.61096,8.321,-0.00081,-0.00010999999,0
148.25,2000,0,91.24,0.000002697398,0.000002697398,0.000002697398,0.99999994,0,0,0,0,0,0,1,0,0,0,0,false,false,false,0,589.76996,17.01,-0.0033312868,0.003352866,0.707096,0.70710176,0,1006.35095,8.321,-0.00081,-0.00010999999,0
148.25833,2000,0,91.24,0.000002697398,0.000002697398,0.000002697398,0.99999994,0,0,0,0,0,0,1,0,0,0,0,false,false,false,0,598.16,17.01,-0.0033312868,0.003352866,0.707096,0.70710176,0,1011.05096,8.321,-0.00081,-0.00010999999,0
148.26666,2000,0,91.24,0.000002697398,0.000002697398,0.000002697398,0.99999994,0,0,0,0,0,0,1,0,0,0,0,false,false,false,0,606.58997,17.01,-0.0033312868,0.003352866,0.707096,0.70710176,0,1015.71094,8.321,-0.00081,-0.00010999999,0
148.275,2000,0,91.24,0.000002697398,0.000002697398,0.000002697398,0.99999994,0,0,0,0,0,0,1,0,0,0,0,false,false,false,0,615.05,17.01,-0.0033312868,0.003352866,0.707096,0.70710176,0,1020.33093,8.321,-0.00081,-0.00010999999,0
148.28334,2000,0,91.24,0.000002697398,0.000002697398,0.000002697398,0.99999994,0,0,0,0,0,0,1,0,0,0,0,false,false,false,0,623.55,17.01,-0.0033312868,0.003352866,0.707096,0.70710176,0,1024.911,8.321,-0.00081,-0.00010999999,0
148.29167,2000,0,91.24,0.000002697398,0.000002697398,0.000002697398,0.99999994,0,0,0,0,0,0,1,0,0,0,0,false,false,false,0,632.08997,17.01,-0.0033312868,0.003352866,0.707096,0.70710176,0,1029.4509,8.321,-0.00081,-0.00010999999,0
148.3,2000,0,91.24,0.000002697398,0.000002697398,0.000002697398,0.99999994,0,0,0,0,0,0,1,0,0,0,0,false,false,false,0,640.67,17.01,-0.0033312868,0.003352866,0.707096,0.70710176,0,1033.9609,8.321,-0.00091,-0.00010999999,0
148.30833,2000,0,91.24,0.000002697398,0.000002697398,0.000002697398,0.99999994,0,0,0,0,0,0,1,0,0,0,0,false,false,false,0,649.29,17.01,-0.0033366815,0.0033528658,0.7070959,0.7071017,0,1038.4309,8.321,-0.00091,-0.00010999999,0
148.31667,2000,0,91.24,0.000002697398,0.000002697398,0.000002697398,0.99999994,0,0,0,0,0,0,1,0,0,0,0,false,false,false,0,657.94,17.01,-0.0033420762,0.0033528658,0.7070959,0.7071017,0,1042.861,8.321,-0.00091,-0.00010999999,0
148.325,2000,0,91.24,0.000002697398,0.000002697398,0.000002697398,0.99999994,0,0,0,0,0,0,1,0,0,0,0,false,false,false,0,666.63,17.01,-0.003347471,0.0033528658,0.7070959,0.70710164,0,1047.251,8.321,-0.00081,-0.00010999999,0
148.33333,2000,0,91.24,0.000002697398,0.000002697398,0.000002697398,0.99999994,0,0,0,0,0,0,1,0,0,0,0,false,false,false,0,675.36,17.01,-0.003347471,0.0033528658,0.7070959,0.70710164,0,1051.601,8.321,-0.00071,0,0
148.34166,2000,0,91.24,0.000002697398,0.000002697398,0.000002697398,0.99999994,0,0,0,0,0,0,1,0,0,0,0,false,false,false,0,684.12,17.01,-0.003347471,0.0033528658,0.7070959,0.70710164,0,1055.9209,8.321,-0.00071,0,0
148.35,2000,0,91.24,0.000002697398,0.000002697398,0.000002697398,0.99999994,0,0,0,0,0,0,1,0,0,0,0,false,false,false,0,692.92,17.01,-0.003347471,0.0033528658,0.7070959,0.70710164,0,1060.2009,8.321,-0.00071,0,0
148.35834,2000,0,91.24,0.000002697398,0.000002697398,0.000002697398,0.99999994,0,0,0,0,0,0,1,0,0,0,0,false,false,false,0,701.76,17.01,-0.003347471,0.0033528658,0.7070959,0.70710164,0,1064.4409,8.321,-0.00071,0,0
148.36667,2000,0,91.24,0.000002697398,0.000002697398,0.000002697398,0.99999994,0,0,0,0,0,0,1,0,0,0,0,false,false,false,0,710.63,17.01,-0.003347471,0.0033528658,0.7070959,0.70710164,0,1068.651,8.321,-0.00071,0,0
148.375,2000,0,91.24,0.000002697398,0.000002697398,0.000002697398,0.99999994,0,0,0,0,0,0,1,0,0,0,0,false,false,false,0,719.54,17.01,-0.003347471,0.0033528658,0.7070959,0.70710164,0,1072.8209,8.321,-0.00071,0,0
148.38333,2000,0,91.24,0.000002697398,0.000002697398,0.000002697398,0.99999994,0,0,0,0,0,0,1,0,0,0,0,false,false,false,0,728.48,17.01,-0.003347471,0.0033528658,0.7070959,0.70710164,0,1076.9509,8.321,-0.00071,0,0
148.39166,2000,0,91.24,0.000002697398,0.000002697398,0.000002697398,0.99999994,0,0,0,0,0,0,1,0,0,0,0,false,false,false,0,737.45,17.01,-0.003347471,0.0033528658,0.7070959,0.70710164,0,1081.0509,8.321,-0.00071,0,0
148.4,2000,0,91.24,0.000002697398,0.000002697398,0.000002697398,0.99999994,0,0,0,0,0,0,1,0,0,0,0,false,false,false,0,746.45996,17.01,-0.003347471,0.0033528658,0.7070959,0.70710164,0,1085.111,8.321,-0.00071,0,0
148.40834,2000,0,91.24,0.000002697398,0.000002697398,0.000002697398,0.99999994,0,0,0,0,0,0,1,0,0,0,0,false,false,false,0,755.5,17.01,-0.003347471,0.0033528658,0.7070959,0.70710164,0,1089.141,8.321,-0.00071,0,0
148.41667,2000,0,91.24,0.000002697398,0.000002697398,0.000002697398,0.99999994,0,0,0,0,0,0,1,0,0,0,0,false,false,false,0,764.57996,17.01,-0.003347471,0.0033528658,0.7070959,0.70710164,0,1093.131,8.321,-0.00071,0,0
148.425,2000,0,91.24,0.000002697398,0.000002697398,0.000002697398,0.99999994,0,0,0,0,0,0,1,0,0,0,0,false,false,false,0,773.69,17.01,-0.003347471,0.0033528658,0.7070959,0.70710164,0,1097.091,8.321,-0.00071,0,0
148.43333,2000,0,91.24,0.000002697398,0.000002697398,0.000002697398,0.99999994,0,0,0,0,0,0,1,0,0,0,0,false,false,false,0,782.82996,17.01,-0.003347471,0.0033528658,0.7070959,0.70710164,0,1101.021,8.321,-0.00071,0,0
148.44167,2000,0,91.24,0.000002697398,0.000002697398,0.000002697398,0.99999994,0,0,0,0,0,0,1,0,0,0,0,false,false,false,0,792.01,17.01,-0.003347471,0.0033528658,0.7070959,0.70710164,0,1104.911,8.321,-0.00071,0,0
148.45,2000,0,91.24,0.000002697398,0.000002697398,0.000002697398,0.99999994,0,0,0,0,0,0,1,0,0,0,0,false,false,false,0,801.22,17.01,-0.003347471,0.0033528658,0.7070959,0.70710164,0,1108.771,8.321,-0.00071,0,0
148.45833,2000,0,91.24,0.000002697398,0.000002697398,0.000002697398,0.99999994,0,0,0,0,0,0,1,0,0,0,0,false,false,false,0,810.45996,17.01,-0.003347471,0.0033528658,0.7070959,0.70710164,0,1112.601,8.321,-0.00071,0,0
148.46666,2000,0,91.24,0.000002697398,0.000002697398,0.000002697398,0.99999994,0,0,0,0,0,0,1,0,0,0,0,false,false,false,0,819.73,17.01,-0.003347471,0.0033528658,0.7070959,0.70710164,0,1116.391,8.321,-0.00071,0,0
148.475,2000,0,91.24,0.000002697398,0.000002697398,0.000002697398,0.99999994,0,0,0,0,0,0,1,0,0,0,0,false,false,false,0,829.02997,17.01,-0.003347471,0.0033528658,0.7070959,0.70710164,0,1120.151,8.321,-0.00071,0,0
148.48334,2000,0,91.24,0.000002697398,0.000002697398,0.000002697398,0.99999994,0,0,0,0,0,0,1,0,0,0,0,false,false,false,0,838.36,17.01,-0.003347471,0.0033528658,0.7070959,0.70710164,0,1123.881,8.321,-0.00071,0,0
148.49167,2000,0,91.24,0.000002697398,0.000002697398,0.000002697398,0.99999994,0,0,0,0,0,0,1,0,0,0,0,false,false,false,0,847.73,17.01,-0.003347471,0.0033528658,0.7070959,0.70710164,0,1127.5809,8.321,-0.00071,0,0
148.5,2000,0,91.24,0.000002697398,0.000002697398,0.000002697398,0.99999994,0,0,0,0,0,0,1,0,0,0,0,false,false,false,0,857.13,17.01,-0.003347471,0.0033528658,0.7070959,0.70710164,0,1131.241,8.321,-0.00071,0,0
148.50833,2000,0,91.24,0.000002697398,0.000002697398,0.000002697398,0.99999994,0,0,0,0,0,0,1,0,0,0,0,false,false,false,0,866.56,17.01,-0.003347471,0.0033528658,0.7070959,0.70710164,0,1134.871,8.321,-0.00071,0,0
148.51666,2000,0,91.24,0.000002697398,0.000002697398,0.000002697398,0.99999994,0,0,0,0,0,0,1,0,0,0,0,false,false,false,0,876.01996,17.01,-0.003347471,0.0033528658,0.7070959,0.70710164,0,1138.471,8.321,-0.00071,0,0
148.525,2000,0,91.24,0.000002697398,0.000002697398,0.000002697398,0.99999994,0,0,0,0,0,0,1,0,0,0,0,false,false,false,0,885.51,17.01,-0.003347471,0.0033528658,0.7070959,0.70710164,0,1142.0409,8.321,-0.00071,0,0
148.53334,2000,0,91.24,0.000002697398,0.000002697398,0.000002697398,0.99999994,0,0,0,0,0,0,1,0,0,0,0,false,false,false,0,895.02997,17.01,-0.003347471,0.0033528658,0.7070959,0.70710164,0,1145.5809,8.321,-0.00071,0,0
148.54167,2000,0,91.24,0.000002697398,0.000002697398,0.000002697398,0.99999994,0,0,0,0,0,0,1,0,0,0,0,false,false,false,0,904.57996,17.01,-0.003347471,0.0033528658,0.7070959,0.70710164,0,1149.091,8.321,-0.00071,0,0
148.55,2000,0,91.24,0.000002697398,0.000002697398,0.000002697398,0.99999994,0,0,0,0,0,0,1,0,0,0,0,false,false,false,0,914.16,17.01,-0.003347471,0.0033528658,0.7070959,0.70710164,0,1152.5709,8.321,-0.00071,0,0
148.55833,2000,0,91.24,0.000002697398,0.000002697398,0.000002697398,0.99999994,0,0,0,0,0,0,1,0,0,0,0,false,false,false,0,923.76,17.01,-0.003347471,0.0033528658,0.7070959,0.70710164,0,1156.021,8.321,-0.00071,0,0
148.56667,2000,0,91.24,0.000002697398,0.000002697398,0.000002697398,0.99999994,0,0,0,0,0,0,1,0,0,0,0,false,false,false,0,933.38995,17.01,-0.003347471,0.0033528658,0.7070959,0.70710164,0,1159.4409,8.321,-0.00071,0,0
148.575,2000,0,91.24,0.000002697398,0.000002697398,0.000002697398,0.99999994,0,0,0,0,0,0,1,0,0,0,0,false,false,false,0,943.05,17.01,-0.003347471,0.0033528658,0.7070959,0.70710164,0,1162.8309,8.321,-0.00071,0,0
148.58333,2000,0,91.24,0.000002697398,0.000002697398,0.000002697398,0.99999994,0,0,0,0,0,0,1,0,0,0,0,false,false,false,0,952.74,17.01,-0.003347471,0.0033528658,0.7070959,0.70710164,0,1166.1909,8.321,-0.00071,0,0
148.59166,2000,0,91.24,0.000002697398,0.000002697398,0.000002697398,0.99999994,0,0,0,0,0,0,1,0,0,0,0,false,false,false,0,962.45996,17.01,-0.003347471,0.0033528658,0.7070959,0.70710164,0,1169.521,8.321,-0.00071,0,0
148.6,2000,0,91.24,0.000002697398,0.000002697398,0.000002697398,0.99999994,0,0,0,0,0,0,1,0,0,0,0,false,false,false,0,972.20996,17.01,-0.003347471,0.0033528658,0.7070959,0.70710164,0,1172.8309,8.321,-0.00081,0,0
148.60834,2000,0,91.24,0.000002697398,0.000002697398,0.000002697398,0.99999994,0,0,0,0,0,0,1,0,0,0,0,false,false,false,0,981.98,17.01,-0.003347471,0.0033528658,0.7070959,0.70710164,0,1176.111,8.321,-0.00081,0,0
148.61667,2000,0,91.24,0.000002697398,0.000002697398,0.000002697398,0.99999994,0,0,0,0,0,0,1,0,0,0,0,false,false,false,0,991.77997,17.01,-0.003347471,0.0033528658,0.7070959,0.70710164,0,1179.361,8.321,-0.00081,0,0
148.625,2000,0,91.24,0.000002697398,0.000002697398,0.000002697398,0.99999994,0,0,0,0,0,0,1,0,0,0,0,false,false,false,0,1001.61,17.01,-0.003347471,0.0033528658,0.7070959,0.70710164,0,1182.5809,8.321,-0.00081,0,0
148.63333,2000,0,91.24,0.000002697398,0.000002697398,0.000002697398,0.99999994,0,0,0,0,0,0,1,0,0,0,0,false,false,false,0,1011.45996,17.01,-0.003347471,0.0033528658,0.7070959,0.70710164,0,1185.771,8.321,-0.00081,0,0
148.64166,2000,0,91.24,0.000002697398,0.000002697398,0.000002697398,0.99999994,0,0,0,0,0,0,1,0,0,0,0,false,false,false,0,1021.33997,17.01,-0.003347471,0.0033528658,0.7070959,0.70710164,0,1188.9409,8.321,-0.00081,0,0
148.65,2000,0,91.24,0.000002697398,0.000002697398,0.000002697398,0.99999994,0,0,0,0,0,0,1,0,0,0,0,false,false,false,0,1031.25,17.01,-0.003347471,0.0033528658,0.7070959,0.70710164,0,1192.0809,8.321,-0.00081,0,0
148.65834,2000,0,91.24,0.000002697398,0.000002697398,0.000002697398,0.99999994,0,0,0,0,0,0,1,0,0,0,0,false,false,false,0,1041.1799,17.01,-0.003347471,0.0033528658,0.7070959,0.70710164,0,1195.1909,8.321,-0.00081,0,0
148.66667,2000,0,91.24,0.000002697398,0.000002697398,0.000002697398,0.99999994,0,0,0,0,0,0,1,0,0,0,0,false,false,false,0,1051.14,17.01,-0.003347471,0.0033528658,0.7070959,0.70710164,0,1198.281,8.321,-0.00081,0,0
148.675,2000,0,91.24,0.000002697398,0.000002697398,0.000002697398,0.99999994,0,0,0,0,0,0,1,0,0,0,0,false,false,false,0,1061.13,17.01,-0.003347471,0.0033528658,0.7070959,0.70710164,0,1201.341,8.321,-0.00081,0,0
148.68333,2000,0,91.24,0.000002697398,0.000002697398,0.000002697398,0.99999994,0,0,0,0,0,0,0,1,0,0,0,false,false,true,0,1071.14,17.01,-0.003347471,0.0033528658,0.7070959,0.70710164,0,1204.371,8.321,-0.00081,0,0
148.69167,2000,0,91.24,0.000002697398,0.000002697398,0.000002697398,0.99999994,0,0,0,0,0,0,0,1,0,0,0,false,false,true,0,1081.1799,17.01,-0.003347471,0.0033528658,0.7070959,0.70710164,-12.911,1202.341,8.341001,-0.0010099999,0.00331,0.35811
148.7,2000,0,91.24,0.000002697398,0.000002697398,0.000002697398,0.99999994,0,0,0,0,0,0,0,1,0,0,0,false,false,true,-0.11,1091.2,17.01,-0.003347471,0.0033582605,0.70815206,0.70604396,-23.130999,1200.6909,8.341001,-0.00111,0.00451,0.62951
148.70833,2000,0,91.24,0.000002697398,0.000002697398,0.000002697398,0.99999994,0,0,0,0,0,0,0,1,0,0,0,false,false,true,-0.29999998,1101.21,17.01,-0.003347471,0.0033636554,0.7100028,0.70418274,-32.781,1199.111,8.341001,-0.00111,0.00481,0.86430997
148.71666,2000,0,91.24,0.000002697398,0.000002697398,0.000002697398,0.99999994,0,0,0,0,0,0,0,1,0,0,0,false,false,true,-0.57,1111.2,17.01,-0.003347471,0.00336905,0.7125352,0.7016202,-42.240997,1197.5409,8.341001,-0.00111,0.00461,1.06871
148.725,2000,0,91.24,0.000002697398,0.000002697398,0.000002697398,0.99999994,0,0,0,0,0,0,0,1,0,0,0,false,false,true,-0.91999996,1121.1799,17.01,-0.0033528658,0.00336905,0.71565014,0.69844264,-51.760998,1195.9409,8.341001,-0.00111,0.00401,1.24771
148.73334,2000,0,91.24,0.000002697398,0.000002697398,0.000002697398,0.99999994,0,0,0,0,0,0,0,1,0,0,0,false,false,true,-1.35,1131.15,17.01,-0.0033636554,0.00336905,0.71926945,0.6947148,-61.481,1194.261,8.341001,-0.0010099999,0.00331,1.40551
148.74167,2000,0,91.24,0.000002697398,0.000002697398,0.000002697398,0.99999994,0,0,0,0,0,0,0,1,0,0,0,false,false,true,-1.86,1141.1,17.01,-0.003374445,0.0033636554,0.7233255,0.69049066,-71.480995,1192.4609,8.341001,-0.00091,0.00261,1.54571
148.75,2000,0,91.24,0.000002697398,0.000002697398,0.000002697398,0.99999994,0,0,0,0,0,0,0,1,0,0,0,false,false,true,-2.46,1151.0399,17.01,-0.0033906295,0.003352866,0.7277567,0.6858188,-81.781,1190.521,8.341001,-0.00081,0.0019099999,1.6711099
148.75833,2000,0,91.24,0.000002697398,0.000002697398,0.000002697398,0.99999994,0,0,0,0,0,0,0,1,0,0,0,false,false,true,-3.1399999,1160.96,17.01,-0.0034122085,0.0033366815,0.7325124,0.68073684,-92.370995,1188.401,8.341001,-0.00071,0.0012099999,1.7839099
148.76666,2000,0,91.24,0.000002697398,0.000002697398,0.000002697398,0.99999994,0,0,0,0,0,0,0,1,0,0,0,false,false,true,-3.9099998,1170.86,17.01,-0.0034337873,0.0033151018,0.7375533,0.67527187,-103.201,1186.091,8.341001,-0.00061,0.00061,1.8859099
148.775,2000,0,91.24,0.000002697398,0.000002697398,0.000002697398,0.99999994,0,0,0,0,0,0,0,1,0,0,0,false,false,true,-4.77,1180.74,17.01,-0.0034607616,0.003293523,0.742836,0.66945624,-114.221,1183.5809,8.341001,-0.00051,0.00010999999,1.9786099
148.78334,2000,0,91.24,0.000002697398,0.000002697398,0.000002697398,0.99999994,0,0,0,0,0,0,0,1,0,0,0,false,false,true,-5.72,1190.6,17.01,-0.0034877358,0.003266549,0.748328,0.6633116,-125.340996,1180.861,8.341001,-0.00040999998,-0.00021,2.06301
148.79167,2000,0,91.24,0.000002697398,0.000002697398,0.000002697398,0.99999994,0,0,0,0,0,0,0,1,0,0,0,false,false,true,-6.7599998,1200.44,17.01,-0.0035201046,0.003239575,0.75400245,0.65685403,-136.491,1177.9309,8.341001,-0.00030999997,-0.00051,2.14011
148.8,2000,0,91.24,0.000002697398,0.000002697398,0.000002697398,0.99999994,0,0,0,0,0,0,0,1,0,0,0,false,false,true,-7.8999996,1210.26,17.01,-0.0035524736,0.0032072065,0.75982916,0.6501051,-147.561,1174.8109,8.341001,-0.00021,-0.00071,2.21051
148.80833,2000,0,91.24,0.000002697398,0.000002697398,0.000002697398,0.99999994,0,0,0,0,0,0,0,1,0,0,0,false,false,true,-9.13,1220.0499,17.01,-0.0035848422,0.0031748377,0.7657831,0.64308107,-158.461,1171.521,8.341001,-0.00010999999,-0.00091,2.27471
148.81667,2000,0,91.24,0.000002697398,0.000002697398,0.000002697398,0.99999994,0,0,0,0,0,0,0,1,0,0,0,false,false,true,-10.45,1229.8099,17.01,-0.0036172108,0.003137074,0.771845,0.6357926,-169.071,1168.0809,8.341001,0,-0.0010099999,2.3331099
148.825,2000,0,91.24,0.000002697398,0.000002697398,0.000002697398,0.99999994,0,0,0,0,0,0,0,1,0,0,0,false,false,true,-11.86,1239.5399,17.01,-0.0036495796,0.0030993104,0.7779875,0.62826145,-179.281,1164.5409,8.341001,0,-0.00111,2.38591
148.83333,2000,0,91.24,0.000002697398,0.000002697398,0.000002697398,0.99999994,0,0,0,0,0,0,0,1,0,0,0,false,false,true,-13.349999,1249.24,17.01,-0.0036819484,0.0030615467,0.7841931,0.6204983,-188.981,1160.9509,8.341001,0,-0.0012099999,2.43341
148.84166,2000,0,91.24,0.000002697398,0.000002697398,0.000002697398,0.99999994,0,0,0,0,0,0,0,1,0,0,0,false,false,true,-14.92,1258.9099,17.01,-0.0037143172,0.0030183885,0.79044515,0.612514,-198.05101,1157.371,8.341001,0,-0.00131,2.47561
148.85,2000,0,91.24,0.000002697398,0.000002697398,0.000002697398,0.99999994,0,0,0,0,0,0,0,1,0,0,0,false,false,true,-16.57,1268.5499,17.01,-0.0037520807,0.00297523,0.7967196,0.60433,-206.36101,1153.871,8.341001,0,-0.00131,2.51251
148.85834,2000,0,91.24,0.000002697398,0.000002697398,0.000002697398,0.99999994,0,0,0,0,0,0,0,1,0,0,0,false,false,true,-18.289999,1278.1699,17.01,-0.0037898445,0.002932072,0.80300176,0.59595734,-213.791,1150.5409,8.341001,0,-0.00131,2.54411
148.86667,2000,0,91.24,0.000002697398,0.000002697398,0.000002697398,0.99999994,0,0,0,0,0,0,0,1,0,0,0,false,false,true,-20.07,1287.76,17.01,-0.003827608,0.0028889133,0.8092738,0.58741194,-220.211,1147.491,8.341001,0.00010999999,-0.00131,2.57041
148.875,2000,0,91.24,0.000002697398,0.000002697398,0.000002697398,0.99999994,0,0,0,0,0,0,0,1,0,0,0,false,false,true,-21.91,1297.32,17.01,-0.0038599768,0.0028457548,0.81551915,0.57871,-225.491,1144.8309,8.341001,0.00021,-0.00131,2.59131
148.88333,2000,0,91.24,0.000002697398,0.000002697398,0.000002697398,0.99999994,0,0,0,0,0,0,0,1,0,0,0,false,false,true,-23.789999,1306.86,17.01,-0.0038923454,0.0028025967,0.8217184,0.5698734,-229.511,1142.6809,8.331,0.00030999997,-0.00131,2.60661
148.89166,2000,0,91.24,0.000002697398,0.000002697398,0.000002697398,0.99999994,0,0,0,0,0,0,0,1,0,0,0,false,false,true,-25.699999,1316.38,17.01,-0.0039247135,0.002754043,0.82785743,0.56091785,-233.681,1140.341,8.331,0.00030999997,-0.00131,2.62131
148.9,2000,0,91.24,0.000002697398,0.000002697398,0.000002697398,0.99999994,0,0,0,0,0,0,0,1,0,0,0,false,false,true,-27.65,1325.88,17.01,-0.0039570825,0.00270549,0.8339335,0.5518438,-237.991,1137.8109,8.331,0.00030999997,-0.0012099999,2.63551
148.90834,2000,0,91.24,0.000002697398,0.000002697398,0.000002697398,0.99999994,0,0,0,0,0,0,0,1,0,0,0,false,false,true,-29.63,1335.36,17.01,-0.0039894516,0.002656937,0.8399444,0.5426511,-242.431,1135.0709,8.331,0.00030999997,-0.00111,2.6493099
148.91667,2000,0,91.24,0.000002697398,0.000002697398,0.000002697398,0.99999994,0,0,0,0,0,0,0,1,0,0,0,false,false,true,-31.65,1344.82,17.01,-0.00402182,0.0026083838,0.8458841,0.53334504,-246.981,1132.131,8.331,0.00030999997,-0.0010099999,2.66261
148.925,2000,0,91.24,0.000002697398,0.000002697398,0.000002697398,0.99999994,0,0,0,0,0,0,0,1,0,0,0,false,false,true,-33.71,1354.25,17.01,-0.004054189,0.0025598307,0.8517504,0.5239257,-251.631,1128.981,8.331,0.00030999997,-0.00091,2.67541
148.93333,2000,0,91.24,0.000002697398,0.000002697398,0.000002697398,0.99999994,0,0,0,0,0,0,0,1,0,0,0,false,false,true,-35.809998,1363.6599,17.01,-0.0040865582,0.0025112778,0.85753787,0.51439846,-256.371,1125.621,8.331,0.00030999997,-0.00081,2.68781
148.94167,2000,0,91.24,0.000002697398,0.000002697398,0.000002697398,0.99999994,0,0,0,0,0,0,0,1,0,0,0,false,false,true,-37.95,1373.0399,17.01,-0.0041189273,0.0024627247,0.86324435,0.50476336,-261.181,1122.0509,8.331,0.00030999997,-0.00071,2.69971
148.95,2000,0,91.24,0.000002697398,0.000002697398,0.000002697398,0.99999994,0,0,0,0,0,0,0,1,0,0,0,false,false,true,-40.129997,1382.39,17.01,-0.0041459007,0.0024141711,0.8688681,0.49502027,-266.051,1118.271,8.331,0.00030999997,-0.00061,2.7111099
148.95833,2000,0,91.24,0.000002697398,0.000002697398,0.000002697398,0.99999994,0,0,0,0,0,0,0,1,0,0,0,false,false,true,-42.35,1391.71,17.01,-0.0041728746,0.002365618,0.87440395,0.48517475,-270.961,1114.271,8.331,0.00030999997,-0.00061,2.72201
148.96666,2000,0,91.24,0.000002697398,0.000002697398,0.000002697398,0.99999994,0,0,0,0,0,0,0,1,0,0,0,false,false,true,-44.61,1401,17.01,-0.0041998485,0.002317065,0.8798502,0.47522676,-275.901,1110.0609,8.331,0.00030999997,-0.00061,2.73241
148.975,2000,0,91.24,0.000002697398,0.000002697398,0.000002697398,0.99999994,0,0,0,0,0,0,0,1,0,0,0,false,false,true,-46.91,1410.25,17.01,-0.0042268224,0.0022685118,0.8852022,0.46518156,-280.851,1105.641,8.331,0.00030999997,-0.00051,2.74231
148.98334,2000,0,91.24,0.000002697398,0.000002697398,0.000002697398,0.99999994,0,0,0,0,0,0,0,1,0,0,0,false,false,true,-49.25,1419.46,17.01,-0.0042537972,0.0022199587,0.89045835,0.45503938,-285.811,1101.021,8.331,0.00030999997,-0.00051,2.75171
148.99167,2000,0,91.24,0.000002697398,0.000002697398,0.000002697398,0.99999994,0,0,0,0,0,0,0,1,0,0,0,false,false,true,-51.629997,1428.64,17.01,-0.0042807707,0.0021714054,0.895617,0.44479993,-290.761,1096.1909,8.331,0.00030999997,-0.00051,2.7606099
149,2000,0,91.24,0.000002697398,0.000002697398,0.000002697398,0.99999994,0,0,0,0,0,0,0,1,0,0,0,false,false,true,-54.05,1437.77,17.01,-0.0043077446,0.0021174573,0.900674,0.4344689,-295.681,1091.161,8.331,0.00030999997,-0.00040999998,2.76891
149.00833,2000,0,91.24,0.000002697398,0.000002697398,0.000002697398,0.99999994,0,0,0,0,0,0,0,1,0,0,0,false,false,true,-56.51,1446.86,17.01,-0.0043347185,0.0020635095,0.9056253,0.42405146,-300.561,1085.9309,8.331,0.00030999997,-0.00040999998,2.77671
149.01666,2000,0,91.24,0.000002697398,0.000002697398,0.000002697398,0.99999994,0,0,0,0,0,0,0,1,0,0,0,false,false,true,-59.01,1455.9099,17.01,-0.0043616924,0.0020095615,0.9104697,0.41354778,-305.391,1080.511,8.331,0.00030999997,-0.00030999997,2.78391
149.025,2000,0,91.24,0.000002697398,0.000002697398,0.000002697398,0.99999994,0,0,0,0,0,0,0,1,0,0,0,false,false,true,-61.55,1464.9099,17.01,-0.004383271,0.0019556133,0.91520584,0.40295768,-310.161,1074.901,8.331,0.00030999997,-0.00021,2.79051
149.03334,2000,0,91.24,0.000002697398,0.000002697398,0.000002697398,0.99999994,0,0,0,0,0,0,0,1,0,0,0,false,false,true,-64.13,1473.87,17.01,-0.004404851,0.0019016657,0.9198304,0.3922868,-314.861,1069.111,8.331,0.00021,-0.00021,2.79651
149.04167,2000,0,91.24,0.000002697398,0.000002697398,0.000002697398,0.99999994,0,0,0,0,0,0,0,1,0,0,0,false,false,true,-66.75,1482.7799,17.01,-0.00442643,0.0018477177,0.9243397,0.3815403,-319.481,1063.141,8.331,0.00021,-0.00021,2.80191
149.05,2000,0,91.24,0.000002697398,0.000002697398,0.000002697398,0.99999994,0,0,0,0,0,0,0,1,0,0,0,false,false,true,-69.409996,1491.64,17.01,-0.004448009,0.0017937698,0.9287307,0.37072372,-324.001,1057.001,8.331,0.00021,-0.00021,2.80671
149.05833,2000,0,91.24,0.000002697398,0.000002697398,0.000002697398,0.99999994,0,0,0,0,0,0,0,1,0,0,0,false,false,true,-72.11,1500.45,17.01,-0.0044695884,0.0017398217,0.9330028,0.35983694,-328.411,1050.7009,8.331,0.00010999999,-0.00021,2.8108099
149.06667,2000,0,91.24,0.000002697398,0.000002697398,0.000002697398,0.99999994,0,0,0,0,0,0,0,1,0,0,0,false,false,true,-74.85,1509.21,17.01,-0.0044911676,0.0016858738,0.937153,0.3488855,-332.711,1044.251,8.331,0.00010999999,-0.00010999999,2.8143098
149.075,2000,0,91.24,0.000002697398,0.000002697398,0.000002697398,0.99999994,0,0,0,0,0,0,0,1,0,0,0,false,false,true,-77.619995,1517.9099,17.01,-0.0045127473,0.0016319259,0.94117886,0.33787468,-336.881,1037.651,8.331,0.00010999999,-0.00010999999,2.8171098
149.08333,2000,0,91.24,0.000002697398,0.000002697398,0.000002697398,0.99999994,0,0,0,0,0,0,0,1,0,0,0,false,false,true,-80.43,1526.5599,17.01,-0.004534326,0.0015779779,0.9450797,0.32680452,-340.921,1030.9209,8.331,0.00010999999,-0.00010999999,2.81921
149.09166,2000,0,91.24,0.000002697398,0.000002697398,0.000002697398,0.99999994,0,0,0,0,0,0,0,1,0,0,0,false,false,true,-83.27,1535.15,17.01,-0.00455051,0.0015240298,0.9488533,0.31568033,-344.821,1024.0609,8.331,0.00010999999,0,2.82071
149.1,2000,0,91.24,0.000002697398,0.000002697398,0.000002697398,0.99999994,0,0,0,0,0,0,0,1,0,0,0,false,false,true,-86.14,1543.6799,17.01,-0.0045666946,0.001470082,0.9524977,0.30450773,-348.571,1017.08093,8.331,0.00010999999,0,2.82141
149.10834,2000,0,91.24,0.000002697398,0.000002697398,0.000002697398,0.99999994,0,0,0,0,0,0,0,1,0,0,0,false,false,true,-89.04,1552.1599,17.01,-0.0045828787,0.0014161338,0.95601076,0.29329184,-352.161,1010.001,8.331,0.00010999999,0,2.82141
149.11667,2000,0,91.24,0.000002697398,0.000002697398,0.000002697398,0.99999994,0,0,0,0,0,0,0,1,0,0,0,false,false,true,-91.97,1560.58,17.01,-0.0045990637,0.001362186,0.95939267,0.28203294,-355.591,1002.821,8.331,0.00010999999,0,2.82071
149.125,2000,0,91.24,0.000002697398,0.000002697398,0.000002697398,0.99999994,0,0,0,0,0,0,0,1,0,0,0,false,false,true,-94.93,1568.94,17.01,-0.0046152486,0.0013082381,0.9626416,0.2707362,-358.851,995.561,8.331,0.00010999999,0,2.81921
149.13333,2000,0,91.24,0.000002697398,0.000002697398,0.000002697398,0.99999994,0,0,0,0,0,0,0,1,0,0,0,false,false,true,-97.92,1577.24,17.01,-0.0046314327,0.0012542902,0.9657547,0.2594125,-361.941,988.22095,8.331,0.00010999999,0,2.81701
149.14166,2000,0,91.24,0.000002697398,0.000002697398,0.000002697398,0.99999994,0,0,0,0,0,0,0,1,0,0,0,false,false,true,-100.939995,1585.48,17.01,-0.0046476163,0.001200342,0.9687322,0.24806172,-364.851,980.821,8.331,0.00010999999,0,2.81401
149.15,2000,0,91.24,0.000002697398,0.000002697398,0.000002697398,0.99999994,0,0,0,0,0,0,0,1,0,0,0,false,false,true,-103.979996,1593.65,17.01,-0.0046638013,0.0011463942,0.9715747,0.23668413,-367.581,973.371,8.331,0.00010999999,0,2.81021
149.15834,2000,0,91.24,0.000002697398,0.000002697398,0.000002697398,0.99999994,0,0,0,0,0,0,0,1,0,0,0,false,false,true,-107.04,1601.76,17.01,-0.00467459,0.001092446,0.9742797,0.2252902,-370.131,965.881,8.331,0.00021,0,2.80561
149.16667,2000,0,91.24,0.000002697398,0.000002697398,0.000002697398,0.99999994,0,0,0,0,0,0,0,1,0,0,0,false,false,true,-110.119995,1609.8099,17.01,-0.0046853805,0.0010384982,0.9768469,0.21388564,-372.491,958.36096,8.331,0.00021,0,2.8001099
149.175,2000,0,91.24,0.000002697398,0.000002697398,0.000002697398,0.99999994,0,0,0,0,0,0,0,1,0,0,0,false,false,true,-113.22,1617.7999,17.01,-0.00469617,0.0009845502,0.9792755,0.20247555,-374.671,950.821,8.331,0.00021,0,2.79381
149.18333,2000,0,91.24,0.000002697398,0.000002697398,0.000002697398,0.99999994,0,0,0,0,0,0,0,1,0,0,0,false,false,true,-116.34,1625.72,17.01,-0.0047069597,0.0009306023,0.98156655,0.19106016,-376.661,943.28094,8.331,0.00021,0,2.78661
149.19167,2000,0,91.24,0.000002697398,0.000002697398,0.000002697398,0.99999994,0,0,0,0,0,0,0,1,0,0,0,false,false,true,-119.479996,1633.58,17.01,-0.004717749,0.00087665435,0.9837188,0.17965008,-378.461,935.751,8.331,0.00030999997,0,2.77861
149.2,2000,0,91.24,0.000002697398,0.000002697398,0.000002697398,0.99999994,0,0,0,0,0,0,0,1,0,0,0,false,false,true,-122.63,1641.38,17.01,-0.004728539,0.0008227065,0.9857325,0.16825089,-380.07098,928.24097,8.331,0.00030999997,0,2.7697098
149.20833,2000,0,91.24,0.000002697398,0.000002697398,0.000002697398,0.99999994,0,0,0,0,0,0,0,1,0,0,0,false,false,true,-125.799995,1649.12,17.01,-0.0047393283,0.0007687585,0.98760873,0.15686238,-381.501,920.761,8.331,0.00040999998,0,2.7599099
149.21666,2000,0,91.24,0.000002697398,0.000002697398,0.000002697398,0.99999994,0,0,0,0,0,0,0,1,0,0,0,false,false,true,-128.98,1656.7899,17.01,-0.004750118,0.00071481057,0.9893472,0.14549555,-382.741,913.321,8.331,0.00040999998,0,2.74911
149.225,2000,0,91.24,0.000002697398,0.000002697398,0.000002697398,0.99999994,0,0,0,0,0,0,0,1,0,0,0,false,false,true,-132.17,1664.3999,17.01,-0.004755513,0.00066086254,0.9909486,0.13415559,-383.801,905.93097,8.331,0.00051,0,2.7374098
149.23334,2000,0,91.24,0.000002697398,0.000002697398,0.000002697398,0.99999994,0,0,0,0,0,0,0,1,0,0,0,false,false,true,-135.37,1671.95,17.01,-0.004760908,0.00060691463,0.99241453,0.12284272,-384.681,898.61096,8.331,0.00051,0,2.72471
149.24167,2000,0,91.24,0.000002697398,0.000002697398,0.000002697398,0.99999994,0,0,0,0,0,0,0,1,0,0,0,false,false,true,-138.58,1679.44,17.01,-0.0047663026,0.00055296667,0.99374527,0.11156751,-385.391,891.36096,8.331,0.00051,0,2.7111099
149.25,2000,0,91.24,0.000002697398,0.000002697398,0.000002697398,0.99999994,0,0,0,0,0,0,0,1,0,0,0,false,false,true,-141.79,1686.87,17.01,-0.0047716973,0.0004990187,0.99494207,0.100335546,-385.931,884.2009,8.331,0.00051,0,2.6965098
149.25833,2000,0,91.24,0.000002697398,0.000002697398,0.000002697398,0.99999994,0,0,0,0,0,0,0,1,0,0,0,false,false,true,-145.01,1694.24,17.01,-0.004777092,0.00044507068,0.9960064,0.08915204,-386.311,877.1409,8.331,0.00061,0,2.6809099
149.26666,2000,0,91.24,0.000002697398,0.000002697398,0.000002697398,0.99999994,0,0,0,0,0,0,0,1,0,0,0,false,false,true,-148.23,1701.5499,17.01,-0.004782487,0.00039112274,0.99694,0.078022584,-386.531,870.18097,8.331,0.00061,0,2.6642098
149.275,2000,0,91.24,0.000002697398,0.000002697398,0.000002697398,0.99999994,0,0,0,0,0,0,0,1,0,0,0,false,false,true,-151.45,1708.7999,17.01,-0.0047878814,0.00033717474,0.99774456,0.06695237,-386.601,863.34094,8.331,0.00061,0,2.64651
149.28334,2000,0,91.24,0.000002697398,0.000002697398,0.000002697398,0.99999994,0,0,0,0,0,0,0,1,0,0,0,false,false,true,-154.67,1715.99,17.01,-0.004793276,0.00028322678,0.99842215,0.055946987,-386.521,856.631,8.331,0.00061,0,2.6277099
149.29167,2000,0,91.24,0.000002697398,0.000002697398,0.000002697398,0.99999994,0,0,0,0,0,0,0,1,0,0,0,false,false,true,-157.89,1723.13,17.01,-0.0047932756,0.00022927881,0.9989748,0.045011647,-386.311,850.05096,8.331,0.00061,0,2.60781
149.3,2000,0,91.24,0.000002697398,0.000002697398,0.000002697398,0.99999994,0,0,0,0,0,0,0,1,0,0,0,false,false,true,-161.11,1730.21,17.01,-0.004793276,0.00017533088,0.9994051,0.034151923,-385.971,843.61096,8.331,0.00061,0,2.5868099
149.30833,2000,0,91.24,0.000002697398,0.000002697398,0.000002697398,0.99999994,0,0,0,0,0,0,0,1,0,0,0,false,false,true,-164.33,1737.24,17.01,-0.004793276,0.00012138292,0.99971515,0.023378434,-385.511,837.33093,8.331,0.00061,0,2.56471
149.31667,2000,0,91.24,0.000002697398,0.000002697398,0.000002697398,0.99999994,0,0,0,0,0,0,0,1,0,0,0,false,false,true,-167.54,1744.22,17.01,-0.004793276,0.00006743495,0.99990785,0.012696737,-384.941,831.21094,8.331,0.00061,0,2.54141
149.325,2000,0,91.24,0.000002697398,0.000002697398,0.000002697398,0.99999994,0,0,0,0,0,0,0,1,0,0,0,false,false,true,-170.75,1751.1499,17.01,-0.0047932765,0.0000134869915,0.9999863,0.002106668,-384.261,825.251,8.331,0.00061,0,2.5169098
149.33333,2000,0,91.24,0.000002697398,0.000002697398,0.000002697398,0.99999994,0,0,0,0,0,0,0,1,0,0,0,false,false,true,-173.95,1758.0299,17.01,-0.0047932765,-0.000040460975,0.9999534,-0.008380858,-383.491,819.46094,8.331,0.00061,0,2.49121
149.34166,2000,0,91.24,0.000002697398,0.000002697398,0.000002697398,0.99999994,0,0,0,0,0,0,0,1,0,0,0,false,false,true,-177.15,1764.86,17.01,-0.0047932756,-0.000094408926,0.99981236,-0.018760486,-382.641,813.85095,8.331,0.00061,0,2.46431
149.35,2000,0,91.24,0.000002697398,0.000002697398,0.000002697398,0.99999994,0,0,0,0,0,0,0,1,0,0,0,false,false,true,-180.34,1771.64,17.01,-0.004793276,-0.00014835689,0.9995671,-0.029026827,-381.711,808.43097,8.331,0.00061,0,2.43611
149.35834,2000,0,91.24,0.000002697398,0.000002697398,0.000002697398,0.99999994,0,0,0,0,0,0,0,1,0,0,0,false,false,true,-183.51999,1778.38,17.01,-0.004793276,-0.00019691006,0.999221,-0.039169084,-380.721,803.201,8.331,0.00051,0,2.4065099
149.36667,2000,0,91.24,0.000002697398,0.000002697398,0.000002697398,0.99999994,0,0,0,0,0,0,0,1,0,0,0,false,false,true,-186.69,1785.07,17.01,-0.004793276,-0.00024546322,0.998778,-0.04918722,-379.651,798.10095,8.331,0.00051,0,2.37761
149.375,2000,0,91.24,0.000002697398,0.000002697398,0.000002697398,0.99999994,0,0,0,0,0,0,0,1,0,0,0,false,false,true,-189.84999,1791.72,17.01,-0.0047932756,-0.00029401635,0.9982415,-0.059081312,-378.491,793.121,8.331,0.00040999998,0,2.35011
149.38333,2000,0,91.24,0.000002697398,0.000002697398,0.000002697398,0.99999994,0,0,0,0,0,0,0,1,0,0,0,false,false,true,-193,1798.33,17.01,-0.004787882,-0.00034256958,0.99761534,-0.068851344,-377.261,788.27094,8.331,0.00040999998,0,2.32391
149.39166,2000,0,91.24,0.000002697398,0.000002697398,0.000002697398,0.99999994,0,0,0,0,0,0,0,1,0,0,0,false,false,true,-196.14,1804.8999,17.01,-0.004782487,-0.00039112274,0.99690187,-0.07850807,-375.961,783.55096,8.331,0.00030999997,0,2.29891
149.4,2000,0,91.24,0.000002697398,0.000002697398,0.000002697398,0.99999994,0,0,0,0,0,0,0,1,0,0,0,false,false,true,-199.26999,1811.4299,17.01,-0.004777092,-0.00043967587,0.9961043,-0.0880515,-374.601,778.97095,8.331,0.00021,0,2.27511
149.40834,2000,0,91.24,0.000002697398,0.000002697398,0.000002697398,0.99999994,0,0,0,0,0,0,0,1,0,0,0,false,false,true,-202.39,1817.9199,17.01,-0.004771697,-0.00048822907,0.99522465,-0.097492434,-373.181,774.53094,8.331,0.00010999999,0,2.25241
149.41667,2000,0,91.24,0.000002697398,0.000002697398,0.000002697398,0.99999994,0,0,0,0,0,0,0,1,0,0,0,false,false,true,-205.5,1824.37,17.01,-0.004766302,-0.0005313874,0.99426615,-0.10682548,-371.701,770.21094,8.331,0,0,2.23141
149.425,2000,0,91.24,0.000002697398,0.000002697398,0.000002697398,0.99999994,0,0,0,0,0,0,0,1,0,0,0,false,false,true,-208.59999,1830.7899,17.01,-0.004760907,-0.0005745457,0.9932297,-0.11606679,-370.111,765.941,8.331,0,0,2.21411
149.43333,2000,0,91.24,0.000002697398,0.000002697398,0.000002697398,0.99999994,0,0,0,0,0,0,0,1,0,0,0,false,false,true,-211.68,1837.1699,17.01,-0.004755513,-0.0006177041,0.99211645,-0.12522717,-368.421,761.73096,8.331,0,0,2.20031
149.44167,2000,0,91.24,0.000002697398,0.000002697398,0.000002697398,0.99999994,0,0,0,0,0,0,0,1,0,0,0,false,false,true,-214.75,1843.52,17.01,-0.0047501177,-0.00066086254,0.9909267,-0.13431744,-366.631,757.59094,8.331,0,0,2.18981
149.45,2000,0,91.24,0.000002697398,0.000002697398,0.000002697398,0.99999994,0,0,0,0,0,0,0,1,0,0,0,false,false,true,-217.81,1849.83,17.01,-0.004744723,-0.0007040209,0.98965985,-0.14335376,-364.751,753.52094,8.331,0,0,2.18261
149.45833,2000,0,91.24,0.000002697398,0.000002697398,0.000002697398,0.99999994,0,0,0,0,0,0,0,1,0,0,0,false,false,true,-220.84999,1856.11,17.01,-0.004739328,-0.0007471792,0.9883153,-0.15234692,-362.791,749.54095,8.331,0,0,2.17871
