time,ball_loc_x,ball_loc_y,ball_loc_z,ball_rot_x,ball_rot_y,ball_rot_z,ball_rot_w,ball_vel_x,ball_vel_y,ball_vel_z,ball_ang_x,ball_ang_y,ball_ang_z,player0_throttle,player0_steer,player0_pitch,player0_yaw,player0_roll,player0_jump,player0_boost,player0_handbrake,player0_loc_x,player0_loc_y,player0_loc_z,player0_rot_x,player0_rot_y,player0_rot_z,player0_rot_w,player0_vel_x,player0_vel_y,player0_vel_z,player0_ang_x,player0_ang_y,player0_ang_z
128.83333,2000,0,91.24,0.000002697398,0.000002697398,0.000002697398,0.99999994,0,0,0,0,0,0,0,0,0,0,0,false,false,false,0,0.14,17.01,-0.00336905,0.0033798397,0.7071014,0.7070959,0,0,8.321,-0.00051,0,0
128.84166,2000,0,73,0.000002697398,0.000002697398,0.000002697398,0.99999994,0,0,0,0,0,0,1,0,0,0,0,false,false,false,0,0,16.94,0.0000026973983,0.0000026973983,0.70710677,0.70710677,0,13.331,2.041,-0.050809998,0,0
128.85,2000,0,87.6,0.000002697398,0.000002697398,0.000002697398,0.99999994,0,0,0,0,0,0,1,0,0,0,0,false,false,false,0,0.11,16.89,-0.00014835689,0.00015375168,0.7071067,0.7071067,0,26.550999,3.8809998,-0.085609995,0,0
128.85834,2000,0,90.52,0.000002697398,0.000002697398,0.000002697398,0.99999994,0,0,0,0,0,0,1,0,0,0,0,false,false,false,0,0.32999998,16.85,-0.00040191234,0.00040730715,0.70710653,0.70710677,0,39.650997,5.481,-0.107209995,0,0
128.86667,2000,0,91.1,0.000002697398,0.000002697398,0.000002697398,0.99999994,0,0,0,0,0,0,1,0,0,0,0,false,false,false,0,0.65999997,16.83,-0.00072020525,0.00072560005,0.7071067,0.707106,0,52.641,6.791,-0.11621,0,0
128.875,2000,0,91.22,0.000002697398,0.000002697398,0.000002697398,0.99999994,0,0,0,0,0,0,1,0,0,0,0,false,false,false,0,1.1,16.82,-0.0010600775,0.0010654721,0.70710516,0.7071067,0,65.520996,7.7409997,-0.11450999,0,0
128.88333,2000,0,91.24,0.000002697398,0.000002697398,0.000002697398,0.99999994,0,0,0,0,0,0,1,0,0,0,0,false,false,false,0,1.65,16.82,-0.0013999495,0.0014053443,0.7071067,0.70710397,0,78.291,8.431,-0.10641,0,0
128.89166,2000,0,91.24,0.000002697398,0.000002697398,0.000002697398,0.99999994,0,0,0,0,0,0,1,0,0,0,0,false,false,false,0,2.3,16.82,-0.0017128479,0.0017182427,0.707108,0.70710135,0,90.951,8.9210005,-0.094909996,0,0
128.9,2000,0,91.24,0.000002697398,0.000002697398,0.000002697398,0.99999994,0,0,0,0,0,0,1,0,0,0,0,false,false,false,0,3.06,16.83,-0.001993377,0.001998772,0.70710653,0.7071013,0,103.501,9.281,-0.082109995,0,0
128.90834,2000,0,91.24,0.000002697398,0.000002697398,0.000002697398,0.99999994,0,0,0,0,0,0,1,0,0,0,0,false,false,false,0,3.9199998,16.84,-0.002236143,0.0022415377,0.7071051,0.7071013,0,115.940994,9.521,-0.06921,0,0
128.91667,2000,0,91.24,0.000002697398,0.000002697398,0.000002697398,0.99999994,0,0,0,0,0,0,1,0,0,0,0,false,false,false,0,4.89,16.85,-0.0024411452,0.00244654,0.7071037,0.7071013,0,128.281,9.6710005,-0.05701,0,0
128.925,2000,0,91.24,0.000002697398,0.000002697398,0.000002697398,0.99999994,0,0,0,0,0,0,1,0,0,0,0,false,false,false,0,5.96,16.859999,-0.002608384,0.002613779,0.70710254,0.70710135,0,140.511,9.771,-0.04601,0,0
128.93333,2000,0,91.24,0.000002697398,0.000002697398,0.000002697398,0.99999994,0,0,0,0,0,0,1,0,0,0,0,false,false,false,0,7.1299996,16.869999,-0.0027432537,0.0027486486,0.7071015,0.7071013,0,152.641,9.821,-0.03651,0,0
128.94167,2000,0,91.24,0.000002697398,0.000002697398,0.000002697398,0.99999994,0,0,0,0,0,0,1,0,0,0,0,false,false,false,0,8.4,16.88,-0.0028511498,0.0028565445,0.70710063,0.7071013,0,164.66101,9.841001,-0.02841,0,0
128.95,2000,0,91.24,0.000002697398,0.000002697398,0.000002697398,0.99999994,0,0,0,0,0,0,1,0,0,0,0,false,false,false,0,9.7699995,16.89,-0.0029374664,0.0029428613,0.7071013,0.7070999,0,176.58101,9.821,-0.02221,0,0
128.95833,2000,0,91.24,0.000002697398,0.000002697398,0.000002697398,0.99999994,0,0,0,0,0,0,1,0,0,0,0,false,false,false,0,11.24,16.9,-0.003002204,0.003007599,0.7070994,0.7071013,0,188.401,9.761001,-0.01771,0,0
128.96666,2000,0,91.24,0.000002697398,0.000002697398,0.000002697398,0.99999994,0,0,0,0,0,0,1,0,0,0,0,false,false,false,0,12.809999,16.91,-0.003056152,0.0030615467,0.7071013,0.7070989,0,200.11101,9.681,-0.014409999,0,0
128.975,2000,0,91.24,0.000002697398,0.000002697398,0.000002697398,0.99999994,0,0,0,0,0,0,1,0,0,0,0,false,false,false,0,14.48,16.92,-0.0030993104,0.0031047051,0.70709854,0.7071013,0,211.72101,9.591001,-0.011809999,0,0
128.98334,2000,0,91.24,0.000002697398,0.000002697398,0.000002697398,0.99999994,0,0,0,0,0,0,1,0,0,0,0,false,false,false,0,16.24,16.93,-0.0031316795,0.0031370742,0.707096,0.70710367,0,223.231,9.491,-0.00981,0,0
128.99167,2000,0,91.24,0.000002697398,0.000002697398,0.000002697398,0.99999994,0,0,0,0,0,0,1,0,0,0,0,false,false,false,0,18.1,16.94,-0.0031586532,0.0031640478,0.7070959,0.70710343,0,234.651,9.391,-0.0083099995,0,0
129,2000,0,91.24,0.000002697398,0.000002697398,0.000002697398,0.99999994,0,0,0,0,0,0,1,0,0,0,0,false,false,false,0,20.06,16.949999,-0.003185627,0.003191022,0.7070959,0.70710313,0,245.97101,9.281,-0.00711,0,0
129.00833,2000,0,91.24,0.000002697398,0.000002697398,0.000002697398,0.99999994,0,0,0,0,0,0,1,0,0,0,0,false,false,false,0,22.109999,16.96,-0.0032072063,0.0032126012,0.7070959,0.70710295,0,257.191,9.1710005,-0.00611,0,0
129.01666,2000,0,91.24,0.000002697398,0.000002697398,0.000002697398,0.99999994,0,0,0,0,0,0,1,0,0,0,0,false,false,false,0,24.25,16.97,-0.0032233908,0.0032287855,0.7070959,0.70710284,0,268.321,9.061,-0.00521,0,0
129.025,2000,0,91.24,0.000002697398,0.000002697398,0.000002697398,0.99999994,0,0,0,0,0,0,1,0,0,0,0,false,false,false,0,26.49,16.98,-0.003239575,0.0032449698,0.7070959,0.70710266,0,279.351,8.951,-0.00451,0,0
129.03334,2000,0,91.24,0.000002697398,0.000002697398,0.000002697398,0.99999994,0,0,0,0,0,0,1,0,0,0,0,false,false,false,0,28.82,16.99,-0.0032503647,0.0032557594,0.7070959,0.7071026,0,290.29102,8.841001,-0.00391,0,0
129.04167,2000,0,91.24,0.000002697398,0.000002697398,0.000002697398,0.99999994,0,0,0,0,0,0,1,0,0,0,0,false,false,false,0,31.24,17,-0.0032611543,0.003266549,0.7070959,0.7071025,0,301.131,8.731,-0.00341,0,0
129.05,2000,0,91.24,0.000002697398,0.000002697398,0.000002697398,0.99999994,0,0,0,0,0,0,1,0,0,0,0,false,false,false,0,33.75,17.01,-0.003271944,0.0032773386,0.7070959,0.70710236,0,311.881,8.621,-0.00301,0,0
129.05833,2000,0,91.24,0.000002697398,0.000002697398,0.000002697398,0.99999994,0,0,0,0,0,0,1,0,0,0,0,false,false,false,0,36.35,17.01,-0.0032827335,0.0032881282,0.7070959,0.7071023,0,322.541,8.511001,-0.00261,0,0
129.06667,2000,0,91.24,0.000002697398,0.000002697398,0.000002697398,0.99999994,0,0,0,0,0,0,1,0,0,0,0,false,false,false,0,39.04,17.01,-0.0032881282,0.003293523,0.7070959,0.70710224,0,333.101,8.441,-0.0023100001,0,0
129.075,2000,0,91.24,0.000002697398,0.000002697398,0.000002697398,0.99999994,0,0,0,0,0,0,1,0,0,0,0,false,false,false,0,41.82,17.01,-0.0032935233,0.003298918,0.707096,0.7071022,0,343.571,8.391,-0.00201,0,0
129.08333,2000,0,91.24,0.000002697398,0.000002697398,0.000002697398,0.99999994,0,0,0,0,0,0,1,0,0,0,0,false,false,false,0,44.68,17.01,-0.0032989178,0.0033043127,0.7070959,0.7071021,0,353.951,8.361,-0.0018099999,0,0
129.09166,2000,0,91.24,0.000002697398,0.000002697398,0.000002697398,0.99999994,0,0,0,0,0,0,1,0,0,0,0,false,false,false,0,47.629997,17.01,-0.0033043127,0.0033097074,0.7070959,0.70710206,0,364.251,8.341001,-0.0016099999,0,0
129.1,2000,0,91.24,0.000002697398,0.000002697398,0.000002697398,0.99999994,0,0,0,0,0,0,1,0,0,0,0,false,false,false,0,50.67,17.01,-0.0033097074,0.0033151023,0.7070959,0.707102,0,374.461,8.331,-0.0014099999,0,0
129.10834,2000,0,91.24,0.000002697398,0.000002697398,0.000002697398,0.99999994,0,0,0,0,0,0,1,0,0,0,0,false,false,false,0,53.789997,17.01,-0.0033151023,0.003320497,0.7070959,0.707102,0,384.581,8.321,-0.00131,0,0
129.11667,2000,0,91.24,0.000002697398,0.000002697398,0.000002697398,0.99999994,0,0,0,0,0,0,1,0,0,0,0,false,false,false,0,56.989998,17.01,-0.0033204972,0.0033258921,0.707096,0.70710194,0,394.611,8.321,-0.00111,0,0
129.125,2000,0,91.24,0.000002697398,0.000002697398,0.000002697398,0.99999994,0,0,0,0,0,0,1,0,0,0,0,false,false,false,0,60.28,17.01,-0.003325892,0.0033312866,0.7070959,0.7071019,0,404.561,8.321,-0.0010099999,0,0
129.13333,2000,0,91.24,0.000002697398,0.000002697398,0.000002697398,0.99999994,0,0,0,0,0,0,1,0,0,0,0,false,false,false,0,63.649998,17.01,-0.0033312866,0.0033366815,0.7070959,0.7071018,0,414.421,8.321,-0.00081,0,0
129.14166,2000,0,91.24,0.000002697398,0.000002697398,0.000002697398,0.99999994,0,0,0,0,0,0,1,0,0,0,0,false,false,false,0,67.1,17.01,-0.0033312866,0.0033366815,0.7070959,0.7071018,0,424.201,8.321,-0.00061,0,0
129.15,2000,0,91.24,0.000002697398,0.000002697398,0.000002697398,0.99999994,0,0,0,0,0,0,1,0,0,0,0,false,false,false,0,70.64,17.01,-0.0033312866,0.0033366815,0.7070959,0.7071018,0,433.891,8.321,-0.00051,0,0
129.15834,2000,0,91.24,0.000002697398,0.000002697398,0.000002697398,0.99999994,0,0,0,0,0,0,1,0,0,0,0,false,false,false,0,74.26,17.01,-0.0033312866,0.0033366815,0.7070959,0.7071018,0,443.501,8.321,-0.00051,0,0
129.16667,2000,0,91.24,0.000002697398,0.000002697398,0.000002697398,0.99999994,0,0,0,0,0,0,1,0,0,0,0,false,false,false,0,77.96,17.01,-0.0033312866,0.0033366815,0.7070959,0.7071018,0,453.031,8.321,-0.00051,0,0
129.175,2000,0,91.24,0.000002697398,0.000002697398,0.000002697398,0.99999994,0,0,0,0,0,0,1,0,0,0,0,false,false,false,0,81.74,17.01,-0.0033312866,0.0033366815,0.7070959,0.7071018,0,462.481,8.321,-0.00051,0,0
129.18333,2000,0,91.24,0.000002697398,0.000002697398,0.000002697398,0.99999994,0,0,0,0,0,0,1,0,0,0,0,false,false,false,0,85.59,17.01,-0.0033312866,0.0033366815,0.7070959,0.7071018,0,471.85098,8.321,-0.00051,0,0
129.19167,2000,0,91.24,0.000002697398,0.000002697398,0.000002697398,0.99999994,0,0,0,0,0,0,1,0,0,0,0,false,false,false,0,89.52,17.01,-0.0033312866,0.0033366815,0.7070959,0.7071018,0,481.141,8.321,-0.00051,0,0
129.2,2000,0,91.24,0.000002697398,0.000002697398,0.000002697398,0.99999994,0,0,0,0,0,0,1,0,0,0,0,false,false,false,0,93.53,17.01,-0.0033312866,0.0033366815,0.7070959,0.7071018,0,490.35098,8.321,-0.00051,0,0
129.20833,2000,0,91.24,0.000002697398,0.000002697398,0.000002697398,0.99999994,0,0,0,0,0,0,1,0,0,0,0,false,false,false,0,97.619995,17.01,-0.0033312866,0.0033366815,0.7070959,0.7071018,0,499.481,8.321,-0.00051,0,0
129.21666,2000,0,91.24,0.000002697398,0.000002697398,0.000002697398,0.99999994,0,0,0,0,0,0,1,0,0,0,0,false,false,false,0,101.78,17.01,-0.0033312866,0.0033366815,0.7070959,0.7071018,0,508.531,8.321,-0.00051,0,0
129.225,2000,0,91.24,0.000002697398,0.000002697398,0.000002697398,0.99999994,0,0,0,0,0,0,1,0,0,0,0,false,false,false,0,106.02,17.01,-0.0033312866,0.0033366815,0.7070959,0.7071018,0,517.501,8.321,-0.00051,0,0
129.23334,2000,0,91.24,0.000002697398,0.000002697398,0.000002697398,0.99999994,0,0,0,0,0,0,1,0,0,0,0,false,false,false,0,110.329994,17.01,-0.0033312866,0.0033366815,0.7070959,0.7071018,0,526.391,8.321,-0.00051,0,0
129.24167,2000,0,91.24,0.000002697398,0.000002697398,0.000002697398,0.99999994,0,0,0,0,0,0,1,0,0,0,0,false,false,false,0,114.72,17.01,-0.0033312866,0.0033366815,0.7070959,0.7071018,0,535.21094,8.321,-0.00051,0,0
129.25,2000,0,91.24,0.000002697398,0.000002697398,0.000002697398,0.99999994,0,0,0,0,0,0,1,0,0,0,0,false,false,false,0,119.18,17.01,-0.0033312866,0.0033366815,0.7070959,0.7071018,0,543.951,8.321,-0.00061,0,0
129.25833,2000,0,91.24,0.000002697398,0.000002697398,0.000002697398,0.99999994,0,0,0,0,0,0,1,0,0,0,0,false,false,false,0,123.71,17.01,-0.0033312866,0.0033366815,0.7070959,0.7071018,0,552.621,8.321,-0.00061,0,0
129.26666,2000,0,91.24,0.000002697398,0.000002697398,0.000002697398,0.99999994,0,0,0,0,0,0,1,0,0,0,0,false,false,false,0,128.31999,17.01,-0.0033312866,0.0033366815,0.7070959,0.7071018,0,561.21094,8.321,-0.00061,0,0
129.275,2000,0,91.24,0.000002697398,0.000002697398,0.000002697398,0.99999994,0,0,0,0,0,0,1,0,0,0,0,false,false,false,0,133,17.01,-0.0033312866,0.0033366815,0.7070959,0.7071018,0,569.73096,8.321,-0.00061,0,0
129.28334,2000,0,91.24,0.000002697398,0.000002697398,0.000002697398,0.99999994,0,0,0,0,0,0,1,0,0,0,0,false,false,false,0,137.75,17.01,-0.0033312866,0.0033366815,0.7070959,0.7071018,0,578.18097,8.321,-0.00061,0,0
129.29167,2000,0,91.24,0.000002697398,0.000002697398,0.000002697398,0.99999994,0,0,0,0,0,0,1,0,0,0,0,false,false,false,0,142.56999,17.01,-0.0033312866,0.0033366815,0.7070959,0.7071018,0,586.55096,8.321,-0.00061,0,0
129.3,2000,0,91.24,0.000002697398,0.000002697398,0.000002697398,0.99999994,0,0,0,0,0,0,1,0,0,0,0,false,false,false,0,147.45999,17.01,-0.0033312866,0.0033366815,0.7070959,0.7071018,0,594.85095,8.321,-0.00061,0,0
129.30833,2000,0,91.24,0.000002697398,0.000002697398,0.000002697398,0.99999994,0,0,0,0,0,0,1,0,0,0,0,false,false,false,0,152.42,17.01,-0.0033312866,0.0033366815,0.7070959,0.7071018,0,603.08093,8.321,-0.00061,0,0
129.31667,2000,0,91.24,0.000002697398,0.000002697398,0.000002697398,0.99999994,0,0,0,0,0,0,1,0,0,0,0,false,false,false,0,157.45,17.01,-0.0033312866,0.0033366815,0.7070959,0.7071018,0,611.24097,8.321,-0.00061,0,0
129.325,2000,0,91.24,0.000002697398,0.000002697398,0.000002697398,0.99999994,0,0,0,0,0,0,1,0,0,0,0,false,false,false,0,162.54,17.01,-0.0033312866,0.0033366815,0.7070959,0.7071018,0,619.33093,8.321,-0.00061,0,0
129.33333,2000,0,91.24,0.000002697398,0.000002697398,0.000002697398,0.99999994,0,0,0,0,0,0,1,0,0,0,0,false,false,false,0,167.7,17.01,-0.0033312866,0.0033366815,0.7070959,0.7071018,0,627.35095,8.321,-0.00071,0,0
129.34166,2000,0,91.24,0.000002697398,0.000002697398,0.000002697398,0.99999994,0,0,0,0,0,0,1,0,0,0,0,false,false,false,0,172.93,17.01,-0.0033312866,0.0033366815,0.7070959,0.7071018,0,635.30096,8.321,-0.00071,0,0
129.35,2000,0,91.24,0.000002697398,0.000002697398,0.000002697398,0.99999994,0,0,0,0,0,0,1,0,0,0,0,false,false,false,0,178.22,17.01,-0.0033312866,0.0033366815,0.7070959,0.7071018,0,643.18097,8.321,-0.00071,0,0
129.35834,2000,0,91.24,0.000002697398,0.000002697398,0.000002697398,0.99999994,0,0,0,0,0,0,1,0,0,0,0,false,false,false,0,183.58,17.01,-0.0033312866,0.0033366815,0.7070959,0.7071018,0,651.001,8.321,-0.00071,0,0
129.36667,2000,0,91.24,0.000002697398,0.000002697398,0.000002697398,0.99999994,0,0,0,0,0,0,1,0,0,0,0,false,false,false,0,189.01,17.01,-0.0033312866,0.0033366815,0.7070959,0.7071018,0,658.751,8.321,-0.00071,0,0
129.375,2000,0,91.24,0.000002697398,0.000002697398,0.000002697398,0.99999994,0,0,0,0,0,0,1,0,0,0,0,false,false,false,0,194.5,17.01,-0.0033312866,0.0033366815,0.7070959,0.7071018,0,666.43097,8.321,-0.00071,0,0
129.38333,2000,0,91.24,0.000002697398,0.000002697398,0.000002697398,0.99999994,0,0,0,0,0,0,1,0,0,0,0,false,false,false,0,200.05,17.01,-0.0033312866,0.0033366815,0.7070959,0.7071018,0,674.05096,8.321,-0.00071,0,0
129.39166,2000,0,91.24,0.000002697398,0.000002697398,0.000002697398,0.99999994,0,0,0,0,0,0,1,0,0,0,0,false,false,false,0,205.67,17.01,-0.0033312866,0.0033366815,0.7070959,0.7071018,0,681.60095,8.321,-0.00071,0,0
129.4,2000,0,91.24,0.000002697398,0.000002697398,0.000002697398,0.99999994,0,0,0,0,0,0,1,0,0,0,0,false,false,false,0,211.34999,17.01,-0.0033312866,0.0033366815,0.7070959,0.7071018,0,689.09094,8.321,-0.00071,0,0
129.40834,2000,0,91.24,0.000002697398,0.000002697398,0.000002697398,0.99999994,0,0,0,0,0,0,1,0,0,0,0,false,false,false,0,217.09,17.01,-0.0033312866,0.0033366815,0.7070959,0.7071018,0,696.511,8.321,-0.00071,0,0
129.41667,2000,0,91.24,0.000002697398,0.000002697398,0.000002697398,0.99999994,0,0,0,0,0,0,1,0,0,0,0,false,false,false,0,222.89,17.01,-0.0033312866,0.0033366815,0.7070959,0.7071018,0,703.871,8.321,-0.00071,0,0
129.425,2000,0,91.24,0.000002697398,0.000002697398,0.000002697398,0.99999994,0,0,0,0,0,0,1,0,0,0,0,false,false,false,0,228.76,17.01,-0.0033312866,0.0033366815,0.7070959,0.7071018,0,711.17096,8.321,-0.00071,0,0
129.43333,2000,0,91.24,0.000002697398,0.000002697398,0.000002697398,0.99999994,0,0,0,0,0,0,1,0,0,0,0,false,false,false,0,234.68999,17.01,-0.0033312866,0.0033366815,0.7070959,0.7071018,0,718.40094,8.321,-0.00081,0,0
129.44167,2000,0,91.24,0.000002697398,0.000002697398,0.000002697398,0.99999994,0,0,0,0,0,0,1,0,0,0,0,false,false,false,0,240.68,17.01,-0.0033312866,0.0033366815,0.7070959,0.7071018,0,725.571,8.321,-0.00081,0,0
129.45,2000,0,91.24,0.000002697398,0.000002697398,0.000002697398,0.99999994,0,0,0,0,0,0,1,0,0,0,0,false,false,false,0,246.73,17.01,-0.0033312866,0.0033366815,0.7070959,0.7071018,0,732.68097,8.321,-0.00081,0,0
129.45833,2000,0,91.24,0.000002697398,0.000002697398,0.000002697398,0.99999994,0,0,0,0,0,0,1,0,0,0,0,false,false,false,0,252.84,17.01,-0.0033312866,0.0033366815,0.7070959,0.7071018,0,739.73096,8.321,-0.00081,0,0
129.46666,2000,0,91.24,0.000002697398,0.000002697398,0.000002697398,0.99999994,0,0,0,0,0,0,1,0,0,0,0,false,false,false,0,259,17.01,-0.0033312866,0.0033366815,0.7070959,0.7071018,0,746.72095,8.321,-0.00081,0,0
129.475,2000,0,91.24,0.000002697398,0.000002697398,0.000002697398,0.99999994,0,0,0,0,0,0,1,0,0,0,0,false,false,false,0,265.22,17.01,-0.0033312866,0.0033366815,0.7070959,0.7071018,0,753.65094,8.321,-0.00081,0,0
129.48334,2000,0,91.24,0.000002697398,0.000002697398,0.000002697398,0.99999994,0,0,0,0,0,0,1,0,0,0,0,false,false,false,0,271.5,17.01,-0.0033312866,0.0033366815,0.7070959,0.7071018,0,760.52094,8.321,-0.00081,0,0
129.49167,2000,0,91.24,0.000002697398,0.000002697398,0.000002697398,0.99999994,0,0,0,0,0,0,1,0,0,0,0,false,false,false,0,277.84,17.01,-0.0033312866,0.0033366815,0.7070959,0.7071018,0,767.33093,8.321,-0.00081,0,0
129.5,2000,0,91.24,0.000002697398,0.000002697398,0.000002697398,0.99999994,0,0,0,0,0,0,1,0,0,0,0,false,false,false,0,284.22998,17.01,-0.0033312866,0.0033366815,0.7070959,0.7071018,0,774.08093,8.321,-0.00081,0,0
129.50833,2000,0,91.24,0.000002697398,0.000002697398,0.000002697398,0.99999994,0,0,0,0,0,0,1,0,0,0,0,false,false,false,0,290.68,17.01,-0.0033312866,0.0033366815,0.7070959,0.7071018,0,780.77094,8.321,-0.00081,0,0
129.51666,2000,0,91.24,0.000002697398,0.000002697398,0.000002697398,0.99999994,0,0,0,0,0,0,1,0,0,0,0,false,false,false,0,297.19,17.01,-0.0033312866,0.0033366815,0.7070959,0.7071018,0,787.41095,8.321,-0.00081,0,0
129.525,2000,0,91.24,0.000002697398,0.000002697398,0.000002697398,0.99999994,0,0,0,0,0,0,1,0,0,0,0,false,false,false,0,303.75,17.01,-0.0033312866,0.0033366815,0.7070959,0.7071018,0,793.99097,8.321,-0.00081,0,0
129.53334,2000,0,91.24,0.000002697398,0.000002697398,0.000002697398,0.99999994,0,0,0,0,0,0,1,0,0,0,0,false,false,false,0,310.37,17.01,-0.0033312866,0.0033366815,0.7070959,0.7071018,0,800.511,8.321,-0.00081,0,0
129.54167,2000,0,91.24,0.000002697398,0.000002697398,0.000002697398,0.99999994,0,0,0,0,0,0,1,0,0,0,0,false,false,false,0,317.03998,17.01,-0.0033312866,0.0033366815,0.7070959,0.7071018,0,806.98096,8.321,-0.00091,0,0
129.55,2000,0,91.24,0.000002697398,0.000002697398,0.000002697398,0.99999994,0,0,0,0,0,0,1,0,0,0,0,false,false,false,0,323.75998,17.01,-0.0033312866,0.0033420762,0.7070959,0.7071018,0,813.3909,8.321,-0.00091,0,0
129.55833,2000,0,91.24,0.000002697398,0.000002697398,0.000002697398,0.99999994,0,0,0,0,0,0,1,0,0,0,0,false,false,false,0,330.53998,17.01,-0.0033312866,0.003347471,0.7070959,0.70710176,0,819.751,8.321,-0.00091,0,0
129.56667,2000,0,91.24,0.000002697398,0.000002697398,0.000002697398,0.99999994,0,0,0,0,0,0,1,0,0,0,0,false,false,false,0,337.37,17.01,-0.0033312868,0.003352866,0.707096,0.70710176,0,826.05096,8.321,-0.00081,0,0
129.575,2000,0,91.24,0.000002697398,0.000002697398,0.000002697398,0.99999994,0,0,0,0,0,0,1,0,0,0,0,false,false,false,0,344.25,17.01,-0.0033312868,0.003352866,0.707096,0.70710176,0,832.30096,8.321,-0.00071,-0.00010999999,0
129.58333,2000,0,91.24,0.000002697398,0.000002697398,0.000002697398,0.99999994,0,0,0,0,0,0,1,0,0,0,0,false,false,false,0,351.19,17.01,-0.0033312868,0.003352866,0.707096,0.70710176,0,838.501,8.321,-0.00071,-0.00010999999,0
129.59166,2000,0,91.24,0.000002697398,0.000002697398,0.000002697398,0.99999994,0,0,0,0,0,0,1,0,0,0,0,false,false,false,0,358.18,17.01,-0.0033312868,0.003352866,0.707096,0.70710176,0,844.6409,8.321,-0.00071,-0.00010999999,0
129.6,2000,0,91.24,0.000002697398,0.000002697398,0.000002697398,0.99999994,0,0,0,0,0,0,1,0,0,0,0,false,false,false,0,365.22,17.01,-0.0033312868,0.003352866,0.707096,0.70710176,0,850.73096,8.321,-0.00071,-0.00010999999,0
129.60834,2000,0,91.24,0.000002697398,0.000002697398,0.000002697398,0.99999994,0,0,0,0,0,0,1,0,0,0,0,false,false,false,0,372.31,17.01,-0.0033312868,0.003352866,0.707096,0.70710176,0,856.77094,8.321,-0.00071,-0.00010999999,0
129.61667,2000,0,91.24,0.000002697398,0.000002697398,0.000002697398,0.99999994,0,0,0,0,0,0,1,0,0,0,0,false,false,false,0,379.44998,17.01,-0.0033312868,0.003352866,0.707096,0.70710176,0,862.761,8.321,-0.00071,-0.00010999999,0
129.625,2000,0,91.24,0.000002697398,0.000002697398,0.000002697398,0.99999994,0,0,0,0,0,0,1,0,0,0,0,false,false,false,0,386.63998,17.01,-0.0033312868,0.003352866,0.707096,0.70710176,0,868.691,8.321,-0.00071,-0.00010999999,0
129.63333,2000,0,91.24,0.000002697398,0.000002697398,0.000002697398,0.99999994,0,0,0,0,0,0,1,0,0,0,0,false,false,false,0,393.88,17.01,-0.0033312868,0.003352866,0.707096,0.70710176,0,874.571,8.321,-0.00071,-0.00010999999,0
129.64166,2000,0,91.24,0.000002697398,0.000002697398,0.000002697398,0.99999994,0,0,0,0,0,0,1,0,0,0,0,false,false,false,0,401.16998,17.01,-0.0033312868,0.003352866,0.707096,0.70710176,0,880.40094,8.321,-0.00071,-0.00010999999,0
129.65,2000,0,91.24,0.000002697398,0.000002697398,0.000002697398,0.99999994,0,0,0,0,0,0,1,0,0,0,0,false,false,false,0,408.50998,17.01,-0.0033312868,0.003352866,0.707096,0.70710176,0,886.18097,8.321,-0.00071,-0.00010999999,0
129.65834,2000,0,91.24,0.000002697398,0.000002697398,0.000002697398,0.99999994,0,0,0,0,0,0,1,0,0,0,0,false,false,false,0,415.88998,17.01,-0.0033312868,0.003352866,0.707096,0.70710176,0,891.91095,8.321,-0.00071,-0.00010999999,0
129.66667,2000,0,91.24,0.000002697398,0.000002697398,0.000002697398,0.99999994,0,0,0,0,0,0,1,0,0,0,0,false,false,false,0,423.31998,17.01,-0.0033312868,0.003352866,0.707096,0.70710176,0,897.59094,8.321,-0.00071,-0.00010999999,0
129.675,2000,0,91.24,0.000002697398,0.000002697398,0.000002697398,0.99999994,0,0,0,0,0,0,1,0,0,0,0,false,false,false,0,430.8,17.01,-0.0033312868,0.003352866,0.707096,0.70710176,0,903.23096,8.321,-0.00071,-0.00010999999,0
129.68333,2000,0,91.24,0.000002697398,0.000002697398,0.000002697398,0.99999994,0,0,0,0,0,0,1,0,0,0,0,false,false,false,0,438.33,17.01,-0.0033312868,0.003352866,0.707096,0.70710176,0,908.821,8.321,-0.00071,-0.00010999999,0
129.69167,2000,0,91.24,0.000002697398,0.000002697398,0.000002697398,0.99999994,0,0,0,0,0,0,1,0,0,0,0,false,false,false,0,445.9,17.01,-0.0033312868,0.003352866,0.707096,0.70710176,0,914.36096,8.321,-0.00071,-0.00010999999,0
129.7,2000,0,91.24,0.000002697398,0.000002697398,0.000002697398,0.99999994,0,0,0,0,0,0,1,0,0,0,0,false,false,false,0,453.52,17.01,-0.0033312868,0.003352866,0.707096,0.70710176,0,919.85095,8.321,-0.00071,-0.00010999999,0
129.70833,2000,0,91.24,0.000002697398,0.000002697398,0.000002697398,0.99999994,0,0,0,0,0,0,1,0,0,0,0,false,false,false,0,461.19,17.01,-0.0033312868,0.003352866,0.707096,0.70710176,0,925.30096,8.321,-0.00071,-0.00010999999,0
129.71666,2000,0,91.24,0.000002697398,0.000002697398,0.000002697398,0.99999994,0,0,0,0,0,0,1,0,0,0,0,false,false,false,0,468.9,17.01,-0.0033312868,0.003352866,0.707096,0.70710176,0,930.7009,8.321,-0.00071,-0.00010999999,0
129.725,2000,0,91.24,0.000002697398,0.000002697398,0.000002697398,0.99999994,0,0,0,0,0,0,1,0,0,0,0,false,false,false,0,476.66,17.01,-0.0033312868,0.003352866,0.707096,0.70710176,0,936.05096,8.321,-0.00071,-0.00010999999,0
129.73334,2000,0,91.24,0.000002697398,0.000002697398,0.000002697398,0.99999994,0,0,0,0,0,0,1,0,0,0,0,false,false,false,0,484.46,17.01,-0.0033312868,0.003352866,0.707096,0.70710176,0,941.36096,8.321,-0.00071,-0.00010999999,0
129.74167,2000,0,91.24,0.000002697398,0.000002697398,0.000002697398,0.99999994,0,0,0,0,0,0,1,0,0,0,0,false,false,false,0,492.3,17.01,-0.0033312868,0.003352866,0.707096,0.70710176,0,946.621,8.321,-0.00081,-0.00010999999,0
129.75,2000,0,91.24,0.000002697398,0.000002697398,0.000002697398,0.99999994,0,0,0,0,0,0,1,0,0,0,0,false,false,false,0,500.19,17.01,-0.0033312868,0.003352866,0.707096,0.70710176,0,951.84094,8.321,-0.00081,-0.00010999999,0
129.75833,2000,0,91.24,0.000002697398,0.000002697398,0.000002697398,0.99999994,0,0,0,0,0,0,1,0,0,0,0,false,false,false,0,508.12,17.01,-0.0033312868,0.003352866,0.707096,0.70710176,0,957.0109,8.321,-0.00081,-0.00010999999,0
129.76666,2000,0,91.24,0.000002697398,0.000002697398,0.000002697398,0.99999994,0,0,0,0,0,0,1,0,0,0,0,false,false,false,0,516.1,17.01,-0.0033312868,0.003352866,0.707096,0.70710176,0,962.1409,8.321,-0.00081,-0.00010999999,0
129.775,2000,0,91.24,0.000002697398,0.000002697398,0.000002697398,0.99999994,0,0,0,0,0,0,1,0,0,0,0,false,false,false,0,524.12,17.01,-0.0033312868,0.003352866,0.707096,0.70710176,0,967.22095,8.321,-0.00081,-0.00010999999,0
129.78334,2000,0,91.24,0.000002697398,0.000002697398,0.000002697398,0.99999994,0,0,0,0,0,0,1,0,0,0,0,false,false,false,0,532.18,17.01,-0.0033312868,0.003352866,0.707096,0.70710176,0,972.2609,8.321,-0.00081,-0.00010999999,0
129.79167,2000,0,91.24,0.000002697398,0.000002697398,0.000002697398,0.99999994,0,0,0,0,0,0,1,0,0,0,0,false,false,false,0,540.27997,17.01,-0.0033312868,0.003352866,0.707096,0.70710176,0,977.2609,8.321,-0.00081,-0.00010999999,0
129.8,2000,0,91.24,0.000002697398,0.000002697398,0.000002697398,0.99999994,0,0,0,0,0,0,1,0,0,0,0,false,false,false,0,548.42,17.01,-0.0033312868,0.003352866,0.707096,0.70710176,0,982.21094,8.321,-0.00081,-0.00010999999,0
129.80833,2000,0,91.24,0.000002697398,0.000002697398,0.000002697398,0.99999994,0,0,0,0,0,0,1,0,0,0,0,false,false,false,0,556.61,17.01,-0.0033312868,0.003352866,0.707096,0.70710176,0,987.121,8.321,-0.00081,-0.00010999999,0
129.81667,2000,0,91.24,0.000002697398,0.000002697398,0.000002697398,0.99999994,0,0,0,0,0,0,1,0,0,0,0,false,false,false,0,564.83997,17.01,-0.0033312868,0.003352866,0.707096,0.70710176,0,991.99097,8.321,-0.00081,-0.00010999999,0
129.825,2000,0,91.24,0.000002697398,0.000002697398,0.000002697398,0.99999994,0,0,0,0,0,0,1,0,0,0,0,false,false,false,0,573.11,17.01,-0.0033312868,0.003352866,0.707096,0.70710176,0,996.821,8.321,-0.00081,-0.00010999999,0
129.83333,2000,0,91.24,0.000002697398,0.000002697398,0.000002697398,0.99999994,0,0,0,0,0,0,1,0,0,0,0,false,false,false,0,581.42,17.01,-0.0033312868,0.003352866,0.707096,0.70710176,0,1001.61096,8.321,-0.00081,-0.00010999999,0
129.84166,2000,0,91.24,0.000002697398,0.000002697398,0.000002697398,0.99999994,0,0,0,0,0,0,1,1,0,0,0,false,false,true,0,589.76996,17.01,-0.0033312868,0.003352866,0.707096,0.70710176,-13.281,1003.80096,8.341001,-0.00081,0.00321,0.36741
129.85,2000,0,91.24,0.000002697398,0.000002697398,0.000002697398,0.99999994,0,0,0,0,0,0,1,1,0,0,0,false,false,true,-0.11,598.13,17.01,-0.0033312866,0.0033582605,0.70817906,0.70601696,-23.520998,1006.42096,8.351,-0.00091,0.00441,0.64081
129.85834,2000,0,91.24,0.000002697398,0.000002697398,0.000002697398,0.99999994,0,0,0,0,0,0,1,1,0,0,0,false,false,true,-0.31,606.51996,17.01,-0.0033312866,0.0033636554,0.7100617,0.7041234,-33.071,1009.05096,8.351,-0.00091,0.00471,0.87691
129.86667,2000,0,91.24,0.000002697398,0.000002697398,0.000002697398,0.99999994,0,0,0,0,0,0,1,1,0,0,0,false,false,true,-0.59,614.93,17.01,-0.0033312866,0.00336905,0.7126309,0.70152307,-42.291,1011.621,8.351,-0.00091,0.00441,1.08171
129.875,2000,0,91.24,0.000002697398,0.000002697398,0.000002697398,0.99999994,0,0,0,0,0,0,1,1,0,0,0,false,false,true,-0.94,623.36,17.01,-0.0033366815,0.00336905,0.71578705,0.6983024,-51.431,1014.09094,8.351,-0.00081,0.00381,1.26051
129.88333,2000,0,91.24,0.000002697398,0.000002697398,0.000002697398,0.99999994,0,0,0,0,0,0,1,1,0,0,0,false,false,true,-1.37,631.81,17.01,-0.003347471,0.0033636554,0.7194466,0.6945314,-60.650997,1016.41095,8.351,-0.00071,0.00311,1.4176099
129.89166,2000,0,91.24,0.000002697398,0.000002697398,0.000002697398,0.99999994,0,0,0,0,0,0,1,1,0,0,0,false,false,true,-1.88,640.27997,17.01,-0.0033582605,0.0033528658,0.72353673,0.6902695,-70.050995,1018.54095,8.351,-0.00071,0.00241,1.55661
129.9,2000,0,91.24,0.000002697398,0.000002697398,0.000002697398,0.99999994,0,0,0,0,0,0,1,1,0,0,0,false,false,true,-2.46,648.76996,17.01,-0.003374445,0.0033420762,0.7280007,0.6855598,-79.671,1020.4509,8.351,-0.00071,0.0017099999,1.68041
129.90834,2000,0,91.24,0.000002697398,0.000002697398,0.000002697398,0.99999994,0,0,0,0,0,0,1,1,0,0,0,false,false,true,-3.12,657.26996,17.01,-0.0033960242,0.003325892,0.73278314,0.68044555,-89.520996,1022.121,8.351,-0.00061,0.0010099999,1.79151
129.91667,2000,0,91.24,0.000002697398,0.000002697398,0.000002697398,0.99999994,0,0,0,0,0,0,1,1,0,0,0,false,false,true,-3.87,665.79,17.01,-0.0034176034,0.0033043127,0.7378398,0.674959,-99.58099,1023.53094,8.351,-0.00051,0.00040999998,1.8917099
129.925,2000,0,91.24,0.000002697398,0.000002697398,0.000002697398,0.99999994,0,0,0,0,0,0,1,1,0,0,0,false,false,true,-4.7,674.32,17.01,-0.0034445769,0.003277338,0.7431374,0.66912174,-109.811,1024.6709,8.351,-0.00040999998,0,1.98271
129.93333,2000,0,91.24,0.000002697398,0.000002697398,0.000002697398,0.99999994,0,0,0,0,0,0,1,1,0,0,0,false,false,true,-5.62,682.86,17.01,-0.0034715512,0.0032503647,0.74863875,0.66296095,-120.160995,1025.5409,8.351,-0.00040999998,-0.00030999997,2.06571
129.94167,2000,0,91.24,0.000002697398,0.000002697398,0.000002697398,0.99999994,0,0,0,0,0,0,1,1,0,0,0,false,false,true,-6.62,691.41,17.01,-0.00350392,0.0032233908,0.7543174,0.65649253,-130.561,1026.141,8.351,-0.00040999998,-0.00061,2.14161
129.95,2000,0,91.24,0.000002697398,0.000002697398,0.000002697398,0.99999994,0,0,0,0,0,0,1,1,0,0,0,false,false,true,-7.71,699.95996,17.01,-0.0035362889,0.003191022,0.76014763,0.64973277,-140.94101,1026.481,8.351,-0.00030999997,-0.00081,2.21121
129.95833,2000,0,91.24,0.000002697398,0.000002697398,0.000002697398,0.99999994,0,0,0,0,0,0,1,1,0,0,0,false,false,true,-8.88,708.51,17.01,-0.0035686577,0.0031586532,0.7661002,0.64270335,-151.211,1026.5709,8.351,-0.00021,-0.00091,2.27511
129.96666,2000,0,91.24,0.000002697398,0.000002697398,0.000002697398,0.99999994,0,0,0,0,0,0,1,1,0,0,0,false,false,true,-10.139999,717.06,17.01,-0.0036010265,0.0031208897,0.7721605,0.6354096,-161.281,1026.4509,8.351,-0.00010999999,-0.0010099999,2.3338099
129.975,2000,0,91.24,0.000002697398,0.000002697398,0.000002697398,0.99999994,0,0,0,0,0,0,1,1,0,0,0,false,false,true,-11.48,725.61,17.01,-0.0036333953,0.003083126,0.7783011,0.627873,-171.061,1026.151,8.351,0,-0.00111,2.38751
129.98334,2000,0,91.24,0.000002697398,0.000002697398,0.000002697398,0.99999994,0,0,0,0,0,0,1,1,0,0,0,false,false,true,-12.91,734.16,17.01,-0.003665764,0.0030453624,0.78450894,0.62009907,-180.451,1025.7109,8.351,0,-0.0012099999,2.43661
129.99167,2000,0,91.24,0.000002697398,0.000002697398,0.000002697398,0.99999994,0,0,0,0,0,0,1,1,0,0,0,false,false,true,-14.41,742.70996,17.01,-0.0036981327,0.003007599,0.7907628,0.612104,-189.351,1025.1909,8.351,0,-0.00131,2.4811099
130,2000,0,91.24,0.000002697398,0.000002697398,0.000002697398,0.99999994,0,0,0,0,0,0,1,1,0,0,0,false,false,true,-15.99,751.25,17.01,-0.0037358964,0.0029644405,0.7970469,0.60389847,-197.641,1024.661,8.351,0,-0.00131,2.52121
130.00833,2000,0,91.24,0.000002697398,0.000002697398,0.000002697398,0.99999994,0,0,0,0,0,0,1,1,0,0,0,false,false,true,-17.64,759.79,17.01,-0.00377366,0.002921282,0.803346,0.5954933,-205.22101,1024.2009,8.351,0,-0.00131,2.55691
130.01666,2000,0,91.24,0.000002697398,0.000002697398,0.000002697398,0.99999994,0,0,0,0,0,0,1,1,0,0,0,false,false,true,-19.35,768.32,17.01,-0.0038114234,0.0028781237,0.80964565,0.58689946,-211.97101,1023.8909,8.341001,0,-0.00131,2.5882099
130.025,2000,0,91.24,0.000002697398,0.000002697398,0.000002697398,0.99999994,0,0,0,0,0,0,1,1,0,0,0,false,false,true,-21.119999,776.85,17.01,-0.0038491872,0.0028349652,0.8159286,0.5781328,-217.781,1023.85095,8.341001,0.00010999999,-0.00131,2.61501
130.03334,2000,0,91.24,0.000002697398,0.000002697398,0.000002697398,0.99999994,0,0,0,0,0,0,1,1,0,0,0,false,false,true,-22.93,785.38,17.01,-0.0038815557,0.002791807,0.8221783,0.5692098,-222.521,1024.1909,8.331,0.00021,-0.0012099999,2.63731
130.04167,2000,0,91.24,0.000002697398,0.000002697398,0.000002697398,0.99999994,0,0,0,0,0,0,1,1,0,0,0,false,false,true,-24.779999,793.91,17.01,-0.003913924,0.0027432535,0.8283833,0.560141,-227.47101,1024.351,8.331,0.00030999997,-0.0012099999,2.65921
130.05,2000,0,91.24,0.000002697398,0.000002697398,0.000002697398,0.99999994,0,0,0,0,0,0,1,1,0,0,0,false,false,true,-26.68,802.45,17.01,-0.003946293,0.0026947006,0.83453983,0.55092674,-232.621,1024.3309,8.331,0.00030999997,-0.00111,2.68081
130.05833,2000,0,91.24,0.000002697398,0.000002697398,0.000002697398,0.99999994,0,0,0,0,0,0,1,1,0,0,0,false,false,true,-28.619999,810.99,17.01,-0.003978662,0.0026461475,0.8406406,0.54157215,-237.961,1024.121,8.331,0.00030999997,-0.0010099999,2.70211
130.06667,2000,0,91.24,0.000002697398,0.000002697398,0.000002697398,0.99999994,0,0,0,0,0,0,1,1,0,0,0,false,false,true,-30.599998,819.51996,17.01,-0.0040110312,0.0025975946,0.84668565,0.53207195,-243.481,1023.71094,8.331,0.00030999997,-0.00091,2.72311
130.075,2000,0,91.24,0.000002697398,0.000002697398,0.000002697398,0.99999994,0,0,0,0,0,0,1,1,0,0,0,false,false,true,-32.63,828.05,17.01,-0.0040433994,0.002549041,0.85266787,0.5224314,-249.171,1023.10095,8.331,0.00030999997,-0.00081,2.74381
130.08333,2000,0,91.24,0.000002697398,0.000002697398,0.000002697398,0.99999994,0,0,0,0,0,0,1,1,0,0,0,false,false,true,-34.71,836.57996,17.01,-0.0040757684,0.002500488,0.858584,0.5126505,-255.021,1022.29095,8.331,0.00030999997,-0.00071,2.76421
130.09166,2000,0,91.24,0.000002697398,0.000002697398,0.000002697398,0.99999994,0,0,0,0,0,0,1,1,0,0,0,false,false,true,-36.84,845.1,17.01,-0.004108137,0.0024519349,0.8644305,0.5027295,-261.021,1021.27094,8.331,0.00030999997,-0.00061,2.7843099
130.1,2000,0,91.24,0.000002697398,0.000002697398,0.000002697398,0.99999994,0,0,0,0,0,0,1,1,0,0,0,false,false,true,-39.02,853.61,17.01,-0.004140506,0.0024033815,0.87020403,0.49266812,-267.161,1020.04095,8.331,0.00030999997,-0.00051,2.80411
130.10834,2000,0,91.24,0.000002697398,0.000002697398,0.000002697398,0.99999994,0,0,0,0,0,0,1,1,0,0,0,false,false,true,-41.25,862.11,17.01,-0.0041674804,0.0023548286,0.8759013,0.4824666,-273.431,1018.60095,8.331,0.00030999997,-0.00040999998,2.82371
130.11667,2000,0,91.24,0.000002697398,0.000002697398,0.000002697398,0.99999994,0,0,0,0,0,0,1,1,0,0,0,false,false,true,-43.53,870.6,17.01,-0.004194454,0.0023062753,0.88151586,0.47213006,-279.821,1016.941,8.331,0.00030999997,-0.00040999998,2.84301
130.125,2000,0,91.24,0.000002697398,0.000002697398,0.000002697398,0.99999994,0,0,0,0,0,0,1,1,0,0,0,false,false,true,-45.86,879.07,17.01,-0.004221428,0.0022523275,0.88704747,0.46165338,-286.321,1015.061,8.331,0.00030999997,-0.00040999998,2.86211
130.13333,2000,0,91.24,0.000002697398,0.000002697398,0.000002697398,0.99999994,0,0,0,0,0,0,1,1,0,0,0,false,false,true,-48.25,887.52997,17.01,-0.0042484016,0.0021983793,0.89248997,0.4510417,-292.921,1012.97095,8.331,0.00030999997,-0.00040999998,2.88091
130.14166,2000,0,91.24,0.000002697398,0.000002697398,0.000002697398,0.99999994,0,0,0,0,0,0,1,1,0,0,0,false,false,true,-50.69,895.97,17.01,-0.004275376,0.0021444315,0.8978402,0.44029528,-299.611,1010.66095,8.331,0.00030999997,-0.00030999997,2.89951
130.15,2000,0,91.24,0.000002697398,0.000002697398,0.000002697398,0.99999994,0,0,0,0,0,0,1,1,0,0,0,false,false,true,-53.19,904.38995,17.01,-0.00430235,0.0020904834,0.90309507,0.42941388,-306.381,1008.131,8.331,0.00030999997,-0.00030999997,2.91781
130.15834,2000,0,91.24,0.000002697398,0.000002697398,0.000002697398,0.99999994,0,0,0,0,0,0,1,1,0,0,0,false,false,true,-55.739998,912.79,17.01,-0.0043293242,0.0020365356,0.9082488,0.41840315,-313.221,1005.381,8.331,0.00030999997,-0.00021,2.93591
130.16667,2000,0,91.24,0.000002697398,0.000002697398,0.000002697398,0.99999994,0,0,0,0,0,0,1,1,0,0,0,false,false,true,-58.35,921.17,17.01,-0.0043562977,0.0019825874,0.9132984,0.40726277,-320.131,1002.41095,8.331,0.00030999997,-0.00021,2.9537098
130.175,2000,0,91.24,0.000002697398,0.000002697398,0.000002697398,0.99999994,0,0,0,0,0,0,1,1,0,0,0,false,false,true,-61.02,929.51996,17.01,-0.0043832716,0.0019286396,0.91824096,0.39599302,-327.091,999.22095,8.331,0.00030999997,-0.00010999999,2.97131
130.18333,2000,0,91.24,0.000002697398,0.000002697398,0.000002697398,0.99999994,0,0,0,0,0,0,1,1,0,0,0,false,false,true,-63.75,937.85,17.01,-0.0044048512,0.0018746918,0.9230735,0.38459378,-334.091,995.811,8.331,0.00030999997,0,2.98861
130.19167,2000,0,91.24,0.000002697398,0.000002697398,0.000002697398,0.99999994,0,0,0,0,0,0,1,1,0,0,0,false,false,true,-66.53,946.14996,17.01,-0.00442643,0.0018207437,0.9277906,0.37307048,-341.131,992.18097,8.331,0.00030999997,0,3.00571
130.2,2000,0,91.24,0.000002697398,0.000002697398,0.000002697398,0.99999994,0,0,0,0,0,0,1,1,0,0,0,false,false,true,-69.369995,954.42,17.01,-0.004448009,0.001761401,0.9323896,0.36142302,-348.191,988.34094,8.331,0.00030999997,0,3.02261
130.20833,2000,0,91.24,0.000002697398,0.000002697398,0.000002697398,0.99999994,0,0,0,0,0,0,1,1,0,0,0,false,false,true,-72.27,962.66,17.01,-0.0044695884,0.0017020581,0.93686754,0.34965158,-355.271,984.29095,8.331,0.00030999997,0,3.0392098
130.21666,2000,0,91.24,0.000002697398,0.000002697398,0.000002697398,0.99999994,0,0,0,0,0,0,1,1,0,0,0,false,false,true,-75.229996,970.86,17.01,-0.0044911676,0.0016427154,0.94121957,0.33776134,-362.361,980.03094,8.331,0.00021,0,3.05561
130.225,2000,0,91.24,0.000002697398,0.000002697398,0.000002697398,0.99999994,0,0,0,0,0,0,1,1,0,0,0,false,false,true,-78.25,979.02997,17.01,-0.004512747,0.0015833727,0.9454429,0.32575253,-369.451,975.561,8.331,0.00021,0,3.07181
130.23334,2000,0,91.24,0.000002697398,0.000002697398,0.000002697398,0.99999994,0,0,0,0,0,0,1,1,0,0,0,false,false,true,-81.33,987.16,17.01,-0.0045343265,0.00152403,0.94953483,0.31362498,-376.541,970.8909,8.331,0.00021,0,3.08771
130.24167,2000,0,91.24,0.000002697398,0.000002697398,0.000002697398,0.99999994,0,0,0,0,0,0,1,1,0,0,0,false,false,true,-84.47,995.25,17.01,-0.0045559052,0.0014646872,0.95349073,0.30138415,-383.621,966.02094,8.331,0.00021,0,3.10341
130.25,2000,0,91.24,0.000002697398,0.000002697398,0.000002697398,0.99999994,0,0,0,0,0,0,1,1,0,0,0,false,false,true,-87.67,1003.3,17.01,-0.00457209,0.0014053445,0.95730805,0.28903002,-390.681,960.9509,8.331,0.00021,0,3.1189098
130.25833,2000,0,91.24,0.000002697398,0.000002697398,0.000002697398,0.99999994,0,0,0,0,0,0,1,1,0,0,0,false,false,true,-90.93,1011.31,17.01,-0.004588274,0.0013460016,0.96098393,0.2765626,-397.711,955.68097,8.331,0.00010999999,0,3.1342099
130.26666,2000,0,91.24,0.000002697398,0.000002697398,0.000002697398,0.99999994,0,0,0,0,0,0,1,1,0,0,0,false,false,true,-94.24,1019.26996,17.01,-0.004604459,0.0012866589,0.9645143,0.26398727,-404.711,950.23096,8.331,0.00010999999,0,3.14921
130.275,2000,0,91.24,0.000002697398,0.000002697398,0.000002697398,0.99999994,0,0,0,0,0,0,1,1,0,0,0,false,false,true,-97.61,1027.19,17.01,-0.004620643,0.0012273161,0.967895,0.2513094,-411.671,944.59094,8.331,0.00010999999,0,3.16401
130.28334,2000,0,91.24,0.000002697398,0.000002697398,0.000002697398,0.99999994,0,0,0,0,0,0,1,1,0,0,0,false,false,true,-101.04,1035.0599,17.01,-0.0046368265,0.0011679733,0.9711234,0.23852912,-418.591,938.77094,8.331,0.00010999999,0,3.1786098
130.29167,2000,0,91.24,0.000002697398,0.000002697398,0.000002697398,0.99999994,0,0,0,0,0,0,1,1,0,0,0,false,false,true,-104.53,1042.88,17.01,-0.0046530114,0.0011086306,0.9741975,0.22564629,-425.461,932.77094,8.331,0.00010999999,0,3.19291
130.3,2000,0,91.24,0.000002697398,0.000002697398,0.000002697398,0.99999994,0,0,0,0,0,0,1,1,0,0,0,false,false,true,-108.079994,1050.65,17.01,-0.0046691964,0.0010438932,0.9771131,0.21266642,-432.281,926.60095,8.331,0.00010999999,0,3.20701
130.30833,2000,0,91.24,0.000002697398,0.000002697398,0.000002697398,0.99999994,0,0,0,0,0,0,1,1,0,0,0,false,false,true,-111.68,1058.37,17.01,-0.004679985,0.0009791553,0.9798678,0.19958931,-439.041,920.27094,8.331,0.00010999999,0,3.2209098
130.31667,2000,0,91.24,0.000002697398,0.000002697398,0.000002697398,0.99999994,0,0,0,0,0,0,1,1,0,0,0,false,false,true,-115.34,1066.0399,17.01,-0.0046907756,0.000914418,0.9824584,0.18642056,-445.741,913.77094,8.331,0.00010999999,0,3.2346098
130.325,2000,0,91.24,0.000002697398,0.000002697398,0.000002697398,0.99999994,0,0,0,0,0,0,1,1,0,0,0,false,false,true,-119.049995,1073.65,17.01,-0.0047015646,0.0008496804,0.9848811,0.17316553,-452.381,907.121,8.331,0.00010999999,0,3.2481098
130.33333,2000,0,91.24,0.000002697398,0.000002697398,0.000002697398,0.99999994,0,0,0,0,0,0,1,1,0,0,0,false,false,true,-122.82,1081.21,17.01,-0.0047123544,0.0007849428,0.98713475,0.15981872,-458.961,900.321,8.331,0.00010999999,0,3.2613099
130.34166,2000,0,91.24,0.000002697398,0.000002697398,0.000002697398,0.99999994,0,0,0,0,0,0,1,1,0,0,0,false,false,true,-126.64,1088.71,17.01,-0.0047231438,0.00072020525,0.9892152,0.14639108,-465.471,893.371,8.331,0.00010999999,0,3.2743099
130.35,2000,0,91.24,0.000002697398,0.000002697398,0.000002697398,0.99999994,0,0,0,0,0,0,1,1,0,0,0,false,false,true,-130.52,1096.15,17.01,-0.0047339336,0.00065546774,0.9911202,0.13288242,-471.911,886.28094,8.331,0.00010999999,0,3.2871099
130.35834,2000,0,91.24,0.000002697398,0.000002697398,0.000002697398,0.99999994,0,0,0,0,0,0,1,1,0,0,0,false,false,true,-134.45,1103.5399,17.01,-0.0047447234,0.0005907302,0.9928469,0.11929826,-478.281,879.05096,8.331,0.00010999999,0.00010999999,3.29971
130.36667,2000,0,91.24,0.000002697398,0.000002697398,0.000002697398,0.99999994,0,0,0,0,0,0,1,1,0,0,0,false,false,true,-138.44,1110.87,17.01,-0.004750118,0.00052599265,0.99439305,0.10563863,-484.57098,871.691,8.331,0.00010999999,0.00021,3.31211
130.375,2000,0,91.24,0.000002697398,0.000002697398,0.000002697398,0.99999994,0,0,0,0,0,0,1,1,0,0,0,false,false,true,-142.48,1118.13,17.01,-0.0047555133,0.0004612551,0.99575645,0.091903396,-490.791,864.2009,8.331,0.00010999999,0.00021,3.32421
130.38333,2000,0,91.24,0.000002697398,0.000002697398,0.000002697398,0.99999994,0,0,0,0,0,0,1,1,0,0,0,false,false,true,-146.56999,1125.33,17.01,-0.0047609075,0.0003965175,0.99693376,0.0781035,-496.931,856.58093,8.331,0.00010999999,0.00021,3.3361099
130.39166,2000,0,91.24,0.000002697398,0.000002697398,0.000002697398,0.99999994,0,0,0,0,0,0,1,1,0,0,0,false,false,true,-150.70999,1132.47,17.01,-0.004766302,0.00033177997,0.9979231,0.06423879,-503.001,848.85095,8.331,0.00010999999,0.00021,3.34781
130.4,2000,0,91.24,0.000002697398,0.000002697398,0.000002697398,0.99999994,0,0,0,0,0,0,1,1,0,0,0,false,false,true,-154.9,1139.5399,17.01,-0.0047716973,0.00026704243,0.99872196,0.05031474,-509.001,841.001,8.331,0.00010999999,0.00021,3.35931
130.40834,2000,0,91.24,0.000002697398,0.000002697398,0.000002697398,0.99999994,0,0,0,0,0,0,1,1,0,0,0,false,false,true,-159.14,1146.5499,17.01,-0.004771697,0.00020230486,0.9993283,0.036331423,-514.92096,833.04095,8.331,0.00010999999,0.00021,3.37061
130.41667,2000,0,91.24,0.000002697398,0.000002697398,0.000002697398,0.99999994,0,0,0,0,0,0,1,1,0,0,0,false,false,true,-163.43,1153.49,17.01,-0.004771697,0.0001375673,0.99974,0.02229408,-520.77094,824.97095,8.331,0.00010999999,0.00021,3.38161
130.425,2000,0,91.24,0.000002697398,0.000002697398,0.000002697398,0.99999994,0,0,0,0,0,0,1,1,0,0,0,false,false,true,-167.76999,1160.36,17.01,-0.004771697,0.00006743495,0.9999549,0.008208182,-526.55096,816.79095,8.331,0.00010999999,0.00021,3.39241
130.43333,2000,0,91.24,0.000002697398,0.000002697398,0.000002697398,0.99999994,0,0,0,0,0,0,1,1,0,0,0,false,false,true,-172.16,1167.1699,17.01,-0.0047716973,-0.0000026973983,0.99997103,-0.0059262263,-532.261,808.511,8.331,0.00010999999,0.00021,3.40301
130.44167,2000,0,91.24,0.000002697398,0.000002697398,0.000002697398,0.99999994,0,0,0,0,0,0,1,1,0,0,0,false,false,true,-176.59999,1173.91,17.01,-0.004771697,-0.000072829745,0.99978644,-0.020103792,-537.91095,800.131,8.331,0.00010999999,0.00021,3.41341
130.45,2000,0,91.24,0.000002697398,0.000002697398,0.000002697398,0.99999994,0,0,0,0,0,0,1,1,0,0,0,false,false,true,-181.08,1180.58,17.01,-0.004771697,-0.00014296209,0.9993995,-0.03431912,-543.49097,791.65094,8.331,0,0.00021,3.4235098
130.45833,2000,0,91.24,0.000002697398,0.000002697398,0.000002697398,0.99999994,0,0,0,0,0,0,1,1,0,0,0,false,false,true,-185.61,1187.1799,17.01,-0.004766302,-0.00021309445,0.9988082,-0.048572216,-549.011,783.071,8.331,0,0.00021,3.43341
130.46666,2000,0,91.24,0.000002697398,0.000002697398,0.000002697398,0.99999994,0,0,0,0,0,0,1,1,0,0,0,false,false,true,-190.19,1193.71,17.01,-0.0047609075,-0.00028322678,0.99801105,-0.06285772,-554.47095,774.40094,8.331,0,0.00021,3.4430099
130.475,2000,0,91.24,0.000002697398,0.000002697398,0.000002697398,0.99999994,0,0,0,0,0,0,1,1,0,0,0,false,false,true,-194.81,1200.16,17.01,-0.004755513,-0.00035335915,0.9970065,-0.077170156,-559.881,765.631,8.331,0,0.00021,3.45241
130.48334,2000,0,91.24,0.000002697398,0.000002697398,0.000002697398,0.99999994,0,0,0,0,0,0,1,1,0,0,0,false,false,true,-199.48,1206.5399,17.01,-0.0047501177,-0.0004234915,0.9957932,-0.09150417,-565.23096,756.761,8.331,0,0.00021,3.46151
130.49167,2000,0,91.24,0.000002697398,0.000002697398,0.000002697398,0.99999994,0,0,0,0,0,0,1,1,0,0,0,false,false,true,-204.19,1212.85,17.01,-0.0047447225,-0.0004936238,0.99437004,-0.1058544,-570.53094,747.80096,8.331,0,0.00021,3.4704099
130.5,2000,0,91.24,0.000002697398,0.000002697398,0.000002697398,0.99999994,0,0,0,0,0,0,1,1,0,0,0,false,false,true,-208.94,1219.08,17.01,-0.0047339336,-0.00056375616,0.9927357,-0.1202208,-575.79095,738.74097,8.331,-0.00010999999,0.00030999997,3.4790099
130.50833,2000,0,91.24,0.000002697398,0.000002697398,0.000002697398,0.99999994,0,0,0,0,0,0,1,1,0,0,0,false,false,true,-213.73999,1225.24,17.01,-0.0047231438,-0.0006338885,0.9908888,-0.13459797,-581.011,729.58093,8.331,-0.00021,0.00030999997,3.48731
130.51666,2000,0,91.24,0.000002697398,0.000002697398,0.000002697398,0.99999994,0,0,0,0,0,0,1,1,0,0,0,false,false,true,-218.58,1231.32,17.01,-0.0047123544,-0.0007040209,0.9888286,-0.14898054,-586.191,720.321,8.331,-0.00021,0.00030999997,3.4953098
130.525,2000,0,91.24,0.000002697398,0.000002697398,0.000002697398,0.99999994,0,0,0,0,0,0,1,1,0,0,0,false,false,true,-223.45999,1237.32,17.01,-0.0047015646,-0.0007741532,0.98655444,-0.16336314,-591.321,710.951,8.331,-0.00030999997,0.00030999997,3.50331
130.53334,2000,0,91.24,0.000002697398,0.000002697398,0.000002697398,0.99999994,0,0,0,0,0,0,1,1,0,0,0,false,false,true,-228.39,1243.24,17.01,-0.0046907756,-0.00084428565,0.9840649,-0.17774573,-596.311,701.441,8.331,-0.00030999997,0.00021,3.5141098
130.54167,2000,0,91.24,0.000002697398,0.000002697398,0.000002697398,0.99999994,0,0,0,0,0,0,1,1,0,0,0,false,false,true,-233.36,1249.09,17.01,-0.0046745907,-0.00091441796,0.98135716,-0.19213368,-601.17096,691.79095,8.331,-0.00040999998,0.00021,3.5276098
130.55,2000,0,91.24,0.000002697398,0.000002697398,0.000002697398,0.99999994,0,0,0,0,0,0,1,1,0,0,0,false,false,true,-238.37,1254.85,17.01,-0.0046584066,-0.0009791555,0.978427,-0.20653789,-605.90094,682.011,8.331,-0.00051,0.00010999999,3.54381
130.55833,2000,0,91.24,0.000002697398,0.000002697398,0.000002697398,0.99999994,0,0,0,0,0,0,1,1,0,0,0,false,false,true,-243.42,1260.53,17.01,-0.004642222,-0.001043893,0.9752704,-0.2209636,-610.49097,672.10095,8.331,-0.00051,0,3.56261
130.56667,2000,0,91.24,0.000002697398,0.000002697398,0.000002697398,0.99999994,0,0,0,0,0,0,1,1,0,0,0,false,false,true,-248.51,1266.13,17.01,-0.0046260376,-0.0011086306,0.9718829,-0.23541631,-614.951,662.061,8.331,-0.00051,0,3.58411
130.575,2000,0,91.24,0.000002697398,0.000002697398,0.000002697398,0.99999994,0,0,0,0,0,0,1,1,0,0,0,false,false,true,-253.62999,1271.65,17.01,-0.0046098535,-0.0011733682,0.9682596,-0.24990143,-619.28094,651.90094,8.331,-0.00051,0,3.6082098
130.58333,2000,0,91.24,0.000002697398,0.000002697398,0.000002697398,0.99999994,0,0,0,0,0,0,1,1,0,0,0,false,false,true,-258.79,1277.08,17.01,-0.004593669,-0.0012381057,0.9643932,-0.26442963,-623.49097,641.61096,8.331,-0.00040999998,0,3.6349099
130.59166,2000,0,91.24,0.000002697398,0.000002697398,0.000002697398,0.99999994,0,0,0,0,0,0,1,1,0,0,0,false,false,true,-263.99,1282.4299,17.01,-0.00457209,-0.0013082381,0.96027744,-0.27900645,-627.571,631.201,8.331,-0.00040999998,0,3.66411
130.6,2000,0,91.24,0.000002697398,0.000002697398,0.000002697398,0.99999994,0,0,0,0,0,0,1,1,0,0,0,false,false,true,-269.22,1287.69,17.01,-0.0045505106,-0.0013783704,0.9559067,-0.2936318,-631.53094,620.66095,8.331,-0.00040999998,0,3.69591
130.60834,2000,0,91.24,0.000002697398,0.000002697398,0.000002697398,0.99999994,0,0,0,0,0,0,1,1,0,0,0,false,false,true,-274.47998,1292.86,17.01,-0.0045289313,-0.0014485028,0.9512719,-0.30831647,-635.35095,610.001,8.331,-0.00040999998,0,3.7304099
130.61667,2000,0,91.24,0.000002697398,0.000002697398,0.000002697398,0.99999994,0,0,0,0,0,0,1,1,0,0,0,false,false,true,-279.77,1297.94,17.01,-0.004507352,-0.0015186351,0.94636446,-0.32306588,-638.92096,599.201,8.331,-0.00040999998,0,3.76861
130.625,2000,0,91.24,0.000002697398,0.000002697398,0.000002697398,0.99999994,0,0,0,0,0,0,1,1,0,0,0,false,false,true,-285.09,1302.9299,17.01,-0.0044803782,-0.0015887675,0.94117516,-0.33788547,-642.24097,588.27094,8.331,-0.00040999998,-0.00010999999,3.81051
130.63333,2000,0,91.24,0.000002697398,0.000002697398,0.000002697398,0.99999994,0,0,0,0,0,0,1,1,0,0,0,false,false,true,-290.44,1307.83,17.01,-0.004453404,-0.0016588998,0.9356919,-0.35278594,-645.311,577.22095,8.331,-0.00040999998,-0.00021,3.8561099
130.64166,2000,0,91.24,0.000002697398,0.000002697398,0.000002697398,0.99999994,0,0,0,0,0,0,1,1,0,0,0,false,false,true,-295.82,1312.64,17.01,-0.0044264304,-0.0017290323,0.9299035,-0.36777282,-648.09094,566.03094,8.331,-0.00040999998,-0.00030999997,3.90461
130.65,2000,0,91.24,0.000002697398,0.000002697398,0.000002697398,0.99999994,0,0,0,0,0,0,1,1,0,0,0,false,false,true,-301.22,1317.36,17.01,-0.004399456,-0.0017991646,0.9237977,-0.38285124,-650.49097,554.67096,8.331,-0.00040999998,-0.00040999998,3.9546099
130.65834,2000,0,91.24,0.000002697398,0.000002697398,0.000002697398,0.99999994,0,0,0,0,0,0,1,1,0,0,0,false,false,true,-306.63998,1321.98,17.01,-0.0043724827,-0.001869297,0.9173637,-0.39802152,-652.501,543.15094,8.331,-0.00040999998,-0.00040999998,4.0061097
130.66667,2000,0,91.24,0.000002697398,0.000002697398,0.000002697398,0.99999994,0,0,0,0,0,0,1,1,0,0,0,false,false,true,-312.08,1326.51,17.01,-0.0043401136,-0.0019394293,0.91059244,-0.41327807,-654.11096,531.49097,8.331,-0.00030999997,-0.00040999998,4.0591097
130.675,2000,0,91.24,0.000002697398,0.000002697398,0.000002697398,0.99999994,0,0,0,0,0,0,1,1,0,0,0,false,false,true,-317.53,1330.94,17.01,-0.0043077446,-0.0020095615,0.9034719,-0.4286209,-655.33093,519.71094,8.331,-0.00021,-0.00040999998,4.11351
130.68333,2000,0,91.24,0.000002697398,0.000002697398,0.000002697398,0.99999994,0,0,0,0,0,0,1,1,0,0,0,false,false,true,-322.99,1335.27,17.01,-0.0042753764,-0.002079694,0.895992,-0.44404468,-656.071,508.031,8.331,-0.00010999999,-0.00040999998,4.1676097
130.69167,2000,0,91.24,0.000002697398,0.000002697398,0.000002697398,0.99999994,0,0,0,0,0,0,1,1,0,0,0,false,false,true,-328.46,1339.5,17.01,-0.0042376127,-0.0021498264,0.88814783,-0.45953324,-656.34094,496.491,8.331,0,-0.00030999997,4.2210097
130.7,2000,0,91.24,0.000002697398,0.000002697398,0.000002697398,0.99999994,0,0,0,0,0,0,1,1,0,0,0,false,false,true,-333.93,1343.64,17.01,-0.0041998485,-0.0022253534,0.8799291,-0.47508106,-656.16095,485.121,8.331,0,-0.00030999997,4.27381
130.70833,2000,0,91.24,0.000002697398,0.000002697398,0.000002697398,0.99999994,0,0,0,0,0,0,1,1,0,0,0,false,false,true,-339.4,1347.6799,17.01,-0.0041620857,-0.0023008806,0.87133133,-0.49067208,-655.54095,473.941,8.331,0,-0.00030999997,4.32591
130.71666,2000,0,91.24,0.000002697398,0.000002697398,0.000002697398,0.99999994,0,0,0,0,0,0,1,1,0,0,0,false,false,true,-344.86,1351.63,17.01,-0.004118927,-0.0023764076,0.8623469,-0.50629544,-654.501,462.971,8.331,0,-0.00021,4.37731
130.725,2000,0,91.24,0.000002697398,0.000002697398,0.000002697398,0.99999994,0,0,0,0,0,0,1,1,0,0,0,false,false,true,-350.31,1355.49,17.01,-0.0040757684,-0.0024519349,0.8529686,-0.5219404,-653.061,452.231,8.331,0.00010999999,-0.00021,4.42801
130.73334,2000,0,91.24,0.000002697398,0.000002697398,0.000002697398,0.99999994,0,0,0,0,0,0,1,1,0,0,0,false,false,true,-355.75,1359.26,17.01,-0.00403261,-0.0025274619,0.8431958,-0.5375854,-651.251,441.741,8.331,0.00010999999,-0.00021,4.47811
130.74167,2000,0,91.24,0.000002697398,0.000002697398,0.000002697398,0.99999994,0,0,0,0,0,0,1,1,0,0,0,false,false,true,-361.18,1362.94,17.01,-0.003984057,-0.002602989,0.83301824,-0.5532249,-649.08093,431.511,8.331,0.00010999999,-0.00010999999,4.5275097
130.75,2000,0,91.24,0.000002697398,0.000002697398,0.000002697398,0.99999994,0,0,0,0,0,0,1,1,0,0,0,false,false,true,-366.59,1366.5399,17.01,-0.0039355042,-0.0026785166,0.82243603,-0.56883764,-646.53094,421.551,8.331,0.00021,0,4.5749097
130.75833,2000,0,91.24,0.000002697398,0.000002697398,0.000002697398,0.99999994,0,0,0,0,0,0,1,1,0,0,0,false,false,true,-371.97998,1370.0499,17.01,-0.0038815557,-0.0027540433,0.81144273,-0.5844124,-643.52094,411.881,8.331,0.00021,0,4.6181097
130.76666,2000,0,91.24,0.000002697398,0.000002697398,0.000002697398,0.99999994,0,0,0,0,0,0,1,1,0,0,0,false,false,true,-377.34,1373.48,17.01,-0.003827608,-0.0028295706,0.80004793,-0.59991705,-640.08093,402.521,8.331,0.00021,0,4.6571097
130.775,2000,0,91.24,0.000002697398,0.000002697398,0.000002697398,0.99999994,0,0,0,0,0,0,1,1,0,0,0,false,false,true,-382.66998,1376.83,17.01,-0.00377366,-0.0029050978,0.78825504,-0.6153301,-636.251,393.491,8.331,0.00030999997,0,4.69191
130.78334,2000,0,91.24,0.000002697398,0.000002697398,0.000002697398,0.99999994,0,0,0,0,0,0,1,1,0,0,0,false,false,true,-387.97,1380.11,17.01,-0.0037143172,-0.0029806248,0.77607787,-0.630619,-632.05096,384.811,8.331,0.00030999997,0.00010999999,4.72251
130.79167,2000,0,91.24,0.000002697398,0.000002697398,0.000002697398,0.99999994,0,0,0,0,0,0,1,1,0,0,0,false,false,true,-393.24,1383.32,17.01,-0.0036549747,-0.0030561523,0.76351905,-0.6457677,-627.52094,376.481,8.331,0.00030999997,0.00010999999,4.74881
130.8,2000,0,91.24,0.000002697398,0.000002697398,0.000002697398,0.99999994,0,0,0,0,0,0,1,1,0,0,0,false,false,true,-398.47,1386.46,17.01,-0.0035956318,-0.0031316795,0.75059164,-0.66074914,-622.691,368.521,8.331,0.00030999997,0.00021,4.77091
130.80833,2000,0,91.24,0.000002697398,0.000002697398,0.000002697398,0.99999994,0,0,0,0,0,0,1,1,0,0,0,false,false,true,-403.66,1389.53,17.01,-0.0035308942,-0.0032018116,0.7373113,-0.6755362,-617.60095,360.941,8.331,0.00030999997,0.00030999997,4.78881
130.81667,2000,0,91.24,0.000002697398,0.000002697398,0.000002697398,0.99999994,0,0,0,0,0,0,1,1,0,0,0,false,false,true,-408.81,1392.5399,17.01,-0.0034661565,-0.003271944,0.7236858,-0.690113,-612.28094,353.741,8.331,0.00030999997,0.00030999997,4.80251
130.825,2000,0,91.24,0.000002697398,0.000002697398,0.000002697398,0.99999994,0,0,0,0,0,0,1,1,0,0,0,false,false,true,-413.91,1395.49,17.01,-0.003401419,-0.0033420762,0.7097351,-0.70445246,-606.77094,346.921,8.331,0.00030999997,0.00040999998,4.81201
130.83333,2000,0,91.24,0.000002697398,0.000002697398,0.000002697398,0.99999994,0,0,0,0,0,0,1,1,0,0,0,false,false,true,-418.97,1398.38,17.01,0.0033312866,0.0034122085,-0.6954701,0.7185391,-601.11096,340.471,8.331,0.00030999997,0.00051,4.81731
130.84166,2000,0,91.24,0.000002697398,0.000002697398,0.000002697398,0.99999994,0,0,0,0,0,0,1,1,0,0,0,false,false,true,-423.97998,1401.22,17.01,0.0032611543,0.0034823408,-0.6809095,0.7323519,-595.331,334.391,8.331,0.00030999997,0.00061,4.81841
130.85,2000,0,91.24,0.000002697398,0.000002697398,0.000002697398,0.99999994,0,0,0,0,0,0,1,1,0,0,0,false,false,true,-428.94,1404.01,17.01,0.0031910222,0.0035524736,-0.6660684,0.74587536,-589.47095,328.671,8.331,0.00021,0.00061,4.81521
130.85834,2000,0,91.24,0.000002697398,0.000002697398,0.000002697398,0.99999994,0,0,0,0,0,0,1,1,0,0,0,false,false,true,-433.84998,1406.75,17.01,0.0031154947,0.0036172108,-0.65096825,0.7590898,-583.561,323.301,8.321,0.00010999999,0.00061,4.80781
130.86667,2000,0,91.24,0.000002697398,0.000002697398,0.000002697398,0.99999994,0,0,0,0,0,0,1,1,0,0,0,false,false,true,-438.71,1409.44,17.01,0.0030399673,0.003681948,-0.6356307,0.7719783,-577.641,318.271,8.321,0.00010999999,0.00071,4.7961097
130.875,2000,0,91.24,0.000002697398,0.000002697398,0.000002697398,0.99999994,0,0,0,0,0,0,1,1,0,0,0,false,false,true,-443.52,1412.09,17.01,0.0029644405,0.003746686,-0.6200775,0.78452593,-571.74097,313.551,8.321,0.00010999999,0.00071,4.78011
130.88333,2000,0,91.24,0.000002697398,0.000002697398,0.000002697398,0.99999994,0,0,0,0,0,0,1,1,0,0,0,false,false,true,-448.28,1414.7,17.01,0.0028889133,0.0038060287,-0.60433006,0.7967197,-565.881,309.131,8.321,0.00010999999,0.00071,4.75971
130.89166,2000,0,91.24,0.000002697398,0.000002697398,0.000002697398,0.99999994,0,0,0,0,0,0,1,1,0,0,0,false,false,true,-453,1417.28,17.01,0.0028133863,0.0038653715,-0.58840996,0.8085485,-560.10095,304.981,8.321,0,0.00081,4.73491
130.9,2000,0,91.24,0.000002697398,0.000002697398,0.000002697398,0.99999994,0,0,0,0,0,0,1,1,0,0,0,false,false,true,-457.66998,1419.82,17.01,0.002732464,0.003924714,-0.5723442,0.8199995,-554.391,301.061,8.321,0,0.00081,4.7055097
130.90834,2000,0,91.24,0.000002697398,0.000002697398,0.000002697398,0.99999994,0,0,0,0,0,0,1,1,0,0,0,false,false,true,-462.28998,1422.33,17.01,0.0026515422,0.003978662,-0.55615973,0.83106154,-548.751,297.321,8.321,0,0.00081,4.67171
130.91667,2000,0,91.24,0.000002697398,0.000002697398,0.000002697398,0.99999994,0,0,0,0,0,0,1,1,0,0,0,false,false,true,-466.86,1424.8099,17.01,0.0025706203,0.00403261,-0.5398782,0.84172946,-543.201,293.741,8.321,0,0.00081,4.63351
130.925,2000,0,91.24,0.000002697398,0.000002697398,0.000002697398,0.99999994,0,0,0,0,0,0,1,1,0,0,0,false,false,true,-471.38998,1427.26,17.01,0.0024896984,0.004086558,-0.5235265,0.8519959,-537.72095,290.29102,8.311,0,0.00081,4.59171
130.93333,2000,0,91.24,0.000002697398,0.000002697398,0.000002697398,0.99999994,0,0,0,0,0,0,1,1,0,0,0,false,false,true,-475.87,1429.6799,17.01,0.0024087764,0.004135111,-0.50713164,0.8618552,-532.261,286.921,8.311,-0.00010999999,0.00071,4.54841
130.94167,2000,0,91.24,0.000002697398,0.000002697398,0.000002697398,0.99999994,0,0,0,0,0,0,1,1,0,0,0,false,false,true,-480.31,1432.07,17.01,0.0023278545,0.0041836645,-0.4907098,0.8713098,-526.821,283.621,8.311,-0.00021,0.00061,4.50381
130.95,2000,0,91.24,0.000002697398,0.000002697398,0.000002697398,0.99999994,0,0,0,0,0,0,1,1,0,0,0,false,false,true,-484.69998,1434.4299,17.01,0.0022469326,0.0042268224,-0.47427183,0.8803654,-521.40094,280.401,8.311,-0.00030999997,0.00051,4.45821
130.95833,2000,0,91.24,0.000002697398,0.000002697398,0.000002697398,0.99999994,0,0,0,0,0,0,1,1,0,0,0,false,false,true,-489.03998,1436.77,17.01,0.002166011,0.0042699813,-0.45783928,0.88902205,-516.001,277.251,8.311,-0.00030999997,0.00040999998,4.41191
130.96666,2000,0,91.24,0.000002697398,0.000002697398,0.000002697398,0.99999994,0,0,0,0,0,0,1,1,0,0,0,false,false,true,-493.34,1439.08,17.01,0.0020850885,0.0043077446,-0.4414174,0.89728904,-510.621,274.161,8.311,-0.00030999997,0.00030999997,4.36511
130.975,2000,0,91.24,0.000002697398,0.000002697398,0.000002697398,0.99999994,0,0,0,0,0,0,1,1,0,0,0,false,false,true,-497.59998,1441.36,17.01,0.0020041666,0.0043455083,-0.4250279,0.9051675,-505.251,271.131,8.311,-0.00030999997,0.00030999997,4.31811
130.98334,2000,0,91.24,0.000002697398,0.000002697398,0.000002697398,0.99999994,0,0,0,0,0,0,1,1,0,0,0,false,false,true,-501.81,1443.62,17.01,0.0019232448,0.0043832716,-0.40867624,0.9126668,-499.88098,268.161,8.311,-0.00030999997,0.00021,4.2712097
130.99167,2000,0,91.24,0.000002697398,0.000002697398,0.000002697398,0.99999994,0,0,0,0,0,0,1,1,0,0,0,false,false,true,-505.97998,1445.85,17.01,0.0018423229,0.0044156406,-0.39236775,0.91979593,-494.521,265.241,8.311,-0.00040999998,0.00010999999,4.22461
