time,ball_loc_x,ball_loc_y,ball_loc_z,ball_rot_x,ball_rot_y,ball_rot_z,ball_rot_w,ball_vel_x,ball_vel_y,ball_vel_z,ball_ang_x,ball_ang_y,ball_ang_z,player0_throttle,player0_steer,player0_pitch,player0_yaw,player0_roll,player0_jump,player0_boost,player0_handbrake,player0_loc_x,player0_loc_y,player0_loc_z,player0_rot_x,player0_rot_y,player0_rot_z,player0_rot_w,player0_vel_x,player0_vel_y,player0_vel_z,player0_ang_x,player0_ang_y,player0_ang_z
24.475,2000,0,91.24,0.000002697398,0.000002697398,0.000002697398,0.99999994,0,0,0,0,0,0,0,0,0,0,0,false,false,false,0,0.14,17.01,-0.00336905,0.0033798397,0.7071014,0.7070959,0,0.011,8.321,-0.00051,0,0
24.483334,2000,0,73,0.000002697398,0.000002697398,0.000002697398,0.99999994,0,0,0,0,0,0,0.1023622,0,0,0,0,false,false,false,0,0,16.94,0.0000026973983,0.0000026973983,0.70710677,0.70710677,0,0,2.041,-0.050809998,0,0
24.491667,2000,0,87.6,0.000002697398,0.000002697398,0.000002697398,0.99999994,0,0,0,0,0,0,0.1023622,0,0,0,0,false,false,false,0,0,16.89,-0.00014835689,0.00015375168,0.7071067,0.7071067,0,1.3610001,3.8809998,-0.085609995,0,0
24.5,2000,0,90.52,0.000002697398,0.000002697398,0.000002697398,0.99999994,0,0,0,0,0,0,0.1023622,0,0,0,0,false,false,false,0,0.01,16.85,-0.00040191234,0.00040730715,0.70710653,0.70710677,0,2.721,5.481,-0.107209995,0,0
24.508333,2000,0,91.1,0.000002697398,0.000002697398,0.000002697398,0.99999994,0,0,0,0,0,0,0.1023622,0,0,0,0,false,false,false,0,0.03,16.83,-0.00072020525,0.00072560005,0.7071067,0.707106,0,4.081,6.791,-0.116409995,0,0
24.516666,2000,0,91.22,0.000002697398,0.000002697398,0.000002697398,0.99999994,0,0,0,0,0,0,0.1023622,0,0,0,0,false,false,false,0,0.06,16.82,-0.0010654721,0.001070867,0.70710516,0.7071067,0,5.441,7.7409997,-0.11481,0,0
24.525,2000,0,91.24,0.000002697398,0.000002697398,0.000002697398,0.99999994,0,0,0,0,0,0,0.1023622,0,0,0,0,false,false,false,0,0.11,16.82,-0.0014053443,0.0014107391,0.7071067,0.70710397,0,6.8009996,8.431,-0.106809996,0,0
24.533333,2000,0,91.24,0.000002697398,0.000002697398,0.000002697398,0.99999994,0,0,0,0,0,0,0.1023622,0,0,0,0,false,false,false,0,0.17,16.82,-0.0017182427,0.0017236375,0.707108,0.70710135,0,8.151,8.9210005,-0.09541,0,0
24.541666,2000,0,91.24,0.000002697398,0.000002697398,0.000002697398,0.99999994,0,0,0,0,0,0,0.1023622,0,0,0,0,false,false,false,0,0.24,16.83,-0.001998772,0.0020041666,0.70710653,0.7071013,0,9.501,9.281,-0.08271,0,0
24.55,2000,0,91.24,0.000002697398,0.000002697398,0.000002697398,0.99999994,0,0,0,0,0,0,0.1023622,0,0,0,0,false,false,false,0,0.32,16.84,-0.0022415377,0.0022469326,0.70710504,0.7071013,0,10.851,9.521,-0.06991,0,0
24.558332,2000,0,91.24,0.000002697398,0.000002697398,0.000002697398,0.99999994,0,0,0,0,0,0,0.1023622,0,0,0,0,false,false,false,0,0.41,16.85,-0.00244654,0.0024519349,0.70710367,0.7071013,0,12.201,9.6710005,-0.05791,0,0
24.566668,2000,0,91.24,0.000002697398,0.000002697398,0.000002697398,0.99999994,0,0,0,0,0,0,0.1023622,0,0,0,0,false,false,false,0,0.51,16.859999,-0.0026191734,0.0026245683,0.7071024,0.7071013,0,13.551,9.761001,-0.04711,0,0
24.575,2000,0,91.24,0.000002697398,0.000002697398,0.000002697398,0.99999994,0,0,0,0,0,0,0.1023622,0,0,0,0,false,false,false,0,0.62,16.869999,-0.0027594382,0.002764833,0.70710135,0.7071013,0,14.901,9.811,-0.037609998,0,0
24.583334,2000,0,91.24,0.000002697398,0.000002697398,0.000002697398,0.99999994,0,0,0,0,0,0,0.1023622,0,0,0,0,false,false,false,0,0.74,16.88,-0.002872729,0.0028781237,0.7071005,0.7071013,0,16.251,9.831,-0.02951,0,0
24.591667,2000,0,91.24,0.000002697398,0.000002697398,0.000002697398,0.99999994,0,0,0,0,0,0,0.1023622,0,0,0,0,false,false,false,0,0.88,16.89,-0.0029590456,0.0029644405,0.7071013,0.7070998,0,17.601,9.811,-0.02311,0,0
24.6,2000,0,91.24,0.000002697398,0.000002697398,0.000002697398,0.99999994,0,0,0,0,0,0,0.1023622,0,0,0,0,false,false,false,0,1.03,16.9,-0.003029178,0.0030345728,0.7070992,0.7071013,0,18.950998,9.761001,-0.018410001,0,0
24.608334,2000,0,91.24,0.000002697398,0.000002697398,0.000002697398,0.99999994,0,0,0,0,0,0,0.1023622,0,0,0,0,false,false,false,0,1.1899999,16.91,-0.003083126,0.0030885208,0.7071013,0.7070987,0,20.290998,9.681,-0.014909999,0,0
24.616667,2000,0,91.24,0.000002697398,0.000002697398,0.000002697398,0.99999994,0,0,0,0,0,0,0.1023622,0,0,0,0,false,false,false,0,1.36,16.92,-0.0031262843,0.0031316793,0.70710367,0.7070959,0,21.630999,9.591001,-0.012309999,0,0
24.625,2000,0,91.24,0.000002697398,0.000002697398,0.000002697398,0.99999994,0,0,0,0,0,0,0.1023622,0,0,0,0,false,false,false,0,1.54,16.93,-0.003164048,0.003169443,0.7071034,0.707096,0,22.970999,9.491,-0.01031,0,0
24.633333,2000,0,91.24,0.000002697398,0.000002697398,0.000002697398,0.99999994,0,0,0,0,0,0,0.1023622,0,0,0,0,false,false,false,0,1.73,16.94,-0.0031964167,0.0032018116,0.7071031,0.7070959,0,24.310999,9.391,-0.008609999,0,0
24.641666,2000,0,91.24,0.000002697398,0.000002697398,0.000002697398,0.99999994,0,0,0,0,0,0,0.1023622,0,0,0,0,false,false,false,0,1.93,16.949999,-0.0032233908,0.0032287855,0.70710284,0.7070959,0,25.651,9.281,-0.00731,0,0
24.65,2000,0,91.24,0.000002697398,0.000002697398,0.000002697398,0.99999994,0,0,0,0,0,0,0.1023622,0,0,0,0,false,false,false,0,2.1399999,16.96,-0.0032449698,0.0032503647,0.7071026,0.7070959,0,26.991,9.1710005,-0.00621,0,0
24.658333,2000,0,91.24,0.000002697398,0.000002697398,0.000002697398,0.99999994,0,0,0,0,0,0,0.1023622,0,0,0,0,false,false,false,0,2.36,16.97,-0.0032611543,0.003266549,0.7071025,0.7070959,0,28.331,9.061,-0.00531,0,0
24.666666,2000,0,91.24,0.000002697398,0.000002697398,0.000002697398,0.99999994,0,0,0,0,0,0,0.1023622,0,0,0,0,false,false,false,0,2.6,16.98,-0.0032773386,0.0032827335,0.7071023,0.7070959,0,29.671,8.951,-0.00461,0,0
24.675,2000,0,91.24,0.000002697398,0.000002697398,0.000002697398,0.99999994,0,0,0,0,0,0,0.1023622,0,0,0,0,false,false,false,0,2.85,16.99,-0.003293523,0.0032989178,0.7071021,0.7070959,0,31.001,8.841001,-0.00401,0,0
24.683332,2000,0,91.24,0.000002697398,0.000002697398,0.000002697398,0.99999994,0,0,0,0,0,0,0.1023622,0,0,0,0,false,false,false,0,3.11,17,-0.0033043127,0.0033097074,0.70710206,0.7070959,0,32.330997,8.731,-0.00341,0,0
24.691668,2000,0,91.24,0.000002697398,0.000002697398,0.000002697398,0.99999994,0,0,0,0,0,0,0.1023622,0,0,0,0,false,false,false,0,3.3799999,17.01,-0.0033151023,0.003320497,0.707102,0.7070959,0,33.661,8.621,-0.00291,0,0
24.7,2000,0,91.24,0.000002697398,0.000002697398,0.000002697398,0.99999994,0,0,0,0,0,0,0.1023622,0,0,0,0,false,false,false,0,3.6599998,17.01,-0.003325892,0.0033312866,0.7071019,0.7070959,0,34.990997,8.511001,-0.00251,0,0
24.708334,2000,0,91.24,0.000002697398,0.000002697398,0.000002697398,0.99999994,0,0,0,0,0,0,0.1023622,0,0,0,0,false,false,false,0,3.9499998,17.01,-0.0033312866,0.0033366815,0.7071018,0.7070959,0,36.321,8.441,-0.00211,0,0
24.716667,2000,0,91.24,0.000002697398,0.000002697398,0.000002697398,0.99999994,0,0,0,0,0,0,0.1023622,0,0,0,0,false,false,false,0,4.25,17.01,-0.0033366815,0.0033420762,0.70710176,0.7070959,0,37.650997,8.391,-0.0018099999,0,0
24.725,2000,0,91.24,0.000002697398,0.000002697398,0.000002697398,0.99999994,0,0,0,0,0,0,0.1023622,0,0,0,0,false,false,false,0,4.56,17.01,-0.0033420762,0.003347471,0.7071017,0.7070959,0,38.981,8.361,-0.0016099999,0,0
24.733334,2000,0,91.24,0.000002697398,0.000002697398,0.000002697398,0.99999994,0,0,0,0,0,0,0.1023622,0,0,0,0,false,false,false,0,4.88,17.01,-0.003347471,0.0033528658,0.70710164,0.7070959,0,40.310997,8.341001,-0.0014099999,0,0
24.741667,2000,0,91.24,0.000002697398,0.000002697398,0.000002697398,0.99999994,0,0,0,0,0,0,0.1023622,0,0,0,0,false,false,false,0,5.22,17.01,-0.0033528658,0.0033582605,0.7071016,0.7070959,0,41.641,8.331,-0.0012099999,0,0
24.75,2000,0,91.24,0.000002697398,0.000002697398,0.000002697398,0.99999994,0,0,0,0,0,0,0.1023622,0,0,0,0,false,false,false,0,5.5699997,17.01,-0.0033582605,0.0033636554,0.7071016,0.7070959,0,42.961,8.321,-0.00111,0,0
24.758333,2000,0,91.24,0.000002697398,0.000002697398,0.000002697398,0.99999994,0,0,0,0,0,0,0.1023622,0,0,0,0,false,false,false,0,5.93,17.01,-0.0033636554,0.00336905,0.7071015,0.7070959,0,44.281,8.321,-0.00091,0,0
24.766666,2000,0,91.24,0.000002697398,0.000002697398,0.000002697398,0.99999994,0,0,0,0,0,0,0.1023622,0,0,0,0,false,false,false,0,6.2999997,17.01,-0.0033636554,0.003374445,0.70710146,0.7070959,0,45.600998,8.321,-0.00071,0,0
24.775,2000,0,91.24,0.000002697398,0.000002697398,0.000002697398,0.99999994,0,0,0,0,0,0,0.1023622,0,0,0,0,false,false,false,0,6.68,17.01,-0.0033636554,0.003374445,0.70710146,0.7070959,0,46.920998,8.321,-0.00061,0,0
24.783333,2000,0,91.24,0.000002697398,0.000002697398,0.000002697398,0.99999994,0,0,0,0,0,0,0.1023622,0,0,0,0,false,false,false,0,7.0699997,17.01,-0.0033636554,0.003374445,0.70710146,0.7070959,0,48.240997,8.321,-0.00051,0,0
24.791666,2000,0,91.24,0.000002697398,0.000002697398,0.000002697398,0.99999994,0,0,0,0,0,0,0.1023622,0,0,0,0,false,false,false,0,7.47,17.01,-0.0033636554,0.003374445,0.70710146,0.7070959,0,49.560997,8.321,-0.00051,0,0
24.8,2000,0,91.24,0.000002697398,0.000002697398,0.000002697398,0.99999994,0,0,0,0,0,0,0.1023622,0,0,0,0,false,false,false,0,7.8799996,17.01,-0.0033636554,0.003374445,0.70710146,0.7070959,0,50.880997,8.321,-0.00051,0,0
24.808332,2000,0,91.24,0.000002697398,0.000002697398,0.000002697398,0.99999994,0,0,0,0,0,0,0.1023622,0,0,0,0,false,false,false,0,8.3,17.01,-0.0033636554,0.003374445,0.70710146,0.7070959,0,52.200996,8.321,-0.00051,0,0
24.816668,2000,0,91.24,0.000002697398,0.000002697398,0.000002697398,0.99999994,0,0,0,0,0,0,0.1023622,0,0,0,0,false,false,false,0,8.74,17.01,-0.0033636554,0.003374445,0.70710146,0.7070959,0,53.521,8.321,-0.00051,0,0
24.825,2000,0,91.24,0.000002697398,0.000002697398,0.000002697398,0.99999994,0,0,0,0,0,0,0.1023622,0,0,0,0,false,false,false,0,9.19,17.01,-0.0033636554,0.003374445,0.70710146,0.7070959,0,54.830997,8.321,-0.00051,0,0
24.833334,2000,0,91.24,0.000002697398,0.000002697398,0.000002697398,0.99999994,0,0,0,0,0,0,0.1023622,0,0,0,0,false,false,false,0,9.65,17.01,-0.0033636554,0.003374445,0.70710146,0.7070959,0,56.141,8.321,-0.00051,0,0
24.841667,2000,0,91.24,0.000002697398,0.000002697398,0.000002697398,0.99999994,0,0,0,0,0,0,0.1023622,0,0,0,0,false,false,false,0,10.12,17.01,-0.0033636554,0.003374445,0.70710146,0.7070959,0,57.450996,8.321,-0.00051,0,0
24.85,2000,0,91.24,0.000002697398,0.000002697398,0.000002697398,0.99999994,0,0,0,0,0,0,0.1023622,0,0,0,0,false,false,false,0,10.599999,17.01,-0.0033636554,0.003374445,0.70710146,0.7070959,0,58.760998,8.321,-0.00051,0,0
24.858334,2000,0,91.24,0.000002697398,0.000002697398,0.000002697398,0.99999994,0,0,0,0,0,0,0.1023622,0,0,0,0,false,false,false,0,11.09,17.01,-0.0033636554,0.003374445,0.70710146,0.7070959,0,60.071,8.321,-0.00051,0,0
24.866667,2000,0,91.24,0.000002697398,0.000002697398,0.000002697398,0.99999994,0,0,0,0,0,0,0.1023622,0,0,0,0,false,false,false,0,11.59,17.01,-0.0033636554,0.003374445,0.70710146,0.7070959,0,61.380997,8.321,-0.00051,0,0
24.875,2000,0,91.24,0.000002697398,0.000002697398,0.000002697398,0.99999994,0,0,0,0,0,0,0.1023622,0,0,0,0,false,false,false,0,12.099999,17.01,-0.0033636554,0.003374445,0.70710146,0.7070959,0,62.690998,8.321,-0.00051,0,0
24.883333,2000,0,91.24,0.000002697398,0.000002697398,0.000002697398,0.99999994,0,0,0,0,0,0,0.1023622,0,0,0,0,false,false,false,0,12.62,17.01,-0.0033636554,0.003374445,0.70710146,0.7070959,0,64.001,8.321,-0.00051,0,0
24.891666,2000,0,91.24,0.000002697398,0.000002697398,0.000002697398,0.99999994,0,0,0,0,0,0,0.1023622,0,0,0,0,false,false,false,0,13.15,17.01,-0.0033636554,0.003374445,0.70710146,0.7070959,0,65.300995,8.321,-0.00051,0,0
24.9,2000,0,91.24,0.000002697398,0.000002697398,0.000002697398,0.99999994,0,0,0,0,0,0,0.1023622,0,0,0,0,false,false,false,0,13.69,17.01,-0.0033636554,0.003374445,0.70710146,0.7070959,0,66.601,8.321,-0.00051,0,0
24.908333,2000,0,91.24,0.000002697398,0.000002697398,0.000002697398,0.99999994,0,0,0,0,0,0,0.1023622,0,0,0,0,false,false,false,0,14.25,17.01,-0.0033636554,0.003374445,0.70710146,0.7070959,0,67.901,8.321,-0.00051,0,0
24.916666,2000,0,91.24,0.000002697398,0.000002697398,0.000002697398,0.99999994,0,0,0,0,0,0,0.1023622,0,0,0,0,false,false,false,0,14.82,17.01,-0.0033636554,0.003374445,0.70710146,0.7070959,0,69.201,8.321,-0.00051,0,0
24.925,2000,0,91.24,0.000002697398,0.000002697398,0.000002697398,0.99999994,0,0,0,0,0,0,0.1023622,0,0,0,0,false,false,false,0,15.4,17.01,-0.0033636554,0.003374445,0.70710146,0.7070959,0,70.501,8.321,-0.00051,0,0
24.933332,2000,0,91.24,0.000002697398,0.000002697398,0.000002697398,0.99999994,0,0,0,0,0,0,0.1023622,0,0,0,0,false,false,false,0,15.99,17.01,-0.0033636554,0.003374445,0.70710146,0.7070959,0,71.800995,8.321,-0.00051,0,0
24.941668,2000,0,91.24,0.000002697398,0.000002697398,0.000002697398,0.99999994,0,0,0,0,0,0,0.1023622,0,0,0,0,false,false,false,0,16.59,17.01,-0.0033636554,0.003374445,0.70710146,0.7070959,0,73.101,8.321,-0.00051,0,0
24.95,2000,0,91.24,0.000002697398,0.000002697398,0.000002697398,0.99999994,0,0,0,0,0,0,0.1023622,0,0,0,0,false,false,false,0,17.199999,17.01,-0.0033636554,0.003374445,0.70710146,0.7070959,0,74.401,8.321,-0.00051,0,0
24.958334,2000,0,91.24,0.000002697398,0.000002697398,0.000002697398,0.99999994,0,0,0,0,0,0,0.1023622,0,0,0,0,false,false,false,0,17.82,17.01,-0.0033636554,0.003374445,0.70710146,0.7070959,0,75.701,8.321,-0.00051,0,0
24.966667,2000,0,91.24,0.000002697398,0.000002697398,0.000002697398,0.99999994,0,0,0,0,0,0,0.1023622,0,0,0,0,false,false,false,0,18.449999,17.01,-0.0033636554,0.003374445,0.70710146,0.7070959,0,76.991,8.321,-0.00051,0,0
24.975,2000,0,91.24,0.000002697398,0.000002697398,0.000002697398,0.99999994,0,0,0,0,0,0,0.1023622,0,0,0,0,false,false,false,0,19.09,17.01,-0.0033636554,0.003374445,0.70710146,0.7070959,0,78.281,8.321,-0.00051,0,0
24.983334,2000,0,91.24,0.000002697398,0.000002697398,0.000002697398,0.99999994,0,0,0,0,0,0,0.1023622,0,0,0,0,false,false,false,0,19.74,17.01,-0.0033636554,0.003374445,0.70710146,0.7070959,0,79.571,8.321,-0.00051,0,0
24.991667,2000,0,91.24,0.000002697398,0.000002697398,0.000002697398,0.99999994,0,0,0,0,0,0,0.1023622,0,0,0,0,false,false,false,0,20.4,17.01,-0.0033636554,0.003374445,0.70710146,0.7070959,0,80.861,8.321,-0.00051,0,0
25,2000,0,91.24,0.000002697398,0.000002697398,0.000002697398,0.99999994,0,0,0,0,0,0,0.1023622,0,0,0,0,false,false,false,0,21.07,17.01,-0.0033636554,0.003374445,0.70710146,0.7070959,0,82.151,8.321,-0.00051,0,0
25.008333,2000,0,91.24,0.000002697398,0.000002697398,0.000002697398,0.99999994,0,0,0,0,0,0,0.1023622,0,0,0,0,false,false,false,0,21.75,17.01,-0.0033636554,0.003374445,0.70710146,0.7070959,0,83.440994,8.321,-0.00051,0,0
25.016666,2000,0,91.24,0.000002697398,0.000002697398,0.000002697398,0.99999994,0,0,0,0,0,0,0.1023622,0,0,0,0,false,false,false,0,22.449999,17.01,-0.0033636554,0.003374445,0.70710146,0.7070959,0,84.730995,8.321,-0.00051,0,0
25.025,2000,0,91.24,0.000002697398,0.000002697398,0.000002697398,0.99999994,0,0,0,0,0,0,0.1023622,0,0,0,0,false,false,false,0,23.16,17.01,-0.0033636554,0.003374445,0.70710146,0.7070959,0,86.020996,8.321,-0.00051,0,0
25.033333,2000,0,91.24,0.000002697398,0.000002697398,0.000002697398,0.99999994,0,0,0,0,0,0,0.1023622,0,0,0,0,false,false,false,0,23.88,17.01,-0.0033636554,0.003374445,0.70710146,0.7070959,0,87.311,8.321,-0.00051,0,0
25.041666,2000,0,91.24,0.000002697398,0.000002697398,0.000002697398,0.99999994,0,0,0,0,0,0,0.1023622,0,0,0,0,false,false,false,0,24.609999,17.01,-0.0033636554,0.003374445,0.70710146,0.7070959,0,88.590996,8.321,-0.00051,0,0
25.05,2000,0,91.24,0.000002697398,0.000002697398,0.000002697398,0.99999994,0,0,0,0,0,0,0.1023622,0,0,0,0,false,false,false,0,25.35,17.01,-0.0033636554,0.003374445,0.70710146,0.7070959,0,89.870995,8.321,-0.00051,0,0
25.058332,2000,0,91.24,0.000002697398,0.000002697398,0.000002697398,0.99999994,0,0,0,0,0,0,0.1023622,0,0,0,0,false,false,false,0,26.099998,17.01,-0.0033636554,0.003374445,0.70710146,0.7070959,0,91.151,8.321,-0.00051,0,0
25.066668,2000,0,91.24,0.000002697398,0.000002697398,0.000002697398,0.99999994,0,0,0,0,0,0,0.1023622,0,0,0,0,false,false,false,0,26.859999,17.01,-0.0033636554,0.003374445,0.70710146,0.7070959,0,92.431,8.321,-0.00051,0,0
25.075,2000,0,91.24,0.000002697398,0.000002697398,0.000002697398,0.99999994,0,0,0,0,0,0,0.1023622,0,0,0,0,false,false,false,0,27.63,17.01,-0.0033636554,0.003374445,0.70710146,0.7070959,0,93.711,8.321,-0.00051,0,0
25.083334,2000,0,91.24,0.000002697398,0.000002697398,0.000002697398,0.99999994,0,0,0,0,0,0,0.1023622,0,0,0,0,false,false,false,0,28.41,17.01,-0.0033636554,0.003374445,0.70710146,0.7070959,0,94.991,8.321,-0.00051,0,0
25.091667,2000,0,91.24,0.000002697398,0.000002697398,0.000002697398,0.99999994,0,0,0,0,0,0,0.1023622,0,0,0,0,false,false,false,0,29.199999,17.01,-0.0033636554,0.003374445,0.70710146,0.7070959,0,96.270996,8.321,-0.00051,0,0
25.1,2000,0,91.24,0.000002697398,0.000002697398,0.000002697398,0.99999994,0,0,0,0,0,0,0.1023622,0,0,0,0,false,false,false,0,30,17.01,-0.0033636554,0.003374445,0.70710146,0.7070959,0,97.550995,8.321,-0.00051,0,0
25.108334,2000,0,91.24,0.000002697398,0.000002697398,0.000002697398,0.99999994,0,0,0,0,0,0,0.1023622,0,0,0,0,false,false,false,0,30.81,17.01,-0.0033636554,0.003374445,0.70710146,0.7070959,0,98.83099,8.321,-0.00051,0,0
25.116667,2000,0,91.24,0.000002697398,0.000002697398,0.000002697398,0.99999994,0,0,0,0,0,0,0.1023622,0,0,0,0,false,false,false,0,31.63,17.01,-0.0033636554,0.003374445,0.70710146,0.7070959,0,100.101,8.321,-0.00051,0,0
25.125,2000,0,91.24,0.000002697398,0.000002697398,0.000002697398,0.99999994,0,0,0,0,0,0,1,1,0,0,0,false,false,true,0,32.46,17.01,-0.0033636554,0.003374445,0.70710146,0.7070959,-6.1809998,109.840996,8.331,-0.00010999999,0.00151,0.16670999
25.133333,2000,0,91.24,0.000002697398,0.000002697398,0.000002697398,0.99999994,0,0,0,0,0,0,1,1,0,0,0,false,false,true,-0.049999997,33.38,17.01,-0.0033636554,0.003374445,0.707592,0.706605,-10.951,120.031,8.331,0.00010999999,0.00211,0.29701
25.141666,2000,0,91.24,0.000002697398,0.000002697398,0.000002697398,0.99999994,0,0,0,0,0,0,1,1,0,0,0,false,false,true,-0.14,34.38,17.01,-0.0033636554,0.003374445,0.7084637,0.70573103,-15.331,130.091,8.331,0.00021,0.0023100001,0.41601
25.15,2000,0,91.24,0.000002697398,0.000002697398,0.000002697398,0.99999994,0,0,0,0,0,0,1,1,0,0,0,false,false,true,-0.26999998,35.46,17.01,-0.0033636556,0.0033744453,0.7096869,0.7045011,-19.360998,140.001,8.331,0.00021,0.0023100001,0.52391
25.158333,2000,0,91.24,0.000002697398,0.000002697398,0.000002697398,0.99999994,0,0,0,0,0,0,1,1,0,0,0,false,false,true,-0.42999998,36.63,17.01,-0.0033636556,0.0033744453,0.7112205,0.7029528,-23.091,149.741,8.331,0.00021,0.00211,0.62121
25.166666,2000,0,91.24,0.000002697398,0.000002697398,0.000002697398,0.99999994,0,0,0,0,0,0,1,1,0,0,0,false,false,true,-0.62,37.879997,17.01,-0.0033636554,0.00336905,0.7130394,0.7011077,-26.571,159.281,8.331,0.00021,0.0018099999,0.70881
25.175,2000,0,91.24,0.000002697398,0.000002697398,0.000002697398,0.99999994,0,0,0,0,0,0,1,1,0,0,0,false,false,true,-0.84,39.21,17.01,-0.00336905,0.0033636554,0.7151073,0.69899833,-29.860998,168.61101,8.331,0.00010999999,0.0014099999,0.78771
25.183332,2000,0,91.24,0.000002697398,0.000002697398,0.000002697398,0.99999994,0,0,0,0,0,0,1,1,0,0,0,false,false,true,-1.09,40.62,17.01,-0.003374445,0.0033582605,0.71739894,0.6966462,-32.990997,177.701,8.331,0.00010999999,0.00111,0.85890996
25.191668,2000,0,91.24,0.000002697398,0.000002697398,0.000002697398,0.99999994,0,0,0,0,0,0,1,1,0,0,0,false,false,true,-1.36,42.1,17.01,-0.0033852346,0.003347471,0.719889,0.6940728,-36.010998,186.541,8.321,0.00010999999,0.00071,0.92331
25.2,2000,0,91.24,0.000002697398,0.000002697398,0.000002697398,0.99999994,0,0,0,0,0,0,1,1,0,0,0,false,false,true,-1.66,43.649998,17.01,-0.0033960242,0.0033366815,0.7225522,0.69129986,-38.951,195.131,8.321,0,0.00040999998,0.98181
25.208334,2000,0,91.24,0.000002697398,0.000002697398,0.000002697398,0.99999994,0,0,0,0,0,0,1,1,0,0,0,false,false,true,-1.9799999,45.28,17.01,-0.003406814,0.0033258921,0.7253743,0.68833816,-41.841,203.461,8.321,0,0.00021,1.03521
25.216667,2000,0,91.24,0.000002697398,0.000002697398,0.000002697398,0.99999994,0,0,0,0,0,0,1,1,0,0,0,false,false,true,-2.33,46.98,17.01,-0.0034229984,0.0033097076,0.7283358,0.6852038,-44.701,211.531,8.321,0,0,1.08421
25.225,2000,0,91.24,0.000002697398,0.000002697398,0.000002697398,0.99999994,0,0,0,0,0,0,1,1,0,0,0,false,false,true,-2.7,48.739998,17.01,-0.0034391826,0.003293523,0.7314228,0.68190753,-47.540997,219.33101,8.321,0,-0.00010999999,1.12941
25.233334,2000,0,91.24,0.000002697398,0.000002697398,0.000002697398,0.99999994,0,0,0,0,0,0,1,1,0,0,0,false,false,true,-3.1,50.57,17.01,-0.003455367,0.0032773386,0.7346216,0.67846024,-50.371,226.891,8.321,0,-0.00021,1.1712099
25.241667,2000,0,91.24,0.000002697398,0.000002697398,0.000002697398,0.99999994,0,0,0,0,0,0,1,1,0,0,0,false,false,true,-3.52,52.46,17.01,-0.0034715512,0.0032611543,0.7379236,0.67486733,-53.190998,234.181,8.321,0,-0.00021,1.21011
25.25,2000,0,91.24,0.000002697398,0.000002697398,0.000002697398,0.99999994,0,0,0,0,0,0,1,1,0,0,0,false,false,true,-3.9599998,54.41,17.01,-0.0034877358,0.0032449698,0.7413157,0.6711394,-56.001,241.201,8.321,0,-0.00030999997,1.24651
25.258333,2000,0,91.24,0.000002697398,0.000002697398,0.000002697398,0.99999994,0,0,0,0,0,0,1,1,0,0,0,false,false,true,-4.43,56.42,17.01,-0.00350392,0.0032233908,0.7447897,0.66728216,-58.801,247.961,8.321,0,-0.00040999998,1.28071
25.266666,2000,0,91.24,0.000002697398,0.000002697398,0.000002697398,0.99999994,0,0,0,0,0,0,1,1,0,0,0,false,false,true,-4.92,58.489998,17.01,-0.0035201046,0.0032018116,0.7483376,0.6633008,-61.580997,254.451,8.321,0,-0.00040999998,1.31301
25.275,2000,0,91.24,0.000002697398,0.000002697398,0.000002697398,0.99999994,0,0,0,0,0,0,1,1,0,0,0,false,false,true,-5.43,60.609997,17.01,-0.0035362889,0.0031802324,0.7519566,0.65919536,-64.331,260.691,8.321,0,-0.00040999998,1.34371
25.283333,2000,0,91.24,0.000002697398,0.000002697398,0.000002697398,0.99999994,0,0,0,0,0,0,1,1,0,0,0,false,false,true,-5.97,62.78,17.01,-0.003557868,0.0031586532,0.75563407,0.6549766,-67.041,266.681,8.321,0,-0.00040999998,1.3730099
25.291666,2000,0,91.24,0.000002697398,0.000002697398,0.000002697398,0.99999994,0,0,0,0,0,0,1,1,0,0,0,false,false,true,-6.5299997,65,17.01,-0.0035794473,0.003137074,0.7593674,0.65064454,-69.701,272.431,8.321,0,-0.00040999998,1.4011099
25.3,2000,0,91.24,0.000002697398,0.000002697398,0.000002697398,0.99999994,0,0,0,0,0,0,1,1,0,0,0,false,false,true,-7.1099997,67.27,17.01,-0.0036010267,0.003115495,0.76315385,0.6461993,-72.281,277.931,8.321,0,-0.00040999998,1.42831
25.308332,2000,0,91.24,0.000002697398,0.000002697398,0.000002697398,0.99999994,0,0,0,0,0,0,1,1,0,0,0,false,false,true,-7.71,69.59,17.01,-0.0036226052,0.0030939153,0.766986,0.6416459,-74.770996,283.211,8.321,0,-0.00040999998,1.45471
25.316668,2000,0,91.24,0.000002697398,0.000002697398,0.000002697398,0.99999994,0,0,0,0,0,0,1,1,0,0,0,false,false,true,-8.33,71.95,17.01,-0.003644185,0.0030723363,0.77086145,0.6369849,-77.141,288.29102,8.321,0,-0.00040999998,1.48041
25.325,2000,0,91.24,0.000002697398,0.000002697398,0.000002697398,0.99999994,0,0,0,0,0,0,1,1,0,0,0,false,false,true,-8.97,74.35,17.01,-0.0036657634,0.0030507569,0.7747775,0.63221586,-79.611,293.321,8.321,0,-0.00040999998,1.5060099
25.333334,2000,0,91.24,0.000002697398,0.000002697398,0.000002697398,0.99999994,0,0,0,0,0,0,1,1,0,0,0,false,false,true,-9.63,76.79,17.01,-0.003687343,0.003029178,0.7787273,0.6273443,-82.190994,298.301,8.321,0,-0.00040999998,1.53161
25.341667,2000,0,91.24,0.000002697398,0.000002697398,0.000002697398,0.99999994,0,0,0,0,0,0,1,1,0,0,0,false,false,true,-10.309999,79.28,17.01,-0.0037089223,0.003002204,0.7827169,0.6223595,-84.881,303.241,8.321,0,-0.00040999998,1.5570099
25.35,2000,0,91.24,0.000002697398,0.000002697398,0.000002697398,0.99999994,0,0,0,0,0,0,1,1,0,0,0,false,false,true,-11.0199995,81.81,17.01,-0.0037305015,0.00297523,0.7867393,0.61726683,-87.681,308.131,8.321,0,-0.00030999997,1.58241
25.358334,2000,0,91.24,0.000002697398,0.000002697398,0.000002697398,0.99999994,0,0,0,0,0,0,1,1,0,0,0,false,false,true,-11.75,84.38,17.01,-0.0037520807,0.002948256,0.790792,0.61206627,-90.590996,312.971,8.321,0,-0.00021,1.60771
25.366667,2000,0,91.24,0.000002697398,0.000002697398,0.000002697398,0.99999994,0,0,0,0,0,0,1,1,0,0,0,false,false,true,-12.5,86.99,17.01,-0.00377366,0.002921282,0.7948724,0.6067577,-93.611,317.751,8.321,0,-0.00010999999,1.63291
25.375,2000,0,91.24,0.000002697398,0.000002697398,0.000002697398,0.99999994,0,0,0,0,0,0,1,1,0,0,0,false,false,true,-13.28,89.64,17.01,-0.0037952391,0.0028943082,0.79898196,0.6013359,-96.751,322.471,8.321,0,-0.00010999999,1.65801
25.383333,2000,0,91.24,0.000002697398,0.000002697398,0.000002697398,0.99999994,0,0,0,0,0,0,1,1,0,0,0,false,false,true,-14.09,92.329994,17.01,-0.0038168186,0.0028673343,0.803118,0.5958009,-100.001,327.131,8.321,0,0,1.68301
25.391666,2000,0,91.24,0.000002697398,0.000002697398,0.000002697398,0.99999994,0,0,0,0,0,0,1,1,0,0,0,false,false,true,-14.92,95.06,17.01,-0.0038383976,0.0028403602,0.80727756,0.5901525,-103.361,331.721,8.321,0,0,1.70791
25.4,2000,0,91.24,0.000002697398,0.000002697398,0.000002697398,0.99999994,0,0,0,0,0,0,1,1,0,0,0,false,false,true,-15.78,97.82,17.01,-0.0038599768,0.0028133863,0.81145823,0.58439076,-106.83099,336.241,8.321,0,0,1.73281
25.408333,2000,0,91.24,0.000002697398,0.000002697398,0.000002697398,0.99999994,0,0,0,0,0,0,1,1,0,0,0,false,false,true,-16.67,100.619995,17.01,-0.0038815557,0.0027864121,0.8156571,0.5785158,-110.421,340.691,8.321,0,0,1.75761
25.416666,2000,0,91.24,0.000002697398,0.000002697398,0.000002697398,0.99999994,0,0,0,0,0,0,1,1,0,0,0,false,false,true,-17.59,103.46,17.01,-0.003903135,0.0027594382,0.8198714,0.5725276,-114.120995,345.061,8.321,0,0,1.78231
25.425,2000,0,91.24,0.000002697398,0.000002697398,0.000002697398,0.99999994,0,0,0,0,0,0,1,1,0,0,0,false,false,true,-18.539999,106.34,17.01,-0.0039247135,0.0027324639,0.8241023,0.5664206,-117.931,349.351,8.321,0,0,1.8069099
25.433332,2000,0,91.24,0.000002697398,0.000002697398,0.000002697398,0.99999994,0,0,0,0,0,0,1,1,0,0,0,false,false,true,-19.52,109.25,17.01,-0.003946293,0.0027054902,0.8283432,0.5602004,-121.851,353.561,8.321,0,0,1.8314099
25.441668,2000,0,91.24,0.000002697398,0.000002697398,0.000002697398,0.99999994,0,0,0,0,0,0,1,1,0,0,0,false,false,true,-20.539999,112.2,17.01,-0.0039678724,0.0026731214,0.83259493,0.55386156,-125.891,357.681,8.321,0.00010999999,0,1.8558099
25.45,2000,0,91.24,0.000002697398,0.000002697398,0.000002697398,0.99999994,0,0,0,0,0,0,1,1,0,0,0,false,false,true,-21.59,115.18,17.01,-0.0039894516,0.0026407526,0.8368512,0.54740936,-130.041,361.711,8.321,0.00010999999,0,1.88011
25.458334,2000,0,91.24,0.000002697398,0.000002697398,0.000002697398,0.99999994,0,0,0,0,0,0,1,1,0,0,0,false,false,true,-22.67,118.189995,17.01,-0.0040110303,0.0026083835,0.84111273,0.54083836,-134.30101,365.641,8.321,0.00010999999,0,1.90431
25.466667,2000,0,91.24,0.000002697398,0.000002697398,0.000002697398,0.99999994,0,0,0,0,0,0,1,1,0,0,0,false,false,true,-23.789999,121.24,17.01,-0.0040326095,0.002576015,0.84537673,0.5341488,-138.671,369.471,8.321,0.00010999999,0,1.9284099
25.475,2000,0,91.24,0.000002697398,0.000002697398,0.000002697398,0.99999994,0,0,0,0,0,0,1,1,0,0,0,false,false,true,-24.949999,124.32,17.01,-0.0040541897,0.0025436466,0.8496404,0.5273407,-143.151,373.201,8.321,0.00010999999,0,1.95251
25.483334,2000,0,91.24,0.000002697398,0.000002697398,0.000002697398,0.99999994,0,0,0,0,0,0,1,1,0,0,0,false,false,true,-26.14,127.43,17.01,-0.0040757684,0.0025112776,0.853904,0.52040833,-147.741,376.82098,8.321,0.00010999999,0.00010999999,1.9765099
25.491667,2000,0,91.24,0.000002697398,0.000002697398,0.000002697398,0.99999994,0,0,0,0,0,0,1,1,0,0,0,false,false,true,-27.369999,130.56999,17.01,-0.0040973476,0.0024789087,0.85816157,0.5133572,-152.431,380.331,8.321,0.00010999999,0.00010999999,2.00041
25.5,2000,0,91.24,0.000002697398,0.000002697398,0.000002697398,0.99999994,0,0,0,0,0,0,1,1,0,0,0,false,false,true,-28.64,133.73999,17.01,-0.004118927,0.00244654,0.86241,0.50618756,-157.231,383.731,8.321,0.00010999999,0.00010999999,2.02421
25.508333,2000,0,91.24,0.000002697398,0.000002697398,0.000002697398,0.99999994,0,0,0,0,0,0,1,1,0,0,0,false,false,true,-29.949999,136.94,17.01,-0.004140506,0.0024141711,0.8666498,0.4988938,-162.141,387.011,8.321,0.00021,0.00010999999,2.04791
25.516666,2000,0,91.24,0.000002697398,0.000002697398,0.000002697398,0.99999994,0,0,0,0,0,0,1,1,0,0,0,false,false,true,-31.3,140.17,17.01,-0.0041620857,0.0023764079,0.8708749,0.4914813,-167.151,390.171,8.321,0.00021,0.00010999999,2.07151
25.525,2000,0,91.24,0.000002697398,0.000002697398,0.000002697398,0.99999994,0,0,0,0,0,0,1,1,0,0,0,false,false,true,-32.69,143.42,17.01,-0.0041836645,0.0023386441,0.87508535,0.48394474,-172.261,393.201,8.321,0.00021,0.00021,2.09501
25.533333,2000,0,91.24,0.000002697398,0.000002697398,0.000002697398,0.99999994,0,0,0,0,0,0,1,1,0,0,0,false,false,true,-34.13,146.7,17.01,-0.0042052437,0.0023008806,0.8792754,0.47628957,-177.47101,396.101,8.321,0.00021,0.00021,2.1184099
25.541666,2000,0,91.24,0.000002697398,0.000002697398,0.000002697398,0.99999994,0,0,0,0,0,0,1,1,0,0,0,false,false,true,-35.61,150,17.01,-0.0042268224,0.0022631169,0.883445,0.46851015,-182.781,398.871,8.321,0.00021,0.00021,2.14171
25.55,2000,0,91.24,0.000002697398,0.000002697398,0.000002697398,0.99999994,0,0,0,0,0,0,1,1,0,0,0,false,false,true,-37.13,153.31999,17.01,-0.004243007,0.0022253534,0.8875913,0.46060678,-188.19101,401.511,8.321,0.00021,0.00030999997,2.16491
25.558332,2000,0,91.24,0.000002697398,0.000002697398,0.000002697398,0.99999994,0,0,0,0,0,0,1,1,0,0,0,false,false,true,-38.7,156.67,17.01,-0.004259191,0.0021875894,0.8917112,0.45257917,-193.69101,404.011,8.321,0.00021,0.00030999997,2.18801
25.566668,2000,0,91.24,0.000002697398,0.000002697398,0.000002697398,0.99999994,0,0,0,0,0,0,1,1,0,0,0,false,false,true,-40.309998,160.04,17.01,-0.0042753764,0.0021498264,0.8957992,0.44443312,-199.281,406.361,8.321,0.00021,0.00030999997,2.21101
25.575,2000,0,91.24,0.000002697398,0.000002697398,0.000002697398,0.99999994,0,0,0,0,0,0,1,1,0,0,0,false,false,true,-41.969997,163.43,17.01,-0.00429156,0.0021120626,0.89985496,0.43616286,-204.961,408.57098,8.321,0.00021,0.00021,2.2339098
25.583334,2000,0,91.24,0.000002697398,0.000002697398,0.000002697398,0.99999994,0,0,0,0,0,0,1,1,0,0,0,false,false,true,-43.68,166.83,17.01,-0.0043077446,0.002074299,0.90387565,0.42776847,-210.731,410.631,8.321,0.00021,0.00010999999,2.25671
25.591667,2000,0,91.24,0.000002697398,0.000002697398,0.000002697398,0.99999994,0,0,0,0,0,0,1,1,0,0,0,false,false,true,-45.44,170.25,17.01,-0.004323929,0.0020311407,0.90785813,0.4192501,-216.58101,412.531,8.321,0.00021,0,2.27941
25.6,2000,0,91.24,0.000002697398,0.000002697398,0.000002697398,0.99999994,0,0,0,0,0,0,1,1,0,0,0,false,false,true,-47.239998,173.69,17.01,-0.0043401136,0.0019879825,0.9117996,0.41060767,-222.511,414.281,8.321,0.00010999999,0,2.30201
25.608334,2000,0,91.24,0.000002697398,0.000002697398,0.000002697398,0.99999994,0,0,0,0,0,0,1,1,0,0,0,false,false,true,-49.09,177.14,17.01,-0.0043562977,0.001944824,0.915697,0.40184098,-228.521,415.871,8.321,0,0,2.3245099
25.616667,2000,0,91.24,0.000002697398,0.000002697398,0.000002697398,0.99999994,0,0,0,0,0,0,1,1,0,0,0,false,false,true,-50.989998,180.61,17.01,-0.0043724827,0.0019016658,0.91954494,0.3929558,-234.601,417.291,8.321,0,0,2.34691
25.625,2000,0,91.24,0.000002697398,0.000002697398,0.000002697398,0.99999994,0,0,0,0,0,0,1,1,0,0,0,false,false,true,-52.949997,184.09,17.01,-0.0043886667,0.0018585073,0.923343,0.38394636,-240.751,418.551,8.321,0,0,2.36921
25.633333,2000,0,91.24,0.000002697398,0.000002697398,0.000002697398,0.99999994,0,0,0,0,0,0,1,1,0,0,0,false,false,true,-54.96,187.58,17.01,-0.004404851,0.0018153489,0.92708814,0.374813,-246.97101,419.641,8.321,0,0,2.3914099
25.641666,2000,0,91.24,0.000002697398,0.000002697398,0.000002697398,0.99999994,0,0,0,0,0,0,1,1,0,0,0,false,false,true,-57.02,191.08,17.01,-0.0044210353,0.0017721906,0.93077725,0.36555552,-253.251,420.561,8.321,0,0,2.4135098
25.65,2000,0,91.24,0.000002697398,0.000002697398,0.000002697398,0.99999994,0,0,0,0,0,0,1,1,0,0,0,false,false,true,-59.129997,194.58,17.01,-0.00443722,0.0017290321,0.93440545,0.35617927,-259.591,421.301,8.321,0,0,2.43551
25.658333,2000,0,91.24,0.000002697398,0.000002697398,0.000002697398,0.99999994,0,0,0,0,0,0,1,1,0,0,0,false,false,true,-61.289997,198.09,17.01,-0.0044534043,0.001685874,0.9379717,0.34667906,-265.991,421.871,8.321,0,-0.00010999999,2.45751
25.666666,2000,0,91.24,0.000002697398,0.000002697398,0.000002697398,0.99999994,0,0,0,0,0,0,1,1,0,0,0,false,false,true,-63.51,201.61,17.01,-0.0044695884,0.0016427154,0.941473,0.33705464,-272.441,422.261,8.321,0,-0.00010999999,2.47941
25.675,2000,0,91.24,0.000002697398,0.000002697398,0.000002697398,0.99999994,0,0,0,0,0,0,1,1,0,0,0,false,false,true,-65.78,205.12999,17.01,-0.004485773,0.0015941622,0.9449044,0.32731164,-278.941,422.461,8.321,0,-0.00021,2.50121
25.683332,2000,0,91.24,0.000002697398,0.000002697398,0.000002697398,0.99999994,0,0,0,0,0,0,1,1,0,0,0,false,false,true,-68.1,208.65,17.01,-0.0045019574,0.0015456091,0.94826484,0.31744447,-285.481,422.481,8.321,0,-0.00021,2.5229099
25.691668,2000,0,91.24,0.000002697398,0.000002697398,0.000002697398,0.99999994,0,0,0,0,0,0,1,1,0,0,0,false,false,true,-70.479996,212.17,17.01,-0.0045181415,0.0014970559,0.9515495,0.3074587,-292.061,422.311,8.321,0,-0.00021,2.54451
25.7,2000,0,91.24,0.000002697398,0.000002697398,0.000002697398,0.99999994,0,0,0,0,0,0,1,1,0,0,0,false,false,true,-72.909996,215.69,17.01,-0.0045343265,0.0014485029,0.95475537,0.2973542,-298.671,421.961,8.321,0,-0.00021,2.56601
25.708334,2000,0,91.24,0.000002697398,0.000002697398,0.000002697398,0.99999994,0,0,0,0,0,0,1,1,0,0,0,false,false,true,-75.4,219.20999,17.01,-0.0045505106,0.0013999495,0.9578794,0.287131,-305.311,421.411,8.321,0,-0.00021,2.58741
25.716667,2000,0,91.24,0.000002697398,0.000002697398,0.000002697398,0.99999994,0,0,0,0,0,0,1,1,0,0,0,false,false,true,-77.939995,222.72,17.01,-0.0045666946,0.0013513964,0.9609188,0.2767892,-311.981,420.671,8.321,0,-0.00021,2.60871
25.725,2000,0,91.24,0.000002697398,0.000002697398,0.000002697398,0.99999994,0,0,0,0,0,0,1,1,0,0,0,false,false,true,-80.54,226.23,17.01,-0.004582879,0.0013028432,0.96387047,0.2663286,-318.671,419.741,8.321,0,-0.00021,2.62991
25.733334,2000,0,91.24,0.000002697398,0.000002697398,0.000002697398,0.99999994,0,0,0,0,0,0,1,1,0,0,0,false,false,true,-83.2,229.73,17.01,-0.0045990637,0.0012542901,0.9667313,0.2557494,-325.371,418.611,8.321,0,-0.00021,2.65101
25.741667,2000,0,91.24,0.000002697398,0.000002697398,0.000002697398,0.99999994,0,0,0,0,0,0,1,1,0,0,0,false,false,true,-85.909996,233.22,17.01,-0.004615248,0.0012057369,0.9694969,0.24505685,-332.091,417.291,8.321,0,-0.00010999999,2.67201
25.75,2000,0,91.24,0.000002697398,0.000002697398,0.000002697398,0.99999994,0,0,0,0,0,0,1,1,0,0,0,false,false,true,-88.68,236.7,17.01,-0.0046314327,0.0011517891,0.9721657,0.23424569,-338.811,415.771,8.321,0,-0.00010999999,2.69291
25.758333,2000,0,91.24,0.000002697398,0.000002697398,0.000002697398,0.99999994,0,0,0,0,0,0,1,1,0,0,0,false,false,true,-91.5,240.15999,17.01,-0.004642222,0.001097841,0.9747332,0.22332112,-345.531,414.051,8.321,0,0,2.7137098
25.766666,2000,0,91.24,0.000002697398,0.000002697398,0.000002697398,0.99999994,0,0,0,0,0,0,1,1,0,0,0,false,false,true,-94.38,243.61,17.01,-0.0046530114,0.001043893,0.97719646,0.21228337,-352.251,412.131,8.321,0,0,2.73451
25.775,2000,0,91.24,0.000002697398,0.000002697398,0.000002697398,0.99999994,0,0,0,0,0,0,1,1,0,0,0,false,false,true,-97.32,247.04,17.01,-0.0046638018,0.0009899451,0.9795514,0.20113766,-358.961,410.011,8.321,0,0,2.75521
25.783333,2000,0,91.24,0.000002697398,0.000002697398,0.000002697398,0.99999994,0,0,0,0,0,0,1,1,0,0,0,false,false,true,-100.31,250.45999,17.01,-0.0046745907,0.0009359971,0.9817959,0.1898787,-365.651,407.691,8.321,0,0,2.77581
25.791666,2000,0,91.24,0.000002697398,0.000002697398,0.000002697398,0.99999994,0,0,0,0,0,0,1,1,0,0,0,false,false,true,-103.36,253.86,17.01,-0.0046853805,0.00088204915,0.9839262,0.17851178,-372.32098,405.171,8.321,0,0,2.79631
25.8,2000,0,91.24,0.000002697398,0.000002697398,0.000002697398,0.99999994,0,0,0,0,0,0,1,1,0,0,0,false,false,true,-106.46,257.24,17.01,-0.00469617,0.0008281012,0.985939,0.16703704,-378.961,402.441,8.321,0,0,2.81671
25.808332,2000,0,91.24,0.000002697398,0.000002697398,0.000002697398,0.99999994,0,0,0,0,0,0,1,1,0,0,0,false,false,true,-109.619995,260.59,17.01,-0.00470696,0.0007741533,0.98783153,0.15545435,-385.57098,399.511,8.321,0,0,2.83701
25.816668,2000,0,91.24,0.000002697398,0.000002697398,0.000002697398,0.99999994,0,0,0,0,0,0,1,1,0,0,0,false,false,true,-112.829994,263.91998,17.01,-0.0047177486,0.0007202052,0.9895996,0.14376919,-392.151,396.381,8.321,0,0,2.85721
25.825,2000,0,91.24,0.000002697398,0.000002697398,0.000002697398,0.99999994,0,0,0,0,0,0,1,1,0,0,0,false,false,true,-116.1,267.22,17.01,-0.0047285384,0.0006662573,0.99124134,0.1319761,-398.681,393.051,8.321,0,0,2.87741
25.833334,2000,0,91.24,0.000002697398,0.000002697398,0.000002697398,0.99999994,0,0,0,0,0,0,1,1,0,0,0,false,false,true,-119.42,270.5,17.01,-0.004733934,0.00060691463,0.9927527,0.1200805,-405.171,389.521,8.321,0,0,2.89751
25.841667,2000,0,91.24,0.000002697398,0.000002697398,0.000002697398,0.99999994,0,0,0,0,0,0,1,1,0,0,0,false,false,true,-122.799995,273.75,17.01,-0.0047393283,0.0005475718,0.99412984,0.10808786,-411.60098,385.791,8.321,0,0,2.91751
25.85,2000,0,91.24,0.000002697398,0.000002697398,0.000002697398,0.99999994,0,0,0,0,0,0,1,1,0,0,0,false,false,true,-126.229996,276.96,17.01,-0.0047447225,0.000488229,0.99537045,0.09599263,-417.971,381.861,8.321,0,0,2.9374099
25.858334,2000,0,91.24,0.000002697398,0.000002697398,0.000002697398,0.99999994,0,0,0,0,0,0,1,1,0,0,0,false,false,true,-129.70999,280.13998,17.01,-0.0047501177,0.0004288863,0.99647063,0.0838058,-424.281,377.741,8.321,0,0,2.95731
25.866667,2000,0,91.24,0.000002697398,0.000002697398,0.000002697398,0.99999994,0,0,0,0,0,0,1,1,0,0,0,false,false,true,-133.25,283.29,17.01,-0.004755513,0.00036954353,0.9974276,0.07152176,-430.521,373.421,8.321,0,0,2.97711
25.875,2000,0,91.24,0.000002697398,0.000002697398,0.000002697398,0.99999994,0,0,0,0,0,0,1,1,0,0,0,false,false,true,-136.84,286.4,17.01,-0.004760908,0.0003102008,0.9982379,0.059146106,-436.691,368.901,8.321,0,0,2.99681
25.883333,2000,0,91.24,0.000002697398,0.000002697398,0.000002697398,0.99999994,0,0,0,0,0,0,1,1,0,0,0,false,false,true,-140.48,289.47,17.01,-0.004766302,0.00025085802,0.9988985,0.04667864,-442.781,364.191,8.321,0,0,3.0164099
25.891666,2000,0,91.24,0.000002697398,0.000002697398,0.000002697398,0.99999994,0,0,0,0,0,0,1,1,0,0,0,false,false,true,-144.17,292.5,17.01,-0.004771697,0.00019151527,0.9994063,0.034119554,-448.781,359.291,8.321,0,0,3.03601
25.9,2000,0,91.24,0.000002697398,0.000002697398,0.000002697398,0.99999994,0,0,0,0,0,0,1,1,0,0,0,false,false,true,-147.91,295.49,17.01,-0.004771697,0.0001321725,0.99975795,0.02147407,-454.691,354.201,8.321,0,0,3.05551
25.908333,2000,0,91.24,0.000002697398,0.000002697398,0.000002697398,0.99999994,0,0,0,0,0,0,1,1,0,0,0,false,false,true,-151.7,298.44,17.01,-0.004771697,0.000072829745,0.99995035,0.008742267,-460.511,348.921,8.321,0,0,3.07491
25.916666,2000,0,91.24,0.000002697398,0.000002697398,0.000002697398,0.99999994,0,0,0,0,0,0,1,1,0,0,0,false,false,true,-155.54,301.35,17.01,-0.004771697,0.000013486991,0.9999803,-0.0040703737,-466.231,343.451,8.321,0,0,3.09431
25.925,2000,0,91.24,0.000002697398,0.000002697398,0.000002697398,0.99999994,0,0,0,0,0,0,1,1,0,0,0,false,false,true,-159.43,304.21,17.01,-0.004771697,-0.000045855766,0.9998447,-0.01696402,-471.841,337.801,8.321,0,0,3.11361
25.933332,2000,0,91.24,0.000002697398,0.000002697398,0.000002697398,0.99999994,0,0,0,0,0,0,1,1,0,0,0,false,false,true,-163.36,307.03,17.01,-0.004771697,-0.000105198524,0.99954045,-0.029933153,-477.341,331.971,8.321,0,0,3.1328099
25.941668,2000,0,91.24,0.000002697398,0.000002697398,0.000002697398,0.99999994,0,0,0,0,0,0,1,1,0,0,0,false,false,true,-167.34,309.8,17.01,-0.004771697,-0.00016993607,0.99906456,-0.04297781,-482.721,325.961,8.321,0,0,3.15201
25.95,2000,0,91.24,0.000002697398,0.000002697398,0.000002697398,0.99999994,0,0,0,0,0,0,1,1,0,0,0,false,false,true,-171.36,312.52,17.01,-0.0047716973,-0.00023467364,0.9984141,-0.05609261,-487.981,319.781,8.321,0,0,3.17111
25.958334,2000,0,91.24,0.000002697398,0.000002697398,0.000002697398,0.99999994,0,0,0,0,0,0,1,1,0,0,0,false,false,true,-175.43,315.18,17.01,-0.0047663017,-0.00029941116,0.99758583,-0.06927752,-493.121,313.421,8.321,0,0.00010999999,3.1902099
25.966667,2000,0,91.24,0.000002697398,0.000002697398,0.000002697398,0.99999994,0,0,0,0,0,0,1,1,0,0,0,false,false,true,-179.54,317.78998,17.01,-0.004760907,-0.0003641487,0.9965768,-0.08253258,-498.13098,306.891,8.321,0,0.00010999999,3.20921
25.975,2000,0,91.24,0.000002697398,0.000002697398,0.000002697398,0.99999994,0,0,0,0,0,0,1,1,0,0,0,false,false,true,-183.69,320.35,17.01,-0.004755513,-0.0004288863,0.99538404,-0.09585242,-503.011,300.201,8.321,0,0.00010999999,3.22821
25.983334,2000,0,91.24,0.000002697398,0.000002697398,0.000002697398,0.99999994,0,0,0,0,0,0,1,1,0,0,0,false,false,true,-187.87999,322.85,17.01,-0.0047501177,-0.00049362384,0.9940048,-0.109231554,-507.751,293.341,8.321,0,0.00010999999,3.24711
25.991667,2000,0,91.24,0.000002697398,0.000002697398,0.000002697398,0.99999994,0,0,0,0,0,0,1,1,0,0,0,false,false,true,-192.11,325.28998,17.01,-0.004744723,-0.00055836135,0.99243593,-0.12267004,-512.35095,286.321,8.321,0,0.00010999999,3.26601
26,2000,0,91.24,0.000002697398,0.000002697398,0.000002697398,0.99999994,0,0,0,0,0,0,1,1,0,0,0,false,false,true,-196.37999,327.68,17.01,-0.0047339336,-0.0006230989,0.990675,-0.13616246,-516.80096,279.151,8.321,0,0.00010999999,3.2848098
26.008333,2000,0,91.24,0.000002697398,0.000002697398,0.000002697398,0.99999994,0,0,0,0,0,0,1,1,0,0,0,false,false,true,-200.69,330.00998,17.01,-0.004723144,-0.00068783655,0.98871857,-0.1497089,-521.10095,271.821,8.321,0,0.00010999999,3.3036098
26.016666,2000,0,91.24,0.000002697398,0.000002697398,0.000002697398,0.99999994,0,0,0,0,0,0,1,1,0,0,0,false,false,true,-205.03,332.28,17.01,-0.0047123544,-0.00075257407,0.9865642,-0.1633038,-525.251,264.341,8.321,0,0.00010999999,3.32231
26.025,2000,0,91.24,0.000002697398,0.000002697398,0.000002697398,0.99999994,0,0,0,0,0,0,1,1,0,0,0,false,false,true,-209.40999,334.47998,17.01,-0.0047015646,-0.00081731164,0.9842087,-0.17694728,-529.24097,256.721,8.321,0,0.00010999999,3.3410099
26.033333,2000,0,91.24,0.000002697398,0.000002697398,0.000002697398,0.99999994,0,0,0,0,0,0,1,1,0,0,0,false,false,true,-213.81999,336.62,17.01,-0.004690775,-0.00088204915,0.9816506,-0.19062853,-533.071,248.951,8.321,0,0.00010999999,3.3596098
26.041666,2000,0,91.24,0.000002697398,0.000002697398,0.000002697398,0.99999994,0,0,0,0,0,0,1,1,0,0,0,false,false,true,-218.26,338.69,17.01,-0.0046799853,-0.0009467867,0.9788856,-0.20435295,-536.73096,241.041,8.321,0,0.00010999999,3.3782098
26.05,2000,0,91.24,0.000002697398,0.000002697398,0.000002697398,0.99999994,0,0,0,0,0,0,1,1,0,0,0,false,false,true,-222.73,340.69998,17.01,-0.0046638013,-0.0010115242,0.9759125,-0.21810976,-540.22095,233.001,8.321,0,0.00010999999,3.3968098
26.058332,2000,0,91.24,0.000002697398,0.000002697398,0.000002697398,0.99999994,0,0,0,0,0,0,1,1,0,0,0,false,false,true,-227.23,342.63998,17.01,-0.0046476168,-0.0010762617,0.97272813,-0.23189889,-543.54095,224.83101,8.321,0,0.00010999999,3.41531
26.066668,2000,0,91.24,0.000002697398,0.000002697398,0.000002697398,0.99999994,0,0,0,0,0,0,1,1,0,0,0,false,false,true,-231.76,344.50998,17.01,-0.0046314322,-0.0011409994,0.9693303,-0.245715,-546.691,216.531,8.321,0,0.00010999999,3.43381
26.075,2000,0,91.24,0.000002697398,0.000002697398,0.000002697398,0.99999994,0,0,0,0,0,0,1,1,0,0,0,false,false,true,-236.31999,346.31,17.01,-0.004615248,-0.0012057369,0.96571565,-0.25955808,-549.66095,208.101,8.321,0,0.00010999999,3.4523098
26.083334,2000,0,91.24,0.000002697398,0.000002697398,0.000002697398,0.99999994,0,0,0,0,0,0,1,1,0,0,0,false,false,true,-240.9,348.03998,17.01,-0.0045990637,-0.0012704745,0.96188205,-0.2734228,-552.451,199.55101,8.321,0,0.00010999999,3.47071
26.091667,2000,0,91.24,0.000002697398,0.000002697398,0.000002697398,0.99999994,0,0,0,0,0,0,1,1,0,0,0,false,false,true,-245.5,349.69998,17.01,-0.004577485,-0.0013352121,0.9578276,-0.2873037,-555.05096,190.891,8.321,0,0.00010999999,3.48911
26.1,2000,0,91.24,0.000002697398,0.000002697398,0.000002697398,0.99999994,0,0,0,0,0,0,1,1,0,0,0,false,false,true,-250.12999,351.28998,17.01,-0.0045559052,-0.0013999495,0.9535505,-0.3011953,-557.46094,182.11101,8.321,0,0.00010999999,3.50751
26.108334,2000,0,91.24,0.000002697398,0.000002697398,0.000002697398,0.99999994,0,0,0,0,0,0,1,1,0,0,0,false,false,true,-254.78,352.81,17.01,-0.0045343256,-0.001464687,0.9490471,-0.31509775,-559.68097,173.22101,8.321,0,0.00010999999,3.52591
26.116667,2000,0,91.24,0.000002697398,0.000002697398,0.000002697398,0.99999994,0,0,0,0,0,0,1,1,0,0,0,false,false,true,-259.44,354.25,17.01,-0.0045127473,-0.0015294248,0.9443159,-0.32900563,-561.71094,164.231,8.321,0,0.00010999999,3.54421
26.125,2000,0,91.24,0.000002697398,0.000002697398,0.000002697398,0.99999994,0,0,0,0,0,0,1,1,0,0,0,false,false,true,-264.12,355.62,17.01,-0.0044911676,-0.0015941622,0.93935484,-0.34291342,-563.54095,155.141,8.321,0,0.00010999999,3.56251
26.133333,2000,0,91.24,0.000002697398,0.000002697398,0.000002697398,0.99999994,0,0,0,0,0,0,1,1,0,0,0,false,false,true,-268.82,356.91,17.01,-0.0044641937,-0.0016588998,0.9341605,-0.35682124,-565.17096,145.951,8.321,0,0.00010999999,3.5808098
26.141666,2000,0,91.24,0.000002697398,0.000002697398,0.000002697398,0.99999994,0,0,0,0,0,0,1,1,0,0,0,false,false,true,-273.53,358.13,17.01,-0.00443722,-0.0017236373,0.9287331,-0.37071833,-566.60095,136.671,8.321,0,0.00010999999,3.59901
26.15,2000,0,91.24,0.000002697398,0.000002697398,0.000002697398,0.99999994,0,0,0,0,0,0,1,1,0,0,0,false,false,true,-278.25,359.27,17.01,-0.0044102455,-0.001788375,0.92306906,-0.38460457,-567.831,127.300995,8.321,0,0.00010999999,3.61721
26.158333,2000,0,91.24,0.000002697398,0.000002697398,0.000002697398,0.99999994,0,0,0,0,0,0,1,1,0,0,0,false,false,true,-282.97998,360.33,17.01,-0.0043832716,-0.0018531125,0.91716695,-0.39847463,-568.85095,117.840996,8.321,0,0.00010999999,3.6354098
26.166666,2000,0,91.24,0.000002697398,0.000002697398,0.000002697398,0.99999994,0,0,0,0,0,0,1,1,0,0,0,false,false,true,-287.72,361.31,17.01,-0.004356298,-0.0019178501,0.91102517,-0.4123232,-569.66095,108.300995,8.321,0,0.00010999999,3.65361
26.175,2000,0,91.24,0.000002697398,0.000002697398,0.000002697398,0.99999994,0,0,0,0,0,0,1,1,0,0,0,false,false,true,-292.47,362.21,17.01,-0.004323929,-0.0019825874,0.90464246,-0.42614463,-570.261,98.681,8.321,0,0.00010999999,3.67171
26.183332,2000,0,91.24,0.000002697398,0.000002697398,0.000002697398,0.99999994,0,0,0,0,0,0,1,1,0,0,0,false,false,true,-297.22,363.03,17.01,-0.00429156,-0.002047325,0.8980175,-0.43993384,-570.65094,88.980995,8.321,0,0.00010999999,3.68981
26.191668,2000,0,91.24,0.000002697398,0.000002697398,0.000002697398,0.99999994,0,0,0,0,0,0,1,1,0,0,0,false,false,true,-301.97998,363.77,17.01,-0.0042591915,-0.0021120626,0.8911493,-0.4536852,-570.821,79.211,8.321,0,0.00010999999,3.70781
26.2,2000,0,91.24,0.000002697398,0.000002697398,0.000002697398,0.99999994,0,0,0,0,0,0,1,1,0,0,0,false,false,true,-306.74,364.43,17.01,-0.0042268224,-0.0021768003,0.88403374,-0.46739882,-570.77094,69.370995,8.321,0,0.00010999999,3.7258098
26.208334,2000,0,91.24,0.000002697398,0.000002697398,0.000002697398,0.99999994,0,0,0,0,0,0,1,1,0,0,0,false,false,true,-311.5,365.00998,17.01,-0.004194454,-0.0022415377,0.87667257,-0.48106393,-570.501,59.461,8.321,0,0.00010999999,3.7437098
26.216667,2000,0,91.24,0.000002697398,0.000002697398,0.000002697398,0.99999994,0,0,0,0,0,0,1,1,0,0,0,false,false,true,-316.25,365.50998,17.01,-0.00415669,-0.0023062753,0.8690619,-0.49468043,-570.001,49.490997,8.321,0,0.00010999999,3.76161
26.225,2000,0,91.24,0.000002697398,0.000002697398,0.000002697398,0.99999994,0,0,0,0,0,0,1,1,0,0,0,false,false,true,-321,365.91998,17.01,-0.004118927,-0.002371013,0.86120373,-0.50823754,-569.27094,39.461,8.321,0,0.00010999999,3.77941
26.233334,2000,0,91.24,0.000002697398,0.000002697398,0.000002697398,0.99999994,0,0,0,0,0,0,1,1,0,0,0,false,false,true,-325.74,366.25,17.01,-0.004081163,-0.0024357503,0.85309404,-0.52173537,-568.311,29.380999,8.321,0,0.00010999999,3.7971098
26.241667,2000,0,91.24,0.000002697398,0.000002697398,0.000002697398,0.99999994,0,0,0,0,0,0,1,1,0,0,0,false,false,true,-330.47998,366.49,17.01,-0.0040433994,-0.002500488,0.84473187,-0.53516847,-567.121,19.241,8.321,0,0.00010999999,3.81471
26.25,2000,0,91.24,0.000002697398,0.000002697398,0.000002697398,0.99999994,0,0,0,0,0,0,1,1,0,0,0,false,false,true,-335.21,366.65,17.01,-0.004000241,-0.0025652256,0.8361199,-0.54852605,-565.66095,9.101,8.321,0,0.00010999999,3.83341
26.258333,2000,0,91.24,0.000002697398,0.000002697398,0.000002697398,0.99999994,0,0,0,0,0,0,1,1,0,0,0,false,false,true,-339.91998,366.72998,17.01,-0.003957083,-0.002629963,0.8272538,-0.5618081,-563.92096,-1.021,8.321,0,0.00010999999,3.85351
26.266666,2000,0,91.24,0.000002697398,0.000002697398,0.000002697398,0.99999994,0,0,0,0,0,0,1,1,0,0,0,false,false,true,-344.62,366.72,17.01,-0.0039139246,-0.0026947006,0.8181254,-0.57502,-561.90094,-11.1310005,8.321,0,0,3.87501
26.275,2000,0,91.24,0.000002697398,0.000002697398,0.000002697398,0.99999994,0,0,0,0,0,0,1,1,0,0,0,false,false,true,-349.3,366.63,17.01,-0.0038707664,-0.0027594382,0.8087371,-0.588151,-559.59094,-21.210999,8.321,0,0,3.89781
26.283333,2000,0,91.24,0.000002697398,0.000002697398,0.000002697398,0.99999994,0,0,0,0,0,0,1,1,0,0,0,false,false,true,-353.96,366.44998,17.01,-0.003827608,-0.0028241756,0.7990795,-0.6012064,-557.011,-31.261,8.321,0,0,3.92201
26.291666,2000,0,91.24,0.000002697398,0.000002697398,0.000002697398,0.99999994,0,0,0,0,0,0,1,1,0,0,0,false,false,true,-358.6,366.19,17.01,-0.0037790549,-0.0028889135,0.7891508,-0.61418104,-554.15094,-41.271,8.321,0,0,3.94751
26.3,2000,0,91.24,0.000002697398,0.000002697398,0.000002697398,0.99999994,0,0,0,0,0,0,1,1,0,0,0,false,false,true,-363.22,365.85,17.01,-0.0037305015,-0.002948256,0.7789446,-0.6270746,-551.011,-51.240997,8.321,0,0,3.97431
26.308332,2000,0,91.24,0.000002697398,0.000002697398,0.000002697398,0.99999994,0,0,0,0,0,0,1,1,0,0,0,false,false,true,-367.81,365.41998,17.01,-0.0036819484,-0.003007599,0.76845396,-0.6398873,-547.59094,-61.161,8.321,0,0,4.00241
26.316668,2000,0,91.24,0.000002697398,0.000002697398,0.000002697398,0.99999994,0,0,0,0,0,0,1,1,0,0,0,false,false,true,-372.37,364.91,17.01,-0.0036333953,-0.0030669416,0.7576758,-0.65261364,-543.90094,-71.020996,8.321,0,0,4.03191
26.325,2000,0,91.24,0.000002697398,0.000002697398,0.000002697398,0.99999994,0,0,0,0,0,0,1,1,0,0,0,false,false,true,-376.9,364.31998,17.01,-0.0035794473,-0.0031262843,0.74660695,-0.66524833,-539.93097,-80.811,8.321,0,0,4.06271
26.333334,2000,0,91.24,0.000002697398,0.000002697398,0.000002697398,0.99999994,0,0,0,0,0,0,1,1,0,0,0,false,false,true,-381.4,363.65,17.01,-0.0035254993,-0.003185627,0.7352389,-0.67779124,-535.691,-90.531,8.321,0,0,4.09471
26.341667,2000,0,91.24,0.000002697398,0.000002697398,0.000002697398,0.99999994,0,0,0,0,0,0,1,1,0,0,0,false,false,true,-385.86,362.9,17.01,-0.0034715515,-0.00324497,0.72356755,-0.69023716,-531.17096,-100.171,8.321,0,0,4.12801
26.35,2000,0,91.24,0.000002697398,0.000002697398,0.000002697398,0.99999994,0,0,0,0,0,0,1,1,0,0,0,false,false,true,-390.28998,362.06998,17.01,-0.0034176034,-0.0033043127,0.7115883,-0.70258045,-526.381,-109.730995,8.321,0,0,4.16261
26.358334,2000,0,91.24,0.000002697398,0.000002697398,0.000002697398,0.99999994,0,0,0,0,0,0,1,1,0,0,0,false,false,true,-394.68,361.16,17.01,0.0033582605,0.0033636554,-0.699295,0.7148173,-521.311,-119.190994,8.321,0,0,4.19841
26.366667,2000,0,91.24,0.000002697398,0.000002697398,0.000002697398,0.99999994,0,0,0,0,0,0,1,1,0,0,0,false,false,true,-399.02,360.16998,17.01,0.0032989178,0.0034229981,-0.6866819,0.72694236,-515.891,-128.511,8.321,0,0,4.23461
26.375,2000,0,91.24,0.000002697398,0.000002697398,0.000002697398,0.99999994,0,0,0,0,0,0,1,1,0,0,0,false,false,true,-403.31998,359.1,17.01,0.003239575,0.0034823408,-0.6737506,0.73894346,-510.13098,-137.671,8.321,0,0,4.27131
26.383333,2000,0,91.24,0.000002697398,0.000002697398,0.000002697398,0.99999994,0,0,0,0,0,0,1,1,0,0,0,false,false,true,-407.56998,357.94998,17.01,0.0031748374,0.0035416838,-0.6604955,0.7508148,-504.031,-146.671,8.321,0,0,4.30851
26.391666,2000,0,91.24,0.000002697398,0.000002697398,0.000002697398,0.99999994,0,0,0,0,0,0,1,1,0,0,0,false,false,true,-411.77,356.72998,17.01,0.0031101,0.0035956316,-0.6469113,0.7625503,-497.60098,-155.491,8.321,0,0,4.34611
26.4,2000,0,91.24,0.000002697398,0.000002697398,0.000002697398,0.99999994,0,0,0,0,0,0,1,1,0,0,0,false,false,true,-415.91998,355.43,17.01,0.0030453624,0.0036495796,-0.6329981,0.7741386,-490.841,-164.121,8.321,0,0,4.38421
26.408333,2000,0,91.24,0.000002697398,0.000002697398,0.000002697398,0.99999994,0,0,0,0,0,0,1,1,0,0,0,false,false,true,-420.00998,354.06,17.01,0.002980625,0.0037035279,-0.61875045,0.7855732,-483.761,-172.541,8.321,0,0,4.42281
26.416666,2000,0,91.24,0.000002697398,0.000002697398,0.000002697398,0.99999994,0,0,0,0,0,0,1,1,0,0,0,false,false,true,-424.03998,352.62,17.01,0.0029104925,0.0037574756,-0.60416824,0.7968425,-476.371,-180.751,8.321,0,0.00010999999,4.46191
26.425,2000,0,91.24,0.000002697398,0.000002697398,0.000002697398,0.99999994,0,0,0,0,0,0,1,1,0,0,0,false,false,true,-428.00998,351.11,17.01,0.0028403602,0.0038114234,-0.5892515,0.8079356,-468.671,-188.731,8.321,0,0.00010999999,4.5015097
26.433332,2000,0,91.24,0.000002697398,0.000002697398,0.000002697398,0.99999994,0,0,0,0,0,0,1,1,0,0,0,false,false,true,-431.91998,349.53998,17.01,0.0027702278,0.0038653715,-0.573995,0.81884485,-460.671,-196.47101,8.321,0,0.00021,4.54161
26.441668,2000,0,91.24,0.000002697398,0.000002697398,0.000002697398,0.99999994,0,0,0,0,0,0,1,1,0,0,0,false,false,true,-435.75998,347.9,17.01,0.0026947006,0.0039193192,-0.55839854,0.8295591,-452.371,-203.951,8.321,0,0.00021,4.58221
26.45,2000,0,91.24,0.000002697398,0.000002697398,0.000002697398,0.99999994,0,0,0,0,0,0,1,1,0,0,0,false,false,true,-439.53,346.19998,17.01,0.0026191734,0.003973267,-0.54245687,0.84007007,-443.791,-211.171,8.321,0,0.00021,4.62331
26.458334,2000,0,91.24,0.000002697398,0.000002697398,0.000002697398,0.99999994,0,0,0,0,0,0,1,1,0,0,0,false,false,true,-443.22998,344.44,17.01,0.0025436464,0.00402182,-0.5261753,0.8503627,-435.011,-218.021,8.321,0,0.00021,4.66401
26.466667,2000,0,91.24,0.000002697398,0.000002697398,0.000002697398,0.99999994,0,0,0,0,0,0,1,1,0,0,0,false,false,true,-446.86,342.62,17.01,0.0024627247,0.004070374,-0.50955397,0.86042553,-426.041,-224.501,8.321,-0.00010999999,0.00021,4.70421
26.475,2000,0,91.24,0.000002697398,0.000002697398,0.000002697398,0.99999994,0,0,0,0,0,0,1,1,0,0,0,false,false,true,-450.41,340.75,17.01,0.0023818025,0.004118927,-0.4925926,0.87024695,-416.901,-230.601,8.321,-0.00010999999,0.00030999997,4.74401
26.483334,2000,0,91.24,0.000002697398,0.000002697398,0.000002697398,0.99999994,0,0,0,0,0,0,1,1,0,0,0,false,false,true,-453.88,338.83,17.01,0.0023008804,0.00416748,-0.47529685,0.87981254,-407.611,-236.321,8.321,-0.00010999999,0.00030999997,4.78341
26.491667,2000,0,91.24,0.000002697398,0.000002697398,0.000002697398,0.99999994,0,0,0,0,0,0,1,1,0,0,0,false,false,true,-457.28,336.86,17.01,0.002214564,0.0042160335,-0.45766664,0.8891111,-398.191,-241.651,8.321,-0.00021,0.00030999997,4.82231
26.5,2000,0,91.24,0.000002697398,0.000002697398,0.000002697398,0.99999994,0,0,0,0,0,0,1,1,0,0,0,false,false,true,-460.59998,334.85,17.01,0.002128247,0.0042591915,-0.43971264,0.8981258,-388.671,-246.541,8.321,-0.00021,0.00030999997,4.8604097
26.508333,2000,0,91.24,0.000002697398,0.000002697398,0.000002697398,0.99999994,0,0,0,0,0,0,1,1,0,0,0,false,false,true,-463.84,332.8,17.01,0.0020419303,0.00430235,-0.42143497,0.90684605,-379.07098,-251.001,8.321,-0.00021,0.00030999997,4.8976097
26.516666,2000,0,91.24,0.000002697398,0.000002697398,0.000002697398,0.99999994,0,0,0,0,0,0,1,1,0,0,0,false,false,true,-467,330.71,17.01,0.0019502189,0.0043455088,-0.40284446,0.915256,-369.421,-255.031,8.321,-0.00021,0.00030999997,4.93391
26.525,2000,0,91.24,0.000002697398,0.000002697398,0.000002697398,0.99999994,0,0,0,0,0,0,1,1,0,0,0,false,false,true,-470.08,328.58,17.01,0.001858507,0.004383271,-0.3839464,0.92334294,-359.741,-258.631,8.321,-0.00021,0.00030999997,4.9692097
26.533333,2000,0,91.24,0.000002697398,0.000002697398,0.000002697398,0.99999994,0,0,0,0,0,0,1,1,0,0,0,false,false,true,-473.08,326.41998,17.01,0.0017667958,0.0044210353,-0.36474624,0.9310947,-350.051,-261.811,8.321,-0.00021,0.00040999998,5.00351
26.541666,2000,0,91.24,0.000002697398,0.000002697398,0.000002697398,0.99999994,0,0,0,0,0,0,1,1,0,0,0,false,false,true,-476,324.24,17.01,0.0016750842,0.004458799,-0.34525478,0.9384968,-340.371,-264.581,8.321,-0.00021,0.00040999998,5.03671
26.55,2000,0,91.24,0.000002697398,0.000002697398,0.000002697398,0.99999994,0,0,0,0,0,0,1,1,0,0,0,false,false,true,-478.84,322.03998,17.01,0.0015779779,0.0044965623,-0.32548276,0.9455359,-330.721,-266.941,8.321,-0.00030999997,0.00051,5.06871
26.558332,2000,0,91.24,0.000002697398,0.000002697398,0.000002697398,0.99999994,0,0,0,0,0,0,1,1,0,0,0,false,false,true,-481.59998,319.82,17.01,0.0014808716,0.0045289313,-0.30544105,0.952199,-321.121,-268.911,8.321,-0.00030999997,0.00051,5.09941
26.566668,2000,0,91.24,0.000002697398,0.000002697398,0.000002697398,0.99999994,0,0,0,0,0,0,1,1,0,0,0,false,false,true,-484.28,317.58,17.01,0.0013837651,0.0045613,-0.28514034,0.95847386,-311.591,-270.501,8.321,-0.00030999997,0.00051,5.12871
26.575,2000,0,91.24,0.000002697398,0.000002697398,0.000002697398,0.99999994,0,0,0,0,0,0,1,1,0,0,0,false,false,true,-486.87997,315.33,17.01,0.0012866588,0.004593669,-0.26459688,0.96434724,-302.151,-271.711,8.321,-0.00030999997,0.00051,5.15651
26.583334,2000,0,91.24,0.000002697398,0.000002697398,0.000002697398,0.99999994,0,0,0,0,0,0,1,1,0,0,0,false,false,true,-489.4,313.07,17.01,0.0011841577,0.004620643,-0.24381605,0.9698097,-292.821,-272.571,8.321,-0.00040999998,0.00051,5.18261
26.591667,2000,0,91.24,0.000002697398,0.000002697398,0.000002697398,0.99999994,0,0,0,0,0,0,1,1,0,0,0,false,false,true,-491.84,310.8,17.01,0.0010816565,0.0046476168,-0.22281942,0.974848,-283.621,-273.081,8.321,-0.00040999998,0.00051,5.2069097
26.6,2000,0,91.24,0.000002697398,0.000002697398,0.000002697398,0.99999994,0,0,0,0,0,0,1,1,0,0,0,false,false,true,-494.19998,308.52,17.01,0.0009791554,0.004669196,-0.20161778,0.9794526,-274.551,-273.271,8.321,-0.00040999998,0.00051,5.22911
26.608334,2000,0,91.24,0.000002697398,0.000002697398,0.000002697398,0.99999994,0,0,0,0,0,0,1,1,0,0,0,false,false,true,-496.49,306.24,17.01,0.00087665435,0.004690775,-0.18023272,0.98361236,-265.531,-273.151,8.321,-0.00040999998,0.00051,5.24891
26.616667,2000,0,91.24,0.000002697398,0.000002697398,0.000002697398,0.99999994,0,0,0,0,0,0,1,1,0,0,0,false,false,true,-498.69998,303.96,17.01,0.0007741533,0.004712355,-0.15868044,0.9873184,-256.601,-272.721,8.321,-0.00040999998,0.00051,5.26621
26.625,2000,0,91.24,0.000002697398,0.000002697398,0.000002697398,0.99999994,0,0,0,0,0,0,1,1,0,0,0,false,false,true,-500.84,301.69,17.01,0.0006662573,0.0047285384,-0.13697708,0.9905627,-247.781,-271.991,8.321,-0.00040999998,0.00051,5.2807097
26.633333,2000,0,91.24,0.000002697398,0.000002697398,0.000002697398,0.99999994,0,0,0,0,0,0,1,1,0,0,0,false,false,true,-502.9,299.41998,17.01,0.00055836135,0.004744723,-0.11514965,0.9933366,-239.101,-270.971,8.321,-0.00040999998,0.00051,5.29181
26.641666,2000,0,91.24,0.000002697398,0.000002697398,0.000002697398,0.99999994,0,0,0,0,0,0,1,1,0,0,0,false,false,true,-504.88998,297.16,17.01,0.00045046542,0.0047555123,-0.09321971,0.99563396,-230.61101,-269.641,8.321,-0.00040999998,0.00051,5.2979097
