time,ball_loc_x,ball_loc_y,ball_loc_z,ball_rot_x,ball_rot_y,ball_rot_z,ball_rot_w,ball_vel_x,ball_vel_y,ball_vel_z,ball_ang_x,ball_ang_y,ball_ang_z,player0_throttle,player0_steer,player0_pitch,player0_yaw,player0_roll,player0_jump,player0_boost,player0_handbrake,player0_loc_x,player0_loc_y,player0_loc_z,player0_rot_x,player0_rot_y,player0_rot_z,player0_rot_w,player0_vel_x,player0_vel_y,player0_vel_z,player0_ang_x,player0_ang_y,player0_ang_z
47.216667,2000,0,73,0.000002697398,0.000002697398,0.000002697398,0.99999994,0,0,0,0,0,0,0,0,0,0,0,false,false,false,0,0,16.94,0.0000026973983,0.0000026973983,0.70710677,0.70710677,0,0,2.041,-0.050809998,0,0
47.225,2000,0,87.6,0.000002697398,0.000002697398,0.000002697398,0.99999994,0,0,0,0,0,0,0.2992126,0,0,0,0,false,false,false,0,0,16.89,-0.00014835689,0.00015375168,0.7071067,0.7071067,0,3.981,3.8809998,-0.085609995,0,0
47.233334,2000,0,90.52,0.000002697398,0.000002697398,0.000002697398,0.99999994,0,0,0,0,0,0,0.2992126,0,0,0,0,false,false,false,0,0.03,16.85,-0.00040191234,0.00040730715,0.70710653,0.70710677,0,7.961,5.481,-0.107209995,0,0
47.241665,2000,0,91.1,0.000002697398,0.000002697398,0.000002697398,0.99999994,0,0,0,0,0,0,0.2992126,0,0,0,0,false,false,false,0,0.099999994,16.83,-0.00072020525,0.00072560005,0.7071067,0.707106,0,11.931,6.791,-0.116409995,0,0
47.25,2000,0,91.22,0.000002697398,0.000002697398,0.000002697398,0.99999994,0,0,0,0,0,0,0.2992126,0,0,0,0,false,false,false,0,0.19999999,16.82,-0.0010654721,0.001070867,0.70710516,0.7071067,0,15.8810005,7.7409997,-0.11481,0,0
47.258335,2000,0,91.24,0.000002697398,0.000002697398,0.000002697398,0.99999994,0,0,0,0,0,0,0.2992126,0,0,0,0,false,false,false,0,0.32999998,16.82,-0.0014053443,0.0014107391,0.7071067,0.70710397,0,19.821,8.431,-0.106809996,0,0
47.266666,2000,0,91.24,0.000002697398,0.000002697398,0.000002697398,0.99999994,0,0,0,0,0,0,0.2992126,0,0,0,0,false,false,false,0,0.5,16.82,-0.0017182427,0.0017236375,0.707108,0.70710135,0,23.751,8.9210005,-0.09541,0,0
47.275,2000,0,91.24,0.000002697398,0.000002697398,0.000002697398,0.99999994,0,0,0,0,0,0,0.2992126,0,0,0,0,false,false,false,0,0.7,16.83,-0.001998772,0.0020041666,0.70710653,0.7071013,0,27.671,9.281,-0.082609996,0,0
47.283333,2000,0,91.24,0.000002697398,0.000002697398,0.000002697398,0.99999994,0,0,0,0,0,0,0.2992126,0,0,0,0,false,false,false,0,0.93,16.84,-0.0022415377,0.0022469326,0.70710504,0.7071013,0,31.581,9.521,-0.069809996,0,0
47.291668,2000,0,91.24,0.000002697398,0.000002697398,0.000002697398,0.99999994,0,0,0,0,0,0,0.2992126,0,0,0,0,false,false,false,0,1.1899999,16.85,-0.00244654,0.0024519349,0.70710367,0.7071013,0,35.481,9.6710005,-0.057709996,0,0
47.3,2000,0,91.24,0.000002697398,0.000002697398,0.000002697398,0.99999994,0,0,0,0,0,0,0.2992126,0,0,0,0,false,false,false,0,1.49,16.859999,-0.0026191734,0.0026245683,0.7071024,0.7071013,0,39.371,9.761001,-0.046809997,0,0
47.308334,2000,0,91.24,0.000002697398,0.000002697398,0.000002697398,0.99999994,0,0,0,0,0,0,0.2992126,0,0,0,0,false,false,false,0,1.8199999,16.869999,-0.0027594382,0.002764833,0.70710135,0.7071013,0,43.251,9.811,-0.037309997,0,0
47.316666,2000,0,91.24,0.000002697398,0.000002697398,0.000002697398,0.99999994,0,0,0,0,0,0,0.2992126,0,0,0,0,false,false,false,0,2.18,16.88,-0.002867334,0.002872729,0.7071005,0.7071013,0,47.121,9.831,-0.02911,0,0
47.325,2000,0,91.24,0.000002697398,0.000002697398,0.000002697398,0.99999994,0,0,0,0,0,0,0.2992126,0,0,0,0,false,false,false,0,2.57,16.89,-0.002953651,0.0029590456,0.7071013,0.7070998,0,50.981,9.811,-0.022809999,0,0
47.333332,2000,0,91.24,0.000002697398,0.000002697398,0.000002697398,0.99999994,0,0,0,0,0,0,0.2992126,0,0,0,0,false,false,false,0,2.99,16.9,-0.0030183885,0.0030237832,0.70709926,0.7071013,0,54.830997,9.761001,-0.01821,0,0
47.341667,2000,0,91.24,0.000002697398,0.000002697398,0.000002697398,0.99999994,0,0,0,0,0,0,0.2992126,0,0,0,0,false,false,false,0,3.4499998,16.91,-0.0030723363,0.0030777312,0.7071013,0.7070988,0,58.670998,9.681,-0.01481,0,0
47.35,2000,0,91.24,0.000002697398,0.000002697398,0.000002697398,0.99999994,0,0,0,0,0,0,0.2992126,0,0,0,0,false,false,false,0,3.9399998,16.92,-0.0031154947,0.0031208897,0.7071038,0.7070959,0,62.510998,9.591001,-0.012209999,0,0
47.358334,2000,0,91.24,0.000002697398,0.000002697398,0.000002697398,0.99999994,0,0,0,0,0,0,0.2992126,0,0,0,0,false,false,false,0,4.46,16.93,-0.0031532582,0.0031586532,0.70710343,0.7070959,0,66.340996,9.491,-0.010209999,0,0
47.366665,2000,0,91.24,0.000002697398,0.000002697398,0.000002697398,0.99999994,0,0,0,0,0,0,0.2992126,0,0,0,0,false,false,false,0,5.0099998,16.94,-0.003185627,0.003191022,0.70710313,0.7070959,0,70.160995,9.391,-0.008609999,0,0
47.375,2000,0,91.24,0.000002697398,0.000002697398,0.000002697398,0.99999994,0,0,0,0,0,0,0.2992126,0,0,0,0,false,false,false,0,5.5899997,16.949999,-0.0032126012,0.0032179959,0.7071029,0.7070959,0,73.971,9.281,-0.00731,0,0
47.383335,2000,0,91.24,0.000002697398,0.000002697398,0.000002697398,0.99999994,0,0,0,0,0,0,0.2992126,0,0,0,0,false,false,false,0,6.21,16.96,-0.0032341804,0.003239575,0.7071027,0.7070959,0,77.770996,9.1710005,-0.00621,0,0
47.391666,2000,0,91.24,0.000002697398,0.000002697398,0.000002697398,0.99999994,0,0,0,0,0,0,0.2992126,0,0,0,0,false,false,false,0,6.8599997,16.97,-0.0032503647,0.0032557594,0.7071026,0.7070959,0,81.561,9.061,-0.00531,0,0
47.4,2000,0,91.24,0.000002697398,0.000002697398,0.000002697398,0.99999994,0,0,0,0,0,0,0.2992126,0,0,0,0,false,false,false,0,7.54,16.98,-0.003266549,0.003271944,0.7071024,0.7070959,0,85.340996,8.951,-0.00461,0,0
47.408333,2000,0,91.24,0.000002697398,0.000002697398,0.000002697398,0.99999994,0,0,0,0,0,0,0.2992126,0,0,0,0,false,false,false,0,8.25,16.99,-0.0032827335,0.0032881282,0.7071023,0.7070959,0,89.111,8.841001,-0.00401,0,0
47.416668,2000,0,91.24,0.000002697398,0.000002697398,0.000002697398,0.99999994,0,0,0,0,0,0,0.2992126,0,0,0,0,false,false,false,0,8.99,17,-0.003293523,0.0032989178,0.7071021,0.7070959,0,92.870995,8.731,-0.00341,0,0
47.425,2000,0,91.24,0.000002697398,0.000002697398,0.000002697398,0.99999994,0,0,0,0,0,0,0.2992126,0,0,0,0,false,false,false,0,9.76,17.01,-0.0033043127,0.0033097074,0.70710206,0.7070959,0,96.620995,8.621,-0.00291,0,0
47.433334,2000,0,91.24,0.000002697398,0.000002697398,0.000002697398,0.99999994,0,0,0,0,0,0,0.2992126,0,0,0,0,false,false,false,0,10.57,17.01,-0.0033151023,0.003320497,0.707102,0.7070959,0,100.361,8.511001,-0.00251,0,0
47.441666,2000,0,91.24,0.000002697398,0.000002697398,0.000002697398,0.99999994,0,0,0,0,0,0,0.2992126,0,0,0,0,false,false,false,0,11.41,17.01,-0.003320497,0.003325892,0.7071019,0.7070959,0,104.090996,8.441,-0.00211,0,0
47.45,2000,0,91.24,0.000002697398,0.000002697398,0.000002697398,0.99999994,0,0,0,0,0,0,0.2992126,0,0,0,0,false,false,false,0,12.28,17.01,-0.003325892,0.0033312866,0.7071019,0.7070959,0,107.811,8.391,-0.0019099999,0,0
47.458332,2000,0,91.24,0.000002697398,0.000002697398,0.000002697398,0.99999994,0,0,0,0,0,0,0.2992126,0,0,0,0,false,false,false,0,13.179999,17.01,-0.0033312866,0.0033366815,0.7071018,0.7070959,0,111.520996,8.361,-0.0017099999,0,0
47.466667,2000,0,91.24,0.000002697398,0.000002697398,0.000002697398,0.99999994,0,0,0,0,0,0,0.2992126,0,0,0,0,false,false,false,0,14.11,17.01,-0.0033366815,0.0033420762,0.70710176,0.7070959,0,115.221,8.341001,-0.00151,0,0
47.475,2000,0,91.24,0.000002697398,0.000002697398,0.000002697398,0.99999994,0,0,0,0,0,0,0.2992126,0,0,0,0,false,false,false,0,15.07,17.01,-0.0033420762,0.003347471,0.7071017,0.7070959,0,118.910995,8.331,-0.00131,0,0
47.483334,2000,0,91.24,0.000002697398,0.000002697398,0.000002697398,0.99999994,0,0,0,0,0,0,0.2992126,0,0,0,0,false,false,false,0,16.06,17.01,-0.003347471,0.0033528658,0.70710164,0.7070959,0,122.590996,8.321,-0.00111,0,0
47.491665,2000,0,91.24,0.000002697398,0.000002697398,0.000002697398,0.99999994,0,0,0,0,0,0,0.2992126,0,0,0,0,false,false,false,0,17.08,17.01,-0.0033528658,0.0033582605,0.7071016,0.7070959,0,126.260994,8.321,-0.00091,0,0
47.5,2000,0,91.24,0.000002697398,0.000002697398,0.000002697398,0.99999994,0,0,0,0,0,0,0.2992126,0,0,0,0,false,false,false,0,18.13,17.01,-0.0033528658,0.0033636554,0.7071016,0.7070959,0,129.921,8.321,-0.00081,0,0
47.508335,2000,0,91.24,0.000002697398,0.000002697398,0.000002697398,0.99999994,0,0,0,0,0,0,0.2992126,0,0,0,0,false,false,false,0,19.21,17.01,-0.0033528658,0.0033636554,0.7071016,0.7070959,0,133.571,8.321,-0.00071,0,0
47.516666,2000,0,91.24,0.000002697398,0.000002697398,0.000002697398,0.99999994,0,0,0,0,0,0,0.2992126,0,0,0,0,false,false,false,0,20.32,17.01,-0.0033528658,0.0033636554,0.7071016,0.7070959,0,137.211,8.321,-0.00061,0,0
47.525,2000,0,91.24,0.000002697398,0.000002697398,0.000002697398,0.99999994,0,0,0,0,0,0,0.2992126,0,0,0,0,false,false,false,0,21.46,17.01,-0.0033528658,0.0033636554,0.7071016,0.7070959,0,140.841,8.321,-0.00061,0,0
47.533333,2000,0,91.24,0.000002697398,0.000002697398,0.000002697398,0.99999994,0,0,0,0,0,0,0.2992126,0,0,0,0,false,false,false,0,22.63,17.01,-0.0033528658,0.0033636554,0.7071016,0.7070959,0,144.461,8.321,-0.00061,0,0
47.541668,2000,0,91.24,0.000002697398,0.000002697398,0.000002697398,0.99999994,0,0,0,0,0,0,0.2992126,0,0,0,0,false,false,false,0,23.83,17.01,-0.0033528658,0.0033636554,0.7071016,0.7070959,0,148.08101,8.321,-0.00061,0,0
47.55,2000,0,91.24,0.000002697398,0.000002697398,0.000002697398,0.99999994,0,0,0,0,0,0,0.2992126,0,0,0,0,false,false,false,0,25.06,17.01,-0.0033528658,0.0033636554,0.7071016,0.7070959,0,151.69101,8.321,-0.00061,0,0
47.558334,2000,0,91.24,0.000002697398,0.000002697398,0.000002697398,0.99999994,0,0,0,0,0,0,0.2992126,0,0,0,0,false,false,false,0,26.32,17.01,-0.0033528658,0.0033636554,0.7071016,0.7070959,0,155.291,8.321,-0.00061,0,0
47.566666,2000,0,91.24,0.000002697398,0.000002697398,0.000002697398,0.99999994,0,0,0,0,0,0,0.2992126,0,0,0,0,false,false,false,0,27.609999,17.01,-0.0033528658,0.0033636554,0.7071016,0.7070959,0,158.881,8.321,-0.00061,0,0
47.575,2000,0,91.24,0.000002697398,0.000002697398,0.000002697398,0.99999994,0,0,0,0,0,0,0.2992126,0,0,0,0,false,false,false,0,28.93,17.01,-0.0033528658,0.0033636554,0.7071016,0.7070959,0,162.461,8.321,-0.00061,0,0
47.583332,2000,0,91.24,0.000002697398,0.000002697398,0.000002697398,0.99999994,0,0,0,0,0,0,0.2992126,0,0,0,0,false,false,false,0,30.279999,17.01,-0.0033528658,0.0033636554,0.7071016,0.7070959,0,166.031,8.321,-0.00061,0,0
47.591667,2000,0,91.24,0.000002697398,0.000002697398,0.000002697398,0.99999994,0,0,0,0,0,0,0.2992126,0,0,0,0,false,false,false,0,31.66,17.01,-0.0033528658,0.0033636554,0.7071016,0.7070959,0,169.591,8.321,-0.00061,0,0
47.6,2000,0,91.24,0.000002697398,0.000002697398,0.000002697398,0.99999994,0,0,0,0,0,0,0.2992126,0,0,0,0,false,false,false,0,33.07,17.01,-0.0033528658,0.0033636554,0.7071016,0.7070959,0,173.141,8.321,-0.00061,0,0
47.608334,2000,0,91.24,0.000002697398,0.000002697398,0.000002697398,0.99999994,0,0,0,0,0,0,0.2992126,0,0,0,0,false,false,false,0,34.51,17.01,-0.0033528658,0.0033636554,0.7071016,0.7070959,0,176.681,8.321,-0.00061,0,0
47.616665,2000,0,91.24,0.000002697398,0.000002697398,0.000002697398,0.99999994,0,0,0,0,0,0,0.2992126,0,0,0,0,false,false,false,0,35.98,17.01,-0.0033528658,0.0033636554,0.7071016,0.7070959,0,180.211,8.321,-0.00061,0,0
47.625,2000,0,91.24,0.000002697398,0.000002697398,0.000002697398,0.99999994,0,0,0,0,0,0,0.2992126,0,0,0,0,false,false,false,0,37.48,17.01,-0.0033528658,0.0033636554,0.7071016,0.7070959,0,183.731,8.321,-0.00061,0,0
47.633335,2000,0,91.24,0.000002697398,0.000002697398,0.000002697398,0.99999994,0,0,0,0,0,0,0.2992126,0,0,0,0,false,false,false,0,39.01,17.01,-0.0033528658,0.0033636554,0.7071016,0.7070959,0,187.241,8.321,-0.00061,0,0
47.641666,2000,0,91.24,0.000002697398,0.000002697398,0.000002697398,0.99999994,0,0,0,0,0,0,0.2992126,0,0,0,0,false,false,false,0,40.57,17.01,-0.0033528658,0.0033636554,0.7071016,0.7070959,0,190.751,8.321,-0.00061,0,0
47.65,2000,0,91.24,0.000002697398,0.000002697398,0.000002697398,0.99999994,0,0,0,0,0,0,0.2992126,0,0,0,0,false,false,false,0,42.16,17.01,-0.0033528658,0.0033636554,0.7071016,0.7070959,0,194.251,8.321,-0.00061,0,0
47.658333,2000,0,91.24,0.000002697398,0.000002697398,0.000002697398,0.99999994,0,0,0,0,0,0,0.2992126,0,0,0,0,false,false,false,0,43.78,17.01,-0.0033528658,0.0033636554,0.7071016,0.7070959,0,197.741,8.321,-0.00061,0,0
47.666668,2000,0,91.24,0.000002697398,0.000002697398,0.000002697398,0.99999994,0,0,0,0,0,0,0.2992126,0,0,0,0,false,false,false,0,45.43,17.01,-0.0033528658,0.0033636554,0.7071016,0.7070959,0,201.22101,8.321,-0.00061,0,0
47.675,2000,0,91.24,0.000002697398,0.000002697398,0.000002697398,0.99999994,0,0,0,0,0,0,0.2992126,0,0,0,0,false,false,false,0,47.11,17.01,-0.0033528658,0.0033636554,0.7071016,0.7070959,0,204.69101,8.321,-0.00061,0,0
47.683334,2000,0,91.24,0.000002697398,0.000002697398,0.000002697398,0.99999994,0,0,0,0,0,0,0.2992126,0,0,0,0,false,false,false,0,48.82,17.01,-0.0033528658,0.0033636554,0.7071016,0.7070959,0,208.151,8.321,-0.00061,0,0
47.691666,2000,0,91.24,0.000002697398,0.000002697398,0.000002697398,0.99999994,0,0,0,0,0,0,0.2992126,0,0,0,0,false,false,false,0,50.55,17.01,-0.0033528658,0.0033636554,0.7071016,0.7070959,0,211.601,8.321,-0.00061,0,0
47.7,2000,0,91.24,0.000002697398,0.000002697398,0.000002697398,0.99999994,0,0,0,0,0,0,0.2992126,0,0,0,0,false,false,false,0,52.309998,17.01,-0.0033528658,0.0033636554,0.7071016,0.7070959,0,215.041,8.321,-0.00061,0,0
47.708332,2000,0,91.24,0.000002697398,0.000002697398,0.000002697398,0.99999994,0,0,0,0,0,0,0.2992126,0,0,0,0,false,false,false,0,54.1,17.01,-0.0033528658,0.0033636554,0.7071016,0.7070959,0,218.47101,8.321,-0.00061,0,0
47.716667,2000,0,91.24,0.000002697398,0.000002697398,0.000002697398,0.99999994,0,0,0,0,0,0,0.2992126,0,0,0,0,false,false,false,0,55.92,17.01,-0.0033528658,0.0033636554,0.7071016,0.7070959,0,221.901,8.321,-0.00061,0,0
47.725,2000,0,91.24,0.000002697398,0.000002697398,0.000002697398,0.99999994,0,0,0,0,0,0,0.2992126,0,0,0,0,false,false,false,0,57.77,17.01,-0.0033528658,0.0033636554,0.7071016,0.7070959,0,225.321,8.321,-0.00061,0,0
47.733334,2000,0,91.24,0.000002697398,0.000002697398,0.000002697398,0.99999994,0,0,0,0,0,0,0.2992126,0,0,0,0,false,false,false,0,59.649998,17.01,-0.0033528658,0.0033636554,0.7071016,0.7070959,0,228.731,8.321,-0.00061,0,0
47.741665,2000,0,91.24,0.000002697398,0.000002697398,0.000002697398,0.99999994,0,0,0,0,0,0,0.2992126,0,0,0,0,false,false,false,0,61.559998,17.01,-0.0033528658,0.0033636554,0.7071016,0.7070959,0,232.131,8.321,-0.00061,0,0
47.75,2000,0,91.24,0.000002697398,0.000002697398,0.000002697398,0.99999994,0,0,0,0,0,0,0.2992126,0,0,0,0,false,false,false,0,63.489998,17.01,-0.0033528658,0.0033636554,0.7071016,0.7070959,0,235.521,8.321,-0.00061,0,0
47.758335,2000,0,91.24,0.000002697398,0.000002697398,0.000002697398,0.99999994,0,0,0,0,0,0,0.2992126,0,0,0,0,false,false,false,0,65.45,17.01,-0.0033528658,0.0033636554,0.7071016,0.7070959,0,238.901,8.321,-0.00061,0,0
47.766666,2000,0,91.24,0.000002697398,0.000002697398,0.000002697398,0.99999994,0,0,0,0,0,0,0.2992126,0,0,0,0,false,false,false,0,67.439995,17.01,-0.0033528658,0.0033636554,0.7071016,0.7070959,0,242.271,8.321,-0.00061,0,0
47.775,2000,0,91.24,0.000002697398,0.000002697398,0.000002697398,0.99999994,0,0,0,0,0,0,0.2992126,0,0,0,0,false,false,false,0,69.46,17.01,-0.0033528658,0.0033636554,0.7071016,0.7070959,0,245.631,8.321,-0.00061,0,0
47.783333,2000,0,91.24,0.000002697398,0.000002697398,0.000002697398,0.99999994,0,0,0,0,0,0,0.2992126,0,0,0,0,false,false,false,0,71.51,17.01,-0.0033528658,0.0033636554,0.7071016,0.7070959,0,248.991,8.321,-0.00061,0,0
47.791668,2000,0,91.24,0.000002697398,0.000002697398,0.000002697398,0.99999994,0,0,0,0,0,0,0.2992126,0,0,0,0,false,false,false,0,73.58,17.01,-0.0033528658,0.0033636554,0.7071016,0.7070959,0,252.341,8.321,-0.00061,0,0
47.8,2000,0,91.24,0.000002697398,0.000002697398,0.000002697398,0.99999994,0,0,0,0,0,0,0.2992126,0,0,0,0,false,false,false,0,75.68,17.01,-0.0033528658,0.0033636554,0.7071016,0.7070959,0,255.681,8.321,-0.00061,0,0
47.808334,2000,0,91.24,0.000002697398,0.000002697398,0.000002697398,0.99999994,0,0,0,0,0,0,0.2992126,0,0,0,0,false,false,false,0,77.81,17.01,-0.0033528658,0.0033636554,0.7071016,0.7070959,0,259.011,8.321,-0.00061,0,0
47.816666,2000,0,91.24,0.000002697398,0.000002697398,0.000002697398,0.99999994,0,0,0,0,0,0,0.2992126,0,0,0,0,false,false,false,0,79.97,17.01,-0.0033528658,0.0033636554,0.7071016,0.7070959,0,262.331,8.321,-0.00061,0,0
47.825,2000,0,91.24,0.000002697398,0.000002697398,0.000002697398,0.99999994,0,0,0,0,0,0,0.2992126,0,0,0,0,false,false,false,0,82.159996,17.01,-0.0033528658,0.0033636554,0.7071016,0.7070959,0,265.641,8.321,-0.00061,0,0
47.833332,2000,0,91.24,0.000002697398,0.000002697398,0.000002697398,0.99999994,0,0,0,0,0,0,0.2992126,0,0,0,0,false,false,false,0,84.369995,17.01,-0.0033528658,0.0033636554,0.7071016,0.7070959,0,268.941,8.321,-0.00061,0,0
47.841667,2000,0,91.24,0.000002697398,0.000002697398,0.000002697398,0.99999994,0,0,0,0,0,0,0.2992126,0,0,0,0,false,false,false,0,86.61,17.01,-0.0033528658,0.0033636554,0.7071016,0.7070959,0,272.241,8.321,-0.00061,0,0
47.85,2000,0,91.24,0.000002697398,0.000002697398,0.000002697398,0.99999994,0,0,0,0,0,0,0.2992126,0,0,0,0,false,false,false,0,88.88,17.01,-0.0033528658,0.0033636554,0.7071016,0.7070959,0,275.531,8.321,-0.00061,0,0
47.858334,2000,0,91.24,0.000002697398,0.000002697398,0.000002697398,0.99999994,0,0,0,0,0,0,0.2992126,0,0,0,0,false,false,false,0,91.18,17.01,-0.0033528658,0.0033636554,0.7071016,0.7070959,0,278.811,8.321,-0.00061,0,0
47.866665,2000,0,91.24,0.000002697398,0.000002697398,0.000002697398,0.99999994,0,0,0,0,0,0,0.2992126,0,0,0,0,false,false,false,0,93.5,17.01,-0.0033528658,0.0033636554,0.7071016,0.7070959,0,282.081,8.321,-0.00061,0,0
47.875,2000,0,91.24,0.000002697398,0.000002697398,0.000002697398,0.99999994,0,0,0,0,0,0,0.2992126,0,0,0,0,false,false,false,0,95.85,17.01,-0.0033528658,0.0033636554,0.7071016,0.7070959,0,285.341,8.321,-0.00061,0,0
47.883335,2000,0,91.24,0.000002697398,0.000002697398,0.000002697398,0.99999994,0,0,0,0,0,0,0.2992126,0,0,0,0,false,false,false,0,98.229996,17.01,-0.0033528658,0.0033636554,0.7071016,0.7070959,0,288.591,8.321,-0.00061,0,0
47.891666,2000,0,91.24,0.000002697398,0.000002697398,0.000002697398,0.99999994,0,0,0,0,0,0,0.2992126,0,0,0,0,false,false,false,0,100.63,17.01,-0.0033528658,0.0033636554,0.7071016,0.7070959,0,291.841,8.321,-0.00061,0,0
47.9,2000,0,91.24,0.000002697398,0.000002697398,0.000002697398,0.99999994,0,0,0,0,0,0,0.2992126,0,0,0,0,false,false,false,0,103.06,17.01,-0.0033528658,0.0033636554,0.7071016,0.7070959,0,295.081,8.321,-0.00061,0,0
47.908333,2000,0,91.24,0.000002697398,0.000002697398,0.000002697398,0.99999994,0,0,0,0,0,0,0.2992126,0,0,0,0,false,false,false,0,105.52,17.01,-0.0033528658,0.0033636554,0.7071016,0.7070959,0,298.311,8.321,-0.00061,0,0
47.916668,2000,0,91.24,0.000002697398,0.000002697398,0.000002697398,0.99999994,0,0,0,0,0,0,0.2992126,0,0,0,0,false,false,false,0,108.009995,17.01,-0.0033528658,0.0033636554,0.7071016,0.7070959,0,301.531,8.321,-0.00061,0,0
47.925,2000,0,91.24,0.000002697398,0.000002697398,0.000002697398,0.99999994,0,0,0,0,0,0,1,1,0,0,0,false,false,true,0,110.52,17.01,-0.0033528658,0.0033636554,0.7071016,0.7070959,-10.4210005,308.071,8.351,-0.00030999997,0.00261,0.28071
47.933334,2000,0,91.24,0.000002697398,0.000002697398,0.000002697398,0.99999994,0,0,0,0,0,0,1,1,0,0,0,false,false,true,-0.089999996,113.09,17.01,-0.0033474711,0.0033690503,0.70792603,0.7062706,-17.730999,315.701,8.361,-0.00010999999,0.00341,0.47811002
47.941666,2000,0,91.24,0.000002697398,0.000002697398,0.000002697398,0.99999994,0,0,0,0,0,0,1,1,0,0,0,false,false,true,-0.24,115.72,17.01,-0.0033420762,0.003374445,0.70933336,0.70485705,-24.321,323.391,8.361,0,0.00351,0.65231
47.95,2000,0,91.24,0.000002697398,0.000002697398,0.000002697398,0.99999994,0,0,0,0,0,0,1,1,0,0,0,false,false,true,-0.44,118.409996,17.01,-0.0033420762,0.003374445,0.71124727,0.70292574,-30.331,331.081,8.361,0,0.00321,0.80531
47.958332,2000,0,91.24,0.000002697398,0.000002697398,0.000002697398,0.99999994,0,0,0,0,0,0,1,1,0,0,0,false,false,true,-0.69,121.17,17.01,-0.0033420764,0.0033744453,0.71360135,0.7005359,-35.891,338.731,8.351,0,0.00281,0.93931
47.966667,2000,0,91.24,0.000002697398,0.000002697398,0.000002697398,0.99999994,0,0,0,0,0,0,1,1,0,0,0,false,false,true,-0.98999995,123.99,17.01,-0.003347471,0.00336905,0.7163392,0.69773597,-41.111,346.281,8.351,0,0.00221,1.05671
47.975,2000,0,91.24,0.000002697398,0.000002697398,0.000002697398,0.99999994,0,0,0,0,0,0,1,1,0,0,0,false,false,true,-1.3299999,126.88,17.01,-0.0033582605,0.0033582605,0.719405,0.69457453,-46.071,353.701,8.341001,0,0.0016099999,1.15961
47.983334,2000,0,91.24,0.000002697398,0.000002697398,0.000002697398,0.99999994,0,0,0,0,0,0,1,1,0,0,0,false,false,true,-1.7099999,129.83,17.01,-0.00336905,0.003347471,0.7227535,0.69108945,-50.850998,360.971,8.341001,0,0.00111,1.25001
47.991665,2000,0,91.24,0.000002697398,0.000002697398,0.000002697398,0.99999994,0,0,0,0,0,0,1,1,0,0,0,false,false,true,-2.1299999,132.84,17.01,-0.0033852346,0.0033312866,0.7263456,0.68731314,-55.501,368.061,8.341001,0,0.00061,1.3300099
48,2000,0,91.24,0.000002697398,0.000002697398,0.000002697398,0.99999994,0,0,0,0,0,0,1,1,0,0,0,false,false,true,-2.59,135.91,17.01,-0.003401419,0.0033151023,0.73014295,0.6832778,-60.071,374.941,8.341001,0,0.00021,1.40091
48.008335,2000,0,91.24,0.000002697398,0.000002697398,0.000002697398,0.99999994,0,0,0,0,0,0,1,1,0,0,0,false,false,true,-3.09,139.03,17.01,-0.0034176034,0.003293523,0.73411804,0.67900515,-64.590996,381.611,8.331,0,0,1.46421
48.016666,2000,0,91.24,0.000002697398,0.000002697398,0.000002697398,0.99999994,0,0,0,0,0,0,1,1,0,0,0,false,false,true,-3.6299999,142.20999,17.01,-0.0034391822,0.0032719434,0.7382492,0.6745112,-69.081,388.051,8.331,-0.00010999999,-0.00021,1.5210099
48.025,2000,0,91.24,0.000002697398,0.000002697398,0.000002697398,0.99999994,0,0,0,0,0,0,1,1,0,0,0,false,false,true,-4.21,145.44,17.01,-0.0034607616,0.0032503647,0.7425103,0.6698177,-73.550995,394.251,8.331,-0.00010999999,-0.00040999998,1.57231
48.033333,2000,0,91.24,0.000002697398,0.000002697398,0.000002697398,0.99999994,0,0,0,0,0,0,1,1,0,0,0,false,false,true,-4.8199997,148.73,17.01,-0.0034823408,0.0032287855,0.7468808,0.66494083,-78.001,400.211,8.331,-0.00010999999,-0.00061,1.61901
48.041668,2000,0,91.24,0.000002697398,0.000002697398,0.000002697398,0.99999994,0,0,0,0,0,0,1,1,0,0,0,false,false,true,-5.47,152.06999,17.01,-0.00350392,0.0032018116,0.7513507,0.6598859,-82.421,405.941,8.331,-0.00010999999,-0.00071,1.66171
48.05,2000,0,91.24,0.000002697398,0.000002697398,0.000002697398,0.99999994,0,0,0,0,0,0,1,1,0,0,0,false,false,true,-6.16,155.45,17.01,-0.0035308942,0.0031748374,0.75590056,0.6546691,-86.800995,411.431,8.331,-0.00010999999,-0.00081,1.70111
48.058334,2000,0,91.24,0.000002697398,0.000002697398,0.000002697398,0.99999994,0,0,0,0,0,0,1,1,0,0,0,false,false,true,-6.8799996,158.87999,17.01,-0.0035578676,0.0031478633,0.760521,0.64929575,-91.131,416.691,8.331,-0.00010999999,-0.00091,1.73761
48.066666,2000,0,91.24,0.000002697398,0.000002697398,0.000002697398,0.99999994,0,0,0,0,0,0,1,1,0,0,0,false,false,true,-7.64,162.34999,17.01,-0.003584842,0.0031208897,0.7652029,0.6437715,-95.391,421.741,8.331,-0.00010999999,-0.00091,1.77161
48.075,2000,0,91.24,0.000002697398,0.000002697398,0.000002697398,0.99999994,0,0,0,0,0,0,1,1,0,0,0,false,false,true,-8.429999,165.86,17.01,-0.0036118163,0.0030939158,0.7699329,0.63810706,-99.550995,426.581,8.331,-0.00010999999,-0.00091,1.80351
48.083332,2000,0,91.24,0.000002697398,0.000002697398,0.000002697398,0.99999994,0,0,0,0,0,0,1,1,0,0,0,false,false,true,-9.26,169.41,17.01,-0.0036387895,0.0030669414,0.7747071,0.63230217,-103.58099,431.231,8.331,-0.00010999999,-0.00091,1.8335099
48.091667,2000,0,91.24,0.000002697398,0.000002697398,0.000002697398,0.99999994,0,0,0,0,0,0,1,1,0,0,0,false,false,true,-10.12,173,17.01,-0.003665764,0.0030345728,0.779513,0.62636787,-107.451,435.711,8.331,0,-0.00091,1.86191
48.1,2000,0,91.24,0.000002697398,0.000002697398,0.000002697398,0.99999994,0,0,0,0,0,0,1,1,0,0,0,false,false,true,-11.0199995,176.62999,17.01,-0.003692738,0.003002204,0.7843469,0.6203041,-111.120995,440.051,8.321,0,-0.00091,1.8889099
48.108334,2000,0,91.24,0.000002697398,0.000002697398,0.000002697398,0.99999994,0,0,0,0,0,0,1,1,0,0,0,false,false,true,-11.95,180.3,17.01,-0.003719712,0.0029698352,0.78920525,0.6141109,-114.550995,444.271,8.321,0,-0.00081,1.9146099
48.116665,2000,0,91.24,0.000002697398,0.000002697398,0.000002697398,0.99999994,0,0,0,0,0,0,1,1,0,0,0,false,false,true,-12.9,184,17.01,-0.003746686,0.0029374664,0.7940807,0.60779357,-117.690994,448.411,8.321,0,-0.00071,1.9391099
48.125,2000,0,91.24,0.000002697398,0.000002697398,0.000002697398,0.99999994,0,0,0,0,0,0,1,1,0,0,0,false,false,true,-13.88,187.73999,17.01,-0.00377366,0.0029050978,0.7989658,0.60135746,-120.980995,452.471,8.321,0,-0.00061,1.9635099
48.133335,2000,0,91.24,0.000002697398,0.000002697398,0.000002697398,0.99999994,0,0,0,0,0,0,1,1,0,0,0,false,false,true,-14.889999,191.51,17.01,-0.0038006334,0.0028727287,0.80385745,0.59480274,-124.421,456.451,8.321,0,-0.00051,1.98781
48.141666,2000,0,91.24,0.000002697398,0.000002697398,0.000002697398,0.99999994,0,0,0,0,0,0,1,1,0,0,0,false,false,true,-15.929999,195.31,17.01,-0.003827608,0.0028403602,0.8087566,0.58812404,-128.001,460.35098,8.321,0,-0.00051,2.0120099
48.15,2000,0,91.24,0.000002697398,0.000002697398,0.000002697398,0.99999994,0,0,0,0,0,0,1,1,0,0,0,false,false,true,-17,199.15,17.01,-0.0038545819,0.0028079913,0.81366014,0.5813211,-131.731,464.161,8.321,0,-0.00040999998,2.03611
48.158333,2000,0,91.24,0.000002697398,0.000002697398,0.000002697398,0.99999994,0,0,0,0,0,0,1,1,0,0,0,false,false,true,-18.1,203.01999,17.01,-0.003881556,0.0027756228,0.8185611,0.57439965,-135.601,467.88098,8.321,0,-0.00030999997,2.0601099
48.166668,2000,0,91.24,0.000002697398,0.000002697398,0.000002697398,0.99999994,0,0,0,0,0,0,1,1,0,0,0,false,false,true,-19.23,206.92,17.01,-0.0039085294,0.0027432537,0.82346004,0.567354,-139.61101,471.501,8.321,0,-0.00030999997,2.08391
48.175,2000,0,91.24,0.000002697398,0.000002697398,0.000002697398,0.99999994,0,0,0,0,0,0,1,1,0,0,0,false,false,true,-20.39,210.84999,17.01,-0.003935504,0.002710885,0.8283542,0.56018424,-143.761,475.011,8.321,0,-0.00021,2.10761
48.183334,2000,0,91.24,0.000002697398,0.000002697398,0.000002697398,0.99999994,0,0,0,0,0,0,1,1,0,0,0,false,false,true,-21.59,214.81,17.01,-0.0039624777,0.0026731214,0.83324015,0.5528905,-148.041,478.421,8.321,0.00010999999,-0.00021,2.1312099
48.191666,2000,0,91.24,0.000002697398,0.000002697398,0.000002697398,0.99999994,0,0,0,0,0,0,1,1,0,0,0,false,false,true,-22.82,218.79999,17.01,-0.0039840573,0.0026353581,0.8381185,0.54546726,-152.461,481.711,8.321,0.00010999999,-0.00010999999,2.15471
48.2,2000,0,91.24,0.000002697398,0.000002697398,0.000002697398,0.99999994,0,0,0,0,0,0,1,1,0,0,0,false,false,true,-24.09,222.81,17.01,-0.004005636,0.0025975944,0.8429824,0.5379198,-157.011,484.891,8.321,0.00010999999,-0.00010999999,2.17811
48.208332,2000,0,91.24,0.000002697398,0.000002697398,0.000002697398,0.99999994,0,0,0,0,0,0,1,1,0,0,0,false,false,true,-25.4,226.84999,17.01,-0.0040272153,0.0025598307,0.8478288,0.5302484,-161.69101,487.951,8.321,0.00010999999,-0.00010999999,2.20141
48.216667,2000,0,91.24,0.000002697398,0.000002697398,0.000002697398,0.99999994,0,0,0,0,0,0,1,1,0,0,0,false,false,true,-26.75,230.92,17.01,-0.0040487945,0.0025220672,0.852658,0.5224475,-166.501,490.88098,8.321,0,-0.00010999999,2.2246099
48.225,2000,0,91.24,0.000002697398,0.000002697398,0.000002697398,0.99999994,0,0,0,0,0,0,1,1,0,0,0,false,false,true,-28.14,235.01,17.01,-0.0040703737,0.0024843037,0.85746354,0.5145225,-171.431,493.681,8.321,0,-0.00010999999,2.24771
48.233334,2000,0,91.24,0.000002697398,0.000002697398,0.000002697398,0.99999994,0,0,0,0,0,0,1,1,0,0,0,false,false,true,-29.57,239.12,17.01,-0.0040919525,0.00244654,0.86224544,0.50646806,-176.491,496.35098,8.321,0,-0.00010999999,2.27071
48.241665,2000,0,91.24,0.000002697398,0.000002697398,0.000002697398,0.99999994,0,0,0,0,0,0,1,1,0,0,0,false,false,true,-31.039999,243.26,17.01,-0.0041135317,0.0024087764,0.8669975,0.4982896,-181.671,498.88098,8.321,0,-0.00010999999,2.29351
48.25,2000,0,91.24,0.000002697398,0.000002697398,0.000002697398,0.99999994,0,0,0,0,0,0,1,1,0,0,0,false,false,true,-32.55,247.42,17.01,-0.004135111,0.002371013,0.8717197,0.48998153,-186.961,501.271,8.321,0,-0.00010999999,2.31621
48.258335,2000,0,91.24,0.000002697398,0.000002697398,0.000002697398,0.99999994,0,0,0,0,0,0,1,1,0,0,0,false,false,true,-34.11,251.59999,17.01,-0.00415669,0.0023332492,0.8764089,0.48154405,-192.371,503.511,8.321,0,-0.00010999999,2.33881
48.266666,2000,0,91.24,0.000002697398,0.000002697398,0.000002697398,0.99999994,0,0,0,0,0,0,1,1,0,0,0,false,false,true,-35.71,255.79999,17.01,-0.004178269,0.0022900905,0.8810588,0.47298238,-197.891,505.60098,8.321,0,-0.00021,2.36131
48.275,2000,0,91.24,0.000002697398,0.000002697398,0.000002697398,0.99999994,0,0,0,0,0,0,1,1,0,0,0,false,false,true,-37.36,260.00998,17.01,-0.0041998485,0.0022469326,0.8856696,0.46429142,-203.511,507.541,8.321,0,-0.00021,2.38371
48.283333,2000,0,91.24,0.000002697398,0.000002697398,0.000002697398,0.99999994,0,0,0,0,0,0,1,1,0,0,0,false,false,true,-39.059998,264.24,17.01,-0.0042214277,0.0022037742,0.89023787,0.45547092,-209.241,509.32098,8.321,0,-0.00021,2.40601
48.291668,2000,0,91.24,0.000002697398,0.000002697398,0.000002697398,0.99999994,0,0,0,0,0,0,1,1,0,0,0,false,false,true,-40.8,268.47998,17.01,-0.004243007,0.0021606158,0.8947605,0.44652086,-215.071,510.941,8.321,0,-0.00021,2.42821
48.3,2000,0,91.24,0.000002697398,0.000002697398,0.000002697398,0.99999994,0,0,0,0,0,0,1,1,0,0,0,false,false,true,-42.59,272.74,17.01,-0.004264586,0.0021174573,0.8992316,0.43744683,-220.991,512.40094,8.321,0,-0.00021,2.45031
48.308334,2000,0,91.24,0.000002697398,0.000002697398,0.000002697398,0.99999994,0,0,0,0,0,0,1,1,0,0,0,false,false,true,-44.43,277.00998,17.01,-0.004286166,0.0020742991,0.90365094,0.42824325,-227.001,513.691,8.321,0,-0.00021,2.47231
48.316666,2000,0,91.24,0.000002697398,0.000002697398,0.000002697398,0.99999994,0,0,0,0,0,0,1,1,0,0,0,false,false,true,-46.32,281.29,17.01,-0.0043077446,0.0020311407,0.90801513,0.4189102,-233.101,514.811,8.321,0,-0.00021,2.4941099
48.325,2000,0,91.24,0.000002697398,0.000002697398,0.000002697398,0.99999994,0,0,0,0,0,0,1,1,0,0,0,false,false,true,-48.26,285.58,17.01,-0.004329324,0.0019879823,0.91231865,0.40945315,-239.291,515.751,8.321,0,-0.00021,2.51581
48.333332,2000,0,91.24,0.000002697398,0.000002697398,0.000002697398,0.99999994,0,0,0,0,0,0,1,1,0,0,0,false,false,true,-50.25,289.88,17.01,-0.004350903,0.001944824,0.91656095,0.3998665,-245.551,516.52094,8.321,0,-0.00021,2.53741
48.341667,2000,0,91.24,0.000002697398,0.000002697398,0.000002697398,0.99999994,0,0,0,0,0,0,1,1,0,0,0,false,false,true,-52.3,294.18,17.01,-0.004372482,0.0018962709,0.92073643,0.39015588,-251.891,517.11096,8.321,0,-0.00021,2.55891
48.35,2000,0,91.24,0.000002697398,0.000002697398,0.000002697398,0.99999994,0,0,0,0,0,0,1,1,0,0,0,false,false,true,-54.399998,298.49,17.01,-0.0043940614,0.0018477177,0.9248444,0.38031566,-258.301,517.511,8.321,0,-0.00021,2.5803099
48.358334,2000,0,91.24,0.000002697398,0.000002697398,0.000002697398,0.99999994,0,0,0,0,0,0,1,1,0,0,0,false,false,true,-56.55,302.8,17.01,-0.004415641,0.0017991647,0.92887944,0.37035152,-264.771,517.73096,8.321,0,-0.00021,2.60161
48.366665,2000,0,91.24,0.000002697398,0.000002697398,0.000002697398,0.99999994,0,0,0,0,0,0,1,1,0,0,0,false,false,true,-58.76,307.11,17.01,-0.0044372194,0.0017506111,0.9328384,0.3602631,-271.301,517.761,8.321,0,-0.00010999999,2.62281
48.375,2000,0,91.24,0.000002697398,0.000002697398,0.000002697398,0.99999994,0,0,0,0,0,0,1,1,0,0,0,false,false,true,-61.02,311.41998,17.01,-0.0044587995,0.0017020582,0.93672055,0.3500454,-277.891,517.60095,8.321,0,-0.00010999999,2.64391
48.383335,2000,0,91.24,0.000002697398,0.000002697398,0.000002697398,0.99999994,0,0,0,0,0,0,1,1,0,0,0,false,false,true,-63.34,315.72998,17.01,-0.0044803782,0.001653505,0.9405204,0.33970347,-284.531,517.251,8.321,0,0,2.6649098
48.391666,2000,0,91.24,0.000002697398,0.000002697398,0.000002697398,0.99999994,0,0,0,0,0,0,1,1,0,0,0,false,false,true,-65.71,320.03998,17.01,-0.0044965623,0.0016049518,0.94423497,0.32923758,-291.211,516.701,8.321,0,0,2.6858099
48.4,2000,0,91.24,0.000002697398,0.000002697398,0.000002697398,0.99999994,0,0,0,0,0,0,1,1,0,0,0,false,false,true,-68.14,324.35,17.01,-0.0045127473,0.0015563988,0.9478594,0.31865293,-297.931,515.96094,8.321,0,0,2.70661
48.408333,2000,0,91.24,0.000002697398,0.000002697398,0.000002697398,0.99999994,0,0,0,0,0,0,1,1,0,0,0,false,false,true,-70.619995,328.65,17.01,-0.004528932,0.0015078456,0.9513924,0.30794427,-304.691,515.02094,8.321,0,0,2.72731
48.416668,2000,0,91.24,0.000002697398,0.000002697398,0.000002697398,0.99999994,0,0,0,0,0,0,1,1,0,0,0,false,false,true,-73.159996,332.94,17.01,-0.0045451154,0.0014538976,0.9548308,0.2971114,-311.481,513.881,8.321,0.00010999999,0,2.74791
48.425,2000,0,91.24,0.000002697398,0.000002697398,0.000002697398,0.99999994,0,0,0,0,0,0,1,1,0,0,0,false,false,true,-75.759995,337.22,17.01,-0.0045613,0.0013999495,0.95816994,0.28615996,-318.291,512.54095,8.321,0.00010999999,0,2.76841
48.433334,2000,0,91.24,0.000002697398,0.000002697398,0.000002697398,0.99999994,0,0,0,0,0,0,1,1,0,0,0,false,false,true,-78.409996,341.49,17.01,-0.0045774844,0.0013460016,0.96140665,0.27508974,-325.121,511.001,8.321,0.00010999999,0,2.78881
48.441666,2000,0,91.24,0.000002697398,0.000002697398,0.000002697398,0.99999994,0,0,0,0,0,0,1,1,0,0,0,false,false,true,-81.119995,345.75,17.01,-0.004593669,0.0012920536,0.9645379,0.26390094,-331.961,509.251,8.321,0.00010999999,0,2.80911
48.45,2000,0,91.24,0.000002697398,0.000002697398,0.000002697398,0.99999994,0,0,0,0,0,0,1,1,0,0,0,false,false,true,-83.89,349.99,17.01,-0.0046098535,0.0012381058,0.9675607,0.2525934,-338.811,507.301,8.321,0.00010999999,0,2.82931
48.458332,2000,0,91.24,0.000002697398,0.000002697398,0.000002697398,0.99999994,0,0,0,0,0,0,1,1,0,0,0,false,false,true,-86.71,354.22,17.01,-0.004626038,0.0011841578,0.9704718,0.24116722,-345.661,505.151,8.321,0.00010999999,0,2.84941
48.466667,2000,0,91.24,0.000002697398,0.000002697398,0.000002697398,0.99999994,0,0,0,0,0,0,1,1,0,0,0,false,false,true,-89.59,358.43,17.01,-0.004642222,0.0011302098,0.9732668,0.22962764,-352.511,502.791,8.321,0.00010999999,0,2.86941
48.475,2000,0,91.24,0.000002697398,0.000002697398,0.000002697398,0.99999994,0,0,0,0,0,0,1,1,0,0,0,false,false,true,-92.53,362.62,17.01,-0.004653011,0.0010762616,0.97594255,0.21797486,-359.351,500.231,8.321,0.00010999999,0,2.88931
48.483334,2000,0,91.24,0.000002697398,0.000002697398,0.000002697398,0.99999994,0,0,0,0,0,0,1,1,0,0,0,false,false,true,-95.52,366.78998,17.01,-0.0046638013,0.0010223138,0.9784963,0.20620875,-366.181,497.461,8.321,0.00010999999,0,2.9091098
48.491665,2000,0,91.24,0.000002697398,0.000002697398,0.000002697398,0.99999994,0,0,0,0,0,0,1,1,0,0,0,false,false,true,-98.57,370.94,17.01,-0.004674591,0.0009629712,0.9809236,0.19433482,-372.991,494.491,8.321,0.00010999999,0,2.92881
48.5,2000,0,91.24,0.000002697398,0.000002697398,0.000002697398,0.99999994,0,0,0,0,0,0,1,1,0,0,0,false,false,true,-101.68,375.06,17.01,-0.0046853805,0.00090362836,0.9832225,0.18234748,-379.771,491.311,8.321,0.00010999999,0,2.94841
48.508335,2000,0,91.24,0.000002697398,0.000002697398,0.000002697398,0.99999994,0,0,0,0,0,0,1,1,0,0,0,false,false,true,-104.84,379.15,17.01,-0.0046961703,0.00084428565,0.985388,0.17025776,-386.521,487.931,8.321,0.00010999999,0,2.96791
48.516666,2000,0,91.24,0.000002697398,0.000002697398,0.000002697398,0.99999994,0,0,0,0,0,0,1,1,0,0,0,false,false,true,-108.06,383.22,17.01,-0.0047069597,0.0007849428,0.98741794,0.15806001,-393.231,484.35098,8.321,0.00010999999,0,2.9874098
48.525,2000,0,91.24,0.000002697398,0.000002697398,0.000002697398,0.99999994,0,0,0,0,0,0,1,1,0,0,0,false,false,true,-111.34,387.25998,17.01,-0.004717749,0.00072560005,0.98930925,0.14575449,-399.901,480.57098,8.321,0.00010999999,0,3.00681
48.533333,2000,0,91.24,0.000002697398,0.000002697398,0.000002697398,0.99999994,0,0,0,0,0,0,1,1,0,0,0,false,false,true,-114.67,391.25998,17.01,-0.0047285384,0.0006662573,0.99105793,0.13334638,-406.521,476.581,8.321,0.00010999999,0,3.02611
48.541668,2000,0,91.24,0.000002697398,0.000002697398,0.000002697398,0.99999994,0,0,0,0,0,0,1,1,0,0,0,false,false,true,-118.06,395.22998,17.01,-0.0047339336,0.0006069146,0.99266034,0.12084116,-413.091,472.391,8.321,0.00010999999,0,3.04531
48.55,2000,0,91.24,0.000002697398,0.000002697398,0.000002697398,0.99999994,0,0,0,0,0,0,1,1,0,0,0,false,false,true,-121.5,399.16998,17.01,-0.0047393283,0.0005475718,0.994114,0.10823352,-419.60098,468.011,8.321,0.00010999999,0,3.06441
48.558334,2000,0,91.24,0.000002697398,0.000002697398,0.000002697398,0.99999994,0,0,0,0,0,0,1,1,0,0,0,false,false,true,-125,403.06998,17.01,-0.004744723,0.00048822907,0.9954147,0.095534086,-426.041,463.431,8.321,0.00010999999,0,3.08341
48.566666,2000,0,91.24,0.000002697398,0.000002697398,0.000002697398,0.99999994,0,0,0,0,0,0,1,1,0,0,0,false,false,true,-128.55,406.93,17.01,-0.0047501177,0.0004288863,0.99655986,0.082737625,-432.421,458.651,8.321,0.00010999999,0,3.1024098
48.575,2000,0,91.24,0.000002697398,0.000002697398,0.000002697398,0.99999994,0,0,0,0,0,0,1,1,0,0,0,false,false,true,-132.15,410.75,17.01,-0.004755513,0.00036954353,0.9975461,0.06984937,-438.721,453.681,8.321,0.00010999999,0,3.12131
48.583332,2000,0,91.24,0.000002697398,0.000002697398,0.000002697398,0.99999994,0,0,0,0,0,0,1,1,0,0,0,false,false,true,-135.81,414.53,17.01,-0.0047609075,0.000304806,0.9983702,0.056869496,-444.941,448.521,8.321,0.00010999999,0,3.14011
48.591667,2000,0,91.24,0.000002697398,0.000002697398,0.000002697398,0.99999994,0,0,0,0,0,0,1,1,0,0,0,false,false,true,-139.52,418.27,17.01,-0.004766302,0.00024006843,0.99902874,0.043803215,-451.081,443.171,8.321,0.00010999999,0,3.15891
48.6,2000,0,91.24,0.000002697398,0.000002697398,0.000002697398,0.99999994,0,0,0,0,0,0,1,1,0,0,0,false,false,true,-143.28,421.96,17.01,-0.004771697,0.00017533088,0.9995187,0.03065062,-457.131,437.631,8.321,0,0,3.17761
48.608334,2000,0,91.24,0.000002697398,0.000002697398,0.000002697398,0.99999994,0,0,0,0,0,0,1,1,0,0,0,false,false,true,-147.09,425.61,17.01,-0.004771697,0.00011059332,0.99983686,0.017417183,-463.091,431.911,8.321,0,0,3.19621
48.616665,2000,0,91.24,0.000002697398,0.000002697398,0.000002697398,0.99999994,0,0,0,0,0,0,1,1,0,0,0,false,false,true,-150.95,429.21,17.01,-0.004771697,0.000045855766,0.99998015,0.0041027423,-468.951,426.001,8.321,0,0,3.21481
48.625,2000,0,91.24,0.000002697398,0.000002697398,0.000002697398,0.99999994,0,0,0,0,0,0,1,1,0,0,0,false,false,true,-154.86,432.75998,17.01,-0.0047716973,-0.000018881788,0.9999454,-0.009292579,-474.701,419.911,8.321,0,0,3.23331
48.633335,2000,0,91.24,0.000002697398,0.000002697398,0.000002697398,0.99999994,0,0,0,0,0,0,1,1,0,0,0,false,false,true,-158.81999,436.25998,17.01,-0.0047716973,-0.00008361934,0.99972945,-0.022763427,-480.35098,413.651,8.321,0,0,3.25171
48.641666,2000,0,91.24,0.000002697398,0.000002697398,0.000002697398,0.99999994,0,0,0,0,0,0,1,1,0,0,0,false,false,true,-162.81999,439.71,17.01,-0.004771697,-0.00014835689,0.9993293,-0.036304407,-485.891,407.211,8.321,0,0,3.27011
48.65,2000,0,91.24,0.000002697398,0.000002697398,0.000002697398,0.99999994,0,0,0,0,0,0,1,1,0,0,0,false,false,true,-166.87,443.09998,17.01,-0.004771697,-0.00021309445,0.9987419,-0.049915563,-491.311,400.601,8.321,0,0.00010999999,3.28841
48.658333,2000,0,91.24,0.000002697398,0.000002697398,0.000002697398,0.99999994,0,0,0,0,0,0,1,1,0,0,0,false,false,true,-170.95999,446.44,17.01,-0.004766302,-0.000277832,0.9979642,-0.06359681,-496.611,393.82098,8.321,0,0.00010999999,3.30671
48.666668,2000,0,91.24,0.000002697398,0.000002697398,0.000002697398,0.99999994,0,0,0,0,0,0,1,1,0,0,0,false,false,true,-175.09999,449.72,17.01,-0.0047609075,-0.00034256955,0.99699306,-0.077342786,-501.791,386.871,8.321,0,0.00010999999,3.32491
48.675,2000,0,91.24,0.000002697398,0.000002697398,0.000002697398,0.99999994,0,0,0,0,0,0,1,1,0,0,0,false,false,true,-179.28,452.94,17.01,-0.0047555133,-0.00040730715,0.9958259,-0.09114812,-506.841,379.761,8.321,0,0.00010999999,3.3431098
48.683334,2000,0,91.24,0.000002697398,0.000002697398,0.000002697398,0.99999994,0,0,0,0,0,0,1,1,0,0,0,false,false,true,-183.5,456.09998,17.01,-0.004750118,-0.0004720447,0.9944594,-0.105012834,-511.761,372.491,8.321,0,0.00010999999,3.3612099
48.691666,2000,0,91.24,0.000002697398,0.000002697398,0.000002697398,0.99999994,0,0,0,0,0,0,1,1,0,0,0,false,false,true,-187.76,459.19998,17.01,-0.004744723,-0.0005367822,0.9928909,-0.11893144,-516.54095,365.061,8.321,0,0.00010999999,3.37931
48.7,2000,0,91.24,0.000002697398,0.000002697398,0.000002697398,0.99999994,0,0,0,0,0,0,1,1,0,0,0,false,false,true,-192.06,462.24,17.01,-0.0047339336,-0.0006015198,0.9911181,-0.1328986,-521.18097,357.471,8.321,0,0.00021,3.39731
48.708332,2000,0,91.24,0.000002697398,0.000002697398,0.000002697398,0.99999994,0,0,0,0,0,0,1,1,0,0,0,false,false,true,-196.4,465.22,17.01,-0.0047231438,-0.0006662573,0.98913765,-0.14691433,-525.68097,349.731,8.321,0,0.00021,3.41531
48.716667,2000,0,91.24,0.000002697398,0.000002697398,0.000002697398,0.99999994,0,0,0,0,0,0,1,1,0,0,0,false,false,true,-200.78,468.12997,17.01,-0.0047123544,-0.00073099486,0.9869472,-0.16097325,-530.04095,341.841,8.321,0,0.00021,3.43321
48.725,2000,0,91.24,0.000002697398,0.000002697398,0.000002697398,0.99999994,0,0,0,0,0,0,1,1,0,0,0,false,false,true,-205.2,470.97998,17.01,-0.004701565,-0.0008011273,0.98454344,-0.17507531,-534.251,333.811,8.321,0,0.00021,3.45111
48.733334,2000,0,91.24,0.000002697398,0.000002697398,0.000002697398,0.99999994,0,0,0,0,0,0,1,1,0,0,0,false,false,true,-209.65,473.75998,17.01,-0.004690775,-0.0008712596,0.981924,-0.1892151,-538.311,325.631,8.321,0,0.00021,3.4690099
48.741665,2000,0,91.24,0.000002697398,0.000002697398,0.000002697398,0.99999994,0,0,0,0,0,0,1,1,0,0,0,false,false,true,-214.14,476.47,17.01,-0.0046745907,-0.0009413919,0.9790867,-0.20338728,-542.21094,317.311,8.321,0,0.00021,3.48681
48.75,2000,0,91.24,0.000002697398,0.000002697398,0.000002697398,0.99999994,0,0,0,0,0,0,1,1,0,0,0,false,false,true,-218.65999,479.11,17.01,-0.004658406,-0.0010115242,0.97602814,-0.21759185,-545.951,308.861,8.321,0,0.00021,3.5046098
48.758335,2000,0,91.24,0.000002697398,0.000002697398,0.000002697398,0.99999994,0,0,0,0,0,0,1,1,0,0,0,false,false,true,-223.20999,481.68,17.01,-0.0046422225,-0.0010816567,0.97274745,-0.23181799,-549.53094,300.271,8.321,0,0.00010999999,3.52241
48.766666,2000,0,91.24,0.000002697398,0.000002697398,0.000002697398,0.99999994,0,0,0,0,0,0,1,1,0,0,0,false,false,true,-227.79,484.18,17.01,-0.0046260376,-0.001151789,0.96924,-0.24607107,-552.951,291.551,8.321,-0.00010999999,0.00010999999,3.5401099
48.775,2000,0,91.24,0.000002697398,0.000002697398,0.000002697398,0.99999994,0,0,0,0,0,0,1,1,0,0,0,false,false,true,-232.4,486.61,17.01,-0.004609853,-0.0012219213,0.96550506,-0.26034036,-556.201,282.701,8.321,-0.00010999999,0.00010999999,3.5578098
48.783333,2000,0,91.24,0.000002697398,0.000002697398,0.000002697398,0.99999994,0,0,0,0,0,0,1,1,0,0,0,false,false,true,-237.03,488.97,17.01,-0.0045882743,-0.0012920537,0.9615393,-0.27462587,-559.29095,273.731,8.321,-0.00021,0.00010999999,3.57541
48.791668,2000,0,91.24,0.000002697398,0.000002697398,0.000002697398,0.99999994,0,0,0,0,0,0,1,1,0,0,0,false,false,true,-241.68999,491.25,17.01,-0.004566695,-0.0013621862,0.9573423,-0.28891674,-562.201,264.631,8.321,-0.00021,0,3.59301
48.8,2000,0,91.24,0.000002697398,0.000002697398,0.000002697398,0.99999994,0,0,0,0,0,0,1,1,0,0,0,false,false,true,-246.37,493.46,17.01,-0.004545116,-0.0014269237,0.9529092,-0.30321836,-564.941,255.411,8.321,-0.00030999997,0,3.61061
48.808334,2000,0,91.24,0.000002697398,0.000002697398,0.000002697398,0.99999994,0,0,0,0,0,0,1,1,0,0,0,false,false,true,-251.08,495.59,17.01,-0.004523536,-0.0014916611,0.94823956,-0.31752002,-567.501,246.071,8.321,-0.00030999997,0,3.62811
48.816666,2000,0,91.24,0.000002697398,0.000002697398,0.000002697398,0.99999994,0,0,0,0,0,0,1,1,0,0,0,false,false,true,-255.81,497.63998,17.01,-0.004501958,-0.0015563988,0.94333196,-0.33181632,-569.881,236.621,8.321,-0.00030999997,0,3.6456099
48.825,2000,0,91.24,0.000002697398,0.000002697398,0.000002697398,0.99999994,0,0,0,0,0,0,1,1,0,0,0,false,false,true,-260.56,499.61,17.01,-0.004474983,-0.0016211362,0.93818283,-0.34610716,-572.081,227.051,8.321,-0.00030999997,0,3.66301
48.833332,2000,0,91.24,0.000002697398,0.000002697398,0.000002697398,0.99999994,0,0,0,0,0,0,1,1,0,0,0,false,false,true,-265.33,501.5,17.01,-0.0044480097,-0.001685874,0.93279064,-0.36038724,-574.09094,217.371,8.321,-0.00021,0,3.68041
48.841667,2000,0,91.24,0.000002697398,0.000002697398,0.000002697398,0.99999994,0,0,0,0,0,0,1,1,0,0,0,false,false,true,-270.11,503.31,17.01,-0.0044210353,-0.0017506114,0.9271536,-0.37465113,-575.92096,207.58101,8.321,-0.00021,0,3.69771
48.85,2000,0,91.24,0.000002697398,0.000002697398,0.000002697398,0.99999994,0,0,0,0,0,0,1,1,0,0,0,false,false,true,-274.91,505.03998,17.01,-0.0043940614,-0.0018153489,0.92127043,-0.38889346,-577.561,197.681,8.321,-0.00010999999,0,3.71491
48.858334,2000,0,91.24,0.000002697398,0.000002697398,0.000002697398,0.99999994,0,0,0,0,0,0,1,1,0,0,0,false,false,true,-279.72,506.69,17.01,-0.004367088,-0.0018800866,0.9151397,-0.4031088,-579.001,187.681,8.321,-0.00010999999,0,3.73211
48.866665,2000,0,91.24,0.000002697398,0.000002697398,0.000002697398,0.99999994,0,0,0,0,0,0,1,1,0,0,0,false,false,true,-284.55,508.25,17.01,-0.0043347185,-0.001944824,0.9087601,-0.4172918,-580.24097,177.571,8.321,-0.00010999999,0,3.74921
48.875,2000,0,91.24,0.000002697398,0.000002697398,0.000002697398,0.99999994,0,0,0,0,0,0,1,1,0,0,0,false,false,true,-289.38998,509.72998,17.01,-0.0043023503,-0.0020095618,0.90213054,-0.43143702,-581.28094,167.36101,8.321,0,0,3.7662098
48.883335,2000,0,91.24,0.000002697398,0.000002697398,0.000002697398,0.99999994,0,0,0,0,0,0,1,1,0,0,0,false,false,true,-294.22998,511.12,17.01,-0.0042699813,-0.0020742991,0.8952499,-0.44553906,-582.061,157.091,8.321,0,0,3.7848098
48.891666,2000,0,91.24,0.000002697398,0.000002697398,0.000002697398,0.99999994,0,0,0,0,0,0,1,1,0,0,0,false,false,true,-299.08,512.43,17.01,-0.0042376122,-0.0021390365,0.88811153,-0.45960334,-582.571,146.761,8.321,0,0,3.80491
48.9,2000,0,91.24,0.000002697398,0.000002697398,0.000002697398,0.99999994,0,0,0,0,0,0,1,1,0,0,0,false,false,true,-303.93,513.64996,17.01,-0.0042052437,-0.0022037744,0.88071406,-0.4736245,-582.811,136.391,8.321,0,0,3.8266098
48.908333,2000,0,91.24,0.000002697398,0.000002697398,0.000002697398,0.99999994,0,0,0,0,0,0,1,1,0,0,0,false,false,true,-308.78998,514.79,17.01,-0.00416748,-0.0022685118,0.8730498,-0.4876078,-582.79095,125.97099,8.321,0,0,3.84981
48.916668,2000,0,91.24,0.000002697398,0.000002697398,0.000002697398,0.99999994,0,0,0,0,0,0,1,1,0,0,0,false,false,true,-313.65,515.83997,17.01,-0.004129716,-0.0023332492,0.8651168,-0.501548,-582.501,115.520996,8.321,0,0,3.8745098
48.925,2000,0,91.24,0.000002697398,0.000002697398,0.000002697398,0.99999994,0,0,0,0,0,0,1,1,0,0,0,false,false,true,-318.5,516.8,17.01,-0.004091953,-0.002397987,0.85690624,-0.5154505,-581.941,105.041,8.321,0.00010999999,0,3.90061
48.933334,2000,0,91.24,0.000002697398,0.000002697398,0.000002697398,0.99999994,0,0,0,0,0,0,1,1,0,0,0,false,false,true,-323.35,517.68,17.01,-0.0040541897,-0.0024627247,0.8484153,-0.5293098,-581.11096,94.531,8.321,0.00010999999,0,3.92821
48.941666,2000,0,91.24,0.000002697398,0.000002697398,0.000002697398,0.99999994,0,0,0,0,0,0,1,1,0,0,0,false,false,true,-328.19,518.47,17.01,-0.004011031,-0.0025274619,0.8396378,-0.54312587,-580.011,84.001,8.321,0.00010999999,0,3.95731
48.95,2000,0,91.24,0.000002697398,0.000002697398,0.000002697398,0.99999994,0,0,0,0,0,0,1,1,0,0,0,false,false,true,-333.02,519.17,17.01,-0.0039678724,-0.0025921995,0.83057034,-0.5568934,-578.641,73.461,8.321,0.00021,0,3.98781
48.958332,2000,0,91.24,0.000002697398,0.000002697398,0.000002697398,0.99999994,0,0,0,0,0,0,1,1,0,0,0,false,false,true,-337.84,519.77997,17.01,-0.003924714,-0.002656937,0.821202,-0.57061785,-577.001,62.920998,8.321,0.00021,0,4.0198097
48.966667,2000,0,91.24,0.000002697398,0.000002697398,0.000002697398,0.99999994,0,0,0,0,0,0,1,1,0,0,0,false,false,true,-342.65,520.3,17.01,-0.0038815557,-0.0027216745,0.8115283,-0.5842937,-575.09094,52.380997,8.321,0.00021,0,4.05321
48.975,2000,0,91.24,0.000002697398,0.000002697398,0.000002697398,0.99999994,0,0,0,0,0,0,1,1,0,0,0,false,false,true,-347.44,520.74,17.01,-0.0038330026,-0.0027864121,0.80154496,-0.5979156,-572.90094,41.841,8.321,0.00021,0,4.08811
48.983334,2000,0,91.24,0.000002697398,0.000002697398,0.000002697398,0.99999994,0,0,0,0,0,0,1,1,0,0,0,false,false,true,-352.21,521.08997,17.01,-0.003784449,-0.0028511495,0.79124284,-0.6114835,-570.441,31.310999,8.321,0.00030999997,0,4.1244097
48.991665,2000,0,91.24,0.000002697398,0.000002697398,0.000002697398,0.99999994,0,0,0,0,0,0,1,1,0,0,0,false,false,true,-356.96,521.35,17.01,-0.0037358964,-0.0029158874,0.7806165,-0.6249922,-567.67096,20.810999,8.321,0.00030999997,0,4.16191
49,2000,0,91.24,0.000002697398,0.000002697398,0.000002697398,0.99999994,0,0,0,0,0,0,1,1,0,0,0,false,false,true,-361.69,521.51996,17.01,-0.0036873433,-0.002980625,0.7696602,-0.63843614,-564.54095,10.351,8.321,0.00030999997,0,4.1999097
49.008335,2000,0,91.24,0.000002697398,0.000002697398,0.000002697398,0.99999994,0,0,0,0,0,0,1,1,0,0,0,false,false,true,-366.38998,521.61,17.01,-0.0036333953,-0.0030453624,0.7583722,-0.65180445,-561.04095,-0.040999997,8.321,0.00030999997,0,4.23841
49.016666,2000,0,91.24,0.000002697398,0.000002697398,0.000002697398,0.99999994,0,0,0,0,0,0,1,1,0,0,0,false,false,true,-371.06998,521.61,17.01,-0.0035794468,-0.0031100998,0.7467416,-0.6650972,-557.17096,-10.361,8.321,0.00030999997,0.00010999999,4.27741
49.025,2000,0,91.24,0.000002697398,0.000002697398,0.000002697398,0.99999994,0,0,0,0,0,0,1,1,0,0,0,false,false,true,-375.71,521.51996,17.01,-0.0035254995,-0.0031748377,0.7347712,-0.6782984,-552.941,-20.591,8.321,0.00030999997,0.00010999999,4.31701
49.033333,2000,0,91.24,0.000002697398,0.000002697398,0.000002697398,0.99999994,0,0,0,0,0,0,1,1,0,0,0,false,false,true,-380.31998,521.35,17.01,-0.0034661565,-0.003239575,0.72245413,-0.69140244,-548.35095,-30.730999,8.321,0.00021,0.00021,4.35711
49.041668,2000,0,91.24,0.000002697398,0.000002697398,0.000002697398,0.99999994,0,0,0,0,0,0,1,1,0,0,0,false,false,true,-384.88998,521.08997,17.01,-0.0034068138,-0.0033043127,0.7097833,-0.70440394,-543.40094,-40.760998,8.321,0.00021,0.00021,4.39781
49.05,2000,0,91.24,0.000002697398,0.000002697398,0.000002697398,0.99999994,0,0,0,0,0,0,1,1,0,0,0,false,false,true,-389.41998,520.75,17.01,0.003347471,0.00336905,-0.69675946,0.71728903,-538.09094,-50.661,8.321,0.00010999999,0.00021,4.43911
49.058334,2000,0,91.24,0.000002697398,0.000002697398,0.000002697398,0.99999994,0,0,0,0,0,0,1,1,0,0,0,false,false,true,-393.9,520.33,17.01,0.0032827337,0.003433788,-0.683375,0.73005205,-532.42096,-60.431,8.321,0.00010999999,0.00030999997,4.48101
49.066666,2000,0,91.24,0.000002697398,0.000002697398,0.000002697398,0.99999994,0,0,0,0,0,0,1,1,0,0,0,false,false,true,-398.34,519.83,17.01,0.0032179959,0.0034931304,-0.66962355,0.7426854,-526.391,-70.050995,8.321,0,0.00030999997,4.52351
49.075,2000,0,91.24,0.000002697398,0.000002697398,0.000002697398,0.99999994,0,0,0,0,0,0,1,1,0,0,0,false,false,true,-402.72998,519.25,17.01,0.0031532582,0.0035524734,-0.6555053,0.75517553,-520.04095,-79.451,8.321,0,0.00030999997,4.56621
49.083332,2000,0,91.24,0.000002697398,0.000002697398,0.000002697398,0.99999994,0,0,0,0,0,0,1,1,0,0,0,false,false,true,-407.06,518.58997,17.01,0.0030831257,0.0036118156,-0.6410201,0.7675092,-513.391,-88.510994,8.321,0,0.00040999998,4.6083097
49.091667,2000,0,91.24,0.000002697398,0.000002697398,0.000002697398,0.99999994,0,0,0,0,0,0,1,1,0,0,0,false,false,true,-411.34,517.85,17.01,0.0030129936,0.0036711588,-0.6261629,0.7796777,-506.461,-97.211,8.321,0,0.00040999998,4.6497097
49.1,2000,0,91.24,0.000002697398,0.000002697398,0.000002697398,0.99999994,0,0,0,0,0,0,1,1,0,0,0,false,false,true,-415.56,517.04,17.01,0.0029428613,0.0037305015,-0.61093867,0.7916636,-499.271,-105.531,8.321,0,0.00051,4.6904097
49.108334,2000,0,91.24,0.000002697398,0.000002697398,0.000002697398,0.99999994,0,0,0,0,0,0,1,1,0,0,0,false,false,true,-419.72,516.16,17.01,0.002867334,0.0037898442,-0.59535307,0.80345005,-491.841,-113.471,8.321,0,0.00051,4.73031
49.116665,2000,0,91.24,0.000002697398,0.000002697398,0.000002697398,0.99999994,0,0,0,0,0,0,1,1,0,0,0,false,false,true,-423.81998,515.20996,17.01,0.0027918073,0.0038491874,-0.57940066,0.81502897,-484.201,-121.020996,8.321,0,0.00051,4.7694097
49.125,2000,0,91.24,0.000002697398,0.000002697398,0.000002697398,0.99999994,0,0,0,0,0,0,1,1,0,0,0,false,false,true,-427.84998,514.2,17.01,0.002710885,0.003903135,-0.56309205,0.82638043,-476.361,-128.181,8.321,0,0.00051,4.8077097
49.133335,2000,0,91.24,0.000002697398,0.000002697398,0.000002697398,0.99999994,0,0,0,0,0,0,1,1,0,0,0,false,false,true,-431.81998,513.13,17.01,0.0026299632,0.0039570834,-0.54642755,0.8374929,-468.35098,-134.951,8.321,0,0.00051,4.84511
49.141666,2000,0,91.24,0.000002697398,0.000002697398,0.000002697398,0.99999994,0,0,0,0,0,0,1,1,0,0,0,false,false,true,-435.72,512.01,17.01,0.0025490408,0.0040110303,-0.52941215,0.84835124,-460.181,-141.321,8.321,0,0.00051,4.88161
49.15,2000,0,91.24,0.000002697398,0.000002697398,0.000002697398,0.99999994,0,0,0,0,0,0,1,1,0,0,0,false,false,true,-439.55,510.83,17.01,0.0024681191,0.0040649786,-0.5120463,0.8589446,-451.881,-147.291,8.321,0,0.00061,4.91711
49.158333,2000,0,91.24,0.000002697398,0.000002697398,0.000002697398,0.99999994,0,0,0,0,0,0,1,1,0,0,0,false,false,true,-443.31998,509.59998,17.01,0.0023818025,0.004118927,-0.4943405,0.86925524,-443.471,-152.86101,8.321,0,0.00061,4.95151
49.166668,2000,0,91.24,0.000002697398,0.000002697398,0.000002697398,0.99999994,0,0,0,0,0,0,1,1,0,0,0,false,false,true,-447.02,508.33,17.01,0.0022954857,0.00416748,-0.47630027,0.8792698,-434.981,-158.041,8.321,0,0.00061,4.98481
49.175,2000,0,91.24,0.000002697398,0.000002697398,0.000002697398,0.99999994,0,0,0,0,0,0,1,1,0,0,0,false,false,true,-450.63998,507.00998,17.01,0.0022091689,0.004216033,-0.45793635,0.88897216,-426.421,-162.83101,8.321,0,0.00061,5.01691
49.183334,2000,0,91.24,0.000002697398,0.000002697398,0.000002697398,0.99999994,0,0,0,0,0,0,1,1,0,0,0,false,false,true,-454.19,505.65,17.01,0.0021174573,0.004264586,-0.43925408,0.8983502,-417.82098,-167.231,8.321,0,0.00061,5.04771
49.191666,2000,0,91.24,0.000002697398,0.000002697398,0.000002697398,0.99999994,0,0,0,0,0,0,1,1,0,0,0,false,false,true,-457.66998,504.25998,17.01,0.0020257458,0.0043131392,-0.4202643,0.90738916,-409.201,-171.261,8.321,0,0.00061,5.07711
49.2,2000,0,91.24,0.000002697398,0.000002697398,0.000002697398,0.99999994,0,0,0,0,0,0,1,1,0,0,0,false,false,true,-461.08,502.83,17.01,0.0019340344,0.0043562977,-0.40097782,0.9160753,-400.581,-174.921,8.321,0,0.00061,5.10501
49.208332,2000,0,91.24,0.000002697398,0.000002697398,0.000002697398,0.99999994,0,0,0,0,0,0,1,1,0,0,0,false,false,true,-464.41998,501.37,17.01,0.001842323,0.0043994565,-0.38140544,0.9243955,-391.981,-178.22101,8.321,0,0.00061,5.13131
49.216667,2000,0,91.24,0.000002697398,0.000002697398,0.000002697398,0.99999994,0,0,0,0,0,0,1,1,0,0,0,false,false,true,-467.69,499.87997,17.01,0.0017452165,0.0044426145,-0.36155787,0.9323374,-383.421,-181.181,8.321,-0.00010999999,0.00071,5.15581
49.225,2000,0,91.24,0.000002697398,0.000002697398,0.000002697398,0.99999994,0,0,0,0,0,0,1,1,0,0,0,false,false,true,-470.88998,498.37,17.01,0.0016481103,0.0044803787,-0.34144607,0.9398892,-374.911,-183.791,8.321,-0.00010999999,0.00071,5.17801
49.233334,2000,0,91.24,0.000002697398,0.000002697398,0.000002697398,0.99999994,0,0,0,0,0,0,1,1,0,0,0,false,false,true,-474.00998,496.84,17.01,0.0015510038,0.004518141,-0.32109135,0.947036,-366.461,-186.021,8.321,-0.00021,0.00071,5.19631
49.241665,2000,0,91.24,0.000002697398,0.000002697398,0.000002697398,0.99999994,0,0,0,0,0,0,1,1,0,0,0,false,false,true,-477.06,495.28998,17.01,0.0014485029,0.0045559057,-0.3005156,0.9537649,-358.011,-187.901,8.321,-0.00030999997,0.00071,5.21051
49.25,2000,0,91.24,0.000002697398,0.000002697398,0.000002697398,0.99999994,0,0,0,0,0,0,1,1,0,0,0,false,false,true,-480.03998,493.72,17.01,0.0013460016,0.004588274,-0.2797401,0.9600638,-349.591,-189.431,8.321,-0.00030999997,0.00061,5.22051
49.258335,2000,0,91.24,0.000002697398,0.000002697398,0.000002697398,0.99999994,0,0,0,0,0,0,1,1,0,0,0,false,false,true,-482.94998,492.13998,17.01,0.0012435005,0.004620643,-0.258792,0.96592116,-341.221,-190.631,8.321,-0.00030999997,0.00051,5.22621
49.266666,2000,0,91.24,0.000002697398,0.000002697398,0.000002697398,0.99999994,0,0,0,0,0,0,1,1,0,0,0,false,false,true,-485.78998,490.55,17.01,0.0011409994,0.0046476168,-0.23769835,0.9713272,-332.941,-191.511,8.321,-0.00030999997,0.00040999998,5.2273097
49.275,2000,0,91.24,0.000002697398,0.000002697398,0.000002697398,0.99999994,0,0,0,0,0,0,1,1,0,0,0,false,false,true,-488.56,488.94998,17.01,0.0010384984,0.004674591,-0.21648593,0.97627395,-324.771,-192.08101,8.321,-0.00030999997,0.00040999998,5.22351
49.283333,2000,0,91.24,0.000002697398,0.000002697398,0.000002697398,0.99999994,0,0,0,0,0,0,1,1,0,0,0,false,false,true,-491.27,487.34998,17.01,0.0009359971,0.00469617,-0.19518718,0.98075426,-316.781,-192.371,8.311,-0.00030999997,0.00040999998,5.2136097
49.291668,2000,0,91.24,0.000002697398,0.000002697398,0.000002697398,0.99999994,0,0,0,0,0,0,1,1,0,0,0,false,false,true,-493.91,485.75,17.01,0.00083349604,0.0047177495,-0.1738399,0.98476225,-308.701,-192.391,8.311,-0.00030999997,0.00030999997,5.2041097
49.3,2000,0,91.24,0.000002697398,0.000002697398,0.000002697398,0.99999994,0,0,0,0,0,0,1,1,0,0,0,false,false,true,-496.47998,484.15,17.01,0.00073099486,0.0047339336,-0.15244943,0.9882996,-300.541,-192.131,8.311,-0.00030999997,0.00021,5.19521
49.308334,2000,0,91.24,0.000002697398,0.000002697398,0.000002697398,0.99999994,0,0,0,0,0,0,1,1,0,0,0,false,false,true,-498.97998,482.55,17.01,0.0006284938,0.004750118,-0.13102123,0.99136794,-292.331,-191.58101,8.311,-0.00040999998,0.00010999999,5.18681
49.316666,2000,0,91.24,0.000002697398,0.000002697398,0.000002697398,0.99999994,0,0,0,0,0,0,1,1,0,0,0,false,false,true,-501.41998,480.94998,17.01,0.00052599265,0.004760908,-0.10956604,0.99396795,-284.101,-190.741,8.311,-0.00051,0,5.17881
49.325,2000,0,91.24,0.000002697398,0.000002697398,0.000002697398,0.99999994,0,0,0,0,0,0,1,1,0,0,0,false,false,true,-503.78998,479.36,17.01,0.0004234915,0.004771697,-0.08809466,0.99610054,-275.861,-189.601,8.311,-0.00051,0,5.17121
49.333332,2000,0,91.24,0.000002697398,0.000002697398,0.000002697398,0.99999994,0,0,0,0,0,0,1,1,0,0,0,false,false,true,-506.09,477.78,17.01,0.00032099037,0.004777092,-0.0666125,0.9977674,-267.631,-188.171,8.311,-0.00051,0,5.1641097
49.341667,2000,0,91.24,0.000002697398,0.000002697398,0.000002697398,0.99999994,0,0,0,0,0,0,1,1,0,0,0,false,false,true,-508.31998,476.21,17.01,0.00021848927,0.004782487,-0.04513034,0.9989696,-259.421,-186.44101,8.311,-0.00051,-0.00010999999,5.15751
49.35,2000,0,91.24,0.000002697398,0.000002697398,0.000002697398,0.99999994,0,0,0,0,0,0,1,1,0,0,0,false,false,true,-510.47998,474.66,17.01,0.00011598813,0.004787882,-0.023653569,0.9997087,-251.241,-184.411,8.311,-0.00051,-0.00010999999,5.15161
49.358334,2000,0,91.24,0.000002697398,0.000002697398,0.000002697398,0.99999994,0,0,0,0,0,0,1,1,0,0,0,false,false,true,-512.57,473.12,17.01,0.0000134869915,0.004787882,-0.0021929848,0.9999861,-243.11101,-182.08101,8.311,-0.00051,-0.00021,5.1465096
49.366665,2000,0,91.24,0.000002697398,0.000002697398,0.000002697398,0.99999994,0,0,0,0,0,0,1,1,0,0,0,false,false,true,-514.6,471.59998,17.01,-0.00008901414,0.0047878814,0.019251414,0.9998031,-235.031,-179.451,8.311,-0.00051,-0.00030999997,5.1423097
