time,ball_loc_x,ball_loc_y,ball_loc_z,ball_rot_x,ball_rot_y,ball_rot_z,ball_rot_w,ball_vel_x,ball_vel_y,ball_vel_z,ball_ang_x,ball_ang_y,ball_ang_z,player0_throttle,player0_steer,player0_pitch,player0_yaw,player0_roll,player0_jump,player0_boost,player0_handbrake,player0_loc_x,player0_loc_y,player0_loc_z,player0_rot_x,player0_rot_y,player0_rot_z,player0_rot_w,player0_vel_x,player0_vel_y,player0_vel_z,player0_ang_x,player0_ang_y,player0_ang_z
230.34166,2000,0,91.24,0.000002697398,0.000002697398,0.000002697398,0.99999994,0,0,0,0,0,0,0,0,0,0,0,false,false,false,0,0.14,17.01,-0.00336905,0.0033798397,0.7071014,0.7070959,0,0.011,8.321,-0.00051,0,0
230.35,2000,0,73,0.000002697398,0.000002697398,0.000002697398,0.99999994,0,0,0,0,0,0,1,0,0,0,0,false,true,false,0,0,16.94,0.0000026973983,0.0000026973983,0.70710677,0.70710677,0,0,2.041,-0.050809998,0,0
230.35834,2000,0,87.6,0.000002697398,0.000002697398,0.000002697398,0.99999994,0,0,0,0,0,0,1,0,0,0,0,false,true,false,0,0.07,16.89,-0.00014835689,0.00015375168,0.7071067,0.7071067,0,21.521,3.8809998,-0.085609995,0,0
230.36667,2000,0,90.52,0.000002697398,0.000002697398,0.000002697398,0.99999994,0,0,0,0,0,0,1,0,0,0,0,false,true,false,0,0.32,16.85,-0.00040191234,0.00040730715,0.70710653,0.70710677,0,42.861,5.481,-0.107209995,0,0
230.375,2000,0,91.1,0.000002697398,0.000002697398,0.000002697398,0.99999994,0,0,0,0,0,0,1,0,0,0,0,false,true,false,0,0.75,16.83,-0.00072020525,0.00072560005,0.7071067,0.707106,0,64.011,6.7809997,-0.11630999,0,0
230.38333,2000,0,91.22,0.000002697398,0.000002697398,0.000002697398,0.99999994,0,0,0,0,0,0,1,0,0,0,0,false,true,false,0,1.35,16.82,-0.0010654721,0.001070867,0.70710516,0.7071067,0,84.980995,7.7209997,-0.114609994,0,0
230.39166,2000,0,91.24,0.000002697398,0.000002697398,0.000002697398,0.99999994,0,0,0,0,0,0,1,0,0,0,0,false,true,false,0,2.1299999,16.82,-0.0014053443,0.0014107391,0.7071067,0.70710397,0,105.770996,8.401,-0.10651,0,0
230.4,2000,0,91.24,0.000002697398,0.000002697398,0.000002697398,0.99999994,0,0,0,0,0,0,1,0,0,0,0,false,true,false,0,3.08,16.82,-0.0017182427,0.0017236375,0.707108,0.70710135,0,126.391,8.8810005,-0.09501,0,0
230.40834,2000,0,91.24,0.000002697398,0.000002697398,0.000002697398,0.99999994,0,0,0,0,0,0,1,0,0,0,0,false,true,false,0,4.2,16.83,-0.001998772,0.0020041666,0.70710653,0.7071013,0,146.83101,9.231,-0.08221,0,0
230.41667,2000,0,91.24,0.000002697398,0.000002697398,0.000002697398,0.99999994,0,0,0,0,0,0,1,0,0,0,0,false,true,false,0,5.49,16.84,-0.0022415377,0.0022469326,0.70710504,0.7071013,0,167.091,9.451,-0.069409996,0,0
230.425,2000,0,91.24,0.000002697398,0.000002697398,0.000002697398,0.99999994,0,0,0,0,0,0,1,0,0,0,0,false,true,false,0,6.95,16.85,-0.00244654,0.0024519349,0.70710367,0.7071013,0,187.181,9.591001,-0.057309996,0,0
230.43333,2000,0,91.24,0.000002697398,0.000002697398,0.000002697398,0.99999994,0,0,0,0,0,0,1,0,0,0,0,false,true,false,0,8.58,16.859999,-0.0026137787,0.0026191734,0.7071025,0.7071013,0,207.101,9.6710005,-0.046409998,0,0
230.44167,2000,0,91.24,0.000002697398,0.000002697398,0.000002697398,0.99999994,0,0,0,0,0,0,1,0,0,0,0,false,true,false,0,10.37,16.869999,-0.0027486486,0.0027540433,0.70710146,0.7071013,0,226.851,9.711,-0.03701,0,0
230.45,2000,0,91.24,0.000002697398,0.000002697398,0.000002697398,0.99999994,0,0,0,0,0,0,1,0,0,0,0,false,true,false,0,12.33,16.88,-0.0028565445,0.0028619394,0.70710063,0.7071013,0,246.431,9.721,-0.02911,0,0
230.45833,2000,0,91.24,0.000002697398,0.000002697398,0.000002697398,0.99999994,0,0,0,0,0,0,1,0,0,0,0,false,true,false,0,14.45,16.89,-0.0029428613,0.002948256,0.7071013,0.7070999,0,265.841,9.701,-0.02261,0,0
230.46666,2000,0,91.24,0.000002697398,0.000002697398,0.000002697398,0.99999994,0,0,0,0,0,0,1,0,0,0,0,false,true,false,0,16.73,16.9,-0.003007599,0.0030129936,0.7070993,0.7071013,0,285.081,9.641,-0.01791,0,0
230.475,2000,0,91.24,0.000002697398,0.000002697398,0.000002697398,0.99999994,0,0,0,0,0,0,1,0,0,0,0,false,true,false,0,19.17,16.91,-0.0030615467,0.0030669416,0.7071013,0.7070989,0,304.161,9.561,-0.014409999,0,0
230.48334,2000,0,91.24,0.000002697398,0.000002697398,0.000002697398,0.99999994,0,0,0,0,0,0,1,0,0,0,0,false,true,false,0,21.77,16.92,-0.0031047051,0.0031101,0.7070985,0.7071013,0,323.081,9.471,-0.011809999,0,0
230.49167,2000,0,91.24,0.000002697398,0.000002697398,0.000002697398,0.99999994,0,0,0,0,0,0,1,0,0,0,0,false,true,false,0,24.529999,16.93,-0.003137074,0.0031424686,0.7070959,0.7071036,0,341.831,9.371,-0.00981,0,0
230.5,2000,0,91.24,0.000002697398,0.000002697398,0.000002697398,0.99999994,0,0,0,0,0,0,1,0,0,0,0,false,true,false,0,27.449999,16.94,-0.003164048,0.003169443,0.707096,0.7071034,0,360.421,9.271,-0.0083099995,0,0
230.50833,2000,0,91.24,0.000002697398,0.000002697398,0.000002697398,0.99999994,0,0,0,0,0,0,1,0,0,0,0,false,true,false,0,30.519999,16.949999,-0.003191022,0.0031964167,0.7070959,0.70710313,0,378.851,9.161,-0.00711,0,0
230.51666,2000,0,91.24,0.000002697398,0.000002697398,0.000002697398,0.99999994,0,0,0,0,0,0,1,0,0,0,0,false,true,false,0,33.75,16.96,-0.0032126014,0.003217996,0.707096,0.70710295,0,397.131,9.051001,-0.00601,0,0
230.525,2000,0,91.24,0.000002697398,0.000002697398,0.000002697398,0.99999994,0,0,0,0,0,0,1,0,0,0,0,false,true,false,0,37.13,16.97,-0.0032287855,0.0032341804,0.7070959,0.7071028,0,415.251,8.941,-0.00521,0,0
230.53334,2000,0,91.24,0.000002697398,0.000002697398,0.000002697398,0.99999994,0,0,0,0,0,0,1,0,0,0,0,false,true,false,0,40.66,16.98,-0.00324497,0.003250365,0.707096,0.70710266,0,433.211,8.831,-0.00451,0,0
230.54167,2000,0,91.24,0.000002697398,0.000002697398,0.000002697398,0.99999994,0,0,0,0,0,0,1,0,0,0,0,false,true,false,0,44.34,16.99,-0.0032557594,0.0032611543,0.7070959,0.70710254,0,451.021,8.721001,-0.00391,0,0
230.55,2000,0,91.24,0.000002697398,0.000002697398,0.000002697398,0.99999994,0,0,0,0,0,0,1,0,0,0,0,false,true,false,0,48.17,16.99,-0.003266549,0.003271944,0.7070959,0.7071024,0,468.681,8.601,-0.00341,0,0
230.55833,2000,0,91.24,0.000002697398,0.000002697398,0.000002697398,0.99999994,0,0,0,0,0,0,1,0,0,0,0,false,true,false,0,52.14,16.99,-0.0032773386,0.0032827335,0.7070959,0.7071023,0,486.191,8.531,-0.00301,0,0
230.56667,2000,0,91.24,0.000002697398,0.000002697398,0.000002697398,0.99999994,0,0,0,0,0,0,1,0,0,0,0,false,true,false,0,56.26,16.99,-0.0032881282,0.003293523,0.7070959,0.70710224,0,503.541,8.481,-0.00271,0,0
230.575,2000,0,91.24,0.000002697398,0.000002697398,0.000002697398,0.99999994,0,0,0,0,0,0,1,0,0,0,0,false,true,false,0,60.53,16.99,-0.0032935233,0.003298918,0.707096,0.7071022,0,520.751,8.451,-0.00241,0,0
230.58333,2000,0,91.24,0.000002697398,0.000002697398,0.000002697398,0.99999994,0,0,0,0,0,0,1,0,0,0,0,false,true,false,0,64.939995,16.99,-0.0032989178,0.0033043127,0.7070959,0.7071021,0,537.811,8.431,-0.00211,0,0
230.59166,2000,0,91.24,0.000002697398,0.000002697398,0.000002697398,0.99999994,0,0,0,0,0,0,1,0,0,0,0,false,true,false,0,69.49,16.99,-0.0033043127,0.0033097074,0.7070959,0.70710206,0,554.72095,8.4210005,-0.0019099999,0,0
230.6,2000,0,91.24,0.000002697398,0.000002697398,0.000002697398,0.99999994,0,0,0,0,0,0,1,0,0,0,0,false,true,false,0,74.18,16.99,-0.0033097074,0.0033151023,0.7070959,0.707102,0,571.49097,8.411,-0.0017099999,0,0
230.60834,2000,0,91.24,0.000002697398,0.000002697398,0.000002697398,0.99999994,0,0,0,0,0,0,1,0,0,0,0,false,true,false,0,79.009995,16.99,-0.0033151023,0.003320497,0.7070959,0.707102,0,588.11096,8.411,-0.00151,0,0
230.61667,2000,0,91.24,0.000002697398,0.000002697398,0.000002697398,0.99999994,0,0,0,0,0,0,1,0,0,0,0,false,true,false,0,83.979996,16.99,-0.0033204972,0.0033258921,0.707096,0.70710194,0,604.59094,8.411,-0.0014099999,0,0
230.625,2000,0,91.24,0.000002697398,0.000002697398,0.000002697398,0.99999994,0,0,0,0,0,0,1,0,0,0,0,false,true,false,0,89.09,16.99,-0.003325892,0.0033312866,0.7070959,0.7071019,0,620.93097,8.411,-0.0012099999,0,0
230.63333,2000,0,91.24,0.000002697398,0.000002697398,0.000002697398,0.99999994,0,0,0,0,0,0,1,0,0,0,0,false,true,false,0,94.329994,16.99,-0.0033312866,0.0033366815,0.7070959,0.7071018,0,637.131,8.411,-0.00111,0,0
230.64166,2000,0,91.24,0.000002697398,0.000002697398,0.000002697398,0.99999994,0,0,0,0,0,0,1,0,0,0,0,false,true,false,0,99.71,16.99,-0.0033366815,0.0033420762,0.7070959,0.70710176,0,653.191,8.411,-0.00091,0,0
230.65,2000,0,91.24,0.000002697398,0.000002697398,0.000002697398,0.99999994,0,0,0,0,0,0,1,0,0,0,0,false,true,false,0,105.22,16.99,-0.0033366818,0.0033474711,0.707096,0.70710176,0,669.11096,8.411,-0.00081,0,0
230.65834,2000,0,91.24,0.000002697398,0.000002697398,0.000002697398,0.99999994,0,0,0,0,0,0,1,0,0,0,0,false,true,false,0,110.86,16.99,-0.0033366818,0.0033474711,0.707096,0.70710176,0,684.90094,8.411,-0.00071,0,0
230.66667,2000,0,91.24,0.000002697398,0.000002697398,0.000002697398,0.99999994,0,0,0,0,0,0,1,0,0,0,0,false,true,false,0,116.64,16.99,-0.0033366818,0.0033474711,0.707096,0.70710176,0,700.55096,8.411,-0.00061,0,0
230.675,2000,0,91.24,0.000002697398,0.000002697398,0.000002697398,0.99999994,0,0,0,0,0,0,1,0,0,0,0,false,true,false,0,122.549995,16.99,-0.0033366818,0.0033474711,0.707096,0.70710176,0,716.071,8.411,-0.00061,0,0
230.68333,2000,0,91.24,0.000002697398,0.000002697398,0.000002697398,0.99999994,0,0,0,0,0,0,1,0,0,0,0,false,true,false,0,128.59,16.99,-0.0033366818,0.0033474711,0.707096,0.70710176,0,731.451,8.411,-0.00061,0,0
230.69167,2000,0,91.24,0.000002697398,0.000002697398,0.000002697398,0.99999994,0,0,0,0,0,0,1,0,0,0,0,false,true,false,0,134.75,16.99,-0.0033366818,0.0033474711,0.707096,0.70710176,0,746.701,8.411,-0.00061,0,0
230.7,2000,0,91.24,0.000002697398,0.000002697398,0.000002697398,0.99999994,0,0,0,0,0,0,1,0,0,0,0,false,true,false,0,141.04,16.99,-0.0033366818,0.0033474711,0.707096,0.70710176,0,761.821,8.411,-0.00061,0,0
230.70833,2000,0,91.24,0.000002697398,0.000002697398,0.000002697398,0.99999994,0,0,0,0,0,0,1,0,0,0,0,false,true,false,0,147.45999,16.99,-0.0033366818,0.0033474711,0.707096,0.70710176,0,776.811,8.411,-0.00061,0,0
230.71666,2000,0,91.24,0.000002697398,0.000002697398,0.000002697398,0.99999994,0,0,0,0,0,0,1,0,0,0,0,false,true,false,0,154,16.99,-0.0033366818,0.0033474711,0.707096,0.70710176,0,791.67096,8.411,-0.00061,0,0
230.725,2000,0,91.24,0.000002697398,0.000002697398,0.000002697398,0.99999994,0,0,0,0,0,0,1,0,0,0,0,false,true,false,0,160.67,16.99,-0.0033366818,0.0033474711,0.707096,0.70710176,0,806.41095,8.411,-0.00061,0,0
230.73334,2000,0,91.24,0.000002697398,0.000002697398,0.000002697398,0.99999994,0,0,0,0,0,0,1,0,0,0,0,false,true,false,0,167.45999,16.99,-0.0033366818,0.0033474711,0.707096,0.70710176,0,821.02094,8.411,-0.00061,0,0
230.74167,2000,0,91.24,0.000002697398,0.000002697398,0.000002697398,0.99999994,0,0,0,0,0,0,1,0,0,0,0,false,true,false,0,174.37,16.99,-0.0033366818,0.0033474711,0.707096,0.70710176,0,835.501,8.411,-0.00061,0,0
230.75,2000,0,91.24,0.000002697398,0.000002697398,0.000002697398,0.99999994,0,0,0,0,0,0,1,0,0,0,0,false,true,false,0,181.4,16.99,-0.0033366818,0.0033474711,0.707096,0.70710176,0,849.86096,8.411,-0.00071,0,0
230.75833,2000,0,91.24,0.000002697398,0.000002697398,0.000002697398,0.99999994,0,0,0,0,0,0,1,0,0,0,0,false,true,false,0,188.55,16.99,-0.0033366818,0.0033474711,0.707096,0.70710176,0,864.10095,8.411,-0.00071,0,0
230.76666,2000,0,91.24,0.000002697398,0.000002697398,0.000002697398,0.99999994,0,0,0,0,0,0,1,0,0,0,0,false,true,false,0,195.81999,16.99,-0.0033366818,0.0033474711,0.707096,0.70710176,0,878.22095,8.411,-0.00071,0,0
230.775,2000,0,91.24,0.000002697398,0.000002697398,0.000002697398,0.99999994,0,0,0,0,0,0,1,0,0,0,0,false,true,false,0,203.20999,16.99,-0.0033366818,0.0033474711,0.707096,0.70710176,0,892.21094,8.411,-0.00071,0,0
230.78334,2000,0,91.24,0.000002697398,0.000002697398,0.000002697398,0.99999994,0,0,0,0,0,0,1,0,0,0,0,false,true,false,0,210.70999,16.99,-0.0033366818,0.0033474711,0.707096,0.70710176,0,906.08093,8.411,-0.00071,0,0
230.79167,2000,0,91.24,0.000002697398,0.000002697398,0.000002697398,0.99999994,0,0,0,0,0,0,1,0,0,0,0,false,true,false,0,218.33,16.99,-0.0033366818,0.0033474711,0.707096,0.70710176,0,919.84094,8.411,-0.00071,0,0
230.8,2000,0,91.24,0.000002697398,0.000002697398,0.000002697398,0.99999994,0,0,0,0,0,0,1,0,0,0,0,false,true,false,0,226.06,16.99,-0.0033366818,0.0033474711,0.707096,0.70710176,0,933.48096,8.411,-0.00081,0,0
230.80833,2000,0,91.24,0.000002697398,0.000002697398,0.000002697398,0.99999994,0,0,0,0,0,0,1,0,0,0,0,false,true,false,0,233.90999,16.99,-0.0033366818,0.0033474711,0.707096,0.70710176,0,947.001,8.411,-0.00081,0,0
230.81667,2000,0,91.24,0.000002697398,0.000002697398,0.000002697398,0.99999994,0,0,0,0,0,0,1,0,0,0,0,false,true,false,0,241.87,16.99,-0.0033366818,0.0033474711,0.707096,0.70710176,0,960.41095,8.411,-0.00081,0,0
230.825,2000,0,91.24,0.000002697398,0.000002697398,0.000002697398,0.99999994,0,0,0,0,0,0,1,0,0,0,0,false,true,false,0,249.93999,16.99,-0.0033366818,0.0033474711,0.707096,0.70710176,0,973.7009,8.411,-0.00081,0,0
230.83333,2000,0,91.24,0.000002697398,0.000002697398,0.000002697398,0.99999994,0,0,0,0,0,0,1,0,0,0,0,false,true,false,0,258.12,16.99,-0.0033366818,0.0033474711,0.707096,0.70710176,0,986.881,8.411,-0.00081,0,0
230.84166,2000,0,91.24,0.000002697398,0.000002697398,0.000002697398,0.99999994,0,0,0,0,0,0,1,0,0,0,0,false,true,false,0,266.41,16.99,-0.0033366818,0.0033474711,0.707096,0.70710176,0,999.941,8.411,-0.00081,0,0
230.85,2000,0,91.24,0.000002697398,0.000002697398,0.000002697398,0.99999994,0,0,0,0,0,0,1,0,0,0,0,false,true,false,0,274.81,16.99,-0.0033366818,0.0033474711,0.707096,0.70710176,0,1012.8909,8.411,-0.00081,0,0
230.85834,2000,0,91.24,0.000002697398,0.000002697398,0.000002697398,0.99999994,0,0,0,0,0,0,1,0,0,0,0,false,true,false,0,283.32,16.99,-0.0033366818,0.0033474711,0.707096,0.70710176,0,1025.731,8.411,-0.00091,0,0
230.86667,2000,0,91.24,0.000002697398,0.000002697398,0.000002697398,0.99999994,0,0,0,0,0,0,1,0,0,0,0,false,true,false,0,291.94,16.99,-0.0033366815,0.0033528658,0.7070959,0.7071017,0,1038.4609,8.411,-0.00091,0,0
230.875,2000,0,91.24,0.000002697398,0.000002697398,0.000002697398,0.99999994,0,0,0,0,0,0,1,0,0,0,0,false,true,false,0,300.66,16.99,-0.0033366815,0.0033582605,0.7070959,0.7071017,0,1051.0809,8.411,-0.00091,0,0
230.88333,2000,0,91.24,0.000002697398,0.000002697398,0.000002697398,0.99999994,0,0,0,0,0,0,1,0,0,0,0,false,true,false,0,309.49,16.99,-0.0033366815,0.0033636554,0.7070959,0.70710164,0,1063.591,8.411,-0.00081,-0.00010999999,0
230.89166,2000,0,91.24,0.000002697398,0.000002697398,0.000002697398,0.99999994,0,0,0,0,0,0,1,0,0,0,0,false,true,false,0,318.41998,16.99,-0.0033366815,0.0033636554,0.7070959,0.70710164,0,1076.001,8.411,-0.00081,-0.00021,0
230.9,2000,0,91.24,0.000002697398,0.000002697398,0.000002697398,0.99999994,0,0,0,0,0,0,1,0,0,0,0,false,true,false,0,327.46,16.99,-0.0033420762,0.0033636554,0.7070959,0.70710164,0,1088.3009,8.411,-0.00081,-0.00021,0
230.90834,2000,0,91.24,0.000002697398,0.000002697398,0.000002697398,0.99999994,0,0,0,0,0,0,1,0,0,0,0,false,true,false,0,336.6,16.99,-0.0033474711,0.0033636556,0.707096,0.70710164,0,1100.491,8.411,-0.00071,-0.00021,0
230.91667,2000,0,91.24,0.000002697398,0.000002697398,0.000002697398,0.99999994,0,0,0,0,0,0,1,0,0,0,0,false,true,false,0,345.84,16.99,-0.0033474711,0.0033636556,0.707096,0.70710164,0,1112.5809,8.411,-0.00061,-0.00021,0
230.925,2000,0,91.24,0.000002697398,0.000002697398,0.000002697398,0.99999994,0,0,0,0,0,0,1,0,0,0,0,false,true,false,0,355.18,16.99,-0.0033474711,0.0033636556,0.707096,0.70710164,0,1124.5709,8.411,-0.00061,-0.00021,0
230.93333,2000,0,91.24,0.000002697398,0.000002697398,0.000002697398,0.99999994,0,0,0,0,0,0,1,0,0,0,0,false,true,false,0,364.62,16.99,-0.0033474711,0.0033636556,0.707096,0.70710164,0,1136.4509,8.411,-0.00061,-0.00021,0
230.94167,2000,0,91.24,0.000002697398,0.000002697398,0.000002697398,0.99999994,0,0,0,0,0,0,1,0,0,0,0,false,true,false,0,374.16,16.99,-0.0033474711,0.0033636556,0.707096,0.70710164,0,1148.231,8.411,-0.00061,-0.00021,0
230.95,2000,0,91.24,0.000002697398,0.000002697398,0.000002697398,0.99999994,0,0,0,0,0,0,1,0,0,0,0,false,true,false,0,383.8,16.99,-0.0033474711,0.0033636556,0.707096,0.70710164,0,1159.911,8.411,-0.00061,-0.00021,0
230.95833,2000,0,91.24,0.000002697398,0.000002697398,0.000002697398,0.99999994,0,0,0,0,0,0,1,0,0,0,0,false,true,false,0,393.53,16.99,-0.0033474711,0.0033636556,0.707096,0.70710164,0,1171.491,8.411,-0.00061,-0.00021,0
230.96666,2000,0,91.24,0.000002697398,0.000002697398,0.000002697398,0.99999994,0,0,0,0,0,0,1,0,0,0,0,false,true,false,0,403.36,16.99,-0.0033474711,0.0033636556,0.707096,0.70710164,0,1182.971,8.411,-0.00061,-0.00021,0
230.975,2000,0,91.24,0.000002697398,0.000002697398,0.000002697398,0.99999994,0,0,0,0,0,0,1,0,0,0,0,false,true,false,0,413.28998,16.99,-0.0033474711,0.0033636556,0.707096,0.70710164,0,1194.351,8.411,-0.00061,-0.00021,0
230.98334,2000,0,91.24,0.000002697398,0.000002697398,0.000002697398,0.99999994,0,0,0,0,0,0,1,0,0,0,0,false,true,false,0,423.31,16.99,-0.0033474711,0.0033636556,0.707096,0.70710164,0,1205.641,8.411,-0.00061,-0.00021,0
230.99167,2000,0,91.24,0.000002697398,0.000002697398,0.000002697398,0.99999994,0,0,0,0,0,0,1,0,0,0,0,false,true,false,0,433.43,16.99,-0.0033474711,0.0033636556,0.707096,0.70710164,0,1216.8309,8.411,-0.00061,-0.00021,0
231,2000,0,91.24,0.000002697398,0.000002697398,0.000002697398,0.99999994,0,0,0,0,0,0,1,0,0,0,0,false,true,false,0,443.63998,16.99,-0.0033474711,0.0033636556,0.707096,0.70710164,0,1227.9209,8.411,-0.00071,-0.00021,0
231.00833,2000,0,91.24,0.000002697398,0.000002697398,0.000002697398,0.99999994,0,0,0,0,0,0,1,0,0,0,0,false,true,false,0,453.94,16.99,-0.0033474711,0.0033636556,0.707096,0.70710164,0,1238.9209,8.411,-0.00071,-0.00021,0
231.01666,2000,0,91.24,0.000002697398,0.000002697398,0.000002697398,0.99999994,0,0,0,0,0,0,1,0,0,0,0,false,true,false,0,464.33,16.99,-0.0033474711,0.0033636556,0.707096,0.70710164,0,1249.8209,8.411,-0.00071,-0.00021,0
231.025,2000,0,91.24,0.000002697398,0.000002697398,0.000002697398,0.99999994,0,0,0,0,0,0,1,0,0,0,0,false,true,false,0,474.81,16.99,-0.0033474711,0.0033636556,0.707096,0.70710164,0,1260.631,8.411,-0.00071,-0.00021,0
231.03334,2000,0,91.24,0.000002697398,0.000002697398,0.000002697398,0.99999994,0,0,0,0,0,0,1,0,0,0,0,false,true,false,0,485.37997,16.99,-0.0033474711,0.0033636556,0.707096,0.70710164,0,1271.351,8.411,-0.00071,-0.00021,0
231.04167,2000,0,91.24,0.000002697398,0.000002697398,0.000002697398,0.99999994,0,0,0,0,0,0,1,0,0,0,0,false,true,false,0,496.03998,16.99,-0.0033474711,0.0033636556,0.707096,0.70710164,0,1281.981,8.411,-0.00071,-0.00021,0
231.05,2000,0,91.24,0.000002697398,0.000002697398,0.000002697398,0.99999994,0,0,0,0,0,0,1,0,0,0,0,false,true,false,0,506.78998,16.99,-0.0033474711,0.0033636556,0.707096,0.70710164,0,1292.511,8.411,-0.00071,-0.00021,0
231.05833,2000,0,91.24,0.000002697398,0.000002697398,0.000002697398,0.99999994,0,0,0,0,0,0,1,0,0,0,0,false,true,false,0,517.63,16.99,-0.0033474711,0.0033636556,0.707096,0.70710164,0,1302.9509,8.411,-0.00071,-0.00021,0
231.06667,2000,0,91.24,0.000002697398,0.000002697398,0.000002697398,0.99999994,0,0,0,0,0,0,1,0,0,0,0,false,true,false,0,528.56,16.99,-0.0033474711,0.0033636556,0.707096,0.70710164,0,1313.3009,8.411,-0.00081,-0.00021,0
231.075,2000,0,91.24,0.000002697398,0.000002697398,0.000002697398,0.99999994,0,0,0,0,0,0,1,0,0,0,0,false,true,false,0,539.57,16.99,-0.0033528658,0.0033636554,0.7070959,0.7071016,0,1323.5709,8.411,-0.00081,-0.00021,0
231.08333,2000,0,91.24,0.000002697398,0.000002697398,0.000002697398,0.99999994,0,0,0,0,0,0,1,0,0,0,0,false,true,false,0,550.67,16.99,-0.0033582605,0.0033636554,0.7070959,0.7071016,0,1333.751,8.411,-0.00081,-0.00010999999,0
231.09166,2000,0,91.24,0.000002697398,0.000002697398,0.000002697398,0.99999994,0,0,0,0,0,0,1,0,0,0,0,false,true,false,0,561.85,16.99,-0.0033582605,0.0033636554,0.7070959,0.7071016,0,1343.841,8.411,-0.00071,0,0
231.1,2000,0,91.24,0.000002697398,0.000002697398,0.000002697398,0.99999994,0,0,0,0,0,0,1,0,0,0,0,false,true,false,0,573.12,16.99,-0.0033582605,0.0033636554,0.7070959,0.7071016,0,1353.841,8.411,-0.00071,0,0
231.10834,2000,0,91.24,0.000002697398,0.000002697398,0.000002697398,0.99999994,0,0,0,0,0,0,1,0,0,0,0,false,true,false,0,584.47,16.99,-0.0033582605,0.0033636554,0.7070959,0.7071016,0,1363.761,8.411,-0.00071,0,0
231.11667,2000,0,91.24,0.000002697398,0.000002697398,0.000002697398,0.99999994,0,0,0,0,0,0,1,0,0,0,0,false,true,false,0,595.89996,16.99,-0.0033582605,0.0033636554,0.7070959,0.7071016,0,1373.591,8.411,-0.00071,0,0
231.125,2000,0,91.24,0.000002697398,0.000002697398,0.000002697398,0.99999994,0,0,0,0,0,0,1,0,0,0,0,false,true,false,0,607.42,16.99,-0.0033582605,0.0033636554,0.7070959,0.7071016,0,1383.341,8.411,-0.00071,0,0
231.13333,2000,0,91.24,0.000002697398,0.000002697398,0.000002697398,0.99999994,0,0,0,0,0,0,1,0,0,0,0,false,true,false,0,619.01996,16.99,-0.0033582605,0.0033636554,0.7070959,0.7071016,0,1393.011,8.411,-0.00071,0,0
231.14166,2000,0,91.24,0.000002697398,0.000002697398,0.000002697398,0.99999994,0,0,0,0,0,0,1,0,0,0,0,false,true,false,0,630.7,16.99,-0.0033582605,0.0033636554,0.7070959,0.7071016,0,1402.4409,8.411,-0.00071,0,0
231.15,2000,0,91.24,0.000002697398,0.000002697398,0.000002697398,0.99999994,0,0,0,0,0,0,1,0,0,0,0,false,true,false,0,642.45996,16.99,-0.0033582605,0.0033636554,0.7070959,0.7071016,0,1410.7009,8.411,-0.00081,0,0
231.15834,2000,0,91.24,0.000002697398,0.000002697398,0.000002697398,0.99999994,0,0,0,0,0,0,1,0,0,0,0,false,true,false,0,654.27997,16.99,-0.0033582605,0.0033636554,0.7070959,0.7071016,0,1418.9609,8.411,-0.00091,0,0
231.16667,2000,0,91.24,0.000002697398,0.000002697398,0.000002697398,0.99999994,0,0,0,0,0,0,1,0,0,0,0,false,true,false,0,666.17,16.99,-0.0033582605,0.00336905,0.7070959,0.7071016,0,1427.221,8.411,-0.00091,0,0
231.175,2000,0,91.24,0.000002697398,0.000002697398,0.000002697398,0.99999994,0,0,0,0,0,0,1,0,0,0,0,false,true,false,0,678.13,16.99,-0.0033582605,0.003374445,0.7070959,0.7071015,0,1435.481,8.411,-0.00091,0,0
231.18333,2000,0,91.24,0.000002697398,0.000002697398,0.000002697398,0.99999994,0,0,0,0,0,0,1,0,0,0,0,false,true,false,0,690.16,16.99,-0.0033582605,0.0033798397,0.7070959,0.70710146,0,1443.741,8.411,-0.00081,0,0
231.19167,2000,0,91.24,0.000002697398,0.000002697398,0.000002697398,0.99999994,0,0,0,0,0,0,1,0,0,0,0,false,true,false,0,702.26,16.99,-0.0033582605,0.0033798397,0.7070959,0.70710146,0,1452.001,8.411,-0.00071,-0.00010999999,0
231.2,2000,0,91.24,0.000002697398,0.000002697398,0.000002697398,0.99999994,0,0,0,0,0,0,1,0,0,0,0,false,true,false,0,714.43,16.99,-0.0033582605,0.0033798397,0.7070959,0.70710146,0,1460.261,8.411,-0.00071,-0.00010999999,0
231.20833,2000,0,91.24,0.000002697398,0.000002697398,0.000002697398,0.99999994,0,0,0,0,0,0,1,0,0,0,0,false,true,false,0,726.67,16.99,-0.0033582605,0.0033798397,0.7070959,0.70710146,0,1468.521,8.411,-0.00071,-0.00010999999,0
231.21666,2000,0,91.24,0.000002697398,0.000002697398,0.000002697398,0.99999994,0,0,0,0,0,0,1,0,0,0,0,false,true,false,0,738.98,16.99,-0.0033582605,0.0033798397,0.7070959,0.70710146,0,1476.7809,8.411,-0.00071,-0.00010999999,0
231.225,2000,0,91.24,0.000002697398,0.000002697398,0.000002697398,0.99999994,0,0,0,0,0,0,1,0,0,0,0,false,true,false,0,751.36,16.99,-0.0033582605,0.0033798397,0.7070959,0.70710146,0,1485.0409,8.411,-0.00071,-0.00010999999,0
231.23334,2000,0,91.24,0.000002697398,0.000002697398,0.000002697398,0.99999994,0,0,0,0,0,0,1,0,0,0,0,false,true,false,0,763.8,16.99,-0.0033582605,0.0033798397,0.7070959,0.70710146,0,1493.3009,8.411,-0.00071,-0.00010999999,0
231.24167,2000,0,91.24,0.000002697398,0.000002697398,0.000002697398,0.99999994,0,0,0,0,0,0,1,0,0,0,0,false,true,false,0,776.31,16.99,-0.0033582605,0.0033798397,0.7070959,0.70710146,0,1501.5609,8.411,-0.00071,-0.00010999999,0
231.25,2000,0,91.24,0.000002697398,0.000002697398,0.000002697398,0.99999994,0,0,0,0,0,0,1,0,0,0,0,false,true,false,0,788.88995,16.99,-0.0033582605,0.0033798397,0.7070959,0.70710146,0,1509.8209,8.411,-0.00071,-0.00010999999,0
231.25833,2000,0,91.24,0.000002697398,0.000002697398,0.000002697398,0.99999994,0,0,0,0,0,0,1,0,0,0,0,false,true,false,0,801.54,16.99,-0.0033582605,0.0033798397,0.7070959,0.70710146,0,1518.0809,8.411,-0.00071,-0.00010999999,0
231.26666,2000,0,91.24,0.000002697398,0.000002697398,0.000002697398,0.99999994,0,0,0,0,0,0,1,0,0,0,0,false,true,false,0,814.26,16.99,-0.0033582605,0.0033798397,0.7070959,0.70710146,0,1526.341,8.411,-0.00071,-0.00010999999,0
231.275,2000,0,91.24,0.000002697398,0.000002697398,0.000002697398,0.99999994,0,0,0,0,0,0,1,0,0,0,0,false,true,false,0,827.05,16.99,-0.0033582605,0.0033798397,0.7070959,0.70710146,0,1534.601,8.411,-0.00071,-0.00010999999,0
231.28334,2000,0,91.24,0.000002697398,0.000002697398,0.000002697398,0.99999994,0,0,0,0,0,0,1,0,0,0,0,false,true,false,0,839.91,16.99,-0.0033582605,0.0033798397,0.7070959,0.70710146,0,1542.861,8.411,-0.00071,-0.00010999999,0
231.29167,2000,0,91.24,0.000002697398,0.000002697398,0.000002697398,0.99999994,0,0,0,0,0,0,1,0,0,0,0,false,true,false,0,852.83997,16.99,-0.0033582605,0.0033798397,0.7070959,0.70710146,0,1551.121,8.411,-0.00071,-0.00010999999,0
231.3,2000,0,91.24,0.000002697398,0.000002697398,0.000002697398,0.99999994,0,0,0,0,0,0,1,0,0,0,0,false,true,false,0,865.82996,16.99,-0.0033582605,0.0033798397,0.7070959,0.70710146,0,1559.381,8.411,-0.00071,-0.00010999999,0
231.30833,2000,0,91.24,0.000002697398,0.000002697398,0.000002697398,0.99999994,0,0,0,0,0,0,1,0,0,0,0,false,true,false,0,878.88995,16.99,-0.0033582605,0.0033798397,0.7070959,0.70710146,0,1567.641,8.411,-0.00071,-0.00010999999,0
231.31667,2000,0,91.24,0.000002697398,0.000002697398,0.000002697398,0.99999994,0,0,0,0,0,0,1,0,0,0,0,false,true,false,0,892.01996,16.99,-0.0033582605,0.0033798397,0.7070959,0.70710146,0,1575.901,8.411,-0.00071,-0.00010999999,0
231.325,2000,0,91.24,0.000002697398,0.000002697398,0.000002697398,0.99999994,0,0,0,0,0,0,1,0,0,0,0,false,true,false,0,905.22,16.99,-0.0033582605,0.0033798397,0.7070959,0.70710146,0,1584.1609,8.411,-0.00071,-0.00010999999,0
231.33333,2000,0,91.24,0.000002697398,0.000002697398,0.000002697398,0.99999994,0,0,0,0,0,0,1,0,0,0,0,false,true,false,0,918.49,16.99,-0.0033582605,0.0033798397,0.7070959,0.70710146,0,1592.4209,8.411,-0.00071,-0.00010999999,0
231.34166,2000,0,91.24,0.000002697398,0.000002697398,0.000002697398,0.99999994,0,0,0,0,0,0,1,0,0,0,0,false,true,false,0,931.82996,16.99,-0.0033582605,0.0033798397,0.7070959,0.70710146,0,1600.6809,8.411,-0.00071,-0.00010999999,0
231.35,2000,0,91.24,0.000002697398,0.000002697398,0.000002697398,0.99999994,0,0,0,0,0,0,1,0,0,0,0,false,true,false,0,945.24,16.99,-0.0033582605,0.0033798397,0.7070959,0.70710146,0,1608.9409,8.411,-0.00071,-0.00010999999,0
231.35834,2000,0,91.24,0.000002697398,0.000002697398,0.000002697398,0.99999994,0,0,0,0,0,0,1,0,0,0,0,false,true,false,0,958.72,16.99,-0.0033582605,0.0033798397,0.7070959,0.70710146,0,1617.2009,8.411,-0.00071,-0.00010999999,0
231.36667,2000,0,91.24,0.000002697398,0.000002697398,0.000002697398,0.99999994,0,0,0,0,0,0,1,0,0,0,0,false,true,false,0,972.26996,16.99,-0.0033582605,0.0033798397,0.7070959,0.70710146,0,1625.4609,8.411,-0.00071,-0.00010999999,0
231.375,2000,0,91.24,0.000002697398,0.000002697398,0.000002697398,0.99999994,0,0,0,0,0,0,1,0,0,0,0,false,true,false,0,985.88,16.99,-0.0033582605,0.0033798397,0.7070959,0.70710146,0,1633.721,8.411,-0.00071,-0.00010999999,0
231.38333,2000,0,91.24,0.000002697398,0.000002697398,0.000002697398,0.99999994,0,0,0,0,0,0,1,0,0,0,0,false,true,false,0,999.56,16.99,-0.0033582605,0.0033798397,0.7070959,0.70710146,0,1641.981,8.411,-0.00071,-0.00010999999,0
231.39166,2000,0,91.24,0.000002697398,0.000002697398,0.000002697398,0.99999994,0,0,0,0,0,0,1,0,0,0,0,false,true,false,0,1013.31,16.99,-0.0033582605,0.0033798397,0.7070959,0.70710146,0,1650.241,8.411,-0.00071,-0.00010999999,0
231.4,2000,0,91.24,0.000002697398,0.000002697398,0.000002697398,0.99999994,0,0,0,0,0,0,1,0,0,0,0,false,true,false,0,1027.13,16.99,-0.0033582605,0.0033798397,0.7070959,0.70710146,0,1658.501,8.411,-0.00071,-0.00010999999,0
231.40834,2000,0,91.24,0.000002697398,0.000002697398,0.000002697398,0.99999994,0,0,0,0,0,0,1,0,0,0,0,false,true,false,0,1041.02,16.99,-0.0033582605,0.0033798397,0.7070959,0.70710146,0,1666.761,8.411,-0.00071,-0.00010999999,0
231.41667,2000,0,91.24,0.000002697398,0.000002697398,0.000002697398,0.99999994,0,0,0,0,0,0,1,0,0,0,0,false,true,false,0,1054.98,16.99,-0.0033582605,0.0033798397,0.7070959,0.70710146,0,1675.021,8.411,-0.00071,-0.00010999999,0
231.425,2000,0,91.24,0.000002697398,0.000002697398,0.000002697398,0.99999994,0,0,0,0,0,0,1,0,0,0,0,false,true,false,0,1069.01,16.99,-0.0033582605,0.0033798397,0.7070959,0.70710146,0,1683.2809,8.411,-0.00071,-0.00010999999,0
231.43333,2000,0,91.24,0.000002697398,0.000002697398,0.000002697398,0.99999994,0,0,0,0,0,0,1,0,0,0,0,false,true,false,0,1083.11,16.99,-0.0033582605,0.0033798397,0.7070959,0.70710146,0,1691.5409,8.411,-0.00071,-0.00010999999,0
231.44167,2000,0,91.24,0.000002697398,0.000002697398,0.000002697398,0.99999994,0,0,0,0,0,0,1,0,0,0,0,false,true,false,0,1097.28,16.99,-0.0033582605,0.0033798397,0.7070959,0.70710146,0,1699.8009,8.411,-0.00071,-0.00010999999,0
231.45,2000,0,91.24,0.000002697398,0.000002697398,0.000002697398,0.99999994,0,0,0,0,0,0,1,0,0,0,0,false,true,false,0,1111.51,16.99,-0.0033582605,0.0033798397,0.7070959,0.70710146,0,1708.0609,8.411,-0.00071,-0.00010999999,0
231.45833,2000,0,91.24,0.000002697398,0.000002697398,0.000002697398,0.99999994,0,0,0,0,0,0,1,0,0,0,0,false,true,false,0,1125.8099,16.99,-0.0033582605,0.0033798397,0.7070959,0.70710146,0,1716.3209,8.411,-0.00071,-0.00010999999,0
231.46666,2000,0,91.24,0.000002697398,0.000002697398,0.000002697398,0.99999994,0,0,0,0,0,0,1,0,0,0,0,false,true,false,0,1140.1799,16.99,-0.0033582605,0.0033798397,0.7070959,0.70710146,0,1724.5809,8.411,-0.00071,-0.00010999999,0
231.475,2000,0,91.24,0.000002697398,0.000002697398,0.000002697398,0.99999994,0,0,0,0,0,0,1,0,0,0,0,false,true,false,0,1154.62,16.99,-0.0033582605,0.0033798397,0.7070959,0.70710146,0,1732.841,8.411,-0.00071,-0.00010999999,0
231.48334,2000,0,91.24,0.000002697398,0.000002697398,0.000002697398,0.99999994,0,0,0,0,0,0,1,0,0,0,0,false,true,false,0,1169.13,16.99,-0.0033582605,0.0033798397,0.7070959,0.70710146,0,1741.101,8.411,-0.00071,-0.00010999999,0
231.49167,2000,0,91.24,0.000002697398,0.000002697398,0.000002697398,0.99999994,0,0,0,0,0,0,1,0,0,0,0,false,true,false,0,1183.71,16.99,-0.0033582605,0.0033798397,0.7070959,0.70710146,0,1749.361,8.411,-0.00071,-0.00010999999,0
231.5,2000,0,91.24,0.000002697398,0.000002697398,0.000002697398,0.99999994,0,0,0,0,0,0,1,0,0,0,0,false,true,false,0,1198.36,16.99,-0.0033582605,0.0033798397,0.7070959,0.70710146,0,1757.621,8.411,-0.00071,-0.00010999999,0
231.50833,2000,0,91.24,0.000002697398,0.000002697398,0.000002697398,0.99999994,0,0,0,0,0,0,1,0,0,0,0,false,true,false,0,1213.08,16.99,-0.0033582605,0.0033798397,0.7070959,0.70710146,0,1765.881,8.411,-0.00071,-0.00010999999,0
231.51666,2000,0,91.24,0.000002697398,0.000002697398,0.000002697398,0.99999994,0,0,0,0,0,0,1,0,0,0,0,false,true,false,0,1227.86,16.99,-0.0033582605,0.0033798397,0.7070959,0.70710146,0,1774.141,8.411,-0.00071,-0.00010999999,0
231.525,2000,0,91.24,0.000002697398,0.000002697398,0.000002697398,0.99999994,0,0,0,0,0,0,1,0,0,0,0,false,true,false,0,1242.71,16.99,-0.0033582605,0.0033798397,0.7070959,0.70710146,0,1782.4009,8.411,-0.00071,-0.00010999999,0
231.53334,2000,0,91.24,0.000002697398,0.000002697398,0.000002697398,0.99999994,0,0,0,0,0,0,1,0,0,0,0,false,true,false,0,1257.63,16.99,-0.0033582605,0.0033798397,0.7070959,0.70710146,0,1790.6609,8.411,-0.00071,-0.00010999999,0
231.54167,2000,0,91.24,0.000002697398,0.000002697398,0.000002697398,0.99999994,0,0,0,0,0,0,1,0,0,0,0,false,true,false,0,1272.62,16.99,-0.0033582605,0.0033798397,0.7070959,0.70710146,0,1798.9209,8.411,-0.00071,-0.00010999999,0
231.55,2000,0,91.24,0.000002697398,0.000002697398,0.000002697398,0.99999994,0,0,0,0,0,0,1,0,0,0,0,false,true,false,0,1287.6799,16.99,-0.0033582605,0.0033798397,0.7070959,0.70710146,0,1807.1809,8.411,-0.00071,-0.00010999999,0
231.55833,2000,0,91.24,0.000002697398,0.000002697398,0.000002697398,0.99999994,0,0,0,0,0,0,1,1,0,0,0,false,false,true,0,1302.74,16.99,-0.0033582605,0.0033798397,0.7070959,0.70710146,-10.911,1806.221,8.471001,-0.00071,0.00271,0.30401
231.56667,2000,0,91.24,0.000002697398,0.000002697398,0.000002697398,0.99999994,0,0,0,0,0,0,1,1,0,0,0,false,false,true,-0.089999996,1317.7899,16.99,-0.0033582605,0.0033852346,0.70799047,0.7062058,-20.370998,1805.351,8.501,-0.00071,0.00381,0.55081
231.575,2000,0,91.24,0.000002697398,0.000002697398,0.000002697398,0.99999994,0,0,0,0,0,0,1,1,0,0,0,false,false,true,-0.26,1332.83,16.99,-0.0033582605,0.0033906293,0.70961183,0.70457655,-29.810999,1804.4509,8.521,-0.00061,0.00421,0.76851
231.58333,2000,0,91.24,0.000002697398,0.000002697398,0.000002697398,0.99999994,0,0,0,0,0,0,1,1,0,0,0,false,false,true,-0.51,1347.87,16.99,-0.0033582605,0.0033960242,0.711865,0.70229995,-39.641,1803.481,8.531,-0.00051,0.00401,0.96251
231.59166,2000,0,91.24,0.000002697398,0.000002697398,0.000002697398,0.99999994,0,0,0,0,0,0,1,1,0,0,0,false,false,true,-0.84,1362.9,16.99,-0.0033636554,0.0033960242,0.71467453,0.6994407,-50.121,1802.391,8.541,-0.00051,0.00361,1.13701
231.6,2000,0,91.24,0.000002697398,0.000002697398,0.000002697398,0.99999994,0,0,0,0,0,0,1,1,0,0,0,false,false,true,-1.26,1377.9199,16.99,-0.00336905,0.0033906293,0.7179799,0.6960473,-61.371,1801.141,8.551001,-0.00040999998,0.00311,1.29541
231.60834,2000,0,91.24,0.000002697398,0.000002697398,0.000002697398,0.99999994,0,0,0,0,0,0,1,1,0,0,0,false,false,true,-1.77,1392.9299,16.99,-0.0033798397,0.0033852346,0.7217252,0.69216305,-73.440994,1799.6909,8.561,-0.00040999998,0.00251,1.44031
231.61667,2000,0,91.24,0.000002697398,0.000002697398,0.000002697398,0.99999994,0,0,0,0,0,0,1,1,0,0,0,false,false,true,-2.3799999,1407.9299,16.99,-0.0033960238,0.0033744446,0.7258651,0.6878202,-86.321,1798.001,8.561,-0.00030999997,0.0019099999,1.57381
231.625,2000,0,91.24,0.000002697398,0.000002697398,0.000002697398,0.99999994,0,0,0,0,0,0,1,1,0,0,0,false,false,true,-3.1,1422.9099,16.99,-0.0034122085,0.0033582605,0.73035973,0.6830458,-99.961,1796.0409,8.561,-0.00021,0.00131,1.69751
231.63333,2000,0,91.24,0.000002697398,0.000002697398,0.000002697398,0.99999994,0,0,0,0,0,0,1,1,0,0,0,false,false,true,-3.9299998,1437.88,16.99,-0.0034337877,0.0033366815,0.73517394,0.67786145,-114.260994,1793.771,8.561,-0.00021,0.00081,1.8126099
231.64166,2000,0,91.24,0.000002697398,0.000002697398,0.000002697398,0.99999994,0,0,0,0,0,0,1,1,0,0,0,false,false,true,-4.88,1452.83,16.99,-0.003455367,0.0033151023,0.74027365,0.67228854,-129.11101,1791.1809,8.571,-0.00021,0.00040999998,1.92001
231.65,2000,0,91.24,0.000002697398,0.000002697398,0.000002697398,0.99999994,0,0,0,0,0,0,1,1,0,0,0,false,false,true,-5.96,1467.76,16.99,-0.0034823408,0.0032881282,0.7456295,0.66634345,-144.381,1788.251,8.571,-0.00010999999,0.00010999999,2.02051
231.65834,2000,0,91.24,0.000002697398,0.000002697398,0.000002697398,0.99999994,0,0,0,0,0,0,1,1,0,0,0,false,false,true,-7.16,1482.6599,16.99,-0.003509315,0.0032611543,0.751213,0.66004235,-159.931,1784.981,8.571,-0.00010999999,-0.00010999999,2.11451
231.66667,2000,0,91.24,0.000002697398,0.000002697398,0.000002697398,0.99999994,0,0,0,0,0,0,1,1,0,0,0,false,false,true,-8.49,1497.5299,16.99,-0.0035362889,0.0032287855,0.7570011,0.65339595,-175.591,1781.371,8.571,0,-0.00030999997,2.20241
231.675,2000,0,91.24,0.000002697398,0.000002697398,0.000002697398,0.99999994,0,0,0,0,0,0,1,1,0,0,0,false,false,true,-9.95,1512.37,16.99,-0.0035686577,0.0031964167,0.7629663,0.6464204,-191.19101,1777.4509,8.571,0,-0.00051,2.28441
231.68333,2000,0,91.24,0.000002697398,0.000002697398,0.000002697398,0.99999994,0,0,0,0,0,0,1,1,0,0,0,false,false,true,-11.54,1527.1799,16.99,-0.0036010265,0.0031586532,0.76908654,0.6391266,-206.561,1773.251,8.571,0,-0.00061,2.3605099
231.69167,2000,0,91.24,0.000002697398,0.000002697398,0.000002697398,0.99999994,0,0,0,0,0,0,1,1,0,0,0,false,false,true,-13.259999,1541.96,16.99,-0.0036333948,0.0031208894,0.7753359,0.6315307,-221.511,1768.8209,8.571,0,-0.00071,2.4307098
231.7,2000,0,91.24,0.000002697398,0.000002697398,0.000002697398,0.99999994,0,0,0,0,0,0,1,1,0,0,0,false,false,true,-15.11,1556.7,16.99,-0.0036657634,0.0030831257,0.7816941,0.6236434,-235.841,1764.221,8.571,0,-0.00081,2.49501
231.70833,2000,0,91.24,0.000002697398,0.000002697398,0.000002697398,0.99999994,0,0,0,0,0,0,1,1,0,0,0,false,false,true,-17.08,1571.4,16.99,-0.003698133,0.0030453627,0.78813696,0.6154812,-249.351,1759.5409,8.571,0,-0.00091,2.55311
231.71666,2000,0,91.24,0.000002697398,0.000002697398,0.000002697398,0.99999994,0,0,0,0,0,0,1,1,0,0,0,false,false,true,-19.16,1586.0599,16.99,-0.0037358967,0.0030022042,0.7946417,0.60705984,-261.821,1754.891,8.571,0,-0.00111,2.60481
231.725,2000,0,91.24,0.000002697398,0.000002697398,0.000002697398,0.99999994,0,0,0,0,0,0,1,1,0,0,0,false,false,true,-21.34,1600.6799,16.99,-0.00377366,0.0029590456,0.8011822,0.5984011,-273.051,1750.4009,8.571,0.00010999999,-0.0012099999,2.64991
231.73334,2000,0,91.24,0.000002697398,0.000002697398,0.000002697398,0.99999994,0,0,0,0,0,0,1,1,0,0,0,false,false,true,-23.619999,1615.27,16.99,-0.0038114237,0.0029158876,0.8077424,0.589516,-282.811,1746.2109,8.571,0.00021,-0.0012099999,2.6879098
231.74167,2000,0,91.24,0.000002697398,0.000002697398,0.000002697398,0.99999994,0,0,0,0,0,0,1,1,0,0,0,false,false,true,-25.98,1629.82,16.99,-0.0038491872,0.002867334,0.8142952,0.580431,-290.891,1742.511,8.571,0.00030999997,-0.00131,2.71851
231.75,2000,0,91.24,0.000002697398,0.000002697398,0.000002697398,0.99999994,0,0,0,0,0,0,1,1,0,0,0,false,false,true,-28.4,1644.34,16.99,-0.0038869507,0.002818781,0.82081896,0.5711681,-297.061,1739.491,8.561,0.00040999998,-0.00131,2.74131
231.75833,2000,0,91.24,0.000002697398,0.000002697398,0.000002697398,0.99999994,0,0,0,0,0,0,1,1,0,0,0,false,false,true,-30.88,1658.84,16.99,-0.003924714,0.0027702278,0.82729024,0.5617541,-303.491,1736.1709,8.561,0.00051,-0.00131,2.76331
231.76666,2000,0,91.24,0.000002697398,0.000002697398,0.000002697398,0.99999994,0,0,0,0,0,0,1,1,0,0,0,false,false,true,-33.41,1673.3099,16.99,-0.003957083,0.0027216745,0.8337049,0.5521892,-310.161,1732.5309,8.561,0.00051,-0.0012099999,2.78491
231.775,2000,0,91.24,0.000002697398,0.000002697398,0.000002697398,0.99999994,0,0,0,0,0,0,1,1,0,0,0,false,false,true,-35.989998,1687.75,16.99,-0.0039894516,0.0026731214,0.8400559,0.5424785,-317.051,1728.5709,8.561,0.00051,-0.00111,2.80601
231.78334,2000,0,91.24,0.000002697398,0.000002697398,0.000002697398,0.99999994,0,0,0,0,0,0,1,1,0,0,0,false,false,true,-38.629997,1702.1499,16.99,-0.00402182,0.0026245683,0.8463394,0.53262216,-324.131,1724.271,8.561,0.00051,-0.0010099999,2.8266098
231.79167,2000,0,91.24,0.000002697398,0.000002697398,0.000002697398,0.99999994,0,0,0,0,0,0,1,1,0,0,0,false,false,true,-41.329998,1716.52,16.99,-0.004054189,0.0025706203,0.852552,0.5226202,-331.381,1719.631,8.561,0.00051,-0.0010099999,2.84671
231.8,2000,0,91.24,0.000002697398,0.000002697398,0.000002697398,0.99999994,0,0,0,0,0,0,1,1,0,0,0,false,false,true,-44.09,1730.85,16.99,-0.004086558,0.0025166722,0.85869014,0.5124725,-338.771,1714.6509,8.561,0.00051,-0.00091,2.86621
231.80833,2000,0,91.24,0.000002697398,0.000002697398,0.000002697398,0.99999994,0,0,0,0,0,0,1,1,0,0,0,false,false,true,-46.91,1745.14,16.99,-0.0041189273,0.0024627247,0.8647502,0.50217927,-346.281,1709.3309,8.561,0.00051,-0.00081,2.88521
231.81667,2000,0,91.24,0.000002697398,0.000002697398,0.000002697398,0.99999994,0,0,0,0,0,0,1,1,0,0,0,false,false,true,-49.8,1759.38,16.99,-0.0041512954,0.0024087764,0.87072563,0.49174562,-353.891,1703.6609,8.561,0.00040999998,-0.00071,2.90371
231.825,2000,0,91.24,0.000002697398,0.000002697398,0.000002697398,0.99999994,0,0,0,0,0,0,1,1,0,0,0,false,false,true,-52.75,1773.58,16.99,-0.0041836645,0.0023548284,0.8766101,0.4811772,-361.57098,1697.641,8.561,0.00040999998,-0.00061,2.9216099
231.83333,2000,0,91.24,0.000002697398,0.000002697398,0.000002697398,0.99999994,0,0,0,0,0,0,1,1,0,0,0,false,false,true,-55.76,1787.73,16.99,-0.004216033,0.0023008804,0.8824037,0.47046846,-369.291,1691.271,8.561,0.00040999998,-0.00051,2.93891
231.84166,2000,0,91.24,0.000002697398,0.000002697398,0.000002697398,0.99999994,0,0,0,0,0,0,1,1,0,0,0,false,false,true,-58.84,1801.82,16.99,-0.004243007,0.0022469326,0.8880973,0.4596303,-377.041,1684.5509,8.561,0.00040999998,-0.00040999998,2.95561
231.85,2000,0,91.24,0.000002697398,0.000002697398,0.000002697398,0.99999994,0,0,0,0,0,0,1,1,0,0,0,false,false,true,-61.98,1815.86,16.99,-0.004269981,0.0021929846,0.89369094,0.4486572,-384.781,1677.481,8.561,0.00040999998,-0.00040999998,2.9716098
231.85834,2000,0,91.24,0.000002697398,0.000002697398,0.000002697398,0.99999994,0,0,0,0,0,0,1,1,0,0,0,false,false,true,-65.189995,1829.84,16.99,-0.0042969557,0.0021390368,0.8991763,0.43756014,-392.501,1670.0709,8.561,0.00040999998,-0.00040999998,2.98701
231.86667,2000,0,91.24,0.000002697398,0.000002697398,0.000002697398,0.99999994,0,0,0,0,0,0,1,1,0,0,0,false,false,true,-68.46,1843.76,16.99,-0.004323929,0.0020850885,0.90455323,0.42633346,-400.171,1662.3309,8.561,0.00040999998,-0.00040999998,3.00161
231.875,2000,0,91.24,0.000002697398,0.000002697398,0.000002697398,0.99999994,0,0,0,0,0,0,1,1,0,0,0,false,false,true,-71.79,1857.61,16.99,-0.004350903,0.0020311407,0.90981406,0.4149882,-407.761,1654.261,8.561,0.00040999998,-0.00040999998,3.0155098
231.88333,2000,0,91.24,0.000002697398,0.000002697398,0.000002697398,0.99999994,0,0,0,0,0,0,1,1,0,0,0,false,false,true,-75.189995,1871.3999,16.99,-0.004377877,0.0019717978,0.91495633,0.40352416,-415.261,1645.871,8.561,0.00040999998,-0.00030999997,3.02861
231.89166,2000,0,91.24,0.000002697398,0.000002697398,0.000002697398,0.99999994,0,0,0,0,0,0,1,1,0,0,0,false,false,true,-78.65,1885.12,16.99,-0.004404851,0.0019124552,0.9199752,0.39194694,-422.641,1637.1709,8.561,0.00040999998,-0.00030999997,3.04091
231.9,2000,0,91.24,0.000002697398,0.000002697398,0.000002697398,0.99999994,0,0,0,0,0,0,1,1,0,0,0,false,false,true,-82.17,1898.76,16.99,-0.0044318247,0.0018531125,0.9248664,0.38026172,-429.881,1628.1709,8.561,0.00030999997,-0.00021,3.05241
231.90834,2000,0,91.24,0.000002697398,0.000002697398,0.000002697398,0.99999994,0,0,0,0,0,0,1,1,0,0,0,false,false,true,-85.75,1912.33,16.99,-0.0044534043,0.0017937699,0.9296277,0.36846873,-436.961,1618.881,8.561,0.00030999997,-0.00010999999,3.06301
231.91667,2000,0,91.24,0.000002697398,0.000002697398,0.000002697398,0.99999994,0,0,0,0,0,0,1,1,0,0,0,false,false,true,-89.39,1925.82,16.99,-0.004474983,0.001734427,0.93425506,0.3565731,-444.271,1609.601,8.561,0.00030999997,-0.00010999999,3.0743098
231.925,2000,0,91.24,0.000002697398,0.000002697398,0.000002697398,0.99999994,0,0,0,0,0,0,1,1,0,0,0,false,false,true,-93.09,1939.23,16.99,-0.0044965623,0.0016750842,0.93874645,0.34457508,-451.82098,1600.3309,8.561,0.00030999997,0,3.08641
231.93333,2000,0,91.24,0.000002697398,0.000002697398,0.000002697398,0.99999994,0,0,0,0,0,0,1,1,0,0,0,false,false,true,-96.86,1952.57,16.99,-0.004518141,0.0016157413,0.9430999,0.3324744,-459.301,1590.871,8.561,0.00021,0,3.0980098
231.94167,2000,0,91.24,0.000002697398,0.000002697398,0.000002697398,0.99999994,0,0,0,0,0,0,1,1,0,0,0,false,false,true,-100.689995,1965.83,16.99,-0.004539721,0.0015563988,0.94731367,0.32027137,-466.701,1581.231,8.561,0.00021,0,3.1091099
231.95,2000,0,91.24,0.000002697398,0.000002697398,0.000002697398,0.99999994,0,0,0,0,0,0,1,1,0,0,0,false,false,true,-104.579994,1979.01,16.99,-0.0045613,0.0014970559,0.9513835,0.3079712,-474.011,1571.4209,8.561,0.00021,0,3.11971
231.95833,2000,0,91.24,0.000002697398,0.000002697398,0.000002697398,0.99999994,0,0,0,0,0,0,1,1,0,0,0,false,false,true,-108.53,1992.11,16.99,-0.004577485,0.0014377133,0.9553061,0.2955793,-481.221,1561.4509,8.561,0.00021,0,3.1298099
231.96666,2000,0,91.24,0.000002697398,0.000002697398,0.000002697398,0.99999994,0,0,0,0,0,0,1,1,0,0,0,false,false,true,-112.54,2005.12,16.99,-0.0045936694,0.0013783706,0.9590796,0.28309575,-488.331,1551.3309,8.561,0.00021,0,3.13941
231.975,2000,0,91.24,0.000002697398,0.000002697398,0.000002697398,0.99999994,0,0,0,0,0,0,1,1,0,0,0,false,false,true,-116.61,2018.0499,16.99,-0.004609853,0.0013190276,0.9627007,0.27052575,-495.331,1541.0809,8.561,0.00021,0,3.1484098
231.98334,2000,0,91.24,0.000002697398,0.000002697398,0.000002697398,0.99999994,0,0,0,0,0,0,1,1,0,0,0,false,false,true,-120.74,2030.89,16.99,-0.0046260376,0.0012596849,0.9661663,0.25787497,-502.221,1530.7109,8.561,0.00021,0,3.15691
231.99167,2000,0,91.24,0.000002697398,0.000002697398,0.000002697398,0.99999994,0,0,0,0,0,0,1,1,0,0,0,false,false,true,-124.93,2043.6499,16.99,-0.004642222,0.0012003421,0.969475,0.24514316,-508.991,1520.231,8.561,0.00021,0,3.16481
232,2000,0,91.24,0.000002697398,0.000002697398,0.000002697398,0.99999994,0,0,0,0,0,0,1,1,0,0,0,false,false,true,-129.17,2056.32,16.99,-0.004658406,0.0011356046,0.9726237,0.23233591,-515.641,1509.651,8.561,0.00030999997,0,3.1721098
232.00833,2000,0,91.24,0.000002697398,0.000002697398,0.000002697398,0.99999994,0,0,0,0,0,0,1,1,0,0,0,false,false,true,-133.47,2068.9,16.99,-0.004674591,0.0010708671,0.97561,0.21945846,-522.18097,1498.981,8.561,0.00030999997,0,3.17881
232.01666,2000,0,91.24,0.000002697398,0.000002697398,0.000002697398,0.99999994,0,0,0,0,0,0,1,1,0,0,0,false,false,true,-137.81999,2081.39,16.99,-0.0046853805,0.0010061294,0.9784314,0.20651625,-528.60095,1488.241,8.561,0.00030999997,0.00010999999,3.1849098
232.025,2000,0,91.24,0.000002697398,0.000002697398,0.000002697398,0.99999994,0,0,0,0,0,0,1,1,0,0,0,false,false,true,-142.23,2093.79,16.99,-0.00469617,0.0009413919,0.9810856,0.1935148,-534.90094,1477.4409,8.561,0.00030999997,0.00010999999,3.19041
232.03334,2000,0,91.24,0.000002697398,0.000002697398,0.000002697398,0.99999994,0,0,0,0,0,0,1,1,0,0,0,false,false,true,-146.69,2106.0999,16.99,-0.0047069597,0.00087665435,0.9835717,0.18045391,-541.09094,1466.5809,8.561,0.00021,0.00010999999,3.19521
232.04167,2000,0,91.24,0.000002697398,0.000002697398,0.000002697398,0.99999994,0,0,0,0,0,0,1,1,0,0,0,false,false,true,-151.2,2118.32,16.99,-0.004717749,0.00081191683,0.9858868,0.16734456,-547.16095,1455.6909,8.561,0.00021,0.00010999999,3.19941
232.05,2000,0,91.24,0.000002697398,0.000002697398,0.000002697398,0.99999994,0,0,0,0,0,0,1,1,0,0,0,false,false,true,-155.76,2130.45,16.99,-0.004728538,0.0007471792,0.98803,0.15418655,-553.131,1444.771,8.561,0.00021,0.00010999999,3.20291
232.05833,2000,0,91.24,0.000002697398,0.000002697398,0.000002697398,0.99999994,0,0,0,0,0,0,1,1,0,0,0,false,false,true,-160.37,2142.49,16.99,-0.0047393283,0.0006824417,0.99,0.1409854,-558.99097,1433.8309,8.561,0.00010999999,0.00010999999,3.20571
232.06667,2000,0,91.24,0.000002697398,0.000002697398,0.000002697398,0.99999994,0,0,0,0,0,0,1,1,0,0,0,false,false,true,-165.03,2154.44,16.99,-0.0047501177,0.0006177041,0.9917945,0.12775198,-564.761,1422.881,8.561,0.00010999999,0.00021,3.20781
232.075,2000,0,91.24,0.000002697398,0.000002697398,0.000002697398,0.99999994,0,0,0,0,0,0,1,1,0,0,0,false,false,true,-169.73999,2166.3,16.99,-0.0047555123,0.00055296655,0.99341315,0.114486076,-570.43097,1411.9309,8.561,0.00010999999,0.00021,3.20921
232.08333,2000,0,91.24,0.000002697398,0.000002697398,0.000002697398,0.99999994,0,0,0,0,0,0,1,1,0,0,0,false,false,true,-174.48999,2178.07,16.99,-0.0047609075,0.00048822907,0.9948552,0.10119331,-576.02094,1400.991,8.561,0.00010999999,0.00021,3.20991
232.09166,2000,0,91.24,0.000002697398,0.000002697398,0.000002697398,0.99999994,0,0,0,0,0,0,1,1,0,0,0,false,false,true,-179.29,2189.74,16.99,-0.004766302,0.0004234915,0.9961196,0.08787887,-581.54095,1390.0709,8.561,0.00010999999,0.00021,3.20981
232.1,2000,0,91.24,0.000002697398,0.000002697398,0.000002697398,0.99999994,0,0,0,0,0,0,1,1,0,0,0,false,false,true,-184.14,2201.32,16.99,-0.0047716964,0.0003587539,0.9972058,0.07454824,-586.99097,1379.1809,8.561,0,0.00021,3.20901
232.10834,2000,0,91.24,0.000002697398,0.000002697398,0.000002697398,0.99999994,0,0,0,0,0,0,1,1,0,0,0,false,false,true,-189.03,2212.81,16.99,-0.004777092,0.00029401638,0.9981136,0.061206914,-592.381,1368.3209,8.561,0,0.00030999997,3.2074099
232.11667,2000,0,91.24,0.000002697398,0.000002697398,0.000002697398,0.99999994,0,0,0,0,0,0,1,1,0,0,0,false,false,true,-193.97,2224.21,16.99,-0.004777092,0.00022927884,0.9988423,0.0478655,-597.73096,1357.501,8.561,0,0.00030999997,3.20501
232.125,2000,0,91.24,0.000002697398,0.000002697398,0.000002697398,0.99999994,0,0,0,0,0,0,1,1,0,0,0,false,false,true,-198.95,2235.52,16.99,-0.004777092,0.00016454128,0.9993924,0.034524165,-603.04095,1346.721,8.561,0,0.00030999997,3.20181
232.13333,2000,0,91.24,0.000002697398,0.000002697398,0.000002697398,0.99999994,0,0,0,0,0,0,1,1,0,0,0,false,false,true,-203.98,2246.74,16.99,-0.004777092,0.00009980373,0.999764,0.021188146,-608.33093,1335.991,8.561,0,0.00030999997,3.19781
232.14166,2000,0,91.24,0.000002697398,0.000002697398,0.000002697398,0.99999994,0,0,0,0,0,0,1,1,0,0,0,false,false,true,-209.04999,2257.8699,16.99,-0.004777092,0.000035066172,0.99995756,0.0078683095,-613.60095,1325.3109,8.561,0,0.00030999997,3.19291
232.15,2000,0,91.24,0.000002697398,0.000002697398,0.000002697398,0.99999994,0,0,0,0,0,0,1,1,0,0,0,false,false,true,-214.15999,2268.91,16.99,-0.0047770925,-0.00002967138,0.9999738,-0.0054352577,-618.871,1314.6809,8.561,0,0.00030999997,3.18711
232.15834,2000,0,91.24,0.000002697398,0.000002697398,0.000002697398,0.99999994,0,0,0,0,0,0,1,1,0,0,0,false,false,true,-219.31999,2279.8699,16.99,-0.004777092,-0.00009440893,0.99981344,-0.018711934,-624.16095,1304.111,8.561,0,0.00030999997,3.18041
232.16667,2000,0,91.24,0.000002697398,0.000002697398,0.000002697398,0.99999994,0,0,0,0,0,0,1,1,0,0,0,false,false,true,-224.51999,2290.74,16.99,-0.004771697,-0.00015914648,0.9994776,-0.031961594,-629.47095,1293.591,8.561,0,0.00040999998,3.17271
232.175,2000,0,91.24,0.000002697398,0.000002697398,0.000002697398,0.99999994,0,0,0,0,0,0,1,1,0,0,0,false,false,true,-229.76999,2301.52,16.99,-0.004766302,-0.00022388404,0.9989677,-0.045173492,-634.821,1283.131,8.561,0,0.00040999998,3.16401
232.18333,2000,0,91.24,0.000002697398,0.000002697398,0.000002697398,0.99999994,0,0,0,0,0,0,1,1,0,0,0,false,false,true,-235.06,2312.21,16.99,-0.004760907,-0.00028862155,0.9982854,-0.05833683,-640.23096,1272.721,8.561,0,0.00040999998,3.15431
232.19167,2000,0,91.24,0.000002697398,0.000002697398,0.000002697398,0.99999994,0,0,0,0,0,0,1,1,0,0,0,false,false,true,-240.4,2322.82,16.99,-0.0047555123,-0.00035335912,0.99743253,-0.07145162,-645.65094,1262.3009,8.561,0,0.00040999998,3.1461098
232.2,2000,0,91.24,0.000002697398,0.000002697398,0.000002697398,0.99999994,0,0,0,0,0,0,1,1,0,0,0,false,false,true,-245.78,2333.3398,16.99,-0.004750118,-0.00041809672,0.99641055,-0.08451792,-651.02094,1251.8109,8.561,-0.00010999999,0.00040999998,3.14201
232.20833,2000,0,91.24,0.000002697398,0.000002697398,0.000002697398,0.99999994,0,0,0,0,0,0,1,1,0,0,0,false,false,true,-251.20999,2343.77,16.99,-0.004744723,-0.00047743946,0.9952184,-0.09755717,-656.36096,1241.261,8.561,-0.00021,0.00040999998,3.1419098
232.21666,2000,0,91.24,0.000002697398,0.000002697398,0.000002697398,0.99999994,0,0,0,0,0,0,1,1,0,0,0,false,false,true,-256.68,2354.1099,16.99,-0.0047339336,-0.0005367822,0.9938563,-0.110574864,-661.67096,1230.6609,8.561,-0.00030999997,0.00040999998,3.14571
232.225,2000,0,91.24,0.000002697398,0.000002697398,0.000002697398,0.99999994,0,0,0,0,0,0,1,1,0,0,0,false,false,true,-262.19,2364.3699,16.99,-0.004723144,-0.000596125,0.9923216,-0.123592556,-666.951,1220.001,8.561,-0.00030999997,0.00030999997,3.1533098
232.23334,2000,0,91.24,0.000002697398,0.000002697398,0.000002697398,0.99999994,0,0,0,0,0,0,1,1,0,0,0,false,false,true,-267.75,2374.54,16.99,-0.0047123544,-0.00065546774,0.9906119,-0.13662101,-672.141,1209.221,8.561,-0.00030999997,0.00021,3.16621
232.24167,2000,0,91.24,0.000002697398,0.000002697398,0.000002697398,0.99999994,0,0,0,0,0,0,1,1,0,0,0,false,false,true,-273.35,2384.6199,16.99,-0.004701565,-0.00071481057,0.9887236,-0.14967652,-677.15094,1198.261,8.561,-0.00040999998,0.00010999999,3.18611
232.25,2000,0,91.24,0.000002697398,0.000002697398,0.000002697398,0.99999994,0,0,0,0,0,0,1,1,0,0,0,false,false,true,-278.99,2394.6099,16.99,-0.004690775,-0.0007741532,0.98664904,-0.1627913,-681.99097,1187.131,8.561,-0.00051,0,3.21281
232.25833,2000,0,91.24,0.000002697398,0.000002697398,0.000002697398,0.99999994,0,0,0,0,0,0,1,1,0,0,0,false,false,true,-284.66998,2404.5,16.99,-0.0046799853,-0.000833496,0.9843819,-0.17598163,-686.65094,1175.851,8.561,-0.00061,0,3.24611
232.26666,2000,0,91.24,0.000002697398,0.000002697398,0.000002697398,0.99999994,0,0,0,0,0,0,1,1,0,0,0,false,false,true,-290.38998,2414.3,16.99,-0.0046691964,-0.0008928388,0.98191166,-0.18927985,-691.141,1164.4309,8.561,-0.00071,-0.00010999999,3.28601
232.275,2000,0,91.24,0.000002697398,0.000002697398,0.000002697398,0.99999994,0,0,0,0,0,0,1,1,0,0,0,false,false,true,-296.15,2424,16.99,-0.004658406,-0.0009521815,0.9792277,-0.20270753,-695.47095,1152.871,8.561,-0.00071,-0.00021,3.33231
232.28334,2000,0,91.24,0.000002697398,0.000002697398,0.000002697398,0.99999994,0,0,0,0,0,0,1,1,0,0,0,false,false,true,-301.94998,2433.6099,16.99,-0.0046476163,-0.0010115241,0.97631824,-0.21628629,-699.631,1141.2009,8.561,-0.00081,-0.00030999997,3.3849099
232.29167,2000,0,91.24,0.000002697398,0.000002697398,0.000002697398,0.99999994,0,0,0,0,0,0,1,1,0,0,0,false,false,true,-307.78,2443.1199,16.99,-0.004631432,-0.0010708668,0.97317123,-0.23003227,-703.641,1129.4209,8.561,-0.00081,-0.00030999997,3.4437099
232.3,2000,0,91.24,0.000002697398,0.000002697398,0.000002697398,0.99999994,0,0,0,0,0,0,1,1,0,0,0,false,false,true,-313.63998,2452.53,16.99,-0.0046152486,-0.0011356047,0.9697705,-0.24397251,-707.49097,1117.5409,8.561,-0.00081,-0.00040999998,3.50871
232.30833,2000,0,91.24,0.000002697398,0.000002697398,0.000002697398,0.99999994,0,0,0,0,0,0,1,1,0,0,0,false,false,true,-319.53998,2461.8398,16.99,-0.0045990637,-0.0012003421,0.9661003,-0.25812307,-711.17096,1105.531,8.561,-0.00081,-0.00051,3.5792098
232.31667,2000,0,91.24,0.000002697398,0.000002697398,0.000002697398,0.99999994,0,0,0,0,0,0,1,1,0,0,0,false,false,true,-325.47,2471.05,16.99,-0.004582879,-0.0012650797,0.9621439,-0.27250028,-714.53094,1093.261,8.561,-0.00081,-0.00061,3.65221
232.325,2000,0,91.24,0.000002697398,0.000002697398,0.000002697398,0.99999994,0,0,0,0,0,0,1,1,0,0,0,false,false,true,-331.41998,2480.16,16.99,-0.0045666946,-0.0013298172,0.9578859,-0.28710943,-717.53094,1080.7909,8.561,-0.00081,-0.00061,3.72731
232.33333,2000,0,91.24,0.000002697398,0.000002697398,0.000002697398,0.99999994,0,0,0,0,0,0,1,1,0,0,0,false,false,true,-337.4,2489.17,16.99,-0.004545116,-0.0013945549,0.9533117,-0.3019506,-719.951,1068.411,8.561,-0.00071,-0.00061,3.80191
232.34166,2000,0,91.24,0.000002697398,0.000002697398,0.000002697398,0.99999994,0,0,0,0,0,0,1,1,0,0,0,false,false,true,-343.4,2498.0698,16.99,-0.0045235367,-0.0014646873,0.94840926,-0.31701297,-721.821,1056.151,8.561,-0.00051,-0.00061,3.87571
232.35,2000,0,91.24,0.000002697398,0.000002697398,0.000002697398,0.99999994,0,0,0,0,0,0,1,1,0,0,0,false,false,true,-349.41998,2506.8699,16.99,-0.0045019574,-0.0015348195,0.94316673,-0.33228564,-723.15094,1044.0509,8.561,-0.00040999998,-0.00061,3.94871
232.35834,2000,0,91.24,0.000002697398,0.000002697398,0.000002697398,0.99999994,0,0,0,0,0,0,1,1,0,0,0,false,false,true,-355.44998,2515.5698,16.99,-0.0044803782,-0.0016049518,0.9375722,-0.34775797,-723.96094,1032.141,8.561,-0.00030999997,-0.00051,4.02111
232.36667,2000,0,91.24,0.000002697398,0.000002697398,0.000002697398,0.99999994,0,0,0,0,0,0,1,1,0,0,0,false,false,true,-361.47998,2524.17,16.99,-0.004453404,-0.001680479,0.9316135,-0.36341915,-724.27094,1020.4509,8.561,-0.00021,-0.00040999998,4.09271
232.375,2000,0,91.24,0.000002697398,0.000002697398,0.000002697398,0.99999994,0,0,0,0,0,0,1,1,0,0,0,false,false,true,-367.52,2532.67,16.99,-0.0044264304,-0.0017560063,0.92528075,-0.37925294,-723.8909,1008.881,8.561,-0.00010999999,-0.00030999997,4.15831
232.38333,2000,0,91.24,0.000002697398,0.000002697398,0.000002697398,0.99999994,0,0,0,0,0,0,1,1,0,0,0,false,false,true,-373.55,2541.0798,16.99,-0.0043940614,-0.0018315333,0.9185711,-0.395227,-722.84094,997.47095,8.561,0,-0.00021,4.21791
232.39166,2000,0,91.24,0.000002697398,0.000002697398,0.000002697398,0.99999994,0,0,0,0,0,0,1,1,0,0,0,false,false,true,-379.56998,2549.39,16.99,-0.0043616924,-0.0019070605,0.9114835,-0.4113089,-721.131,986.2609,8.561,0.00010999999,-0.00010999999,4.27161
232.4,2000,0,91.24,0.000002697398,0.000002697398,0.000002697398,0.99999994,0,0,0,0,0,0,1,1,0,0,0,false,false,true,-385.58,2557.6099,16.99,-0.004329324,-0.0019825874,0.90401864,-0.42746636,-718.80096,975.30096,8.561,0.00021,0,4.31951
232.40834,2000,0,91.24,0.000002697398,0.000002697398,0.000002697398,0.99999994,0,0,0,0,0,0,1,1,0,0,0,false,false,true,-391.56998,2565.74,16.99,-0.0042915605,-0.0020635098,0.896179,-0.44366705,-715.871,964.621,8.561,0.00030999997,0,4.36161
232.41667,2000,0,91.24,0.000002697398,0.000002697398,0.000002697398,0.99999994,0,0,0,0,0,0,1,1,0,0,0,false,false,true,-397.53998,2573.78,16.99,-0.004253797,-0.0021444315,0.887969,-0.45987847,-712.381,954.251,8.561,0.00030999997,0,4.39791
232.425,2000,0,91.24,0.000002697398,0.000002697398,0.000002697398,0.99999994,0,0,0,0,0,0,1,1,0,0,0,false,false,true,-403.47998,2581.73,16.99,-0.0042160335,-0.0022253536,0.87939245,-0.4760737,-708.371,944.24097,8.561,0.00030999997,0.00010999999,4.42861
232.43333,2000,0,91.24,0.000002697398,0.000002697398,0.000002697398,0.99999994,0,0,0,0,0,0,1,1,0,0,0,false,false,true,-409.38,2589.5999,16.99,-0.0041728746,-0.0023062753,0.87045753,-0.49222037,-703.881,934.61096,8.561,0.00030999997,0.00021,4.45371
232.44167,2000,0,91.24,0.000002697398,0.000002697398,0.000002697398,0.99999994,0,0,0,0,0,0,1,1,0,0,0,false,false,true,-415.25,2597.39,16.99,-0.004129716,-0.0023871972,0.86117494,-0.5082861,-698.96094,925.381,8.561,0.00040999998,0.00030999997,4.47341
232.45,2000,0,91.24,0.000002697398,0.000002697398,0.000002697398,0.99999994,0,0,0,0,0,0,1,1,0,0,0,false,false,true,-421.06998,2605.0999,16.99,-0.004086558,-0.0024681191,0.8515513,-0.52424943,-693.65094,916.58093,8.561,0.00040999998,0.00040999998,4.48771
232.45833,2000,0,91.24,0.000002697398,0.000002697398,0.000002697398,0.99999994,0,0,0,0,0,0,1,1,0,0,0,false,false,true,-426.84998,2612.74,16.99,-0.0040380047,-0.002549041,0.84160143,-0.5400778,-688.001,908.22095,8.561,0.00040999998,0.00051,4.49671
232.46666,2000,0,91.24,0.000002697398,0.000002697398,0.000002697398,0.99999994,0,0,0,0,0,0,1,1,0,0,0,false,false,true,-432.58,2620.31,16.99,-0.0039894516,-0.0026245683,0.83133584,-0.5557497,-682.061,900.321,8.561,0.00040999998,0.00051,4.5005097
232.475,2000,0,91.24,0.000002697398,0.000002697398,0.000002697398,0.99999994,0,0,0,0,0,0,1,1,0,0,0,false,false,true,-438.25998,2627.81,16.99,-0.003940898,-0.0027000953,0.82077026,-0.5712382,-675.881,892.881,8.561,0.00040999998,0.00061,4.49931
232.48334,2000,0,91.24,0.000002697398,0.000002697398,0.000002697398,0.99999994,0,0,0,0,0,0,1,1,0,0,0,false,false,true,-443.88998,2635.25,16.99,-0.0038869507,-0.0027756225,0.8099193,-0.58652174,-669.52094,885.91095,8.561,0.00040999998,0.00071,4.4931097
232.49167,2000,0,91.24,0.000002697398,0.000002697398,0.000002697398,0.99999994,0,0,0,0,0,0,1,1,0,0,0,false,false,true,-449.47,2642.63,16.99,-0.0038330022,-0.0028511495,0.79879916,-0.6015786,-663.03094,879.40094,8.561,0.00040999998,0.00081,4.48201
232.5,2000,0,91.24,0.000002697398,0.000002697398,0.000002697398,0.99999994,0,0,0,0,0,0,1,1,0,0,0,false,false,true,-455,2649.96,16.99,-0.0037790549,-0.002926677,0.7874242,-0.6163929,-656.46094,873.35095,8.561,0.00040999998,0.00091,4.46601
232.50833,2000,0,91.24,0.000002697398,0.000002697398,0.000002697398,0.99999994,0,0,0,0,0,0,1,1,0,0,0,false,false,true,-460.47,2657.24,16.99,-0.003719712,-0.003002204,0.775819,-0.6309373,-649.85095,867.74097,8.561,0.00030999997,0.00091,4.44531
