time,ball_loc_x,ball_loc_y,ball_loc_z,ball_rot_x,ball_rot_y,ball_rot_z,ball_rot_w,ball_vel_x,ball_vel_y,ball_vel_z,ball_ang_x,ball_ang_y,ball_ang_z,player0_throttle,player0_steer,player0_pitch,player0_yaw,player0_roll,player0_jump,player0_boost,player0_handbrake,player0_loc_x,player0_loc_y,player0_loc_z,player0_rot_x,player0_rot_y,player0_rot_z,player0_rot_w,player0_vel_x,player0_vel_y,player0_vel_z,player0_ang_x,player0_ang_y,player0_ang_z
180.88333,2000,0,91.24,0.000002697398,0.000002697398,0.000002697398,0.99999994,0,0,0,0,0,0,0,0,0,0,0,false,false,false,0,0.14,17.01,-0.00336905,0.0033798397,0.7071014,0.7070959,0,0.011,8.321,-0.00051,0,0
180.89166,2000,0,73,0.000002697398,0.000002697398,0.000002697398,0.99999994,0,0,0,0,0,0,1,0,0,0,0,false,false,false,0,0,16.94,0.0000026973983,0.0000026973983,0.70710677,0.70710677,0,13.331,2.041,-0.050809998,0,0
180.9,2000,0,87.6,0.000002697398,0.000002697398,0.000002697398,0.99999994,0,0,0,0,0,0,1,0,0,0,0,false,false,false,0,0.11,16.89,-0.00014835689,0.00015375168,0.7071067,0.7071067,0,26.550999,3.8809998,-0.085609995,0,0
180.90834,2000,0,90.52,0.000002697398,0.000002697398,0.000002697398,0.99999994,0,0,0,0,0,0,1,0,0,0,0,false,false,false,0,0.32999998,16.85,-0.00040191234,0.00040730715,0.70710653,0.70710677,0,39.650997,5.481,-0.107209995,0,0
180.91667,2000,0,91.1,0.000002697398,0.000002697398,0.000002697398,0.99999994,0,0,0,0,0,0,1,0,0,0,0,false,false,false,0,0.65999997,16.83,-0.00072020525,0.00072560005,0.7071067,0.707106,0,52.641,6.791,-0.11621,0,0
180.925,2000,0,91.22,0.000002697398,0.000002697398,0.000002697398,0.99999994,0,0,0,0,0,0,1,0,0,0,0,false,false,false,0,1.1,16.82,-0.0010600775,0.0010654721,0.70710516,0.7071067,0,65.520996,7.7409997,-0.11450999,0,0
180.93333,2000,0,91.24,0.000002697398,0.000002697398,0.000002697398,0.99999994,0,0,0,0,0,0,1,0,0,0,0,false,false,false,0,1.65,16.82,-0.0013999495,0.0014053443,0.7071067,0.70710397,0,78.291,8.431,-0.10641,0,0
180.94167,2000,0,91.24,0.000002697398,0.000002697398,0.000002697398,0.99999994,0,0,0,0,0,0,1,0,0,0,0,false,false,false,0,2.3,16.82,-0.0017128479,0.0017182427,0.707108,0.70710135,0,90.951,8.9210005,-0.094909996,0,0
180.95,2000,0,91.24,0.000002697398,0.000002697398,0.000002697398,0.99999994,0,0,0,0,0,0,1,0,0,0,0,false,false,false,0,3.06,16.83,-0.001993377,0.001998772,0.70710653,0.7071013,0,103.501,9.281,-0.082109995,0,0
180.95833,2000,0,91.24,0.000002697398,0.000002697398,0.000002697398,0.99999994,0,0,0,0,0,0,1,0,0,0,0,false,false,false,0,3.9199998,16.84,-0.002236143,0.0022415377,0.7071051,0.7071013,0,115.940994,9.521,-0.06921,0,0
180.96666,2000,0,91.24,0.000002697398,0.000002697398,0.000002697398,0.99999994,0,0,0,0,0,0,1,0,0,0,0,false,false,false,0,4.89,16.85,-0.0024411452,0.00244654,0.7071037,0.7071013,0,128.281,9.6710005,-0.05701,0,0
180.975,2000,0,91.24,0.000002697398,0.000002697398,0.000002697398,0.99999994,0,0,0,0,0,0,1,0,0,0,0,false,false,false,0,5.96,16.859999,-0.002608384,0.002613779,0.70710254,0.70710135,0,140.511,9.771,-0.04601,0,0
180.98334,2000,0,91.24,0.000002697398,0.000002697398,0.000002697398,0.99999994,0,0,0,0,0,0,1,0,0,0,0,false,false,false,0,7.1299996,16.869999,-0.0027432537,0.0027486486,0.7071015,0.7071013,0,152.641,9.821,-0.03651,0,0
180.99167,2000,0,91.24,0.000002697398,0.000002697398,0.000002697398,0.99999994,0,0,0,0,0,0,1,0,0,0,0,false,false,false,0,8.4,16.88,-0.0028511498,0.0028565445,0.70710063,0.7071013,0,164.66101,9.841001,-0.02841,0,0
181,2000,0,91.24,0.000002697398,0.000002697398,0.000002697398,0.99999994,0,0,0,0,0,0,1,0,0,0,0,false,false,false,0,9.7699995,16.89,-0.0029374664,0.0029428613,0.7071013,0.7070999,0,176.58101,9.821,-0.02221,0,0
181.00833,2000,0,91.24,0.000002697398,0.000002697398,0.000002697398,0.99999994,0,0,0,0,0,0,1,0,0,0,0,false,false,false,0,11.24,16.9,-0.003002204,0.003007599,0.7070994,0.7071013,0,188.401,9.761001,-0.01771,0,0
181.01666,2000,0,91.24,0.000002697398,0.000002697398,0.000002697398,0.99999994,0,0,0,0,0,0,1,0,0,0,0,false,false,false,0,12.809999,16.91,-0.003056152,0.0030615467,0.7071013,0.7070989,0,200.11101,9.681,-0.014409999,0,0
181.025,2000,0,91.24,0.000002697398,0.000002697398,0.000002697398,0.99999994,0,0,0,0,0,0,1,0,0,0,0,false,false,false,0,14.48,16.92,-0.0030993104,0.0031047051,0.70709854,0.7071013,0,211.72101,9.591001,-0.011809999,0,0
181.03334,2000,0,91.24,0.000002697398,0.000002697398,0.000002697398,0.99999994,0,0,0,0,0,0,1,0,0,0,0,false,false,false,0,16.24,16.93,-0.0031316795,0.0031370742,0.707096,0.70710367,0,223.231,9.491,-0.00981,0,0
181.04167,2000,0,91.24,0.000002697398,0.000002697398,0.000002697398,0.99999994,0,0,0,0,0,0,1,0,0,0,0,false,false,false,0,18.1,16.94,-0.0031586532,0.0031640478,0.7070959,0.70710343,0,234.651,9.391,-0.0083099995,0,0
181.05,2000,0,91.24,0.000002697398,0.000002697398,0.000002697398,0.99999994,0,0,0,0,0,0,1,0,0,0,0,false,false,false,0,20.06,16.949999,-0.003185627,0.003191022,0.7070959,0.70710313,0,245.97101,9.281,-0.00711,0,0
181.05833,2000,0,91.24,0.000002697398,0.000002697398,0.000002697398,0.99999994,0,0,0,0,0,0,1,0,0,0,0,false,false,false,0,22.109999,16.96,-0.0032072063,0.0032126012,0.7070959,0.70710295,0,257.191,9.1710005,-0.00611,0,0
181.06667,2000,0,91.24,0.000002697398,0.000002697398,0.000002697398,0.99999994,0,0,0,0,0,0,1,0,0,0,0,false,false,false,0,24.25,16.97,-0.0032233908,0.0032287855,0.7070959,0.70710284,0,268.321,9.061,-0.00521,0,0
181.075,2000,0,91.24,0.000002697398,0.000002697398,0.000002697398,0.99999994,0,0,0,0,0,0,1,0,0,0,0,false,false,false,0,26.49,16.98,-0.003239575,0.0032449698,0.7070959,0.70710266,0,279.351,8.951,-0.00451,0,0
181.08333,2000,0,91.24,0.000002697398,0.000002697398,0.000002697398,0.99999994,0,0,0,0,0,0,1,0,0,0,0,false,false,false,0,28.82,16.99,-0.0032503647,0.0032557594,0.7070959,0.7071026,0,290.29102,8.841001,-0.00391,0,0
181.09166,2000,0,91.24,0.000002697398,0.000002697398,0.000002697398,0.99999994,0,0,0,0,0,0,1,0,0,0,0,false,false,false,0,31.24,17,-0.0032611543,0.003266549,0.7070959,0.7071025,0,301.131,8.731,-0.00341,0,0
181.1,2000,0,91.24,0.000002697398,0.000002697398,0.000002697398,0.99999994,0,0,0,0,0,0,1,0,0,0,0,false,false,false,0,33.75,17.01,-0.003271944,0.0032773386,0.7070959,0.70710236,0,311.881,8.621,-0.00301,0,0
181.10834,2000,0,91.24,0.000002697398,0.000002697398,0.000002697398,0.99999994,0,0,0,0,0,0,1,0,0,0,0,false,false,false,0,36.35,17.01,-0.0032827335,0.0032881282,0.7070959,0.7071023,0,322.541,8.511001,-0.00261,0,0
181.11667,2000,0,91.24,0.000002697398,0.000002697398,0.000002697398,0.99999994,0,0,0,0,0,0,1,0,0,0,0,false,false,false,0,39.04,17.01,-0.0032881282,0.003293523,0.7070959,0.70710224,0,333.101,8.441,-0.0023100001,0,0
181.125,2000,0,91.24,0.000002697398,0.000002697398,0.000002697398,0.99999994,0,0,0,0,0,0,1,0,0,0,0,false,false,false,0,41.82,17.01,-0.0032935233,0.003298918,0.707096,0.7071022,0,343.571,8.391,-0.00201,0,0
181.13333,2000,0,91.24,0.000002697398,0.000002697398,0.000002697398,0.99999994,0,0,0,0,0,0,1,0,0,0,0,false,false,false,0,44.68,17.01,-0.0032989178,0.0033043127,0.7070959,0.7071021,0,353.951,8.361,-0.0018099999,0,0
181.14166,2000,0,91.24,0.000002697398,0.000002697398,0.000002697398,0.99999994,0,0,0,0,0,0,1,0,0,0,0,false,false,false,0,47.629997,17.01,-0.0033043127,0.0033097074,0.7070959,0.70710206,0,364.251,8.341001,-0.0016099999,0,0
181.15,2000,0,91.24,0.000002697398,0.000002697398,0.000002697398,0.99999994,0,0,0,0,0,0,1,0,0,0,0,false,false,false,0,50.67,17.01,-0.0033097074,0.0033151023,0.7070959,0.707102,0,374.461,8.331,-0.0014099999,0,0
181.15834,2000,0,91.24,0.000002697398,0.000002697398,0.000002697398,0.99999994,0,0,0,0,0,0,1,0,0,0,0,false,false,false,0,53.789997,17.01,-0.0033151023,0.003320497,0.7070959,0.707102,0,384.581,8.321,-0.00131,0,0
181.16667,2000,0,91.24,0.000002697398,0.000002697398,0.000002697398,0.99999994,0,0,0,0,0,0,1,0,0,0,0,false,false,false,0,56.989998,17.01,-0.0033204972,0.0033258921,0.707096,0.70710194,0,394.611,8.321,-0.00111,0,0
181.175,2000,0,91.24,0.000002697398,0.000002697398,0.000002697398,0.99999994,0,0,0,0,0,0,1,0,0,0,0,false,false,false,0,60.28,17.01,-0.003325892,0.0033312866,0.7070959,0.7071019,0,404.561,8.321,-0.0010099999,0,0
181.18333,2000,0,91.24,0.000002697398,0.000002697398,0.000002697398,0.99999994,0,0,0,0,0,0,1,0,0,0,0,false,false,false,0,63.649998,17.01,-0.0033312866,0.0033366815,0.7070959,0.7071018,0,414.421,8.321,-0.00081,0,0
181.19167,2000,0,91.24,0.000002697398,0.000002697398,0.000002697398,0.99999994,0,0,0,0,0,0,1,0,0,0,0,false,false,false,0,67.1,17.01,-0.0033312866,0.0033366815,0.7070959,0.7071018,0,424.201,8.321,-0.00061,0,0
181.2,2000,0,91.24,0.000002697398,0.000002697398,0.000002697398,0.99999994,0,0,0,0,0,0,1,0,0,0,0,false,false,false,0,70.64,17.01,-0.0033312866,0.0033366815,0.7070959,0.7071018,0,433.891,8.321,-0.00051,0,0
181.20833,2000,0,91.24,0.000002697398,0.000002697398,0.000002697398,0.99999994,0,0,0,0,0,0,1,0,0,0,0,false,false,false,0,74.26,17.01,-0.0033312866,0.0033366815,0.7070959,0.7071018,0,443.501,8.321,-0.00051,0,0
181.21666,2000,0,91.24,0.000002697398,0.000002697398,0.000002697398,0.99999994,0,0,0,0,0,0,1,0,0,0,0,false,false,false,0,77.96,17.01,-0.0033312866,0.0033366815,0.7070959,0.7071018,0,453.031,8.321,-0.00051,0,0
181.225,2000,0,91.24,0.000002697398,0.000002697398,0.000002697398,0.99999994,0,0,0,0,0,0,1,0,0,0,0,false,false,false,0,81.74,17.01,-0.0033312866,0.0033366815,0.7070959,0.7071018,0,462.481,8.321,-0.00051,0,0
181.23334,2000,0,91.24,0.000002697398,0.000002697398,0.000002697398,0.99999994,0,0,0,0,0,0,1,0,0,0,0,false,false,false,0,85.59,17.01,-0.0033312866,0.0033366815,0.7070959,0.7071018,0,471.85098,8.321,-0.00051,0,0
181.24167,2000,0,91.24,0.000002697398,0.000002697398,0.000002697398,0.99999994,0,0,0,0,0,0,1,0,0,0,0,false,false,false,0,89.52,17.01,-0.0033312866,0.0033366815,0.7070959,0.7071018,0,481.141,8.321,-0.00051,0,0
181.25,2000,0,91.24,0.000002697398,0.000002697398,0.000002697398,0.99999994,0,0,0,0,0,0,1,0,0,0,0,false,false,false,0,93.53,17.01,-0.0033312866,0.0033366815,0.7070959,0.7071018,0,490.35098,8.321,-0.00051,0,0
181.25833,2000,0,91.24,0.000002697398,0.000002697398,0.000002697398,0.99999994,0,0,0,0,0,0,1,0,0,0,0,false,false,false,0,97.619995,17.01,-0.0033312866,0.0033366815,0.7070959,0.7071018,0,499.481,8.321,-0.00051,0,0
181.26666,2000,0,91.24,0.000002697398,0.000002697398,0.000002697398,0.99999994,0,0,0,0,0,0,1,0,0,0,0,false,false,false,0,101.78,17.01,-0.0033312866,0.0033366815,0.7070959,0.7071018,0,508.531,8.321,-0.00051,0,0
181.275,2000,0,91.24,0.000002697398,0.000002697398,0.000002697398,0.99999994,0,0,0,0,0,0,1,0,0,0,0,false,false,false,0,106.02,17.01,-0.0033312866,0.0033366815,0.7070959,0.7071018,0,517.501,8.321,-0.00051,0,0
181.28334,2000,0,91.24,0.000002697398,0.000002697398,0.000002697398,0.99999994,0,0,0,0,0,0,1,0,0,0,0,false,false,false,0,110.329994,17.01,-0.0033312866,0.0033366815,0.7070959,0.7071018,0,526.391,8.321,-0.00051,0,0
181.29167,2000,0,91.24,0.000002697398,0.000002697398,0.000002697398,0.99999994,0,0,0,0,0,0,1,0,0,0,0,false,false,false,0,114.72,17.01,-0.0033312866,0.0033366815,0.7070959,0.7071018,0,535.21094,8.321,-0.00051,0,0
181.3,2000,0,91.24,0.000002697398,0.000002697398,0.000002697398,0.99999994,0,0,0,0,0,0,1,0,0,0,0,false,false,false,0,119.18,17.01,-0.0033312866,0.0033366815,0.7070959,0.7071018,0,543.951,8.321,-0.00061,0,0
181.30833,2000,0,91.24,0.000002697398,0.000002697398,0.000002697398,0.99999994,0,0,0,0,0,0,1,0,0,0,0,false,false,false,0,123.71,17.01,-0.0033312866,0.0033366815,0.7070959,0.7071018,0,552.621,8.321,-0.00061,0,0
181.31667,2000,0,91.24,0.000002697398,0.000002697398,0.000002697398,0.99999994,0,0,0,0,0,0,1,0,0,0,0,false,false,false,0,128.31999,17.01,-0.0033312866,0.0033366815,0.7070959,0.7071018,0,561.21094,8.321,-0.00061,0,0
181.325,2000,0,91.24,0.000002697398,0.000002697398,0.000002697398,0.99999994,0,0,0,0,0,0,1,0,0,0,0,false,false,false,0,133,17.01,-0.0033312866,0.0033366815,0.7070959,0.7071018,0,569.73096,8.321,-0.00061,0,0
181.33333,2000,0,91.24,0.000002697398,0.000002697398,0.000002697398,0.99999994,0,0,0,0,0,0,1,0,0,0,0,false,false,false,0,137.75,17.01,-0.0033312866,0.0033366815,0.7070959,0.7071018,0,578.18097,8.321,-0.00061,0,0
181.34166,2000,0,91.24,0.000002697398,0.000002697398,0.000002697398,0.99999994,0,0,0,0,0,0,1,0,0,0,0,false,false,false,0,142.56999,17.01,-0.0033312866,0.0033366815,0.7070959,0.7071018,0,586.55096,8.321,-0.00061,0,0
181.35,2000,0,91.24,0.000002697398,0.000002697398,0.000002697398,0.99999994,0,0,0,0,0,0,1,0,0,0,0,false,false,false,0,147.45999,17.01,-0.0033312866,0.0033366815,0.7070959,0.7071018,0,594.85095,8.321,-0.00061,0,0
181.35834,2000,0,91.24,0.000002697398,0.000002697398,0.000002697398,0.99999994,0,0,0,0,0,0,1,0,0,0,0,false,false,false,0,152.42,17.01,-0.0033312866,0.0033366815,0.7070959,0.7071018,0,603.08093,8.321,-0.00061,0,0
181.36667,2000,0,91.24,0.000002697398,0.000002697398,0.000002697398,0.99999994,0,0,0,0,0,0,1,0,0,0,0,false,false,false,0,157.45,17.01,-0.0033312866,0.0033366815,0.7070959,0.7071018,0,611.24097,8.321,-0.00061,0,0
181.375,2000,0,91.24,0.000002697398,0.000002697398,0.000002697398,0.99999994,0,0,0,0,0,0,1,0,0,0,0,false,false,false,0,162.54,17.01,-0.0033312866,0.0033366815,0.7070959,0.7071018,0,619.33093,8.321,-0.00061,0,0
181.38333,2000,0,91.24,0.000002697398,0.000002697398,0.000002697398,0.99999994,0,0,0,0,0,0,1,0,0,0,0,false,false,false,0,167.7,17.01,-0.0033312866,0.0033366815,0.7070959,0.7071018,0,627.35095,8.321,-0.00071,0,0
181.39166,2000,0,91.24,0.000002697398,0.000002697398,0.000002697398,0.99999994,0,0,0,0,0,0,1,0,0,0,0,false,false,false,0,172.93,17.01,-0.0033312866,0.0033366815,0.7070959,0.7071018,0,635.30096,8.321,-0.00071,0,0
181.4,2000,0,91.24,0.000002697398,0.000002697398,0.000002697398,0.99999994,0,0,0,0,0,0,1,0,0,0,0,false,false,false,0,178.22,17.01,-0.0033312866,0.0033366815,0.7070959,0.7071018,0,643.18097,8.321,-0.00071,0,0
181.40834,2000,0,91.24,0.000002697398,0.000002697398,0.000002697398,0.99999994,0,0,0,0,0,0,1,0,0,0,0,false,false,false,0,183.58,17.01,-0.0033312866,0.0033366815,0.7070959,0.7071018,0,651.001,8.321,-0.00071,0,0
181.41667,2000,0,91.24,0.000002697398,0.000002697398,0.000002697398,0.99999994,0,0,0,0,0,0,1,0,0,0,0,false,false,false,0,189.01,17.01,-0.0033312866,0.0033366815,0.7070959,0.7071018,0,658.751,8.321,-0.00071,0,0
181.425,2000,0,91.24,0.000002697398,0.000002697398,0.000002697398,0.99999994,0,0,0,0,0,0,1,0,0,0,0,false,false,false,0,194.5,17.01,-0.0033312866,0.0033366815,0.7070959,0.7071018,0,666.43097,8.321,-0.00071,0,0
181.43333,2000,0,91.24,0.000002697398,0.000002697398,0.000002697398,0.99999994,0,0,0,0,0,0,1,0,0,0,0,false,false,false,0,200.05,17.01,-0.0033312866,0.0033366815,0.7070959,0.7071018,0,674.05096,8.321,-0.00071,0,0
181.44167,2000,0,91.24,0.000002697398,0.000002697398,0.000002697398,0.99999994,0,0,0,0,0,0,1,0,0,0,0,false,false,false,0,205.67,17.01,-0.0033312866,0.0033366815,0.7070959,0.7071018,0,681.60095,8.321,-0.00071,0,0
181.45,2000,0,91.24,0.000002697398,0.000002697398,0.000002697398,0.99999994,0,0,0,0,0,0,1,0,0,0,0,false,false,false,0,211.34999,17.01,-0.0033312866,0.0033366815,0.7070959,0.7071018,0,689.09094,8.321,-0.00071,0,0
181.45833,2000,0,91.24,0.000002697398,0.000002697398,0.000002697398,0.99999994,0,0,0,0,0,0,1,0,0,0,0,false,false,false,0,217.09,17.01,-0.0033312866,0.0033366815,0.7070959,0.7071018,0,696.511,8.321,-0.00071,0,0
181.46666,2000,0,91.24,0.000002697398,0.000002697398,0.000002697398,0.99999994,0,0,0,0,0,0,1,0,0,0,0,false,false,false,0,222.89,17.01,-0.0033312866,0.0033366815,0.7070959,0.7071018,0,703.871,8.321,-0.00071,0,0
181.475,2000,0,91.24,0.000002697398,0.000002697398,0.000002697398,0.99999994,0,0,0,0,0,0,1,0,0,0,0,false,false,false,0,228.76,17.01,-0.0033312866,0.0033366815,0.7070959,0.7071018,0,711.17096,8.321,-0.00071,0,0
181.48334,2000,0,91.24,0.000002697398,0.000002697398,0.000002697398,0.99999994,0,0,0,0,0,0,1,0,0,0,0,false,false,false,0,234.68999,17.01,-0.0033312866,0.0033366815,0.7070959,0.7071018,0,718.40094,8.321,-0.00081,0,0
181.49167,2000,0,91.24,0.000002697398,0.000002697398,0.000002697398,0.99999994,0,0,0,0,0,0,1,0,0,0,0,false,false,false,0,240.68,17.01,-0.0033312866,0.0033366815,0.7070959,0.7071018,0,725.571,8.321,-0.00081,0,0
181.5,2000,0,91.24,0.000002697398,0.000002697398,0.000002697398,0.99999994,0,0,0,0,0,0,1,0,0,0,0,false,false,false,0,246.73,17.01,-0.0033312866,0.0033366815,0.7070959,0.7071018,0,732.68097,8.321,-0.00081,0,0
181.50833,2000,0,91.24,0.000002697398,0.000002697398,0.000002697398,0.99999994,0,0,0,0,0,0,1,0,0,0,0,false,false,false,0,252.84,17.01,-0.0033312866,0.0033366815,0.7070959,0.7071018,0,739.73096,8.321,-0.00081,0,0
181.51666,2000,0,91.24,0.000002697398,0.000002697398,0.000002697398,0.99999994,0,0,0,0,0,0,1,0,0,0,0,false,false,false,0,259,17.01,-0.0033312866,0.0033366815,0.7070959,0.7071018,0,746.72095,8.321,-0.00081,0,0
181.525,2000,0,91.24,0.000002697398,0.000002697398,0.000002697398,0.99999994,0,0,0,0,0,0,1,0,0,0,0,false,false,false,0,265.22,17.01,-0.0033312866,0.0033366815,0.7070959,0.7071018,0,753.65094,8.321,-0.00081,0,0
181.53334,2000,0,91.24,0.000002697398,0.000002697398,0.000002697398,0.99999994,0,0,0,0,0,0,1,0,0,0,0,false,false,false,0,271.5,17.01,-0.0033312866,0.0033366815,0.7070959,0.7071018,0,760.52094,8.321,-0.00081,0,0
181.54167,2000,0,91.24,0.000002697398,0.000002697398,0.000002697398,0.99999994,0,0,0,0,0,0,1,0,0,0,0,false,false,false,0,277.84,17.01,-0.0033312866,0.0033366815,0.7070959,0.7071018,0,767.33093,8.321,-0.00081,0,0
181.55,2000,0,91.24,0.000002697398,0.000002697398,0.000002697398,0.99999994,0,0,0,0,0,0,1,0,0,0,0,false,false,false,0,284.22998,17.01,-0.0033312866,0.0033366815,0.7070959,0.7071018,0,774.08093,8.321,-0.00081,0,0
181.55833,2000,0,91.24,0.000002697398,0.000002697398,0.000002697398,0.99999994,0,0,0,0,0,0,1,0,0,0,0,false,false,false,0,290.68,17.01,-0.0033312866,0.0033366815,0.7070959,0.7071018,0,780.77094,8.321,-0.00081,0,0
181.56667,2000,0,91.24,0.000002697398,0.000002697398,0.000002697398,0.99999994,0,0,0,0,0,0,1,0,0,0,0,false,false,false,0,297.19,17.01,-0.0033312866,0.0033366815,0.7070959,0.7071018,0,787.41095,8.321,-0.00081,0,0
181.575,2000,0,91.24,0.000002697398,0.000002697398,0.000002697398,0.99999994,0,0,0,0,0,0,1,0,0,0,0,false,false,false,0,303.75,17.01,-0.0033312866,0.0033366815,0.7070959,0.7071018,0,793.99097,8.321,-0.00081,0,0
181.58333,2000,0,91.24,0.000002697398,0.000002697398,0.000002697398,0.99999994,0,0,0,0,0,0,1,0,0,0,0,false,false,false,0,310.37,17.01,-0.0033312866,0.0033366815,0.7070959,0.7071018,0,800.511,8.321,-0.00081,0,0
181.59166,2000,0,91.24,0.000002697398,0.000002697398,0.000002697398,0.99999994,0,0,0,0,0,0,1,0,0,0,0,false,false,false,0,317.03998,17.01,-0.0033312866,0.0033366815,0.7070959,0.7071018,0,806.98096,8.321,-0.00091,0,0
181.6,2000,0,91.24,0.000002697398,0.000002697398,0.000002697398,0.99999994,0,0,0,0,0,0,1,0,0,0,0,false,false,false,0,323.75998,17.01,-0.0033312866,0.0033420762,0.7070959,0.7071018,0,813.3909,8.321,-0.00091,0,0
181.60834,2000,0,91.24,0.000002697398,0.000002697398,0.000002697398,0.99999994,0,0,0,0,0,0,1,0,0,0,0,false,false,false,0,330.53998,17.01,-0.0033312866,0.003347471,0.7070959,0.70710176,0,819.751,8.321,-0.00091,0,0
181.61667,2000,0,91.24,0.000002697398,0.000002697398,0.000002697398,0.99999994,0,0,0,0,0,0,1,0,0,0,0,false,false,false,0,337.37,17.01,-0.0033312868,0.003352866,0.707096,0.70710176,0,826.05096,8.321,-0.00081,0,0
181.625,2000,0,91.24,0.000002697398,0.000002697398,0.000002697398,0.99999994,0,0,0,0,0,0,1,0,0,0,0,false,false,false,0,344.25,17.01,-0.0033312868,0.003352866,0.707096,0.70710176,0,832.30096,8.321,-0.00071,-0.00010999999,0
181.63333,2000,0,91.24,0.000002697398,0.000002697398,0.000002697398,0.99999994,0,0,0,0,0,0,1,0,0,0,0,false,false,false,0,351.19,17.01,-0.0033312868,0.003352866,0.707096,0.70710176,0,838.501,8.321,-0.00071,-0.00010999999,0
181.64166,2000,0,91.24,0.000002697398,0.000002697398,0.000002697398,0.99999994,0,0,0,0,0,0,1,0,0,0,0,false,false,false,0,358.18,17.01,-0.0033312868,0.003352866,0.707096,0.70710176,0,844.6409,8.321,-0.00071,-0.00010999999,0
181.65,2000,0,91.24,0.000002697398,0.000002697398,0.000002697398,0.99999994,0,0,0,0,0,0,1,0,0,0,0,false,false,false,0,365.22,17.01,-0.0033312868,0.003352866,0.707096,0.70710176,0,850.73096,8.321,-0.00071,-0.00010999999,0
181.65834,2000,0,91.24,0.000002697398,0.000002697398,0.000002697398,0.99999994,0,0,0,0,0,0,1,0,0,0,0,false,false,false,0,372.31,17.01,-0.0033312868,0.003352866,0.707096,0.70710176,0,856.77094,8.321,-0.00071,-0.00010999999,0
181.66667,2000,0,91.24,0.000002697398,0.000002697398,0.000002697398,0.99999994,0,0,0,0,0,0,1,0,0,0,0,false,false,false,0,379.44998,17.01,-0.0033312868,0.003352866,0.707096,0.70710176,0,862.761,8.321,-0.00071,-0.00010999999,0
181.675,2000,0,91.24,0.000002697398,0.000002697398,0.000002697398,0.99999994,0,0,0,0,0,0,1,0,0,0,0,false,false,false,0,386.63998,17.01,-0.0033312868,0.003352866,0.707096,0.70710176,0,868.691,8.321,-0.00071,-0.00010999999,0
181.68333,2000,0,91.24,0.000002697398,0.000002697398,0.000002697398,0.99999994,0,0,0,0,0,0,1,0,0,0,0,false,false,false,0,393.88,17.01,-0.0033312868,0.003352866,0.707096,0.70710176,0,874.571,8.321,-0.00071,-0.00010999999,0
181.69167,2000,0,91.24,0.000002697398,0.000002697398,0.000002697398,0.99999994,0,0,0,0,0,0,1,0,0,0,0,false,false,false,0,401.16998,17.01,-0.0033312868,0.003352866,0.707096,0.70710176,0,880.40094,8.321,-0.00071,-0.00010999999,0
181.7,2000,0,91.24,0.000002697398,0.000002697398,0.000002697398,0.99999994,0,0,0,0,0,0,1,0,0,0,0,false,false,false,0,408.50998,17.01,-0.0033312868,0.003352866,0.707096,0.70710176,0,886.18097,8.321,-0.00071,-0.00010999999,0
181.70833,2000,0,91.24,0.000002697398,0.000002697398,0.000002697398,0.99999994,0,0,0,0,0,0,1,0,0,0,0,false,false,false,0,415.88998,17.01,-0.0033312868,0.003352866,0.707096,0.70710176,0,891.91095,8.321,-0.00071,-0.00010999999,0
181.71666,2000,0,91.24,0.000002697398,0.000002697398,0.000002697398,0.99999994,0,0,0,0,0,0,1,0,0,0,0,false,false,false,0,423.31998,17.01,-0.0033312868,0.003352866,0.707096,0.70710176,0,897.59094,8.321,-0.00071,-0.00010999999,0
181.725,2000,0,91.24,0.000002697398,0.000002697398,0.000002697398,0.99999994,0,0,0,0,0,0,1,0,0,0,0,false,false,false,0,430.8,17.01,-0.0033312868,0.003352866,0.707096,0.70710176,0,903.23096,8.321,-0.00071,-0.00010999999,0
181.73334,2000,0,91.24,0.000002697398,0.000002697398,0.000002697398,0.99999994,0,0,0,0,0,0,1,0,0,0,0,false,false,false,0,438.33,17.01,-0.0033312868,0.003352866,0.707096,0.70710176,0,908.821,8.321,-0.00071,-0.00010999999,0
181.74167,2000,0,91.24,0.000002697398,0.000002697398,0.000002697398,0.99999994,0,0,0,0,0,0,1,0,0,0,0,false,false,false,0,445.9,17.01,-0.0033312868,0.003352866,0.707096,0.70710176,0,914.36096,8.321,-0.00071,-0.00010999999,0
181.75,2000,0,91.24,0.000002697398,0.000002697398,0.000002697398,0.99999994,0,0,0,0,0,0,1,0,0,0,0,false,false,false,0,453.52,17.01,-0.0033312868,0.003352866,0.707096,0.70710176,0,919.85095,8.321,-0.00071,-0.00010999999,0
181.75833,2000,0,91.24,0.000002697398,0.000002697398,0.000002697398,0.99999994,0,0,0,0,0,0,1,0,0,0,0,false,false,false,0,461.19,17.01,-0.0033312868,0.003352866,0.707096,0.70710176,0,925.30096,8.321,-0.00071,-0.00010999999,0
181.76666,2000,0,91.24,0.000002697398,0.000002697398,0.000002697398,0.99999994,0,0,0,0,0,0,1,0,0,0,0,false,false,false,0,468.9,17.01,-0.0033312868,0.003352866,0.707096,0.70710176,0,930.7009,8.321,-0.00071,-0.00010999999,0
181.775,2000,0,91.24,0.000002697398,0.000002697398,0.000002697398,0.99999994,0,0,0,0,0,0,1,0,0,0,0,false,false,false,0,476.66,17.01,-0.0033312868,0.003352866,0.707096,0.70710176,0,936.05096,8.321,-0.00071,-0.00010999999,0
181.78334,2000,0,91.24,0.000002697398,0.000002697398,0.000002697398,0.99999994,0,0,0,0,0,0,1,0,0,0,0,false,false,false,0,484.46,17.01,-0.0033312868,0.003352866,0.707096,0.70710176,0,941.36096,8.321,-0.00071,-0.00010999999,0
181.79167,2000,0,91.24,0.000002697398,0.000002697398,0.000002697398,0.99999994,0,0,0,0,0,0,1,0,0,0,0,false,false,false,0,492.3,17.01,-0.0033312868,0.003352866,0.707096,0.70710176,0,946.621,8.321,-0.00081,-0.00010999999,0
181.8,2000,0,91.24,0.000002697398,0.000002697398,0.000002697398,0.99999994,0,0,0,0,0,0,1,0,0,0,0,false,false,false,0,500.19,17.01,-0.0033312868,0.003352866,0.707096,0.70710176,0,951.84094,8.321,-0.00081,-0.00010999999,0
181.80833,2000,0,91.24,0.000002697398,0.000002697398,0.000002697398,0.99999994,0,0,0,0,0,0,1,0,0,0,0,false,false,false,0,508.12,17.01,-0.0033312868,0.003352866,0.707096,0.70710176,0,957.0109,8.321,-0.00081,-0.00010999999,0
181.81667,2000,0,91.24,0.000002697398,0.000002697398,0.000002697398,0.99999994,0,0,0,0,0,0,1,0,0,0,0,false,false,false,0,516.1,17.01,-0.0033312868,0.003352866,0.707096,0.70710176,0,962.1409,8.321,-0.00081,-0.00010999999,0
181.825,2000,0,91.24,0.000002697398,0.000002697398,0.000002697398,0.99999994,0,0,0,0,0,0,1,0,0,0,0,false,false,false,0,524.12,17.01,-0.0033312868,0.003352866,0.707096,0.70710176,0,967.22095,8.321,-0.00081,-0.00010999999,0
181.83333,2000,0,91.24,0.000002697398,0.000002697398,0.000002697398,0.99999994,0,0,0,0,0,0,1,0,0,0,0,false,false,false,0,532.18,17.01,-0.0033312868,0.003352866,0.707096,0.70710176,0,972.2609,8.321,-0.00081,-0.00010999999,0
181.84166,2000,0,91.24,0.000002697398,0.000002697398,0.000002697398,0.99999994,0,0,0,0,0,0,1,0,0,0,0,false,false,false,0,540.27997,17.01,-0.0033312868,0.003352866,0.707096,0.70710176,0,977.2609,8.321,-0.00081,-0.00010999999,0
181.85,2000,0,91.24,0.000002697398,0.000002697398,0.000002697398,0.99999994,0,0,0,0,0,0,1,0,0,0,0,false,false,false,0,548.42,17.01,-0.0033312868,0.003352866,0.707096,0.70710176,0,982.21094,8.321,-0.00081,-0.00010999999,0
181.85834,2000,0,91.24,0.000002697398,0.000002697398,0.000002697398,0.99999994,0,0,0,0,0,0,1,0,0,0,0,false,false,false,0,556.61,17.01,-0.0033312868,0.003352866,0.707096,0.70710176,0,987.121,8.321,-0.00081,-0.00010999999,0
181.86667,2000,0,91.24,0.000002697398,0.000002697398,0.000002697398,0.99999994,0,0,0,0,0,0,1,0,0,0,0,false,false,false,0,564.83997,17.01,-0.0033312868,0.003352866,0.707096,0.70710176,0,991.99097,8.321,-0.00081,-0.00010999999,0
181.875,2000,0,91.24,0.000002697398,0.000002697398,0.000002697398,0.99999994,0,0,0,0,0,0,1,0,0,0,0,false,false,false,0,573.11,17.01,-0.0033312868,0.003352866,0.707096,0.70710176,0,996.821,8.321,-0.00081,-0.00010999999,0
181.88333,2000,0,91.24,0.000002697398,0.000002697398,0.000002697398,0.99999994,0,0,0,0,0,0,1,0,0,0,0,false,false,false,0,581.42,17.01,-0.0033312868,0.003352866,0.707096,0.70710176,0,1001.61096,8.321,-0.00081,-0.00010999999,0
181.89166,2000,0,91.24,0.000002697398,0.000002697398,0.000002697398,0.99999994,0,0,0,0,0,0,1,0,0,0,0,false,false,false,0,589.76996,17.01,-0.0033312868,0.003352866,0.707096,0.70710176,0,1006.35095,8.321,-0.00081,-0.00010999999,0
181.9,2000,0,91.24,0.000002697398,0.000002697398,0.000002697398,0.99999994,0,0,0,0,0,0,1,0,0,0,0,false,false,false,0,598.16,17.01,-0.0033312868,0.003352866,0.707096,0.70710176,0,1011.05096,8.321,-0.00081,-0.00010999999,0
181.90834,2000,0,91.24,0.000002697398,0.000002697398,0.000002697398,0.99999994,0,0,0,0,0,0,1,0,0,0,0,false,false,false,0,606.58997,17.01,-0.0033312868,0.003352866,0.707096,0.70710176,0,1015.71094,8.321,-0.00081,-0.00010999999,0
181.91667,2000,0,91.24,0.000002697398,0.000002697398,0.000002697398,0.99999994,0,0,0,0,0,0,1,0,0,0,0,false,false,false,0,615.05,17.01,-0.0033312868,0.003352866,0.707096,0.70710176,0,1020.33093,8.321,-0.00081,-0.00010999999,0
181.925,2000,0,91.24,0.000002697398,0.000002697398,0.000002697398,0.99999994,0,0,0,0,0,0,1,0,0,0,0,false,false,false,0,623.55,17.01,-0.0033312868,0.003352866,0.707096,0.70710176,0,1024.911,8.321,-0.00081,-0.00010999999,0
181.93333,2000,0,91.24,0.000002697398,0.000002697398,0.000002697398,0.99999994,0,0,0,0,0,0,1,0,0,0,0,false,false,false,0,632.08997,17.01,-0.0033312868,0.003352866,0.707096,0.70710176,0,1029.4509,8.321,-0.00081,-0.00010999999,0
181.94167,2000,0,91.24,0.000002697398,0.000002697398,0.000002697398,0.99999994,0,0,0,0,0,0,1,0,0,0,0,false,false,false,0,640.67,17.01,-0.0033312868,0.003352866,0.707096,0.70710176,0,1033.9609,8.321,-0.00091,-0.00010999999,0
181.95,2000,0,91.24,0.000002697398,0.000002697398,0.000002697398,0.99999994,0,0,0,0,0,0,1,0,0,0,0,false,false,false,0,649.29,17.01,-0.0033366815,0.0033528658,0.7070959,0.7071017,0,1038.4309,8.321,-0.00091,-0.00010999999,0
181.95833,2000,0,91.24,0.000002697398,0.000002697398,0.000002697398,0.99999994,0,0,0,0,0,0,1,0,0,0,0,false,false,false,0,657.94,17.01,-0.0033420762,0.0033528658,0.7070959,0.7071017,0,1042.861,8.321,-0.00091,-0.00010999999,0
181.96666,2000,0,91.24,0.000002697398,0.000002697398,0.000002697398,0.99999994,0,0,0,0,0,0,1,0,0,0,0,false,false,false,0,666.63,17.01,-0.003347471,0.0033528658,0.7070959,0.70710164,0,1047.251,8.321,-0.00081,-0.00010999999,0
181.975,2000,0,91.24,0.000002697398,0.000002697398,0.000002697398,0.99999994,0,0,0,0,0,0,1,0,0,0,0,false,false,false,0,675.36,17.01,-0.003347471,0.0033528658,0.7070959,0.70710164,0,1051.601,8.321,-0.00071,0,0
181.98334,2000,0,91.24,0.000002697398,0.000002697398,0.000002697398,0.99999994,0,0,0,0,0,0,1,0,0,0,0,false,false,false,0,684.12,17.01,-0.003347471,0.0033528658,0.7070959,0.70710164,0,1055.9209,8.321,-0.00071,0,0
181.99167,2000,0,91.24,0.000002697398,0.000002697398,0.000002697398,0.99999994,0,0,0,0,0,0,1,0,0,0,0,false,false,false,0,692.92,17.01,-0.003347471,0.0033528658,0.7070959,0.70710164,0,1060.2009,8.321,-0.00071,0,0
182,2000,0,91.24,0.000002697398,0.000002697398,0.000002697398,0.99999994,0,0,0,0,0,0,1,0,0,0,0,false,false,false,0,701.76,17.01,-0.003347471,0.0033528658,0.7070959,0.70710164,0,1064.4409,8.321,-0.00071,0,0
182.00833,2000,0,91.24,0.000002697398,0.000002697398,0.000002697398,0.99999994,0,0,0,0,0,0,1,0,0,0,0,false,false,false,0,710.63,17.01,-0.003347471,0.0033528658,0.7070959,0.70710164,0,1068.651,8.321,-0.00071,0,0
182.01666,2000,0,91.24,0.000002697398,0.000002697398,0.000002697398,0.99999994,0,0,0,0,0,0,1,0,0,0,0,false,false,false,0,719.54,17.01,-0.003347471,0.0033528658,0.7070959,0.70710164,0,1072.8209,8.321,-0.00071,0,0
182.025,2000,0,91.24,0.000002697398,0.000002697398,0.000002697398,0.99999994,0,0,0,0,0,0,1,0,0,0,0,false,false,false,0,728.48,17.01,-0.003347471,0.0033528658,0.7070959,0.70710164,0,1076.9509,8.321,-0.00071,0,0
182.03334,2000,0,91.24,0.000002697398,0.000002697398,0.000002697398,0.99999994,0,0,0,0,0,0,1,0,0,0,0,false,false,false,0,737.45,17.01,-0.003347471,0.0033528658,0.7070959,0.70710164,0,1081.0509,8.321,-0.00071,0,0
182.04167,2000,0,91.24,0.000002697398,0.000002697398,0.000002697398,0.99999994,0,0,0,0,0,0,1,0,0,0,0,false,false,false,0,746.45996,17.01,-0.003347471,0.0033528658,0.7070959,0.70710164,0,1085.111,8.321,-0.00071,0,0
182.05,2000,0,91.24,0.000002697398,0.000002697398,0.000002697398,0.99999994,0,0,0,0,0,0,1,0,0,0,0,false,false,false,0,755.5,17.01,-0.003347471,0.0033528658,0.7070959,0.70710164,0,1089.141,8.321,-0.00071,0,0
182.05833,2000,0,91.24,0.000002697398,0.000002697398,0.000002697398,0.99999994,0,0,0,0,0,0,1,0,0,0,0,false,false,false,0,764.57996,17.01,-0.003347471,0.0033528658,0.7070959,0.70710164,0,1093.131,8.321,-0.00071,0,0
182.06667,2000,0,91.24,0.000002697398,0.000002697398,0.000002697398,0.99999994,0,0,0,0,0,0,1,0,0,0,0,false,false,false,0,773.69,17.01,-0.003347471,0.0033528658,0.7070959,0.70710164,0,1097.091,8.321,-0.00071,0,0
182.075,2000,0,91.24,0.000002697398,0.000002697398,0.000002697398,0.99999994,0,0,0,0,0,0,1,0,0,0,0,false,false,false,0,782.82996,17.01,-0.003347471,0.0033528658,0.7070959,0.70710164,0,1101.021,8.321,-0.00071,0,0
182.08333,2000,0,91.24,0.000002697398,0.000002697398,0.000002697398,0.99999994,0,0,0,0,0,0,1,0,0,0,0,false,false,false,0,792.01,17.01,-0.003347471,0.0033528658,0.7070959,0.70710164,0,1104.911,8.321,-0.00071,0,0
182.09166,2000,0,91.24,0.000002697398,0.000002697398,0.000002697398,0.99999994,0,0,0,0,0,0,1,0,0,0,0,false,false,false,0,801.22,17.01,-0.003347471,0.0033528658,0.7070959,0.70710164,0,1108.771,8.321,-0.00071,0,0
182.1,2000,0,91.24,0.000002697398,0.000002697398,0.000002697398,0.99999994,0,0,0,0,0,0,1,0,0,0,0,false,false,false,0,810.45996,17.01,-0.003347471,0.0033528658,0.7070959,0.70710164,0,1112.601,8.321,-0.00071,0,0
182.10834,2000,0,91.24,0.000002697398,0.000002697398,0.000002697398,0.99999994,0,0,0,0,0,0,1,0,0,0,0,false,false,false,0,819.73,17.01,-0.003347471,0.0033528658,0.7070959,0.70710164,0,1116.391,8.321,-0.00071,0,0
182.11667,2000,0,91.24,0.000002697398,0.000002697398,0.000002697398,0.99999994,0,0,0,0,0,0,1,0,0,0,0,false,false,false,0,829.02997,17.01,-0.003347471,0.0033528658,0.7070959,0.70710164,0,1120.151,8.321,-0.00071,0,0
182.125,2000,0,91.24,0.000002697398,0.000002697398,0.000002697398,0.99999994,0,0,0,0,0,0,1,0,0,0,0,false,false,false,0,838.36,17.01,-0.003347471,0.0033528658,0.7070959,0.70710164,0,1123.881,8.321,-0.00071,0,0
182.13333,2000,0,91.24,0.000002697398,0.000002697398,0.000002697398,0.99999994,0,0,0,0,0,0,1,0,0,0,0,false,false,false,0,847.73,17.01,-0.003347471,0.0033528658,0.7070959,0.70710164,0,1127.5809,8.321,-0.00071,0,0
182.14166,2000,0,91.24,0.000002697398,0.000002697398,0.000002697398,0.99999994,0,0,0,0,0,0,1,0,0,0,0,false,false,false,0,857.13,17.01,-0.003347471,0.0033528658,0.7070959,0.70710164,0,1131.241,8.321,-0.00071,0,0
182.15,2000,0,91.24,0.000002697398,0.000002697398,0.000002697398,0.99999994,0,0,0,0,0,0,1,0,0,0,0,false,false,false,0,866.56,17.01,-0.003347471,0.0033528658,0.7070959,0.70710164,0,1134.871,8.321,-0.00071,0,0
182.15834,2000,0,91.24,0.000002697398,0.000002697398,0.000002697398,0.99999994,0,0,0,0,0,0,1,0,0,0,0,false,false,false,0,876.01996,17.01,-0.003347471,0.0033528658,0.7070959,0.70710164,0,1138.471,8.321,-0.00071,0,0
182.16667,2000,0,91.24,0.000002697398,0.000002697398,0.000002697398,0.99999994,0,0,0,0,0,0,1,0,0,0,0,false,false,false,0,885.51,17.01,-0.003347471,0.0033528658,0.7070959,0.70710164,0,1142.0409,8.321,-0.00071,0,0
182.175,2000,0,91.24,0.000002697398,0.000002697398,0.000002697398,0.99999994,0,0,0,0,0,0,1,0,0,0,0,false,false,false,0,895.02997,17.01,-0.003347471,0.0033528658,0.7070959,0.70710164,0,1145.5809,8.321,-0.00071,0,0
182.18333,2000,0,91.24,0.000002697398,0.000002697398,0.000002697398,0.99999994,0,0,0,0,0,0,1,0,0,0,0,false,false,false,0,904.57996,17.01,-0.003347471,0.0033528658,0.7070959,0.70710164,0,1149.091,8.321,-0.00071,0,0
182.19167,2000,0,91.24,0.000002697398,0.000002697398,0.000002697398,0.99999994,0,0,0,0,0,0,1,0,0,0,0,false,false,false,0,914.16,17.01,-0.003347471,0.0033528658,0.7070959,0.70710164,0,1152.5709,8.321,-0.00071,0,0
182.2,2000,0,91.24,0.000002697398,0.000002697398,0.000002697398,0.99999994,0,0,0,0,0,0,1,0,0,0,0,false,false,false,0,923.76,17.01,-0.003347471,0.0033528658,0.7070959,0.70710164,0,1156.021,8.321,-0.00071,0,0
182.20833,2000,0,91.24,0.000002697398,0.000002697398,0.000002697398,0.99999994,0,0,0,0,0,0,1,0,0,0,0,false,false,false,0,933.38995,17.01,-0.003347471,0.0033528658,0.7070959,0.70710164,0,1159.4409,8.321,-0.00071,0,0
182.21666,2000,0,91.24,0.000002697398,0.000002697398,0.000002697398,0.99999994,0,0,0,0,0,0,1,0,0,0,0,false,false,false,0,943.05,17.01,-0.003347471,0.0033528658,0.7070959,0.70710164,0,1162.8309,8.321,-0.00071,0,0
182.225,2000,0,91.24,0.000002697398,0.000002697398,0.000002697398,0.99999994,0,0,0,0,0,0,1,0,0,0,0,false,false,false,0,952.74,17.01,-0.003347471,0.0033528658,0.7070959,0.70710164,0,1166.1909,8.321,-0.00071,0,0
182.23334,2000,0,91.24,0.000002697398,0.000002697398,0.000002697398,0.99999994,0,0,0,0,0,0,1,0,0,0,0,false,false,false,0,962.45996,17.01,-0.003347471,0.0033528658,0.7070959,0.70710164,0,1169.521,8.321,-0.00071,0,0
182.24167,2000,0,91.24,0.000002697398,0.000002697398,0.000002697398,0.99999994,0,0,0,0,0,0,1,0,0,0,0,false,false,false,0,972.20996,17.01,-0.003347471,0.0033528658,0.7070959,0.70710164,0,1172.8309,8.321,-0.00081,0,0
182.25,2000,0,91.24,0.000002697398,0.000002697398,0.000002697398,0.99999994,0,0,0,0,0,0,1,0,0,0,0,false,false,false,0,981.98,17.01,-0.003347471,0.0033528658,0.7070959,0.70710164,0,1176.111,8.321,-0.00081,0,0
182.25833,2000,0,91.24,0.000002697398,0.000002697398,0.000002697398,0.99999994,0,0,0,0,0,0,1,0,0,0,0,false,false,false,0,991.77997,17.01,-0.003347471,0.0033528658,0.7070959,0.70710164,0,1179.361,8.321,-0.00081,0,0
182.26666,2000,0,91.24,0.000002697398,0.000002697398,0.000002697398,0.99999994,0,0,0,0,0,0,1,0,0,0,0,false,false,false,0,1001.61,17.01,-0.003347471,0.0033528658,0.7070959,0.70710164,0,1182.5809,8.321,-0.00081,0,0
182.275,2000,0,91.24,0.000002697398,0.000002697398,0.000002697398,0.99999994,0,0,0,0,0,0,1,0,0,0,0,false,false,false,0,1011.45996,17.01,-0.003347471,0.0033528658,0.7070959,0.70710164,0,1185.771,8.321,-0.00081,0,0
182.28334,2000,0,91.24,0.000002697398,0.000002697398,0.000002697398,0.99999994,0,0,0,0,0,0,1,0,0,0,0,false,false,false,0,1021.33997,17.01,-0.003347471,0.0033528658,0.7070959,0.70710164,0,1188.9409,8.321,-0.00081,0,0
182.29167,2000,0,91.24,0.000002697398,0.000002697398,0.000002697398,0.99999994,0,0,0,0,0,0,1,0,0,0,0,false,false,false,0,1031.25,17.01,-0.003347471,0.0033528658,0.7070959,0.70710164,0,1192.0809,8.321,-0.00081,0,0
182.3,2000,0,91.24,0.000002697398,0.000002697398,0.000002697398,0.99999994,0,0,0,0,0,0,1,0,0,0,0,false,false,false,0,1041.1799,17.01,-0.003347471,0.0033528658,0.7070959,0.70710164,0,1195.1909,8.321,-0.00081,0,0
182.30833,2000,0,91.24,0.000002697398,0.000002697398,0.000002697398,0.99999994,0,0,0,0,0,0,1,0,0,0,0,false,false,false,0,1051.14,17.01,-0.003347471,0.0033528658,0.7070959,0.70710164,0,1198.281,8.321,-0.00081,0,0
182.31667,2000,0,91.24,0.000002697398,0.000002697398,0.000002697398,0.99999994,0,0,0,0,0,0,1,0,0,0,0,false,false,false,0,1061.13,17.01,-0.003347471,0.0033528658,0.7070959,0.70710164,0,1201.341,8.321,-0.00081,0,0
182.325,2000,0,91.24,0.000002697398,0.000002697398,0.000002697398,0.99999994,0,0,0,0,0,0,1,0,0,0,0,false,false,false,0,1071.14,17.01,-0.003347471,0.0033528658,0.7070959,0.70710164,0,1204.371,8.321,-0.00081,0,0
182.33333,2000,0,91.24,0.000002697398,0.000002697398,0.000002697398,0.99999994,0,0,0,0,0,0,1,0,0,0,0,false,false,false,0,1081.1799,17.01,-0.003347471,0.0033528658,0.7070959,0.70710164,0,1207.381,8.321,-0.00081,0,0
182.34166,2000,0,91.24,0.000002697398,0.000002697398,0.000002697398,0.99999994,0,0,0,0,0,0,1,0,0,0,0,false,false,false,0,1091.24,17.01,-0.003347471,0.0033528658,0.7070959,0.70710164,0,1210.361,8.321,-0.00081,0,0
182.35,2000,0,91.24,0.000002697398,0.000002697398,0.000002697398,0.99999994,0,0,0,0,0,0,1,0,0,0,0,false,false,false,0,1101.33,17.01,-0.003347471,0.0033528658,0.7070959,0.70710164,0,1213.3209,8.321,-0.00081,0,0
182.35834,2000,0,91.24,0.000002697398,0.000002697398,0.000002697398,0.99999994,0,0,0,0,0,0,1,0,0,0,0,false,false,false,0,1111.44,17.01,-0.003347471,0.0033528658,0.7070959,0.70710164,0,1216.251,8.321,-0.00081,0,0
182.36667,2000,0,91.24,0.000002697398,0.000002697398,0.000002697398,0.99999994,0,0,0,0,0,0,1,0,0,0,0,false,false,false,0,1121.58,17.01,-0.003347471,0.0033528658,0.7070959,0.70710164,0,1219.151,8.321,-0.00081,0,0
182.375,2000,0,91.24,0.000002697398,0.000002697398,0.000002697398,0.99999994,0,0,0,0,0,0,1,0,0,0,0,false,false,false,0,1131.74,17.01,-0.003347471,0.0033528658,0.7070959,0.70710164,0,1222.031,8.321,-0.00081,0,0
182.38333,2000,0,91.24,0.000002697398,0.000002697398,0.000002697398,0.99999994,0,0,0,0,0,0,1,0,0,0,0,false,false,false,0,1141.9199,17.01,-0.003347471,0.0033528658,0.7070959,0.70710164,0,1224.891,8.321,-0.00081,0,0
182.39166,2000,0,91.24,0.000002697398,0.000002697398,0.000002697398,0.99999994,0,0,0,0,0,0,1,0,0,0,0,false,false,false,0,1152.13,17.01,-0.003347471,0.0033528658,0.7070959,0.70710164,0,1227.721,8.321,-0.00081,0,0
182.4,2000,0,91.24,0.000002697398,0.000002697398,0.000002697398,0.99999994,0,0,0,0,0,0,1,0,0,0,0,false,false,false,0,1162.36,17.01,-0.003347471,0.0033528658,0.7070959,0.70710164,0,1230.531,8.321,-0.00081,0,0
182.40834,2000,0,91.24,0.000002697398,0.000002697398,0.000002697398,0.99999994,0,0,0,0,0,0,1,0,0,0,0,false,false,false,0,1172.61,17.01,-0.003347471,0.0033528658,0.7070959,0.70710164,0,1233.3109,8.321,-0.00081,0,0
182.41667,2000,0,91.24,0.000002697398,0.000002697398,0.000002697398,0.99999994,0,0,0,0,0,0,1,0,0,0,0,false,false,false,0,1182.89,17.01,-0.003347471,0.0033528658,0.7070959,0.70710164,0,1236.0709,8.321,-0.00081,0,0
182.425,2000,0,91.24,0.000002697398,0.000002697398,0.000002697398,0.99999994,0,0,0,0,0,0,1,0,0,0,0,false,false,false,0,1193.19,17.01,-0.003347471,0.0033528658,0.7070959,0.70710164,0,1238.8009,8.321,-0.00081,0,0
182.43333,2000,0,91.24,0.000002697398,0.000002697398,0.000002697398,0.99999994,0,0,0,0,0,0,1,0,0,0,0,false,false,false,0,1203.51,17.01,-0.003347471,0.0033528658,0.7070959,0.70710164,0,1241.511,8.321,-0.00081,0,0
182.44167,2000,0,91.24,0.000002697398,0.000002697398,0.000002697398,0.99999994,0,0,0,0,0,0,1,0,0,0,0,false,false,false,0,1213.86,17.01,-0.003347471,0.0033528658,0.7070959,0.70710164,0,1244.2009,8.321,-0.00081,0,0
182.45,2000,0,91.24,0.000002697398,0.000002697398,0.000002697398,0.99999994,0,0,0,0,0,0,1,0,0,0,0,false,false,false,0,1224.23,17.01,-0.003347471,0.0033528658,0.7070959,0.70710164,0,1246.871,8.321,-0.00081,0,0
182.45833,2000,0,91.24,0.000002697398,0.000002697398,0.000002697398,0.99999994,0,0,0,0,0,0,1,0,0,0,0,false,false,false,0,1234.62,17.01,-0.003347471,0.0033528658,0.7070959,0.70710164,0,1249.511,8.321,-0.00081,0,0
182.46666,2000,0,91.24,0.000002697398,0.000002697398,0.000002697398,0.99999994,0,0,0,0,0,0,1,0,0,0,0,false,false,false,0,1245.03,17.01,-0.003347471,0.0033528658,0.7070959,0.70710164,0,1252.131,8.321,-0.00081,0,0
182.475,2000,0,91.24,0.000002697398,0.000002697398,0.000002697398,0.99999994,0,0,0,0,0,0,1,0,0,0,0,false,false,false,0,1255.46,17.01,-0.003347471,0.0033528658,0.7070959,0.70710164,0,1254.731,8.321,-0.00081,0,0
182.48334,2000,0,91.24,0.000002697398,0.000002697398,0.000002697398,0.99999994,0,0,0,0,0,0,1,0,0,0,0,false,false,false,0,1265.9199,17.01,-0.003347471,0.0033528658,0.7070959,0.70710164,0,1257.3109,8.321,-0.00081,0,0
182.49167,2000,0,91.24,0.000002697398,0.000002697398,0.000002697398,0.99999994,0,0,0,0,0,0,1,0,0,0,0,false,false,false,0,1276.4,17.01,-0.003347471,0.0033528658,0.7070959,0.70710164,0,1259.861,8.321,-0.00081,0,0
182.5,2000,0,91.24,0.000002697398,0.000002697398,0.000002697398,0.99999994,0,0,0,0,0,0,1,0,0,0,0,false,false,false,0,1286.9,17.01,-0.003347471,0.0033528658,0.7070959,0.70710164,0,1262.391,8.321,-0.00091,0,0
182.50833,2000,0,91.24,0.000002697398,0.000002697398,0.000002697398,0.99999994,0,0,0,0,0,0,1,0,0,0,0,false,false,false,0,1297.4199,17.01,-0.003347471,0.0033582605,0.7070959,0.70710164,0,1264.901,8.321,-0.00091,0,0
182.51666,2000,0,91.24,0.000002697398,0.000002697398,0.000002697398,0.99999994,0,0,0,0,0,0,1,0,0,0,0,false,false,false,0,1307.96,17.01,-0.0033474711,0.0033636556,0.707096,0.70710164,0,1267.391,8.321,-0.00091,0,0
182.525,2000,0,91.24,0.000002697398,0.000002697398,0.000002697398,0.99999994,0,0,0,0,0,0,1,0,0,0,0,false,false,false,0,1318.52,17.01,-0.003347471,0.00336905,0.7070959,0.7071016,0,1269.861,8.321,-0.00081,0,0
182.53334,2000,0,91.24,0.000002697398,0.000002697398,0.000002697398,0.99999994,0,0,0,0,0,0,1,0,0,0,0,false,false,false,0,1329.1,17.01,-0.003347471,0.00336905,0.7070959,0.7071016,0,1272.3109,8.321,-0.00071,-0.00010999999,0
182.54167,2000,0,91.24,0.000002697398,0.000002697398,0.000002697398,0.99999994,0,0,0,0,0,0,1,0,0,0,0,false,false,false,0,1339.7,17.01,-0.003347471,0.00336905,0.7070959,0.7071016,0,1274.731,8.321,-0.00071,-0.00010999999,0
182.55,2000,0,91.24,0.000002697398,0.000002697398,0.000002697398,0.99999994,0,0,0,0,0,0,1,0,0,0,0,false,false,false,0,1350.32,17.01,-0.003347471,0.00336905,0.7070959,0.7071016,0,1277.131,8.321,-0.00071,-0.00010999999,0
182.55833,2000,0,91.24,0.000002697398,0.000002697398,0.000002697398,0.99999994,0,0,0,0,0,0,1,0,0,0,0,false,false,false,0,1360.96,17.01,-0.003347471,0.00336905,0.7070959,0.7071016,0,1279.511,8.321,-0.00071,-0.00010999999,0
182.56667,2000,0,91.24,0.000002697398,0.000002697398,0.000002697398,0.99999994,0,0,0,0,0,0,1,0,0,0,0,false,false,false,0,1371.62,17.01,-0.003347471,0.00336905,0.7070959,0.7071016,0,1281.871,8.321,-0.00071,-0.00010999999,0
182.575,2000,0,91.24,0.000002697398,0.000002697398,0.000002697398,0.99999994,0,0,0,0,0,0,1,0,0,0,0,false,false,false,0,1382.2999,17.01,-0.003347471,0.00336905,0.7070959,0.7071016,0,1284.2109,8.321,-0.00071,-0.00010999999,0
182.58333,2000,0,91.24,0.000002697398,0.000002697398,0.000002697398,0.99999994,0,0,0,0,0,0,1,0,0,0,0,false,false,false,0,1393,17.01,-0.003347471,0.00336905,0.7070959,0.7071016,0,1286.531,8.321,-0.00071,-0.00010999999,0
182.59166,2000,0,91.24,0.000002697398,0.000002697398,0.000002697398,0.99999994,0,0,0,0,0,0,1,0,0,0,0,false,false,false,0,1403.72,17.01,-0.003347471,0.00336905,0.7070959,0.7071016,0,1288.8309,8.321,-0.00071,-0.00010999999,0
182.6,2000,0,91.24,0.000002697398,0.000002697398,0.000002697398,0.99999994,0,0,0,0,0,0,1,0,0,0,0,false,false,false,0,1414.46,17.01,-0.003347471,0.00336905,0.7070959,0.7071016,0,1291.111,8.321,-0.00071,-0.00010999999,0
182.60834,2000,0,91.24,0.000002697398,0.000002697398,0.000002697398,0.99999994,0,0,0,0,0,0,1,0,0,0,0,false,false,false,0,1425.22,17.01,-0.003347471,0.00336905,0.7070959,0.7071016,0,1293.371,8.321,-0.00071,-0.00010999999,0
182.61667,2000,0,91.24,0.000002697398,0.000002697398,0.000002697398,0.99999994,0,0,0,0,0,0,1,0,0,0,0,false,false,false,0,1436,17.01,-0.003347471,0.00336905,0.7070959,0.7071016,0,1295.611,8.321,-0.00071,-0.00010999999,0
182.625,2000,0,91.24,0.000002697398,0.000002697398,0.000002697398,0.99999994,0,0,0,0,0,0,1,0,0,0,0,false,false,false,0,1446.7999,17.01,-0.003347471,0.00336905,0.7070959,0.7071016,0,1297.8309,8.321,-0.00071,-0.00010999999,0
182.63333,2000,0,91.24,0.000002697398,0.000002697398,0.000002697398,0.99999994,0,0,0,0,0,0,1,0,0,0,0,false,false,false,0,1457.62,17.01,-0.003347471,0.00336905,0.7070959,0.7071016,0,1300.0409,8.321,-0.00071,-0.00010999999,0
182.64166,2000,0,91.24,0.000002697398,0.000002697398,0.000002697398,0.99999994,0,0,0,0,0,0,1,0,0,0,0,false,false,false,0,1468.45,17.01,-0.003347471,0.00336905,0.7070959,0.7071016,0,1302.231,8.321,-0.00071,-0.00010999999,0
182.65,2000,0,91.24,0.000002697398,0.000002697398,0.000002697398,0.99999994,0,0,0,0,0,0,1,0,0,0,0,false,false,false,0,1479.2999,17.01,-0.003347471,0.00336905,0.7070959,0.7071016,0,1304.401,8.321,-0.00071,-0.00010999999,0
182.65834,2000,0,91.24,0.000002697398,0.000002697398,0.000002697398,0.99999994,0,0,0,0,0,0,1,0,0,0,0,false,false,false,0,1490.1699,17.01,-0.003347471,0.00336905,0.7070959,0.7071016,0,1306.5509,8.321,-0.00071,-0.00010999999,0
182.66667,2000,0,91.24,0.000002697398,0.000002697398,0.000002697398,0.99999994,0,0,0,0,0,0,1,0,0,0,0,false,false,false,0,1501.0599,17.01,-0.003347471,0.00336905,0.7070959,0.7071016,0,1308.6809,8.321,-0.00071,-0.00010999999,0
182.675,2000,0,91.24,0.000002697398,0.000002697398,0.000002697398,0.99999994,0,0,0,0,0,0,1,0,0,0,0,false,false,false,0,1511.97,17.01,-0.003347471,0.00336905,0.7070959,0.7071016,0,1310.7909,8.321,-0.00071,-0.00010999999,0
182.68333,2000,0,91.24,0.000002697398,0.000002697398,0.000002697398,0.99999994,0,0,0,0,0,0,1,0,0,0,0,false,false,false,0,1522.89,17.01,-0.003347471,0.00336905,0.7070959,0.7071016,0,1312.881,8.321,-0.00071,-0.00010999999,0
182.69167,2000,0,91.24,0.000002697398,0.000002697398,0.000002697398,0.99999994,0,0,0,0,0,0,1,0,0,0,0,false,false,false,0,1533.83,17.01,-0.003347471,0.00336905,0.7070959,0.7071016,0,1314.9609,8.321,-0.00071,-0.00010999999,0
182.7,2000,0,91.24,0.000002697398,0.000002697398,0.000002697398,0.99999994,0,0,0,0,0,0,1,0,0,0,0,false,false,false,0,1544.7899,17.01,-0.003347471,0.00336905,0.7070959,0.7071016,0,1317.021,8.321,-0.00071,-0.00010999999,0
182.70833,2000,0,91.24,0.000002697398,0.000002697398,0.000002697398,0.99999994,0,0,0,0,0,0,1,0,0,0,0,false,false,false,0,1555.77,17.01,-0.003347471,0.00336905,0.7070959,0.7071016,0,1319.0609,8.321,-0.00071,-0.00010999999,0
182.71666,2000,0,91.24,0.000002697398,0.000002697398,0.000002697398,0.99999994,0,0,0,0,0,0,1,0,0,0,0,false,false,false,0,1566.76,17.01,-0.003347471,0.00336905,0.7070959,0.7071016,0,1321.0809,8.321,-0.00071,-0.00010999999,0
182.725,2000,0,91.24,0.000002697398,0.000002697398,0.000002697398,0.99999994,0,0,0,0,0,0,1,0,0,0,0,false,false,false,0,1577.77,17.01,-0.003347471,0.00336905,0.7070959,0.7071016,0,1323.091,8.321,-0.00071,-0.00010999999,0
182.73334,2000,0,91.24,0.000002697398,0.000002697398,0.000002697398,0.99999994,0,0,0,0,0,0,1,0,0,0,0,false,false,false,0,1588.7999,17.01,-0.003347471,0.00336905,0.7070959,0.7071016,0,1325.0809,8.321,-0.00071,-0.00010999999,0
182.74167,2000,0,91.24,0.000002697398,0.000002697398,0.000002697398,0.99999994,0,0,0,0,0,0,1,0,0,0,0,false,false,false,0,1599.84,17.01,-0.003347471,0.00336905,0.7070959,0.7071016,0,1327.0509,8.321,-0.00071,-0.00010999999,0
182.75,2000,0,91.24,0.000002697398,0.000002697398,0.000002697398,0.99999994,0,0,0,0,0,0,1,0,0,0,0,false,false,false,0,1610.9,17.01,-0.003347471,0.00336905,0.7070959,0.7071016,0,1329.011,8.321,-0.00071,-0.00010999999,0
182.75833,2000,0,91.24,0.000002697398,0.000002697398,0.000002697398,0.99999994,0,0,0,0,0,0,1,0,0,0,0,false,false,false,0,1621.98,17.01,-0.003347471,0.00336905,0.7070959,0.7071016,0,1330.9509,8.321,-0.00071,-0.00010999999,0
182.76666,2000,0,91.24,0.000002697398,0.000002697398,0.000002697398,0.99999994,0,0,0,0,0,0,1,0,0,0,0,false,false,false,0,1633.07,17.01,-0.003347471,0.00336905,0.7070959,0.7071016,0,1332.871,8.321,-0.00071,-0.00010999999,0
182.775,2000,0,91.24,0.000002697398,0.000002697398,0.000002697398,0.99999994,0,0,0,0,0,0,1,0,0,0,0,false,false,false,0,1644.1799,17.01,-0.003347471,0.00336905,0.7070959,0.7071016,0,1334.781,8.321,-0.00071,-0.00010999999,0
182.78334,2000,0,91.24,0.000002697398,0.000002697398,0.000002697398,0.99999994,0,0,0,0,0,0,1,0,0,0,0,false,false,false,0,1655.2999,17.01,-0.003347471,0.00336905,0.7070959,0.7071016,0,1336.6709,8.321,-0.00071,-0.00010999999,0
182.79167,2000,0,91.24,0.000002697398,0.000002697398,0.000002697398,0.99999994,0,0,0,0,0,0,1,0,0,0,0,false,false,false,0,1666.44,17.01,-0.003347471,0.00336905,0.7070959,0.7071016,0,1338.5409,8.321,-0.00071,-0.00010999999,0
182.8,2000,0,91.24,0.000002697398,0.000002697398,0.000002697398,0.99999994,0,0,0,0,0,0,1,0,0,0,0,false,false,false,0,1677.59,17.01,-0.003347471,0.00336905,0.7070959,0.7071016,0,1340.401,8.321,-0.00071,-0.00010999999,0
182.80833,2000,0,91.24,0.000002697398,0.000002697398,0.000002697398,0.99999994,0,0,0,0,0,0,1,0,0,0,0,false,false,false,0,1688.76,17.01,-0.003347471,0.00336905,0.7070959,0.7071016,0,1342.241,8.321,-0.00071,-0.00010999999,0
182.81667,2000,0,91.24,0.000002697398,0.000002697398,0.000002697398,0.99999994,0,0,0,0,0,0,1,0,0,0,0,false,false,false,0,1699.95,17.01,-0.003347471,0.00336905,0.7070959,0.7071016,0,1344.0609,8.321,-0.00071,-0.00010999999,0
182.825,2000,0,91.24,0.000002697398,0.000002697398,0.000002697398,0.99999994,0,0,0,0,0,0,1,0,0,0,0,false,false,false,0,1711.1499,17.01,-0.003347471,0.00336905,0.7070959,0.7071016,0,1345.871,8.321,-0.00071,-0.00010999999,0
182.83333,2000,0,91.24,0.000002697398,0.000002697398,0.000002697398,0.99999994,0,0,0,0,0,0,1,0,0,0,0,false,false,false,0,1722.37,17.01,-0.003347471,0.00336905,0.7070959,0.7071016,0,1347.6609,8.321,-0.00071,-0.00010999999,0
182.84166,2000,0,91.24,0.000002697398,0.000002697398,0.000002697398,0.99999994,0,0,0,0,0,0,1,0,0,0,0,false,false,false,0,1733.6,17.01,-0.003347471,0.00336905,0.7070959,0.7071016,0,1349.4409,8.321,-0.00071,-0.00010999999,0
182.85,2000,0,91.24,0.000002697398,0.000002697398,0.000002697398,0.99999994,0,0,0,0,0,0,1,0,0,0,0,false,false,false,0,1744.85,17.01,-0.003347471,0.00336905,0.7070959,0.7071016,0,1351.2009,8.321,-0.00071,-0.00010999999,0
182.85834,2000,0,91.24,0.000002697398,0.000002697398,0.000002697398,0.99999994,0,0,0,0,0,0,1,0,0,0,0,false,false,false,0,1756.11,17.01,-0.003347471,0.00336905,0.7070959,0.7071016,0,1352.9509,8.321,-0.00071,-0.00010999999,0
182.86667,2000,0,91.24,0.000002697398,0.000002697398,0.000002697398,0.99999994,0,0,0,0,0,0,1,0,0,0,0,false,false,false,0,1767.38,17.01,-0.003347471,0.00336905,0.7070959,0.7071016,0,1354.6809,8.321,-0.00071,-0.00010999999,0
182.875,2000,0,91.24,0.000002697398,0.000002697398,0.000002697398,0.99999994,0,0,0,0,0,0,1,0,0,0,0,false,false,false,0,1778.6699,17.01,-0.003347471,0.00336905,0.7070959,0.7071016,0,1356.401,8.321,-0.00071,-0.00010999999,0
182.88333,2000,0,91.24,0.000002697398,0.000002697398,0.000002697398,0.99999994,0,0,0,0,0,0,1,0,0,0,0,false,false,false,0,1789.97,17.01,-0.003347471,0.00336905,0.7070959,0.7071016,0,1358.101,8.321,-0.00071,-0.00010999999,0
182.89166,2000,0,91.24,0.000002697398,0.000002697398,0.000002697398,0.99999994,0,0,0,0,0,0,1,0,0,0,0,false,false,false,0,1801.2899,17.01,-0.003347471,0.00336905,0.7070959,0.7071016,0,1359.7909,8.321,-0.00071,-0.00010999999,0
182.9,2000,0,91.24,0.000002697398,0.000002697398,0.000002697398,0.99999994,0,0,0,0,0,0,1,0,0,0,0,false,false,false,0,1812.62,17.01,-0.003347471,0.00336905,0.7070959,0.7071016,0,1361.4609,8.321,-0.00071,-0.00010999999,0
182.90834,2000,0,91.24,0.000002697398,0.000002697398,0.000002697398,0.99999994,0,0,0,0,0,0,1,0,0,0,0,false,false,false,0,1823.97,17.01,-0.003347471,0.00336905,0.7070959,0.7071016,0,1363.121,8.321,-0.00071,-0.00010999999,0
182.91667,2000,0,91.24,0.000002697398,0.000002697398,0.000002697398,0.99999994,0,0,0,0,0,0,1,0,0,0,0,false,false,false,0,1835.33,17.01,-0.003347471,0.00336905,0.7070959,0.7071016,0,1364.771,8.321,-0.00071,-0.00010999999,0
182.925,2000,0,91.24,0.000002697398,0.000002697398,0.000002697398,0.99999994,0,0,0,0,0,0,1,0,0,0,0,false,false,false,0,1846.7,17.01,-0.003347471,0.00336905,0.7070959,0.7071016,0,1366.401,8.321,-0.00071,-0.00010999999,0
182.93333,2000,0,91.24,0.000002697398,0.000002697398,0.000002697398,0.99999994,0,0,0,0,0,0,1,0,0,0,0,false,false,false,0,1858.09,17.01,-0.003347471,0.00336905,0.7070959,0.7071016,0,1368.021,8.321,-0.00071,-0.00010999999,0
182.94167,2000,0,91.24,0.000002697398,0.000002697398,0.000002697398,0.99999994,0,0,0,0,0,0,1,0,0,0,0,false,false,false,0,1869.49,17.01,-0.003347471,0.00336905,0.7070959,0.7071016,0,1369.621,8.321,-0.00071,-0.00010999999,0
182.95,2000,0,91.24,0.000002697398,0.000002697398,0.000002697398,0.99999994,0,0,0,0,0,0,1,0,0,0,0,false,false,false,0,1880.8999,17.01,-0.003347471,0.00336905,0.7070959,0.7071016,0,1371.2109,8.321,-0.00071,-0.00010999999,0
182.95833,2000,0,91.24,0.000002697398,0.000002697398,0.000002697398,0.99999994,0,0,0,0,0,0,1,0,0,0,0,false,false,false,0,1892.33,17.01,-0.003347471,0.00336905,0.7070959,0.7071016,0,1372.7909,8.321,-0.00071,-0.00010999999,0
182.96666,2000,0,91.24,0.000002697398,0.000002697398,0.000002697398,0.99999994,0,0,0,0,0,0,1,0,0,0,0,false,false,false,0,1903.7699,17.01,-0.003347471,0.00336905,0.7070959,0.7071016,0,1374.351,8.321,-0.00071,-0.00010999999,0
182.975,2000,0,91.24,0.000002697398,0.000002697398,0.000002697398,0.99999994,0,0,0,0,0,0,1,0,0,0,0,false,false,false,0,1915.22,17.01,-0.003347471,0.00336905,0.7070959,0.7071016,0,1375.901,8.321,-0.00071,-0.00010999999,0
182.98334,2000,0,91.24,0.000002697398,0.000002697398,0.000002697398,0.99999994,0,0,0,0,0,0,1,0,0,0,0,false,false,false,0,1926.69,17.01,-0.003347471,0.00336905,0.7070959,0.7071016,0,1377.4409,8.321,-0.00071,-0.00010999999,0
182.99167,2000,0,91.24,0.000002697398,0.000002697398,0.000002697398,0.99999994,0,0,0,0,0,0,1,0,0,0,0,false,false,false,0,1938.1699,17.01,-0.003347471,0.00336905,0.7070959,0.7071016,0,1378.9609,8.321,-0.00071,-0.00010999999,0
183,2000,0,91.24,0.000002697398,0.000002697398,0.000002697398,0.99999994,0,0,0,0,0,0,1,0,0,0,0,false,false,false,0,1949.6599,17.01,-0.003347471,0.00336905,0.7070959,0.7071016,0,1380.471,8.321,-0.00071,-0.00010999999,0
183.00833,2000,0,91.24,0.000002697398,0.000002697398,0.000002697398,0.99999994,0,0,0,0,0,0,1,0,0,0,0,false,false,false,0,1961.1599,17.01,-0.003347471,0.00336905,0.7070959,0.7071016,0,1381.971,8.321,-0.00071,-0.00010999999,0
183.01666,2000,0,91.24,0.000002697398,0.000002697398,0.000002697398,0.99999994,0,0,0,0,0,0,1,0,0,0,0,false,false,false,0,1972.6799,17.01,-0.003347471,0.00336905,0.7070959,0.7071016,0,1383.4509,8.321,-0.00071,-0.00010999999,0
183.025,2000,0,91.24,0.000002697398,0.000002697398,0.000002697398,0.99999994,0,0,0,0,0,0,1,0,0,0,0,false,false,false,0,1984.21,17.01,-0.003347471,0.00336905,0.7070959,0.7071016,0,1384.9209,8.321,-0.00071,-0.00010999999,0
183.03334,2000,0,91.24,0.000002697398,0.000002697398,0.000002697398,0.99999994,0,0,0,0,0,0,1,0,0,0,0,false,false,false,0,1995.75,17.01,-0.003347471,0.00336905,0.7070959,0.7071016,0,1386.381,8.321,-0.00071,-0.00010999999,0
183.04167,2000,0,91.24,0.000002697398,0.000002697398,0.000002697398,0.99999994,0,0,0,0,0,0,1,0,0,0,0,false,false,false,0,2007.2999,17.01,-0.003347471,0.00336905,0.7070959,0.7071016,0,1387.8309,8.321,-0.00071,-0.00010999999,0
183.05,2000,0,91.24,0.000002697398,0.000002697398,0.000002697398,0.99999994,0,0,0,0,0,0,1,0,0,0,0,false,false,false,0,2018.87,17.01,-0.003347471,0.00336905,0.7070959,0.7071016,0,1389.261,8.321,-0.00071,-0.00010999999,0
183.05833,2000,0,91.24,0.000002697398,0.000002697398,0.000002697398,0.99999994,0,0,0,0,0,0,1,0,0,0,0,false,false,false,0,2030.45,17.01,-0.003347471,0.00336905,0.7070959,0.7071016,0,1390.6809,8.321,-0.00071,-0.00010999999,0
183.06667,2000,0,91.24,0.000002697398,0.000002697398,0.000002697398,0.99999994,0,0,0,0,0,0,1,0,0,0,0,false,false,false,0,2042.0399,17.01,-0.003347471,0.00336905,0.7070959,0.7071016,0,1392.091,8.321,-0.00071,-0.00010999999,0
183.075,2000,0,91.24,0.000002697398,0.000002697398,0.000002697398,0.99999994,0,0,0,0,0,0,1,0,0,0,0,false,false,false,0,2053.64,17.01,-0.003347471,0.00336905,0.7070959,0.7071016,0,1393.491,8.321,-0.00071,-0.00010999999,0
183.08333,2000,0,91.24,0.000002697398,0.000002697398,0.000002697398,0.99999994,0,0,0,0,0,0,1,0,0,0,0,false,false,false,0,2065.25,17.01,-0.003347471,0.00336905,0.7070959,0.7071016,0,1394.881,8.321,-0.00071,-0.00010999999,0
183.09166,2000,0,91.24,0.000002697398,0.000002697398,0.000002697398,0.99999994,0,0,0,0,0,0,1,0,0,0,0,false,false,false,0,2076.8699,17.01,-0.003347471,0.00336905,0.7070959,0.7071016,0,1396.251,8.321,-0.00071,-0.00010999999,0
183.1,2000,0,91.24,0.000002697398,0.000002697398,0.000002697398,0.99999994,0,0,0,0,0,0,1,0,0,0,0,false,false,false,0,2088.51,17.01,-0.003347471,0.00336905,0.7070959,0.7071016,0,1397.611,8.321,-0.00071,-0.00010999999,0
183.10834,2000,0,91.24,0.000002697398,0.000002697398,0.000002697398,0.99999994,0,0,0,0,0,0,1,0,0,0,0,false,false,false,0,2100.16,17.01,-0.003347471,0.00336905,0.7070959,0.7071016,0,1398.9609,8.321,-0.00081,-0.00010999999,0
183.11667,2000,0,91.24,0.000002697398,0.000002697398,0.000002697398,0.99999994,0,0,0,0,0,0,1,0,0,0,0,false,false,false,0,2111.82,17.01,-0.003347471,0.00336905,0.7070959,0.7071016,0,1400.3009,8.321,-0.00081,-0.00010999999,0
183.125,2000,0,91.24,0.000002697398,0.000002697398,0.000002697398,0.99999994,0,0,0,0,0,0,1,1,0,0,0,false,false,true,0,2123.49,17.01,-0.003347471,0.00336905,0.7070959,0.7071016,-12.241,1400.021,8.331,-0.00081,0.00301,0.34021
183.13333,2000,0,91.24,0.000002697398,0.000002697398,0.000002697398,0.99999994,0,0,0,0,0,0,1,1,0,0,0,false,false,true,-0.099999994,2135.16,17.01,-0.003347471,0.003374445,0.7080982,0.7060979,-22.290998,1399.991,8.331,-0.00081,0.00421,0.60581
183.14166,2000,0,91.24,0.000002697398,0.000002697398,0.000002697398,0.99999994,0,0,0,0,0,0,1,1,0,0,0,false,false,true,-0.29,2146.8298,17.01,-0.003347471,0.0033798397,0.7098797,0.7043068,-31.980999,1399.9409,8.331,-0.00081,0.00451,0.83731
183.15,2000,0,91.24,0.000002697398,0.000002697398,0.000002697398,0.99999994,0,0,0,0,0,0,1,1,0,0,0,false,false,true,-0.56,2158.5,17.01,-0.0033474711,0.0033852349,0.7123332,0.70182526,-41.711,1399.8209,8.331,-0.00071,0.0043099998,1.04071
183.15834,2000,0,91.24,0.000002697398,0.000002697398,0.000002697398,0.99999994,0,0,0,0,0,0,1,1,0,0,0,false,false,true,-0.90999997,2170.17,17.01,-0.0033528658,0.0033852346,0.7153709,0.69872856,-51.720997,1399.5809,8.331,-0.00071,0.00381,1.2208099
183.16667,2000,0,91.24,0.000002697398,0.000002697398,0.000002697398,0.99999994,0,0,0,0,0,0,1,1,0,0,0,false,false,true,-1.3399999,2181.8298,17.01,-0.0033582605,0.0033798397,0.71891487,0.69508165,-62.170998,1399.1809,8.341001,-0.00061,0.00321,1.38161
