time,ball_loc_x,ball_loc_y,ball_loc_z,ball_rot_x,ball_rot_y,ball_rot_z,ball_rot_w,ball_vel_x,ball_vel_y,ball_vel_z,ball_ang_x,ball_ang_y,ball_ang_z,player0_throttle,player0_steer,player0_pitch,player0_yaw,player0_roll,player0_jump,player0_boost,player0_handbrake,player0_loc_x,player0_loc_y,player0_loc_z,player0_rot_x,player0_rot_y,player0_rot_z,player0_rot_w,player0_vel_x,player0_vel_y,player0_vel_z,player0_ang_x,player0_ang_y,player0_ang_z
18.833334,2000,0,91.24,0.000002697398,0.000002697398,0.000002697398,0.99999994,0,0,0,0,0,0,0,0,0,0,0,false,false,false,0,0.14,17.01,-0.00336905,0.0033798397,0.7071014,0.7070959,0,0.011,8.321,-0.00051,0,0
18.841667,2000,0,73,0.000002697398,0.000002697398,0.000002697398,0.99999994,0,0,0,0,0,0,0.1023622,0,0,0,0,false,false,false,0,0,16.94,0.0000026973983,0.0000026973983,0.70710677,0.70710677,0,0,2.041,-0.050809998,0,0
18.85,2000,0,87.6,0.000002697398,0.000002697398,0.000002697398,0.99999994,0,0,0,0,0,0,0.1023622,0,0,0,0,false,false,false,0,0,16.89,-0.00014835689,0.00015375168,0.7071067,0.7071067,0,1.3610001,3.8809998,-0.085609995,0,0
18.858334,2000,0,90.52,0.000002697398,0.000002697398,0.000002697398,0.99999994,0,0,0,0,0,0,0.1023622,0,0,0,0,false,false,false,0,0.01,16.85,-0.00040191234,0.00040730715,0.70710653,0.70710677,0,2.721,5.481,-0.107209995,0,0
18.866667,2000,0,91.1,0.000002697398,0.000002697398,0.000002697398,0.99999994,0,0,0,0,0,0,0.1023622,0,0,0,0,false,false,false,0,0.03,16.83,-0.00072020525,0.00072560005,0.7071067,0.707106,0,4.081,6.791,-0.116409995,0,0
18.875,2000,0,91.22,0.000002697398,0.000002697398,0.000002697398,0.99999994,0,0,0,0,0,0,0.1023622,0,0,0,0,false,false,false,0,0.06,16.82,-0.0010654721,0.001070867,0.70710516,0.7071067,0,5.441,7.7409997,-0.11481,0,0
18.883333,2000,0,91.24,0.000002697398,0.000002697398,0.000002697398,0.99999994,0,0,0,0,0,0,0.1023622,0,0,0,0,false,false,false,0,0.11,16.82,-0.0014053443,0.0014107391,0.7071067,0.70710397,0,6.8009996,8.431,-0.106809996,0,0
18.891666,2000,0,91.24,0.000002697398,0.000002697398,0.000002697398,0.99999994,0,0,0,0,0,0,0.1023622,0,0,0,0,false,false,false,0,0.17,16.82,-0.0017182427,0.0017236375,0.707108,0.70710135,0,8.151,8.9210005,-0.09541,0,0
18.9,2000,0,91.24,0.000002697398,0.000002697398,0.000002697398,0.99999994,0,0,0,0,0,0,0.1023622,0,0,0,0,false,false,false,0,0.24,16.83,-0.001998772,0.0020041666,0.70710653,0.7071013,0,9.501,9.281,-0.08271,0,0
18.908333,2000,0,91.24,0.000002697398,0.000002697398,0.000002697398,0.99999994,0,0,0,0,0,0,0.1023622,0,0,0,0,false,false,false,0,0.32,16.84,-0.0022415377,0.0022469326,0.70710504,0.7071013,0,10.851,9.521,-0.06991,0,0
18.916666,2000,0,91.24,0.000002697398,0.000002697398,0.000002697398,0.99999994,0,0,0,0,0,0,0.1023622,0,0,0,0,false,false,false,0,0.41,16.85,-0.00244654,0.0024519349,0.70710367,0.7071013,0,12.201,9.6710005,-0.05791,0,0
18.925,2000,0,91.24,0.000002697398,0.000002697398,0.000002697398,0.99999994,0,0,0,0,0,0,0.1023622,0,0,0,0,false,false,false,0,0.51,16.859999,-0.0026191734,0.0026245683,0.7071024,0.7071013,0,13.551,9.761001,-0.04711,0,0
18.933332,2000,0,91.24,0.000002697398,0.000002697398,0.000002697398,0.99999994,0,0,0,0,0,0,0.1023622,0,0,0,0,false,false,false,0,0.62,16.869999,-0.0027594382,0.002764833,0.70710135,0.7071013,0,14.901,9.811,-0.037609998,0,0
18.941668,2000,0,91.24,0.000002697398,0.000002697398,0.000002697398,0.99999994,0,0,0,0,0,0,0.1023622,0,0,0,0,false,false,false,0,0.74,16.88,-0.002872729,0.0028781237,0.7071005,0.7071013,0,16.251,9.831,-0.02951,0,0
18.95,2000,0,91.24,0.000002697398,0.000002697398,0.000002697398,0.99999994,0,0,0,0,0,0,0.1023622,0,0,0,0,false,false,false,0,0.88,16.89,-0.0029590456,0.0029644405,0.7071013,0.7070998,0,17.601,9.811,-0.02311,0,0
18.958334,2000,0,91.24,0.000002697398,0.000002697398,0.000002697398,0.99999994,0,0,0,0,0,0,0.1023622,0,0,0,0,false,false,false,0,1.03,16.9,-0.003029178,0.0030345728,0.7070992,0.7071013,0,18.950998,9.761001,-0.018410001,0,0
18.966667,2000,0,91.24,0.000002697398,0.000002697398,0.000002697398,0.99999994,0,0,0,0,0,0,0.1023622,0,0,0,0,false,false,false,0,1.1899999,16.91,-0.003083126,0.0030885208,0.7071013,0.7070987,0,20.290998,9.681,-0.014909999,0,0
18.975,2000,0,91.24,0.000002697398,0.000002697398,0.000002697398,0.99999994,0,0,0,0,0,0,0.1023622,0,0,0,0,false,false,false,0,1.36,16.92,-0.0031262843,0.0031316793,0.70710367,0.7070959,0,21.630999,9.591001,-0.012309999,0,0
18.983334,2000,0,91.24,0.000002697398,0.000002697398,0.000002697398,0.99999994,0,0,0,0,0,0,0.1023622,0,0,0,0,false,false,false,0,1.54,16.93,-0.003164048,0.003169443,0.7071034,0.707096,0,22.970999,9.491,-0.01031,0,0
18.991667,2000,0,91.24,0.000002697398,0.000002697398,0.000002697398,0.99999994,0,0,0,0,0,0,0.1023622,0,0,0,0,false,false,false,0,1.73,16.94,-0.0031964167,0.0032018116,0.7071031,0.7070959,0,24.310999,9.391,-0.008609999,0,0
19,2000,0,91.24,0.000002697398,0.000002697398,0.000002697398,0.99999994,0,0,0,0,0,0,0.1023622,0,0,0,0,false,false,false,0,1.93,16.949999,-0.0032233908,0.0032287855,0.70710284,0.7070959,0,25.651,9.281,-0.00731,0,0
19.008333,2000,0,91.24,0.000002697398,0.000002697398,0.000002697398,0.99999994,0,0,0,0,0,0,0.1023622,0,0,0,0,false,false,false,0,2.1399999,16.96,-0.0032449698,0.0032503647,0.7071026,0.7070959,0,26.991,9.1710005,-0.00621,0,0
19.016666,2000,0,91.24,0.000002697398,0.000002697398,0.000002697398,0.99999994,0,0,0,0,0,0,0.1023622,0,0,0,0,false,false,false,0,2.36,16.97,-0.0032611543,0.003266549,0.7071025,0.7070959,0,28.331,9.061,-0.00531,0,0
19.025,2000,0,91.24,0.000002697398,0.000002697398,0.000002697398,0.99999994,0,0,0,0,0,0,0.1023622,0,0,0,0,false,false,false,0,2.6,16.98,-0.0032773386,0.0032827335,0.7071023,0.7070959,0,29.671,8.951,-0.00461,0,0
19.033333,2000,0,91.24,0.000002697398,0.000002697398,0.000002697398,0.99999994,0,0,0,0,0,0,0.1023622,0,0,0,0,false,false,false,0,2.85,16.99,-0.003293523,0.0032989178,0.7071021,0.7070959,0,31.001,8.841001,-0.00401,0,0
19.041666,2000,0,91.24,0.000002697398,0.000002697398,0.000002697398,0.99999994,0,0,0,0,0,0,0.1023622,0,0,0,0,false,false,false,0,3.11,17,-0.0033043127,0.0033097074,0.70710206,0.7070959,0,32.330997,8.731,-0.00341,0,0
19.05,2000,0,91.24,0.000002697398,0.000002697398,0.000002697398,0.99999994,0,0,0,0,0,0,0.1023622,0,0,0,0,false,false,false,0,3.3799999,17.01,-0.0033151023,0.003320497,0.707102,0.7070959,0,33.661,8.621,-0.00291,0,0
19.058332,2000,0,91.24,0.000002697398,0.000002697398,0.000002697398,0.99999994,0,0,0,0,0,0,0.1023622,0,0,0,0,false,false,false,0,3.6599998,17.01,-0.003325892,0.0033312866,0.7071019,0.7070959,0,34.990997,8.511001,-0.00251,0,0
19.066668,2000,0,91.24,0.000002697398,0.000002697398,0.000002697398,0.99999994,0,0,0,0,0,0,0.1023622,0,0,0,0,false,false,false,0,3.9499998,17.01,-0.0033312866,0.0033366815,0.7071018,0.7070959,0,36.321,8.441,-0.00211,0,0
19.075,2000,0,91.24,0.000002697398,0.000002697398,0.000002697398,0.99999994,0,0,0,0,0,0,0.1023622,0,0,0,0,false,false,false,0,4.25,17.01,-0.0033366815,0.0033420762,0.70710176,0.7070959,0,37.650997,8.391,-0.0018099999,0,0
19.083334,2000,0,91.24,0.000002697398,0.000002697398,0.000002697398,0.99999994,0,0,0,0,0,0,0.1023622,0,0,0,0,false,false,false,0,4.56,17.01,-0.0033420762,0.003347471,0.7071017,0.7070959,0,38.981,8.361,-0.0016099999,0,0
19.091667,2000,0,91.24,0.000002697398,0.000002697398,0.000002697398,0.99999994,0,0,0,0,0,0,0.1023622,0,0,0,0,false,false,false,0,4.88,17.01,-0.003347471,0.0033528658,0.70710164,0.7070959,0,40.310997,8.341001,-0.0014099999,0,0
19.1,2000,0,91.24,0.000002697398,0.000002697398,0.000002697398,0.99999994,0,0,0,0,0,0,0.1023622,0,0,0,0,false,false,false,0,5.22,17.01,-0.0033528658,0.0033582605,0.7071016,0.7070959,0,41.641,8.331,-0.0012099999,0,0
19.108334,2000,0,91.24,0.000002697398,0.000002697398,0.000002697398,0.99999994,0,0,0,0,0,0,0.1023622,0,0,0,0,false,false,false,0,5.5699997,17.01,-0.0033582605,0.0033636554,0.7071016,0.7070959,0,42.961,8.321,-0.00111,0,0
19.116667,2000,0,91.24,0.000002697398,0.000002697398,0.000002697398,0.99999994,0,0,0,0,0,0,0.1023622,0,0,0,0,false,false,false,0,5.93,17.01,-0.0033636554,0.00336905,0.7071015,0.7070959,0,44.281,8.321,-0.00091,0,0
19.125,2000,0,91.24,0.000002697398,0.000002697398,0.000002697398,0.99999994,0,0,0,0,0,0,0.1023622,0,0,0,0,false,false,false,0,6.2999997,17.01,-0.0033636554,0.003374445,0.70710146,0.7070959,0,45.600998,8.321,-0.00071,0,0
19.133333,2000,0,91.24,0.000002697398,0.000002697398,0.000002697398,0.99999994,0,0,0,0,0,0,0.1023622,0,0,0,0,false,false,false,0,6.68,17.01,-0.0033636554,0.003374445,0.70710146,0.7070959,0,46.920998,8.321,-0.00061,0,0
19.141666,2000,0,91.24,0.000002697398,0.000002697398,0.000002697398,0.99999994,0,0,0,0,0,0,0.1023622,0,0,0,0,false,false,false,0,7.0699997,17.01,-0.0033636554,0.003374445,0.70710146,0.7070959,0,48.240997,8.321,-0.00051,0,0
19.15,2000,0,91.24,0.000002697398,0.000002697398,0.000002697398,0.99999994,0,0,0,0,0,0,0.1023622,0,0,0,0,false,false,false,0,7.47,17.01,-0.0033636554,0.003374445,0.70710146,0.7070959,0,49.560997,8.321,-0.00051,0,0
19.158333,2000,0,91.24,0.000002697398,0.000002697398,0.000002697398,0.99999994,0,0,0,0,0,0,0.1023622,0,0,0,0,false,false,false,0,7.8799996,17.01,-0.0033636554,0.003374445,0.70710146,0.7070959,0,50.880997,8.321,-0.00051,0,0
19.166666,2000,0,91.24,0.000002697398,0.000002697398,0.000002697398,0.99999994,0,0,0,0,0,0,0.1023622,0,0,0,0,false,false,false,0,8.3,17.01,-0.0033636554,0.003374445,0.70710146,0.7070959,0,52.200996,8.321,-0.00051,0,0
19.175,2000,0,91.24,0.000002697398,0.000002697398,0.000002697398,0.99999994,0,0,0,0,0,0,0.1023622,0,0,0,0,false,false,false,0,8.74,17.01,-0.0033636554,0.003374445,0.70710146,0.7070959,0,53.521,8.321,-0.00051,0,0
19.183332,2000,0,91.24,0.000002697398,0.000002697398,0.000002697398,0.99999994,0,0,0,0,0,0,0.1023622,0,0,0,0,false,false,false,0,9.19,17.01,-0.0033636554,0.003374445,0.70710146,0.7070959,0,54.830997,8.321,-0.00051,0,0
19.191668,2000,0,91.24,0.000002697398,0.000002697398,0.000002697398,0.99999994,0,0,0,0,0,0,0.1023622,0,0,0,0,false,false,false,0,9.65,17.01,-0.0033636554,0.003374445,0.70710146,0.7070959,0,56.141,8.321,-0.00051,0,0
19.2,2000,0,91.24,0.000002697398,0.000002697398,0.000002697398,0.99999994,0,0,0,0,0,0,0.1023622,0,0,0,0,false,false,false,0,10.12,17.01,-0.0033636554,0.003374445,0.70710146,0.7070959,0,57.450996,8.321,-0.00051,0,0
19.208334,2000,0,91.24,0.000002697398,0.000002697398,0.000002697398,0.99999994,0,0,0,0,0,0,0.1023622,0,0,0,0,false,false,false,0,10.599999,17.01,-0.0033636554,0.003374445,0.70710146,0.7070959,0,58.760998,8.321,-0.00051,0,0
19.216667,2000,0,91.24,0.000002697398,0.000002697398,0.000002697398,0.99999994,0,0,0,0,0,0,0.1023622,0,0,0,0,false,false,false,0,11.09,17.01,-0.0033636554,0.003374445,0.70710146,0.7070959,0,60.071,8.321,-0.00051,0,0
19.225,2000,0,91.24,0.000002697398,0.000002697398,0.000002697398,0.99999994,0,0,0,0,0,0,0.1023622,0,0,0,0,false,false,false,0,11.59,17.01,-0.0033636554,0.003374445,0.70710146,0.7070959,0,61.380997,8.321,-0.00051,0,0
19.233334,2000,0,91.24,0.000002697398,0.000002697398,0.000002697398,0.99999994,0,0,0,0,0,0,0.1023622,0,0,0,0,false,false,false,0,12.099999,17.01,-0.0033636554,0.003374445,0.70710146,0.7070959,0,62.690998,8.321,-0.00051,0,0
19.241667,2000,0,91.24,0.000002697398,0.000002697398,0.000002697398,0.99999994,0,0,0,0,0,0,0.1023622,0,0,0,0,false,false,false,0,12.62,17.01,-0.0033636554,0.003374445,0.70710146,0.7070959,0,64.001,8.321,-0.00051,0,0
19.25,2000,0,91.24,0.000002697398,0.000002697398,0.000002697398,0.99999994,0,0,0,0,0,0,0.1023622,0,0,0,0,false,false,false,0,13.15,17.01,-0.0033636554,0.003374445,0.70710146,0.7070959,0,65.300995,8.321,-0.00051,0,0
19.258333,2000,0,91.24,0.000002697398,0.000002697398,0.000002697398,0.99999994,0,0,0,0,0,0,0.1023622,0,0,0,0,false,false,false,0,13.69,17.01,-0.0033636554,0.003374445,0.70710146,0.7070959,0,66.601,8.321,-0.00051,0,0
19.266666,2000,0,91.24,0.000002697398,0.000002697398,0.000002697398,0.99999994,0,0,0,0,0,0,0.1023622,0,0,0,0,false,false,false,0,14.25,17.01,-0.0033636554,0.003374445,0.70710146,0.7070959,0,67.901,8.321,-0.00051,0,0
19.275,2000,0,91.24,0.000002697398,0.000002697398,0.000002697398,0.99999994,0,0,0,0,0,0,0.1023622,0,0,0,0,false,false,false,0,14.82,17.01,-0.0033636554,0.003374445,0.70710146,0.7070959,0,69.201,8.321,-0.00051,0,0
19.283333,2000,0,91.24,0.000002697398,0.000002697398,0.000002697398,0.99999994,0,0,0,0,0,0,0.1023622,0,0,0,0,false,false,false,0,15.4,17.01,-0.0033636554,0.003374445,0.70710146,0.7070959,0,70.501,8.321,-0.00051,0,0
19.291666,2000,0,91.24,0.000002697398,0.000002697398,0.000002697398,0.99999994,0,0,0,0,0,0,0.1023622,0,0,0,0,false,false,false,0,15.99,17.01,-0.0033636554,0.003374445,0.70710146,0.7070959,0,71.800995,8.321,-0.00051,0,0
19.3,2000,0,91.24,0.000002697398,0.000002697398,0.000002697398,0.99999994,0,0,0,0,0,0,0.1023622,0,0,0,0,false,false,false,0,16.59,17.01,-0.0033636554,0.003374445,0.70710146,0.7070959,0,73.101,8.321,-0.00051,0,0
19.308332,2000,0,91.24,0.000002697398,0.000002697398,0.000002697398,0.99999994,0,0,0,0,0,0,0.1023622,0,0,0,0,false,false,false,0,17.199999,17.01,-0.0033636554,0.003374445,0.70710146,0.7070959,0,74.401,8.321,-0.00051,0,0
19.316668,2000,0,91.24,0.000002697398,0.000002697398,0.000002697398,0.99999994,0,0,0,0,0,0,0.1023622,0,0,0,0,false,false,false,0,17.82,17.01,-0.0033636554,0.003374445,0.70710146,0.7070959,0,75.701,8.321,-0.00051,0,0
19.325,2000,0,91.24,0.000002697398,0.000002697398,0.000002697398,0.99999994,0,0,0,0,0,0,0.1023622,0,0,0,0,false,false,false,0,18.449999,17.01,-0.0033636554,0.003374445,0.70710146,0.7070959,0,76.991,8.321,-0.00051,0,0
19.333334,2000,0,91.24,0.000002697398,0.000002697398,0.000002697398,0.99999994,0,0,0,0,0,0,0.1023622,0,0,0,0,false,false,false,0,19.09,17.01,-0.0033636554,0.003374445,0.70710146,0.7070959,0,78.281,8.321,-0.00051,0,0
19.341667,2000,0,91.24,0.000002697398,0.000002697398,0.000002697398,0.99999994,0,0,0,0,0,0,0.1023622,0,0,0,0,false,false,false,0,19.74,17.01,-0.0033636554,0.003374445,0.70710146,0.7070959,0,79.571,8.321,-0.00051,0,0
19.35,2000,0,91.24,0.000002697398,0.000002697398,0.000002697398,0.99999994,0,0,0,0,0,0,0.1023622,0,0,0,0,false,false,false,0,20.4,17.01,-0.0033636554,0.003374445,0.70710146,0.7070959,0,80.861,8.321,-0.00051,0,0
19.358334,2000,0,91.24,0.000002697398,0.000002697398,0.000002697398,0.99999994,0,0,0,0,0,0,0.1023622,0,0,0,0,false,false,false,0,21.07,17.01,-0.0033636554,0.003374445,0.70710146,0.7070959,0,82.151,8.321,-0.00051,0,0
19.366667,2000,0,91.24,0.000002697398,0.000002697398,0.000002697398,0.99999994,0,0,0,0,0,0,0.1023622,0,0,0,0,false,false,false,0,21.75,17.01,-0.0033636554,0.003374445,0.70710146,0.7070959,0,83.440994,8.321,-0.00051,0,0
19.375,2000,0,91.24,0.000002697398,0.000002697398,0.000002697398,0.99999994,0,0,0,0,0,0,0.1023622,0,0,0,0,false,false,false,0,22.449999,17.01,-0.0033636554,0.003374445,0.70710146,0.7070959,0,84.730995,8.321,-0.00051,0,0
19.383333,2000,0,91.24,0.000002697398,0.000002697398,0.000002697398,0.99999994,0,0,0,0,0,0,0.1023622,0,0,0,0,false,false,false,0,23.16,17.01,-0.0033636554,0.003374445,0.70710146,0.7070959,0,86.020996,8.321,-0.00051,0,0
19.391666,2000,0,91.24,0.000002697398,0.000002697398,0.000002697398,0.99999994,0,0,0,0,0,0,0.1023622,0,0,0,0,false,false,false,0,23.88,17.01,-0.0033636554,0.003374445,0.70710146,0.7070959,0,87.311,8.321,-0.00051,0,0
19.4,2000,0,91.24,0.000002697398,0.000002697398,0.000002697398,0.99999994,0,0,0,0,0,0,0.1023622,0,0,0,0,false,false,false,0,24.609999,17.01,-0.0033636554,0.003374445,0.70710146,0.7070959,0,88.590996,8.321,-0.00051,0,0
19.408333,2000,0,91.24,0.000002697398,0.000002697398,0.000002697398,0.99999994,0,0,0,0,0,0,0.1023622,0,0,0,0,false,false,false,0,25.35,17.01,-0.0033636554,0.003374445,0.70710146,0.7070959,0,89.870995,8.321,-0.00051,0,0
19.416666,2000,0,91.24,0.000002697398,0.000002697398,0.000002697398,0.99999994,0,0,0,0,0,0,0.1023622,0,0,0,0,false,false,false,0,26.099998,17.01,-0.0033636554,0.003374445,0.70710146,0.7070959,0,91.151,8.321,-0.00051,0,0
19.425,2000,0,91.24,0.000002697398,0.000002697398,0.000002697398,0.99999994,0,0,0,0,0,0,0.1023622,0,0,0,0,false,false,false,0,26.859999,17.01,-0.0033636554,0.003374445,0.70710146,0.7070959,0,92.431,8.321,-0.00051,0,0
19.433332,2000,0,91.24,0.000002697398,0.000002697398,0.000002697398,0.99999994,0,0,0,0,0,0,0.1023622,0,0,0,0,false,false,false,0,27.63,17.01,-0.0033636554,0.003374445,0.70710146,0.7070959,0,93.711,8.321,-0.00051,0,0
19.441668,2000,0,91.24,0.000002697398,0.000002697398,0.000002697398,0.99999994,0,0,0,0,0,0,0.1023622,0,0,0,0,false,false,false,0,28.41,17.01,-0.0033636554,0.003374445,0.70710146,0.7070959,0,94.991,8.321,-0.00051,0,0
19.45,2000,0,91.24,0.000002697398,0.000002697398,0.000002697398,0.99999994,0,0,0,0,0,0,0.1023622,0,0,0,0,false,false,false,0,29.199999,17.01,-0.0033636554,0.003374445,0.70710146,0.7070959,0,96.270996,8.321,-0.00051,0,0
19.458334,2000,0,91.24,0.000002697398,0.000002697398,0.000002697398,0.99999994,0,0,0,0,0,0,0.1023622,0,0,0,0,false,false,false,0,30,17.01,-0.0033636554,0.003374445,0.70710146,0.7070959,0,97.550995,8.321,-0.00051,0,0
19.466667,2000,0,91.24,0.000002697398,0.000002697398,0.000002697398,0.99999994,0,0,0,0,0,0,0.1023622,0,0,0,0,false,false,false,0,30.81,17.01,-0.0033636554,0.003374445,0.70710146,0.7070959,0,98.83099,8.321,-0.00051,0,0
19.475,2000,0,91.24,0.000002697398,0.000002697398,0.000002697398,0.99999994,0,0,0,0,0,0,0.1023622,0,0,0,0,false,false,false,0,31.63,17.01,-0.0033636554,0.003374445,0.70710146,0.7070959,0,100.101,8.321,-0.00051,0,0
19.483334,2000,0,91.24,0.000002697398,0.000002697398,0.000002697398,0.99999994,0,0,0,0,0,0,0,1,0,0,0,false,false,true,0,32.46,17.01,-0.0033636554,0.003374445,0.70710146,0.7070959,-3.3309999,98.33099,8.331,-0.00061,0.00071,0.08711
19.491667,2000,0,91.24,0.000002697398,0.000002697398,0.000002697398,0.99999994,0,0,0,0,0,0,0,1,0,0,0,false,false,true,-0.03,33.28,17.01,-0.0033636556,0.00337984,0.70736027,0.70683706,-5.3209996,97.260994,8.331,-0.00061,0.00081,0.14030999
19.5,2000,0,91.24,0.000002697398,0.000002697398,0.000002697398,0.99999994,0,0,0,0,0,0,0,1,0,0,0,false,false,true,-0.07,34.09,17.01,-0.0033636554,0.0033798397,0.7077752,0.70642155,-7.041,96.340996,8.331,-0.00061,0.00081,0.18641
19.508333,2000,0,91.24,0.000002697398,0.000002697398,0.000002697398,0.99999994,0,0,0,0,0,0,0,1,0,0,0,false,false,true,-0.13,34.89,17.01,-0.0033636554,0.0033798397,0.70832396,0.7058713,-8.521,95.550995,8.331,-0.00061,0.00071,0.22611
19.516666,2000,0,91.24,0.000002697398,0.000002697398,0.000002697398,0.99999994,0,0,0,0,0,0,0,1,0,0,0,false,false,true,-0.19999999,35.69,17.01,-0.0033690496,0.0033798392,0.7089899,0.7052023,-9.791,94.870995,8.331,-0.00061,0.00051,0.26011002
19.525,2000,0,91.24,0.000002697398,0.000002697398,0.000002697398,0.99999994,0,0,0,0,0,0,0,1,0,0,0,false,false,true,-0.28,36.48,17.01,-0.003374445,0.0033798397,0.70975643,0.7044309,-10.891,94.291,8.331,-0.00051,0.00040999998,0.28911
19.533333,2000,0,91.24,0.000002697398,0.000002697398,0.000002697398,0.99999994,0,0,0,0,0,0,0,1,0,0,0,false,false,true,-0.37,37.27,17.01,-0.00337984,0.00337984,0.7106067,0.70357317,-11.831,93.800995,8.331,-0.00040999998,0.00030999997,0.31361002
19.541666,2000,0,91.24,0.000002697398,0.000002697398,0.000002697398,0.99999994,0,0,0,0,0,0,0,1,0,0,0,false,false,true,-0.47,38.05,17.01,-0.0033852346,0.0033798397,0.7115241,0.70264524,-12.641,93.381,8.331,-0.00040999998,0.00010999999,0.33431
19.55,2000,0,91.24,0.000002697398,0.000002697398,0.000002697398,0.99999994,0,0,0,0,0,0,0,1,0,0,0,false,false,true,-0.58,38.829998,17.01,-0.0033906293,0.003374445,0.7125031,0.7016526,-13.341001,93.020996,8.331,-0.00030999997,0,0.35161
19.558332,2000,0,91.24,0.000002697398,0.000002697398,0.000002697398,0.99999994,0,0,0,0,0,0,0,1,0,0,0,false,false,true,-0.69,39.61,17.01,-0.0033960242,0.00336905,0.7135322,0.700606,-13.951,92.721,8.321,-0.00030999997,0,0.36601
19.566668,2000,0,91.24,0.000002697398,0.000002697398,0.000002697398,0.99999994,0,0,0,0,0,0,0,1,0,0,0,false,false,true,-0.81,40.379997,17.01,-0.003401419,0.0033636554,0.71460056,0.69951624,-14.481,92.461,8.321,-0.00030999997,0,0.37801
19.575,2000,0,91.24,0.000002697398,0.000002697398,0.000002697398,0.99999994,0,0,0,0,0,0,0,1,0,0,0,false,false,true,-0.93,41.149998,17.01,-0.0034068138,0.0033582605,0.7157026,0.6983887,-14.941,92.241,8.321,-0.00030999997,-0.00010999999,0.38791
19.583334,2000,0,91.24,0.000002697398,0.000002697398,0.000002697398,0.99999994,0,0,0,0,0,0,0,1,0,0,0,false,false,true,-1.05,41.92,17.01,-0.0034122085,0.0033528658,0.7168325,0.69722885,-15.341,92.061,8.321,-0.00030999997,-0.00010999999,0.39601
19.591667,2000,0,91.24,0.000002697398,0.000002697398,0.000002697398,0.99999994,0,0,0,0,0,0,0,1,0,0,0,false,false,true,-1.18,42.69,17.01,-0.0034176037,0.0033474711,0.7179799,0.69604737,-15.691,91.901,8.321,-0.00030999997,-0.00021,0.40261
19.6,2000,0,91.24,0.000002697398,0.000002697398,0.000002697398,0.99999994,0,0,0,0,0,0,0,1,0,0,0,false,false,true,-1.31,43.46,17.01,-0.0034229981,0.0033420762,0.7191442,0.69484425,-15.991,91.770996,8.321,-0.00030999997,-0.00021,0.40791
19.608334,2000,0,91.24,0.000002697398,0.000002697398,0.000002697398,0.99999994,0,0,0,0,0,0,0,1,0,0,0,false,false,true,-1.4399999,44.219997,17.01,-0.003428393,0.0033366815,0.72032547,0.6936196,-16.261,91.660995,8.321,-0.00030999997,-0.00030999997,0.41211
19.616667,2000,0,91.24,0.000002697398,0.000002697398,0.000002697398,0.99999994,0,0,0,0,0,0,0,1,0,0,0,false,false,true,-1.5799999,44.98,17.01,-0.0034337877,0.0033312866,0.72151303,0.69238424,-16.491,91.571,8.321,-0.00021,-0.00030999997,0.41531
19.625,2000,0,91.24,0.000002697398,0.000002697398,0.000002697398,0.99999994,0,0,0,0,0,0,0,1,0,0,0,false,false,true,-1.7199999,45.739998,17.01,-0.0034391826,0.003325892,0.72271204,0.6911326,-16.691,91.491,8.321,-0.00021,-0.00030999997,0.41781
19.633333,2000,0,91.24,0.000002697398,0.000002697398,0.000002697398,0.99999994,0,0,0,0,0,0,0,1,0,0,0,false,false,true,-1.86,46.5,17.01,-0.0034445773,0.003320497,0.72391194,0.68987566,-16.860998,91.421,8.321,-0.00021,-0.00040999998,0.41961
19.641666,2000,0,91.24,0.000002697398,0.000002697398,0.000002697398,0.99999994,0,0,0,0,0,0,0,1,0,0,0,false,false,true,-2,47.26,17.01,-0.0034499723,0.0033151023,0.72511804,0.6886079,-17.011,91.361,8.321,-0.00021,-0.00040999998,0.42091
19.65,2000,0,91.24,0.000002697398,0.000002697398,0.000002697398,0.99999994,0,0,0,0,0,0,0,1,0,0,0,false,false,true,-2.1399999,48.02,17.01,-0.003455367,0.0033097074,0.726325,0.6873347,-17.130999,91.311,8.321,-0.00021,-0.00040999998,0.42181
19.658333,2000,0,91.24,0.000002697398,0.000002697398,0.000002697398,0.99999994,0,0,0,0,0,0,0,1,0,0,0,false,false,true,-2.28,48.78,17.01,-0.0034607612,0.0033043122,0.72753274,0.6860561,-17.230999,91.270996,8.321,-0.00021,-0.00040999998,0.42231
19.666666,2000,0,91.24,0.000002697398,0.000002697398,0.000002697398,0.99999994,0,0,0,0,0,0,0,1,0,0,0,false,false,true,-2.4199998,49.539997,17.01,-0.0034661568,0.003298918,0.72873634,0.6847776,-17.310999,91.241,8.321,-0.00021,-0.00051,0.42261
19.675,2000,0,91.24,0.000002697398,0.000002697398,0.000002697398,0.99999994,0,0,0,0,0,0,0,1,0,0,0,false,false,true,-2.56,50.3,17.01,-0.0034715512,0.003293523,0.7299407,0.6834936,-17.370998,91.221,8.321,-0.00021,-0.00051,0.42271
19.683332,2000,0,91.24,0.000002697398,0.000002697398,0.000002697398,0.99999994,0,0,0,0,0,0,0,1,0,0,0,false,false,true,-2.7,51.059998,17.01,-0.0034769464,0.0032881284,0.7311459,0.6822043,-17.431,91.201,8.321,-0.00021,-0.00051,0.42281
19.691668,2000,0,91.24,0.000002697398,0.000002697398,0.000002697398,0.99999994,0,0,0,0,0,0,0,1,0,0,0,false,false,true,-2.85,51.82,17.01,-0.0034823408,0.0032827335,0.73234683,0.6809149,-17.501,91.181,8.321,-0.00021,-0.00051,0.42291
19.7,2000,0,91.24,0.000002697398,0.000002697398,0.000002697398,0.99999994,0,0,0,0,0,0,0,1,0,0,0,false,false,true,-3,52.579998,17.01,-0.0034877358,0.0032773386,0.7335435,0.6796255,-17.571,91.160995,8.321,-0.00021,-0.00051,0.42301
19.708334,2000,0,91.24,0.000002697398,0.000002697398,0.000002697398,0.99999994,0,0,0,0,0,0,0,1,0,0,0,false,false,true,-3.1499999,53.34,17.01,-0.0034931307,0.0032719441,0.734741,0.67833084,-17.640999,91.131,8.321,-0.00021,-0.00061,0.42311
19.716667,2000,0,91.24,0.000002697398,0.000002697398,0.000002697398,0.99999994,0,0,0,0,0,0,0,1,0,0,0,false,false,true,-3.3,54.1,17.01,-0.00350392,0.003266549,0.73593414,0.67703605,-17.720999,91.101,8.321,-0.00021,-0.00061,0.42321
19.725,2000,0,91.24,0.000002697398,0.000002697398,0.000002697398,0.99999994,0,0,0,0,0,0,0,1,0,0,0,false,false,true,-3.4499998,54.86,17.01,-0.0035147096,0.0032611543,0.73712814,0.6757359,-17.800999,91.071,8.321,-0.00010999999,-0.00061,0.42331
19.733334,2000,0,91.24,0.000002697398,0.000002697398,0.000002697398,0.99999994,0,0,0,0,0,0,0,1,0,0,0,false,false,true,-3.6,55.62,17.01,-0.0035201046,0.0032557594,0.73831785,0.67443573,-17.890999,91.041,8.321,0,-0.00061,0.42341
19.741667,2000,0,91.24,0.000002697398,0.000002697398,0.000002697398,0.99999994,0,0,0,0,0,0,0,1,0,0,0,false,false,true,-3.75,56.379997,17.01,-0.0035254993,0.0032503647,0.73950845,0.6731301,-17.980999,91.010994,8.321,0,-0.00061,0.42351002
19.75,2000,0,91.24,0.000002697398,0.000002697398,0.000002697398,0.99999994,0,0,0,0,0,0,0,1,0,0,0,false,false,true,-3.8999999,57.14,17.01,-0.0035308937,0.0032449695,0.74069464,0.6718245,-18.071,90.980995,8.321,0,-0.00061,0.42361
19.758333,2000,0,91.24,0.000002697398,0.000002697398,0.000002697398,0.99999994,0,0,0,0,0,0,0,1,0,0,0,false,false,true,-4.0499997,57.899998,17.01,-0.0035362889,0.003239575,0.7418816,0.67051363,-18.161,90.951,8.321,0,-0.00061,0.42371
19.766666,2000,0,91.24,0.000002697398,0.000002697398,0.000002697398,0.99999994,0,0,0,0,0,0,0,1,0,0,0,false,false,true,-4.2,58.66,17.01,-0.0035416833,0.0032341802,0.74306434,0.6692026,-18.261,90.921,8.321,0,-0.00061,0.42381
19.775,2000,0,91.24,0.000002697398,0.000002697398,0.000002697398,0.99999994,0,0,0,0,0,0,0,1,0,0,0,false,false,true,-4.35,59.42,17.01,-0.0035470785,0.0032287855,0.74424285,0.66789174,-18.360998,90.881,8.321,0,-0.00061,0.42391
19.783333,2000,0,91.24,0.000002697398,0.000002697398,0.000002697398,0.99999994,0,0,0,0,0,0,0,1,0,0,0,false,false,true,-4.5,60.18,17.01,-0.0035524734,0.0032233908,0.74542207,0.66657543,-18.460999,90.840996,8.321,0,-0.00061,0.42401
19.791666,2000,0,91.24,0.000002697398,0.000002697398,0.000002697398,0.99999994,0,0,0,0,0,0,0,1,0,0,0,false,false,true,-4.65,60.94,17.01,-0.0035578683,0.003217996,0.74659705,0.6652592,-18.571,90.800995,8.321,0,-0.00061,0.42411
19.8,2000,0,91.24,0.000002697398,0.000002697398,0.000002697398,0.99999994,0,0,0,0,0,0,0,1,0,0,0,false,false,true,-4.7999997,61.699997,17.01,-0.0035632628,0.0032126012,0.7477727,0.6639374,-18.681,90.760994,8.321,0,-0.00061,0.42421
19.808332,2000,0,91.24,0.000002697398,0.000002697398,0.000002697398,0.99999994,0,0,0,0,0,0,0,1,0,0,0,false,false,true,-4.96,62.46,17.01,-0.0035686577,0.0032072063,0.7489441,0.66261566,-18.790998,90.721,8.321,0,-0.00061,0.42431
19.816668,2000,0,91.24,0.000002697398,0.000002697398,0.000002697398,0.99999994,0,0,0,0,0,0,0,1,0,0,0,false,false,true,-5.12,63.219997,17.01,-0.0035740524,0.0032018116,0.75011617,0.66128856,-18.911,90.681,8.321,0,-0.00061,0.42441002
19.825,2000,0,91.24,0.000002697398,0.000002697398,0.000002697398,0.99999994,0,0,0,0,0,0,0,1,0,0,0,false,false,true,-5.2799997,63.98,17.01,-0.0035794473,0.0031964167,0.75128406,0.6599614,-19.030998,90.641,8.321,0,-0.00061,0.42451
19.833334,2000,0,91.24,0.000002697398,0.000002697398,0.000002697398,0.99999994,0,0,0,0,0,0,0,1,0,0,0,false,false,true,-5.44,64.74,17.01,-0.0035848422,0.0031910222,0.75245255,0.65862894,-19.151,90.590996,8.321,0,-0.00061,0.42461
19.841667,2000,0,91.24,0.000002697398,0.000002697398,0.000002697398,0.99999994,0,0,0,0,0,0,0,1,0,0,0,false,false,true,-5.6,65.49,17.01,-0.0035902364,0.0031856268,0.7536168,0.6572963,-19.271,90.541,8.321,0,-0.00071,0.42471
19.85,2000,0,91.24,0.000002697398,0.000002697398,0.000002697398,0.99999994,0,0,0,0,0,0,0,1,0,0,0,false,false,true,-5.7599998,66.24,17.01,-0.0035956316,0.0031748374,0.75477695,0.6559639,-19.401,90.491,8.321,0,-0.00071,0.42481
19.858334,2000,0,91.24,0.000002697398,0.000002697398,0.000002697398,0.99999994,0,0,0,0,0,0,0,1,0,0,0,false,false,true,-5.92,66.99,17.01,-0.0036010265,0.0031640478,0.75593764,0.65462595,-19.530998,90.440994,8.321,0,-0.00071,0.42491
19.866667,2000,0,91.24,0.000002697398,0.000002697398,0.000002697398,0.99999994,0,0,0,0,0,0,0,1,0,0,0,false,false,true,-6.08,67.74,17.01,-0.0036064212,0.0031532582,0.75709414,0.65328807,-19.661,90.391,8.321,0,-0.00071,0.42501
19.875,2000,0,91.24,0.000002697398,0.000002697398,0.000002697398,0.99999994,0,0,0,0,0,0,0,1,0,0,0,false,false,true,-6.24,68.49,17.01,-0.003611816,0.0031424686,0.7582512,0.65194476,-19.800999,90.340996,8.321,0,-0.00071,0.42511
19.883333,2000,0,91.24,0.000002697398,0.000002697398,0.000002697398,0.99999994,0,0,0,0,0,0,0,1,0,0,0,false,false,true,-6.41,69.24,17.01,-0.003617211,0.0031316795,0.75940424,0.65060145,-19.940998,90.291,8.321,0,-0.00061,0.42521
19.891666,2000,0,91.24,0.000002697398,0.000002697398,0.000002697398,0.99999994,0,0,0,0,0,0,0,1,0,0,0,false,false,true,-6.58,69.99,17.01,-0.0036226057,0.0031262843,0.76055765,0.64925265,-20.081,90.241,8.321,0,-0.00051,0.42531002
19.9,2000,0,91.24,0.000002697398,0.000002697398,0.000002697398,0.99999994,0,0,0,0,0,0,0,1,0,0,0,false,false,true,-6.75,70.74,17.01,-0.0036280004,0.0031208897,0.7617069,0.647904,-20.220999,90.181,8.321,0,-0.00051,0.42541
19.908333,2000,0,91.24,0.000002697398,0.000002697398,0.000002697398,0.99999994,0,0,0,0,0,0,0,1,0,0,0,false,false,true,-6.92,71.49,17.01,-0.0036333953,0.0031154947,0.7628521,0.64655524,-20.360998,90.120995,8.321,0,-0.00051,0.42551
19.916666,2000,0,91.24,0.000002697398,0.000002697398,0.000002697398,0.99999994,0,0,0,0,0,0,0,1,0,0,0,false,false,true,-7.0899997,72.24,17.01,-0.00363879,0.0031101,0.7639977,0.64520115,-20.511,90.061,8.321,0,-0.00051,0.42561
19.925,2000,0,91.24,0.000002697398,0.000002697398,0.000002697398,0.99999994,0,0,0,0,0,0,0,1,0,0,0,false,false,true,-7.2599998,72.99,17.01,-0.003644185,0.0031047051,0.7651391,0.64384705,-20.661,90.001,8.321,0,-0.00051,0.42571
19.933332,2000,0,91.24,0.000002697398,0.000002697398,0.000002697398,0.99999994,0,0,0,0,0,0,0,1,0,0,0,false,false,true,-7.43,73.74,17.01,-0.0036495796,0.0030993104,0.766281,0.6424876,-20.810999,89.940994,8.321,0,-0.00051,0.42581
19.941668,2000,0,91.24,0.000002697398,0.000002697398,0.000002697398,0.99999994,0,0,0,0,0,0,0,1,0,0,0,false,false,true,-7.6,74.49,17.01,-0.0036549745,0.0030939155,0.7674188,0.6411281,-20.960999,89.881,8.321,0,-0.00051,0.42591
19.95,2000,0,91.24,0.000002697398,0.000002697398,0.000002697398,0.99999994,0,0,0,0,0,0,0,1,0,0,0,false,false,true,-7.77,75.24,17.01,-0.0036603692,0.0030885208,0.768557,0.63976324,-21.110998,89.821,8.321,0,-0.00051,0.42601
19.958334,2000,0,91.24,0.000002697398,0.000002697398,0.000002697398,0.99999994,0,0,0,0,0,0,0,1,0,0,0,false,false,true,-7.95,75.99,17.01,-0.003665764,0.003083126,0.76969117,0.63839835,-21.271,89.760994,8.321,0,-0.00051,0.42611
19.966667,2000,0,91.24,0.000002697398,0.000002697398,0.000002697398,0.99999994,0,0,0,0,0,0,0,1,0,0,0,false,false,true,-8.13,76.74,17.01,-0.0036711588,0.0030777312,0.77082115,0.63703346,-21.431,89.690994,8.321,0,-0.00051,0.42621002
19.975,2000,0,91.24,0.000002697398,0.000002697398,0.000002697398,0.99999994,0,0,0,0,0,0,0,1,0,0,0,false,false,true,-8.309999,77.49,17.01,-0.003676553,0.003072336,0.77195156,0.6356631,-21.591,89.620995,8.321,0,-0.00061,0.42631
19.983334,2000,0,91.24,0.000002697398,0.000002697398,0.000002697398,0.99999994,0,0,0,0,0,0,0,1,0,0,0,false,false,true,-8.49,78.24,17.01,-0.0036819484,0.0030615467,0.7730779,0.6342929,-21.751,89.550995,8.321,0,-0.00061,0.42641
19.991667,2000,0,91.24,0.000002697398,0.000002697398,0.000002697398,0.99999994,0,0,0,0,0,0,0,1,0,0,0,false,false,true,-8.67,78.99,17.01,-0.003687343,0.003050757,0.7742046,0.6329172,-21.911,89.480995,8.321,0,-0.00061,0.42651
20,2000,0,91.24,0.000002697398,0.000002697398,0.000002697398,0.99999994,0,0,0,0,0,0,0,1,0,0,0,false,false,true,-8.849999,79.74,17.01,-0.003692738,0.0030399675,0.77532715,0.63154155,-22.081,89.410995,8.321,0,-0.00061,0.42661
20.008333,2000,0,91.24,0.000002697398,0.000002697398,0.000002697398,0.99999994,0,0,0,0,0,0,0,1,0,0,0,false,false,true,-9.03,80.49,17.01,-0.0036981327,0.003029178,0.7764501,0.63016045,-22.251,89.340996,8.321,0,-0.00061,0.42671
20.016666,2000,0,91.24,0.000002697398,0.000002697398,0.000002697398,0.99999994,0,0,0,0,0,0,0,1,0,0,0,false,false,true,-9.22,81.229996,17.01,-0.0037035276,0.0030183885,0.777569,0.6287793,-22.421,89.270996,8.321,-0.00010999999,-0.00051,0.42681
20.025,2000,0,91.24,0.000002697398,0.000002697398,0.000002697398,0.99999994,0,0,0,0,0,0,0,1,0,0,0,false,false,true,-9.41,81.97,17.01,-0.0037089225,0.0030129938,0.77868813,0.62739295,-22.591,89.190994,8.321,-0.00021,-0.00051,0.42691
20.033333,2000,0,91.24,0.000002697398,0.000002697398,0.000002697398,0.99999994,0,0,0,0,0,0,0,1,0,0,0,false,false,true,-9.599999,82.71,17.01,-0.0037143172,0.003007599,0.77980316,0.6260064,-22.761,89.111,8.321,-0.00021,-0.00051,0.42701
20.041666,2000,0,91.24,0.000002697398,0.000002697398,0.000002697398,0.99999994,0,0,0,0,0,0,0,1,0,0,0,false,false,true,-9.79,83.45,17.01,-0.003719712,0.003002204,0.7809142,0.62461996,-22.931,89.031,8.321,-0.00021,-0.00051,0.42711002
20.05,2000,0,91.24,0.000002697398,0.000002697398,0.000002697398,0.99999994,0,0,0,0,0,0,0,1,0,0,0,false,false,true,-9.98,84.189995,17.01,-0.003725107,0.0029968095,0.78202546,0.62322813,-23.110998,88.951,8.321,-0.00021,-0.00051,0.42721
20.058332,2000,0,91.24,0.000002697398,0.000002697398,0.000002697398,0.99999994,0,0,0,0,0,0,0,1,0,0,0,false,false,true,-10.17,84.93,17.01,-0.003730501,0.0029914142,0.78313255,0.6218362,-23.290998,88.870995,8.321,-0.00021,-0.00051,0.42731
20.066668,2000,0,91.24,0.000002697398,0.000002697398,0.000002697398,0.99999994,0,0,0,0,0,0,0,1,0,0,0,false,false,true,-10.36,85.67,17.01,-0.0037358964,0.0029860197,0.78424,0.620439,-23.470999,88.791,8.321,-0.00021,-0.00051,0.42741
20.075,2000,0,91.24,0.000002697398,0.000002697398,0.000002697398,0.99999994,0,0,0,0,0,0,0,1,0,0,0,false,false,true,-10.559999,86.409996,17.01,-0.0037412911,0.0029806248,0.7853434,0.61904174,-23.651,88.711,8.321,-0.00021,-0.00051,0.42751
20.083334,2000,0,91.24,0.000002697398,0.000002697398,0.000002697398,0.99999994,0,0,0,0,0,0,0,1,0,0,0,false,false,true,-10.76,87.15,17.01,-0.003746686,0.00297523,0.786447,0.61763906,-23.831,88.631,8.321,-0.00010999999,-0.00051,0.42761
20.091667,2000,0,91.24,0.000002697398,0.000002697398,0.000002697398,0.99999994,0,0,0,0,0,0,0,1,0,0,0,false,false,true,-10.96,87.89,17.01,-0.0037520807,0.0029698352,0.7875466,0.61623645,-24.011,88.541,8.321,-0.00010999999,-0.00051,0.42771
20.1,2000,0,91.24,0.000002697398,0.000002697398,0.000002697398,0.99999994,0,0,0,0,0,0,0,1,0,0,0,false,false,true,-11.16,88.63,17.01,-0.0037574756,0.0029644405,0.7886421,0.6148338,-24.190998,88.451,8.321,-0.00010999999,-0.00051,0.42781
20.108334,2000,0,91.24,0.000002697398,0.000002697398,0.000002697398,0.99999994,0,0,0,0,0,0,0,1,0,0,0,false,false,true,-11.36,89.369995,17.01,-0.0037628706,0.0029590458,0.7897378,0.6134258,-24.370998,88.361,8.321,-0.00010999999,-0.00051,0.42781
20.116667,2000,0,91.24,0.000002697398,0.000002697398,0.000002697398,0.99999994,0,0,0,0,0,0,0,1,0,0,0,false,false,true,-11.559999,90.11,17.01,-0.0037682652,0.002953651,0.7908295,0.6120177,-24.560999,88.270996,8.321,0,-0.00051,0.42781
20.125,2000,0,91.24,0.000002697398,0.000002697398,0.000002697398,0.99999994,0,0,0,0,0,0,0,1,0,0,0,false,false,true,-11.759999,90.85,17.01,-0.00377366,0.002948256,0.79191715,0.61060965,-24.751,88.181,8.321,0,-0.00051,0.42781
20.133333,2000,0,91.24,0.000002697398,0.000002697398,0.000002697398,0.99999994,0,0,0,0,0,0,0,1,0,0,0,false,false,true,-11.969999,91.579994,17.01,-0.0037790546,0.0029428613,0.793005,0.6091962,-24.940998,88.090996,8.321,0,-0.00051,0.42781
20.141666,2000,0,91.24,0.000002697398,0.000002697398,0.000002697398,0.99999994,0,0,0,0,0,0,0,1,0,0,0,false,false,true,-12.179999,92.31,17.01,-0.0037844495,0.0029374664,0.7940888,0.6077828,-25.130999,88.001,8.321,0,-0.00051,0.42781
20.15,2000,0,91.24,0.000002697398,0.000002697398,0.000002697398,0.99999994,0,0,0,0,0,0,0,1,0,0,0,false,false,true,-12.389999,93.04,17.01,-0.0037898442,0.0029320717,0.7951728,0.60636383,-25.321,87.901,8.321,0,-0.00051,0.42781
20.158333,2000,0,91.24,0.000002697398,0.000002697398,0.000002697398,0.99999994,0,0,0,0,0,0,0,1,0,0,0,false,false,true,-12.599999,93.77,17.01,-0.0037952394,0.002926677,0.7962527,0.60494506,-25.511,87.800995,8.321,0,-0.00051,0.42781
20.166666,2000,0,91.24,0.000002697398,0.000002697398,0.000002697398,0.99999994,0,0,0,0,0,0,0,1,0,0,0,false,false,true,-12.809999,94.5,17.01,-0.0038006334,0.0029212818,0.79732865,0.6035261,-25.700998,87.701,8.321,0,-0.00061,0.42781
20.175,2000,0,91.24,0.000002697398,0.000002697398,0.000002697398,0.99999994,0,0,0,0,0,0,0,1,0,0,0,false,false,true,-13.0199995,95.229996,17.01,-0.0038060287,0.0029104925,0.79840475,0.602102,-25.890999,87.601,8.321,0,-0.00061,0.42781
20.183332,2000,0,91.24,0.000002697398,0.000002697398,0.000002697398,0.99999994,0,0,0,0,0,0,0,1,0,0,0,false,false,true,-13.24,95.96,17.01,-0.0038114234,0.0028997029,0.7994768,0.6006777,-26.081,87.501,8.321,0,-0.00061,0.42781
20.191668,2000,0,91.24,0.000002697398,0.000002697398,0.000002697398,0.99999994,0,0,0,0,0,0,0,1,0,0,0,false,false,true,-13.46,96.689995,17.01,-0.0038168184,0.0028889133,0.8005449,0.59925354,-26.280998,87.401,8.321,0,-0.00061,0.42781
20.2,2000,0,91.24,0.000002697398,0.000002697398,0.000002697398,0.99999994,0,0,0,0,0,0,0,1,0,0,0,false,false,true,-13.679999,97.42,17.01,-0.003822213,0.0028781237,0.8016131,0.5978239,-26.480999,87.300995,8.321,0,-0.00061,0.42781
20.208334,2000,0,91.24,0.000002697398,0.000002697398,0.000002697398,0.99999994,0,0,0,0,0,0,0,1,0,0,0,false,false,true,-13.9,98.15,17.01,-0.003827608,0.002867334,0.8026773,0.5963943,-26.681,87.201,8.321,0,-0.00051,0.42781
20.216667,2000,0,91.24,0.000002697398,0.000002697398,0.000002697398,0.99999994,0,0,0,0,0,0,0,1,0,0,0,false,false,true,-14.12,98.88,17.01,-0.0038330026,0.0028619394,0.8037376,0.5949646,-26.880999,87.090996,8.321,0,-0.00051,0.42781
20.225,2000,0,91.24,0.000002697398,0.000002697398,0.000002697398,0.99999994,0,0,0,0,0,0,0,1,0,0,0,false,false,true,-14.34,99.61,17.01,-0.0038383976,0.0028565445,0.8047978,0.59352964,-27.081,86.980995,8.321,0,-0.00051,0.42781
20.233334,2000,0,91.24,0.000002697398,0.000002697398,0.000002697398,0.99999994,0,0,0,0,0,0,0,1,0,0,0,false,false,true,-14.57,100.329994,17.01,-0.0038437922,0.0028511498,0.8058542,0.5920946,-27.280998,86.870995,8.321,0,-0.00051,0.42781
20.241667,2000,0,91.24,0.000002697398,0.000002697398,0.000002697398,0.99999994,0,0,0,0,0,0,0,1,0,0,0,false,false,true,-14.799999,101.049995,17.01,-0.0038491872,0.0028457548,0.8069065,0.5906596,-27.480999,86.760994,8.321,0,-0.00051,0.42781
20.25,2000,0,91.24,0.000002697398,0.000002697398,0.000002697398,0.99999994,0,0,0,0,0,0,0,1,0,0,0,false,false,true,-15.03,101.77,17.01,-0.0038545819,0.0028403602,0.80795896,0.5892192,-27.681,86.651,8.321,0,-0.00051,0.42781
20.258333,2000,0,91.24,0.000002697398,0.000002697398,0.000002697398,0.99999994,0,0,0,0,0,0,0,1,0,0,0,false,false,true,-15.259999,102.49,17.01,-0.0038599768,0.0028349652,0.8090074,0.5877788,-27.880999,86.541,8.321,0,-0.00051,0.42781
20.266666,2000,0,91.24,0.000002697398,0.000002697398,0.000002697398,0.99999994,0,0,0,0,0,0,0,1,0,0,0,false,false,true,-15.49,103.21,17.01,-0.0038653715,0.0028241756,0.8100559,0.586333,-28.081,86.431,8.321,0,-0.00051,0.42781
20.275,2000,0,91.24,0.000002697398,0.000002697398,0.000002697398,0.99999994,0,0,0,0,0,0,0,1,0,0,0,false,false,true,-15.719999,103.93,17.01,-0.0038707666,0.0028133865,0.81110054,0.58488715,-28.280998,86.321,8.321,0,-0.00051,0.42781
20.283333,2000,0,91.24,0.000002697398,0.000002697398,0.000002697398,0.99999994,0,0,0,0,0,0,0,1,0,0,0,false,false,true,-15.96,104.649994,17.01,-0.003876161,0.0028025967,0.8121411,0.58344126,-28.480999,86.201,8.321,0,-0.00040999998,0.42781
20.291666,2000,0,91.24,0.000002697398,0.000002697398,0.000002697398,0.99999994,0,0,0,0,0,0,0,1,0,0,0,false,false,true,-16.199999,105.369995,17.01,-0.0038815557,0.0027972017,0.8131817,0.58199006,-28.681,86.081,8.321,0,-0.00040999998,0.42781
20.3,2000,0,91.24,0.000002697398,0.000002697398,0.000002697398,0.99999994,0,0,0,0,0,0,0,1,0,0,0,false,false,true,-16.44,106.09,17.01,-0.0038869507,0.002791807,0.8142184,0.58053887,-28.880999,85.961,8.321,0,-0.00040999998,0.42781
20.308332,2000,0,91.24,0.000002697398,0.000002697398,0.000002697398,0.99999994,0,0,0,0,0,0,0,1,0,0,0,false,false,true,-16.68,106.81,17.01,-0.0038923454,0.0027864121,0.8152511,0.5790877,-29.091,85.840996,8.321,0,-0.00040999998,0.42781
20.316668,2000,0,91.24,0.000002697398,0.000002697398,0.000002697398,0.99999994,0,0,0,0,0,0,0,1,0,0,0,false,false,true,-16.92,107.53,17.01,-0.0038977403,0.0027810175,0.81628376,0.5776311,-29.300999,85.721,8.321,0,-0.00040999998,0.42781
20.325,2000,0,91.24,0.000002697398,0.000002697398,0.000002697398,0.99999994,0,0,0,0,0,0,0,1,0,0,0,false,false,true,-17.16,108.24,17.01,-0.0039031352,0.0027756228,0.8173126,0.57617456,-29.511,85.601,8.321,0,-0.00040999998,0.42781
20.333334,2000,0,91.24,0.000002697398,0.000002697398,0.000002697398,0.99999994,0,0,0,0,0,0,0,1,0,0,0,false,false,true,-17.41,108.95,17.01,-0.00390853,0.002770228,0.8183375,0.57471794,-29.720999,85.480995,8.321,0,-0.00040999998,0.42781
20.341667,2000,0,91.24,0.000002697398,0.000002697398,0.000002697398,0.99999994,0,0,0,0,0,0,0,1,0,0,0,false,false,true,-17.66,109.659996,17.01,-0.0039139246,0.002764833,0.8193623,0.5732559,-29.930998,85.361,8.321,0,-0.00040999998,0.42781
20.35,2000,0,91.24,0.000002697398,0.000002697398,0.000002697398,0.99999994,0,0,0,0,0,0,0,1,0,0,0,false,false,true,-17.91,110.369995,17.01,-0.0039193192,0.0027594382,0.8203832,0.5717939,-30.140999,85.230995,8.321,0,-0.00040999998,0.42781
20.358334,2000,0,91.24,0.000002697398,0.000002697398,0.000002697398,0.99999994,0,0,0,0,0,0,0,1,0,0,0,false,false,true,-18.16,111.079994,17.01,-0.003924714,0.0027540433,0.8214002,0.57033193,-30.350998,85.101,8.321,0,-0.00040999998,0.42781
20.366667,2000,0,91.24,0.000002697398,0.000002697398,0.000002697398,0.99999994,0,0,0,0,0,0,0,1,0,0,0,false,false,true,-18.41,111.79,17.01,-0.003930109,0.0027486489,0.8224172,0.5688646,-30.560999,84.971,8.321,0,-0.00040999998,0.42781
20.375,2000,0,91.24,0.000002697398,0.000002697398,0.000002697398,0.99999994,0,0,0,0,0,0,0,1,0,0,0,false,false,true,-18.66,112.5,17.01,-0.003935504,0.0027432537,0.8234302,0.5673972,-30.770998,84.840996,8.321,0,-0.00040999998,0.42781
20.383333,2000,0,91.24,0.000002697398,0.000002697398,0.000002697398,0.99999994,0,0,0,0,0,0,0,1,0,0,0,false,false,true,-18.92,113.21,17.01,-0.003940899,0.0027378593,0.8244394,0.56592983,-30.980999,84.711,8.321,0,-0.00040999998,0.42781
20.391666,2000,0,91.24,0.000002697398,0.000002697398,0.000002697398,0.99999994,0,0,0,0,0,0,0,1,0,0,0,false,false,true,-19.18,113.92,17.01,-0.0039462927,0.0027324639,0.8254484,0.56445694,-31.190998,84.581,8.321,0.00010999999,-0.00040999998,0.42781
20.4,2000,0,91.24,0.000002697398,0.000002697398,0.000002697398,0.99999994,0,0,0,0,0,0,0,1,0,0,0,false,false,true,-19.439999,114.619995,17.01,-0.003951688,0.0027216745,0.8264537,0.5629841,-31.401,84.451,8.321,0.00010999999,-0.00040999998,0.42781
20.408333,2000,0,91.24,0.000002697398,0.000002697398,0.000002697398,0.99999994,0,0,0,0,0,0,0,1,0,0,0,false,false,true,-19.699999,115.32,17.01,-0.003957083,0.002710885,0.82745504,0.56151134,-31.610998,84.321,8.321,0.00010999999,-0.00040999998,0.42781
20.416666,2000,0,91.24,0.000002697398,0.000002697398,0.000002697398,0.99999994,0,0,0,0,0,0,0,1,0,0,0,false,false,true,-19.96,116.02,17.01,-0.0039624777,0.0027000955,0.8284562,0.5600332,-31.821,84.181,8.321,0.00010999999,-0.00040999998,0.42781
20.425,2000,0,91.24,0.000002697398,0.000002697398,0.000002697398,0.99999994,0,0,0,0,0,0,0,1,0,0,0,false,false,true,-20.23,116.71999,17.01,-0.003967873,0.0026893062,0.8294536,0.55855507,-32.031,84.041,8.321,0.00010999999,-0.00030999997,0.42781
20.433332,2000,0,91.24,0.000002697398,0.000002697398,0.000002697398,0.99999994,0,0,0,0,0,0,0,1,0,0,0,false,false,true,-20.5,117.42,17.01,-0.003973267,0.0026785163,0.8304471,0.5570768,-32.240997,83.901,8.321,0,-0.00030999997,0.42781
20.441668,2000,0,91.24,0.000002697398,0.000002697398,0.000002697398,0.99999994,0,0,0,0,0,0,0,1,0,0,0,false,false,true,-20.77,118.119995,17.01,-0.0039786627,0.0026731216,0.8314403,0.5555933,-32.451,83.760994,8.321,0,-0.00021,0.42781
20.45,2000,0,91.24,0.000002697398,0.000002697398,0.000002697398,0.99999994,0,0,0,0,0,0,0,1,0,0,0,false,false,true,-21.039999,118.82,17.01,-0.003984057,0.0026677267,0.83242977,0.5541097,-32.661,83.620995,8.321,0,-0.00021,0.42781
20.458334,2000,0,91.24,0.000002697398,0.000002697398,0.000002697398,0.99999994,0,0,0,0,0,0,0,1,0,0,0,false,false,true,-21.31,119.52,17.01,-0.0039894516,0.0026623318,0.8334154,0.55262613,-32.871,83.480995,8.321,0,-0.00021,0.42771
20.466667,2000,0,91.24,0.000002697398,0.000002697398,0.000002697398,0.99999994,0,0,0,0,0,0,0,1,0,0,0,false,false,true,-21.58,120.21999,17.01,-0.003994846,0.0026569369,0.8344007,0.5511371,-33.080997,83.340996,8.321,0,-0.00021,0.42761
20.475,2000,0,91.24,0.000002697398,0.000002697398,0.000002697398,0.99999994,0,0,0,0,0,0,0,1,0,0,0,false,false,true,-21.859999,120.909996,17.01,-0.004000241,0.0026515422,0.8353824,0.54964817,-33.291,83.201,8.321,0,-0.00021,0.42751
20.483334,2000,0,91.24,0.000002697398,0.000002697398,0.000002697398,0.99999994,0,0,0,0,0,0,0,1,0,0,0,false,false,true,-22.14,121.6,17.01,-0.0040056356,0.0026461473,0.83636004,0.5481592,-33.501,83.061,8.321,0,-0.00021,0.42741
20.491667,2000,0,91.24,0.000002697398,0.000002697398,0.000002697398,0.99999994,0,0,0,0,0,0,0,1,0,0,0,false,false,true,-22.42,122.29,17.01,-0.004011031,0.0026407526,0.8373341,0.54667026,-33.711,82.910995,8.321,0,-0.00021,0.42731
20.5,2000,0,91.24,0.000002697398,0.000002697398,0.000002697398,0.99999994,0,0,0,0,0,0,0,1,0,0,0,false,false,true,-22.699999,122.979996,17.01,-0.004016426,0.0026353581,0.83830786,0.54517597,-33.920998,82.760994,8.321,0.00010999999,-0.00021,0.42721
20.508333,2000,0,91.24,0.000002697398,0.000002697398,0.000002697398,0.99999994,0,0,0,0,0,0,0,1,0,0,0,false,false,true,-22.98,123.67,17.01,-0.00402182,0.002629963,0.83927774,0.54368156,-34.131,82.611,8.321,0.00010999999,-0.00021,0.42711002
20.516666,2000,0,91.24,0.000002697398,0.000002697398,0.000002697398,0.99999994,0,0,0,0,0,0,0,1,0,0,0,false,false,true,-23.26,124.36,17.01,-0.0040272153,0.0026245683,0.8402439,0.5421872,-34.341,82.461,8.321,0.00021,-0.00021,0.42701
20.525,2000,0,91.24,0.000002697398,0.000002697398,0.000002697398,0.99999994,0,0,0,0,0,0,0,1,0,0,0,false,false,true,-23.55,125.049995,17.01,-0.0040326104,0.002613779,0.8412064,0.5406928,-34.551,82.311,8.321,0.00021,-0.00021,0.42691
20.533333,2000,0,91.24,0.000002697398,0.000002697398,0.000002697398,0.99999994,0,0,0,0,0,0,0,1,0,0,0,false,false,true,-23.84,125.74,17.01,-0.004038005,0.0026029893,0.84216845,0.53919303,-34.760998,82.160995,8.321,0.00021,-0.00021,0.42681
20.541666,2000,0,91.24,0.000002697398,0.000002697398,0.000002697398,0.99999994,0,0,0,0,0,0,0,1,0,0,0,false,false,true,-24.13,126.42,17.01,-0.0040433994,0.0025921995,0.8431268,0.53769326,-34.970997,82.010994,8.321,0.00021,-0.00021,0.42671
20.55,2000,0,91.24,0.000002697398,0.000002697398,0.000002697398,0.99999994,0,0,0,0,0,0,0,1,0,0,0,false,false,true,-24.42,127.1,17.01,-0.0040487945,0.0025814099,0.84408134,0.5361935,-35.181,81.861,8.321,0.00021,-0.00010999999,0.42661
20.558332,2000,0,91.24,0.000002697398,0.000002697398,0.000002697398,0.99999994,0,0,0,0,0,0,0,1,0,0,0,false,false,true,-24.71,127.78,17.01,-0.004054189,0.0025706203,0.8450322,0.5346937,-35.391,81.701,8.321,0.00010999999,-0.00010999999,0.42651
20.566668,2000,0,91.24,0.000002697398,0.000002697398,0.000002697398,0.99999994,0,0,0,0,0,0,0,1,0,0,0,false,false,true,-25,128.45999,17.01,-0.004059584,0.0025652256,0.84598273,0.5331886,-35.600998,81.541,8.321,0.00010999999,0,0.42641
20.575,2000,0,91.24,0.000002697398,0.000002697398,0.000002697398,0.99999994,0,0,0,0,0,0,0,1,0,0,0,false,false,true,-25.3,129.14,17.01,-0.0040649786,0.0025598307,0.84692943,0.53168344,-35.810997,81.381,8.321,0.00010999999,0,0.42631
20.583334,2000,0,91.24,0.000002697398,0.000002697398,0.000002697398,0.99999994,0,0,0,0,0,0,0,1,0,0,0,false,false,true,-25.599998,129.81999,17.01,-0.004070374,0.0025544362,0.8478725,0.53017837,-36.021,81.221,8.321,0.00010999999,0,0.42621002
20.591667,2000,0,91.24,0.000002697398,0.000002697398,0.000002697398,0.99999994,0,0,0,0,0,0,0,1,0,0,0,false,false,true,-25.9,130.5,17.01,-0.004075769,0.0025490413,0.8488118,0.5286732,-36.231,81.061,8.321,0.00010999999,0,0.42611
20.6,2000,0,91.24,0.000002697398,0.000002697398,0.000002697398,0.99999994,0,0,0,0,0,0,0,1,0,0,0,false,false,true,-26.199999,131.18,17.01,-0.0040811626,0.0025436461,0.84975064,0.52716255,-36.440998,80.901,8.321,0.00010999999,0,0.42601
20.608334,2000,0,91.24,0.000002697398,0.000002697398,0.000002697398,0.99999994,0,0,0,0,0,0,0,1,0,0,0,false,false,true,-26.5,131.84999,17.01,-0.0040865582,0.0025382517,0.850686,0.5256521,-36.650997,80.741,8.321,0.00021,0,0.42591
20.616667,2000,0,91.24,0.000002697398,0.000002697398,0.000002697398,0.99999994,0,0,0,0,0,0,0,1,0,0,0,false,false,true,-26.81,132.52,17.01,-0.0040919525,0.0025328568,0.8516175,0.5241415,-36.861,80.581,8.321,0.00021,0,0.42581
20.625,2000,0,91.24,0.000002697398,0.000002697398,0.000002697398,0.99999994,0,0,0,0,0,0,0,1,0,0,0,false,false,true,-27.119999,133.19,17.01,-0.0040973476,0.0025274619,0.8525453,0.522631,-37.071,80.421,8.321,0.00021,0,0.42571
20.633333,2000,0,91.24,0.000002697398,0.000002697398,0.000002697398,0.99999994,0,0,0,0,0,0,0,1,0,0,0,false,false,true,-27.43,133.86,17.01,-0.0041027423,0.0025220672,0.8534695,0.5211204,-37.281,80.260994,8.321,0.00030999997,0,0.42561
20.641666,2000,0,91.24,0.000002697398,0.000002697398,0.000002697398,0.99999994,0,0,0,0,0,0,0,1,0,0,0,false,false,true,-27.74,134.53,17.01,-0.004108137,0.0025112776,0.85439324,0.5196045,-37.490997,80.090996,8.321,0.00030999997,0,0.42551
20.65,2000,0,91.24,0.000002697398,0.000002697398,0.000002697398,0.99999994,0,0,0,0,0,0,0,1,0,0,0,false,false,true,-28.05,135.2,17.01,-0.0041135317,0.002500488,0.85531336,0.51808846,-37.701,79.921,8.321,0.00030999997,0,0.42541
20.658333,2000,0,91.24,0.000002697398,0.000002697398,0.000002697398,0.99999994,0,0,0,0,0,0,0,1,0,0,0,false,false,true,-28.359999,135.87,17.01,-0.004118927,0.0024896984,0.8562298,0.51657254,-37.911,79.751,8.321,0.00030999997,0,0.42531002
20.666666,2000,0,91.24,0.000002697398,0.000002697398,0.000002697398,0.99999994,0,0,0,0,0,0,0,1,0,0,0,false,false,true,-28.68,136.53,17.01,-0.0041243215,0.0024789087,0.85714257,0.5150566,-38.121,79.581,8.321,0.00030999997,0,0.42521
20.675,2000,0,91.24,0.000002697398,0.000002697398,0.000002697398,0.99999994,0,0,0,0,0,0,0,1,0,0,0,false,false,true,-29,137.19,17.01,-0.004129716,0.0024681191,0.85805494,0.51353526,-38.330997,79.410995,8.321,0.00030999997,0,0.42511
20.683332,2000,0,91.24,0.000002697398,0.000002697398,0.000002697398,0.99999994,0,0,0,0,0,0,0,1,0,0,0,false,false,true,-29.32,137.84999,17.01,-0.004135111,0.0024573295,0.8589636,0.5120139,-38.541,79.241,8.321,0.00021,0,0.42501
20.691668,2000,0,91.24,0.000002697398,0.000002697398,0.000002697398,0.99999994,0,0,0,0,0,0,0,1,0,0,0,false,false,true,-29.64,138.51,17.01,-0.0041405065,0.002451935,0.85986865,0.5104926,-38.751,79.071,8.321,0.00021,0.00010999999,0.42491
20.7,2000,0,91.24,0.000002697398,0.000002697398,0.000002697398,0.99999994,0,0,0,0,0,0,0,1,0,0,0,false,false,true,-29.96,139.17,17.01,-0.0041459003,0.0024465397,0.86076987,0.5089712,-38.961,78.901,8.321,0.00021,0.00010999999,0.42481
20.708334,2000,0,91.24,0.000002697398,0.000002697398,0.000002697398,0.99999994,0,0,0,0,0,0,0,1,0,0,0,false,false,true,-30.279999,139.83,17.01,-0.0041512954,0.0024411452,0.86167085,0.50744456,-39.170998,78.730995,8.321,0.00021,0.00010999999,0.42471
20.716667,2000,0,91.24,0.000002697398,0.000002697398,0.000002697398,0.99999994,0,0,0,0,0,0,0,1,0,0,0,false,false,true,-30.609999,140.48999,17.01,-0.00415669,0.0024357503,0.86256814,0.5059178,-39.380997,78.561,8.321,0.00021,0.00010999999,0.42461
20.725,2000,0,91.24,0.000002697398,0.000002697398,0.000002697398,0.99999994,0,0,0,0,0,0,0,1,0,0,0,false,false,true,-30.939999,141.14,17.01,-0.0041620852,0.0024303556,0.8634618,0.5043911,-39.591,78.381,8.321,0.00021,0.00010999999,0.42451
20.733334,2000,0,91.24,0.000002697398,0.000002697398,0.000002697398,0.99999994,0,0,0,0,0,0,0,1,0,0,0,false,false,true,-31.269999,141.79,17.01,-0.00416748,0.0024249607,0.8643518,0.50286436,-39.801,78.201,8.321,0.00030999997,0.00010999999,0.42441002
20.741667,2000,0,91.24,0.000002697398,0.000002697398,0.000002697398,0.99999994,0,0,0,0,0,0,0,1,0,0,0,false,false,true,-31.599998,142.44,17.01,-0.004172875,0.0024141714,0.86523825,0.5013377,-40.010998,78.020996,8.321,0.00030999997,0.00010999999,0.42431
20.75,2000,0,91.24,0.000002697398,0.000002697398,0.000002697398,0.99999994,0,0,0,0,0,0,0,1,0,0,0,false,false,true,-31.929998,143.09,17.01,-0.0041782693,0.0024033815,0.86612415,0.49980554,-40.220997,77.840996,8.321,0.00030999997,0.00010999999,0.42421
20.758333,2000,0,91.24,0.000002697398,0.000002697398,0.000002697398,0.99999994,0,0,0,0,0,0,0,1,0,0,0,false,false,true,-32.27,143.73999,17.01,-0.0041836645,0.002392592,0.8670065,0.4982734,-40.431,77.660995,8.321,0.00030999997,0.00021,0.42411
20.766666,2000,0,91.24,0.000002697398,0.000002697398,0.000002697398,0.99999994,0,0,0,0,0,0,0,1,0,0,0,false,false,true,-32.61,144.39,17.01,-0.0041890596,0.0023871975,0.8678853,0.49674124,-40.641,77.480995,8.321,0.00030999997,0.00030999997,0.42401
20.775,2000,0,91.24,0.000002697398,0.000002697398,0.000002697398,0.99999994,0,0,0,0,0,0,0,1,0,0,0,false,false,true,-32.95,145.04,17.01,-0.004189059,0.0023818025,0.8687604,0.49520907,-40.850998,77.300995,8.321,0.00030999997,0.00030999997,0.42391
20.783333,2000,0,91.24,0.000002697398,0.000002697398,0.000002697398,0.99999994,0,0,0,0,0,0,0,1,0,0,0,false,false,true,-33.29,145.68,17.01,-0.0041890596,0.0023764079,0.86963505,0.4936716,-41.060997,77.120995,8.321,0.00030999997,0.00030999997,0.42381
20.791666,2000,0,91.24,0.000002697398,0.000002697398,0.000002697398,0.99999994,0,0,0,0,0,0,0,1,0,0,0,false,false,true,-33.63,146.31999,17.01,-0.004189059,0.002371013,0.87050605,0.49213403,-41.271,76.940994,8.321,0.00030999997,0.00021,0.42371
20.8,2000,0,91.24,0.000002697398,0.000002697398,0.000002697398,0.99999994,0,0,0,0,0,0,0,1,0,0,0,false,false,true,-33.969997,146.95999,17.01,-0.004194454,0.002365618,0.8713735,0.49059653,-41.481,76.760994,8.321,0.00030999997,0.00010999999,0.42361
20.808332,2000,0,91.24,0.000002697398,0.000002697398,0.000002697398,0.99999994,0,0,0,0,0,0,0,1,0,0,0,false,false,true,-34.32,147.59999,17.01,-0.004199849,0.0023548286,0.8722374,0.48905903,-41.690998,76.571,8.321,0.00030999997,0.00010999999,0.42351002
20.816668,2000,0,91.24,0.000002697398,0.000002697398,0.000002697398,0.99999994,0,0,0,0,0,0,0,1,0,0,0,false,false,true,-34.67,148.23999,17.01,-0.004205243,0.0023440388,0.8730976,0.4875215,-41.900997,76.381,8.321,0.00030999997,0.00010999999,0.42341
20.825,2000,0,91.24,0.000002697398,0.000002697398,0.000002697398,0.99999994,0,0,0,0,0,0,0,1,0,0,0,false,false,true,-35.02,148.87999,17.01,-0.004210638,0.002333249,0.87395734,0.4859785,-42.100998,76.190994,8.321,0.00030999997,0.00010999999,0.42331
20.833334,2000,0,91.24,0.000002697398,0.000002697398,0.000002697398,0.99999994,0,0,0,0,0,0,0,1,0,0,0,false,false,true,-35.37,149.51,17.01,-0.004216033,0.0023224596,0.87481356,0.48443568,-42.301,76.001,8.321,0.00021,0.00010999999,0.42321
20.841667,2000,0,91.24,0.000002697398,0.000002697398,0.000002697398,0.99999994,0,0,0,0,0,0,0,1,0,0,0,false,false,true,-35.719997,150.14,17.01,-0.004221428,0.0023170651,0.8756662,0.48289278,-42.501,75.811,8.321,0.00021,0.00021,0.42311
20.85,2000,0,91.24,0.000002697398,0.000002697398,0.000002697398,0.99999994,0,0,0,0,0,0,0,1,0,0,0,false,false,true,-36.07,150.76999,17.01,-0.0042268224,0.00231167,0.87651527,0.48134986,-42.701,75.620995,8.321,0.00021,0.00021,0.42301
20.858334,2000,0,91.24,0.000002697398,0.000002697398,0.000002697398,0.99999994,0,0,0,0,0,0,0,1,0,0,0,false,false,true,-36.43,151.4,17.01,-0.0042322176,0.0023062753,0.87736374,0.47980154,-42.900997,75.431,8.321,0.00021,0.00021,0.42291
20.866667,2000,0,91.24,0.000002697398,0.000002697398,0.000002697398,0.99999994,0,0,0,0,0,0,0,1,0,0,0,false,false,true,-36.79,152.03,17.01,-0.0042376127,0.0023008806,0.8782087,0.47825328,-43.100998,75.241,8.321,0.00021,0.00021,0.42271
20.875,2000,0,91.24,0.000002697398,0.000002697398,0.000002697398,0.99999994,0,0,0,0,0,0,0,1,0,0,0,false,false,true,-37.149998,152.66,17.01,-0.004243007,0.0022954857,0.8790501,0.47670493,-43.301,75.050995,8.321,0.00021,0.00021,0.42251
20.883333,2000,0,91.24,0.000002697398,0.000002697398,0.000002697398,0.99999994,0,0,0,0,0,0,0,1,0,0,0,false,false,true,-37.51,153.29,17.01,-0.0042484016,0.0022900908,0.87988794,0.4751566,-43.501,74.861,8.321,0.00030999997,0.00030999997,0.42231
20.891666,2000,0,91.24,0.000002697398,0.000002697398,0.000002697398,0.99999994,0,0,0,0,0,0,0,1,0,0,0,false,false,true,-37.87,153.91,17.01,-0.004248402,0.0022846963,0.88072234,0.47360826,-43.701,74.671,8.321,0.00030999997,0.00030999997,0.42211
20.9,2000,0,91.24,0.000002697398,0.000002697398,0.000002697398,0.99999994,0,0,0,0,0,0,0,1,0,0,0,false,false,true,-38.23,154.53,17.01,-0.004248402,0.0022793016,0.88155323,0.47205997,-43.900997,74.480995,8.321,0.00030999997,0.00030999997,0.42191002
20.908333,2000,0,91.24,0.000002697398,0.000002697398,0.000002697398,0.99999994,0,0,0,0,0,0,0,1,0,0,0,false,false,true,-38.6,155.15,17.01,-0.004248402,0.0022739067,0.8823806,0.47051165,-44.100998,74.281,8.321,0.00030999997,0.00021,0.42171
20.916666,2000,0,91.24,0.000002697398,0.000002697398,0.000002697398,0.99999994,0,0,0,0,0,0,0,1,0,0,0,false,false,true,-38.969997,155.76999,17.01,-0.0042484016,0.0022631169,0.8832073,0.4689579,-44.301,74.081,8.321,0.00030999997,0.00010999999,0.42151
20.925,2000,0,91.24,0.000002697398,0.000002697398,0.000002697398,0.99999994,0,0,0,0,0,0,0,1,0,0,0,false,false,true,-39.34,156.39,17.01,-0.004253797,0.0022523273,0.8840305,0.46740422,-44.501,73.881,8.321,0.00030999997,0,0.42131
20.933332,2000,0,91.24,0.000002697398,0.000002697398,0.000002697398,0.99999994,0,0,0,0,0,0,0,1,0,0,0,false,false,true,-39.71,157.01,17.01,-0.004259191,0.0022415374,0.8848502,0.46585044,-44.701,73.681,8.321,0.00030999997,0,0.42111
20.941668,2000,0,91.24,0.000002697398,0.000002697398,0.000002697398,0.99999994,0,0,0,0,0,0,0,1,0,0,0,false,false,true,-40.079998,157.62,17.01,-0.0042645857,0.0022307478,0.88566643,0.46429676,-44.900997,73.480995,8.321,0.00030999997,0,0.42091
20.95,2000,0,91.24,0.000002697398,0.000002697398,0.000002697398,0.99999994,0,0,0,0,0,0,0,1,0,0,0,false,false,true,-40.45,158.23,17.01,-0.0042699804,0.0022199582,0.8864792,0.46274304,-45.100998,73.281,8.321,0.00021,0.00010999999,0.42071
20.958334,2000,0,91.24,0.000002697398,0.000002697398,0.000002697398,0.99999994,0,0,0,0,0,0,0,1,0,0,0,false,false,true,-40.829998,158.84,17.01,-0.004275376,0.0022145638,0.8872886,0.46118942,-45.301,73.081,8.321,0.00021,0.00010999999,0.42051
20.966667,2000,0,91.24,0.000002697398,0.000002697398,0.000002697398,0.99999994,0,0,0,0,0,0,0,1,0,0,0,false,false,true,-41.21,159.45,17.01,-0.0042807707,0.0022091689,0.8880944,0.4596357,-45.501,72.881,8.321,0.00021,0.00021,0.42031
20.975,2000,0,91.24,0.000002697398,0.000002697398,0.000002697398,0.99999994,0,0,0,0,0,0,0,1,0,0,0,false,false,true,-41.59,160.06,17.01,-0.00428077,0.002203774,0.88889676,0.45808193,-45.701,72.681,8.321,0.00021,0.00021,0.42011002
20.983334,2000,0,91.24,0.000002697398,0.000002697398,0.000002697398,0.99999994,0,0,0,0,0,0,0,1,0,0,0,false,false,true,-41.969997,160.67,17.01,-0.0042807707,0.0021983793,0.88969857,0.4565229,-45.891,72.480995,8.321,0.00021,0.00021,0.41991
