time,ball_loc_x,ball_loc_y,ball_loc_z,ball_rot_x,ball_rot_y,ball_rot_z,ball_rot_w,ball_vel_x,ball_vel_y,ball_vel_z,ball_ang_x,ball_ang_y,ball_ang_z,player0_throttle,player0_steer,player0_pitch,player0_yaw,player0_roll,player0_jump,player0_boost,player0_handbrake,player0_loc_x,player0_loc_y,player0_loc_z,player0_rot_x,player0_rot_y,player0_rot_z,player0_rot_w,player0_vel_x,player0_vel_y,player0_vel_z,player0_ang_x,player0_ang_y,player0_ang_z
181.85,2000,0,91.24,0.000002697398,0.000002697398,0.000002697398,0.99999994,0,0,0,0,0,0,1,0,0,0,0,false,false,false,0,-2888.1099,17.01,-0.003347471,0.00336905,0.70708513,0.7071124,0,1400.3009,8.321,-0.00081,-0.00010999999,0
181.85834,2000,0,91.24,0.000002697398,0.000002697398,0.000002697398,0.99999994,0,0,0,0,0,0,1,1,0,0,0,false,false,true,0,-2876.44,17.01,-0.003347471,0.00336905,0.70708513,0.7071124,-12.231,1400.031,8.331,-0.00081,0.00301,0.34021
181.86667,2000,0,91.24,0.000002697398,0.000002697398,0.000002697398,0.99999994,0,0,0,0,0,0,1,1,0,0,0,false,false,true,-0.099999994,-2864.77,17.01,-0.003347471,0.003374445,0.7080874,0.7061087,-22.280998,1400.001,8.331,-0.00081,0.00421,0.60581
181.875,2000,0,91.24,0.000002697398,0.000002697398,0.000002697398,0.99999994,0,0,0,0,0,0,1,1,0,0,0,false,false,true,-0.29,-2853.0999,17.01,-0.003347471,0.0033798397,0.7098689,0.7043176,-31.970999,1399.9509,8.331,-0.00081,0.00451,0.83731
181.88333,2000,0,91.24,0.000002697398,0.000002697398,0.000002697398,0.99999994,0,0,0,0,0,0,1,1,0,0,0,false,false,true,-0.56,-2841.43,17.01,-0.003347471,0.0033852346,0.71232253,0.701836,-41.690998,1399.8309,8.331,-0.00071,0.0043099998,1.04071
181.89166,2000,0,91.24,0.000002697398,0.000002697398,0.000002697398,0.99999994,0,0,0,0,0,0,1,1,0,0,0,false,false,true,-0.90999997,-2829.76,17.01,-0.0033528658,0.0033852346,0.7153603,0.6987394,-51.700996,1399.591,8.331,-0.00071,0.00381,1.2208099
181.9,2000,0,91.24,0.000002697398,0.000002697398,0.000002697398,0.99999994,0,0,0,0,0,0,1,1,0,0,0,false,false,true,-1.3399999,-2818.0999,17.01,-0.0033582607,0.00337984,0.7189045,0.6950925,-62.141,1399.1909,8.341001,-0.00061,0.00321,1.38161
181.90834,2000,0,91.24,0.000002697398,0.000002697398,0.000002697398,0.99999994,0,0,0,0,0,0,1,1,0,0,0,false,false,true,-1.86,-2806.44,17.01,-0.00336905,0.00336905,0.72289264,0.69094384,-73.081,1398.601,8.341001,-0.00061,0.00251,1.52641
181.91667,2000,0,91.24,0.000002697398,0.000002697398,0.000002697398,0.99999994,0,0,0,0,0,0,1,1,0,0,0,false,false,true,-2.47,-2794.78,17.01,-0.0033852346,0.0033582605,0.72727334,0.6863313,-84.541,1397.8009,8.341001,-0.00061,0.0018099999,1.65771
181.925,2000,0,91.24,0.000002697398,0.000002697398,0.000002697398,0.99999994,0,0,0,0,0,0,1,1,0,0,0,false,false,true,-3.1699998,-2783.13,17.01,-0.0034068138,0.0033420762,0.7319956,0.68129253,-96.480995,1396.771,8.341001,-0.00051,0.0012099999,1.77761
181.93333,2000,0,91.24,0.000002697398,0.000002697398,0.000002697398,0.99999994,0,0,0,0,0,0,1,1,0,0,0,false,false,true,-3.97,-2771.49,17.01,-0.0034283933,0.0033204972,0.7370195,0.6758546,-108.851,1395.491,8.341001,-0.00040999998,0.00071,1.88771
181.94167,2000,0,91.24,0.000002697398,0.000002697398,0.000002697398,0.99999994,0,0,0,0,0,0,1,1,0,0,0,false,false,true,-4.88,-2759.8599,17.01,-0.003455367,0.0032989178,0.7423105,0.6700389,-121.561,1393.9309,8.341001,-0.00030999997,0.00021,1.98911
181.95,2000,0,91.24,0.000002697398,0.000002697398,0.000002697398,0.99999994,0,0,0,0,0,0,1,1,0,0,0,false,false,true,-5.89,-2748.24,17.01,-0.0034823408,0.003271944,0.74783987,0.6638619,-134.52101,1392.0809,8.341001,-0.00021,-0.00010999999,2.08281
181.95833,2000,0,91.24,0.000002697398,0.000002697398,0.000002697398,0.99999994,0,0,0,0,0,0,1,1,0,0,0,false,false,true,-7.0099998,-2736.64,17.01,-0.0035093152,0.0032395753,0.7535746,0.657345,-147.61101,1389.9409,8.341001,-0.00021,-0.00030999997,2.16961
181.96666,2000,0,91.24,0.000002697398,0.000002697398,0.000002697398,0.99999994,0,0,0,0,0,0,1,1,0,0,0,false,false,true,-8.24,-2725.06,17.01,-0.0035416838,0.0032072063,0.7594875,0.65050423,-160.72101,1387.521,8.351,-0.00021,-0.00051,2.2499099
181.975,2000,0,91.24,0.000002697398,0.000002697398,0.000002697398,0.99999994,0,0,0,0,0,0,1,1,0,0,0,false,false,true,-9.58,-2713.5,17.01,-0.0035740524,0.0031748374,0.765552,0.64335614,-173.72101,1384.841,8.351,-0.00010999999,-0.00071,2.32421
181.98334,2000,0,91.24,0.000002697398,0.000002697398,0.000002697398,0.99999994,0,0,0,0,0,0,1,1,0,0,0,false,false,true,-11.03,-2701.96,17.01,-0.0036064212,0.003137074,0.77174723,0.63591135,-186.47101,1381.9409,8.351,0,-0.00081,2.39271
181.99167,2000,0,91.24,0.000002697398,0.000002697398,0.000002697398,0.99999994,0,0,0,0,0,0,1,1,0,0,0,false,false,true,-12.58,-2690.44,17.01,-0.00363879,0.0030993104,0.7780485,0.62818587,-198.83101,1378.871,8.351,0,-0.00091,2.45551
182,2000,0,91.24,0.000002697398,0.000002697398,0.000002697398,0.99999994,0,0,0,0,0,0,1,1,0,0,0,false,false,true,-14.24,-2678.95,17.01,-0.0036711588,0.0030615467,0.78443635,0.6201908,-210.651,1375.6809,8.351,0,-0.0010099999,2.5127099
182.00833,2000,0,91.24,0.000002697398,0.000002697398,0.000002697398,0.99999994,0,0,0,0,0,0,1,1,0,0,0,false,false,true,-16,-2667.49,17.01,-0.0037089223,0.0030183885,0.7908879,0.6119422,-221.781,1372.4609,8.351,0,-0.00111,2.5643098
182.01666,2000,0,91.24,0.000002697398,0.000002697398,0.000002697398,0.99999994,0,0,0,0,0,0,1,1,0,0,0,false,false,true,-17.85,-2656.05,17.01,-0.003746686,0.00297523,0.79738176,0.6034561,-232.061,1369.2909,8.351,0,-0.0012099999,2.61021
182.025,2000,0,91.24,0.000002697398,0.000002697398,0.000002697398,0.99999994,0,0,0,0,0,0,1,1,0,0,0,false,false,true,-19.779999,-2644.64,17.01,-0.0037844495,0.0029320717,0.8038972,0.59474885,-241.341,1366.281,8.351,0.00010999999,-0.0012099999,2.65021
182.03334,2000,0,91.24,0.000002697398,0.000002697398,0.000002697398,0.99999994,0,0,0,0,0,0,1,1,0,0,0,false,false,true,-21.789999,-2633.25,17.01,-0.0038222133,0.0028889135,0.8104149,0.5858367,-249.451,1363.5509,8.351,0.00021,-0.0012099999,2.68421
182.04167,2000,0,91.24,0.000002697398,0.000002697398,0.000002697398,0.99999994,0,0,0,0,0,0,1,1,0,0,0,false,false,true,-23.869999,-2621.89,17.01,-0.0038599768,0.0028403602,0.81691676,0.57673556,-256.231,1361.251,8.341001,0.00030999997,-0.0012099999,2.71211
182.05,2000,0,91.24,0.000002697398,0.000002697398,0.000002697398,0.99999994,0,0,0,0,0,0,1,1,0,0,0,false,false,true,-26.01,-2610.55,17.01,-0.0038977403,0.002791807,0.8233819,0.5674673,-261.521,1359.5409,8.341001,0.00040999998,-0.0012099999,2.73361
182.05833,2000,0,91.24,0.000002697398,0.000002697398,0.000002697398,0.99999994,0,0,0,0,0,0,1,1,0,0,0,false,false,true,-28.189999,-2599.22,17.01,-0.003930109,0.002743254,0.8297912,0.5580534,-267.04102,1357.621,8.341001,0.00040999998,-0.0012099999,2.75451
182.06667,2000,0,91.24,0.000002697398,0.000002697398,0.000002697398,0.99999994,0,0,0,0,0,0,1,1,0,0,0,false,false,true,-30.42,-2587.91,17.01,-0.0039624777,0.0026947006,0.8361409,0.5484937,-272.781,1355.471,8.341001,0.00040999998,-0.00111,2.7750099
182.075,2000,0,91.24,0.000002697398,0.000002697398,0.000002697398,0.99999994,0,0,0,0,0,0,1,1,0,0,0,false,false,true,-32.69,-2576.6099,17.01,-0.0039948463,0.0026461475,0.84242743,0.5387884,-278.721,1353.0809,8.341001,0.00040999998,-0.00111,2.79511
182.08333,2000,0,91.24,0.000002697398,0.000002697398,0.000002697398,0.99999994,0,0,0,0,0,0,1,1,0,0,0,false,false,true,-35.01,-2565.3298,17.01,-0.0040272153,0.0025975944,0.84864384,0.5289429,-284.851,1350.4609,8.341001,0.00040999998,-0.0010099999,2.81491
182.09166,2000,0,91.24,0.000002697398,0.000002697398,0.000002697398,0.99999994,0,0,0,0,0,0,1,1,0,0,0,false,false,true,-37.38,-2554.0798,17.01,-0.0040595834,0.0025490408,0.85479,0.5189516,-291.151,1347.601,8.341001,0.00040999998,-0.00091,2.83431
182.1,2000,0,91.24,0.000002697398,0.000002697398,0.000002697398,0.99999994,0,0,0,0,0,0,1,1,0,0,0,false,false,true,-39.809998,-2542.8499,17.01,-0.004091953,0.0024950935,0.86085945,0.50882024,-297.611,1344.501,8.341001,0.00040999998,-0.00091,2.85341
182.10834,2000,0,91.24,0.000002697398,0.000002697398,0.000002697398,0.99999994,0,0,0,0,0,0,1,1,0,0,0,false,false,true,-42.29,-2531.65,17.01,-0.0041243215,0.0024411452,0.86684847,0.49854854,-304.221,1341.151,8.341001,0.00040999998,-0.00081,2.87211
182.11667,2000,0,91.24,0.000002697398,0.000002697398,0.000002697398,0.99999994,0,0,0,0,0,0,1,1,0,0,0,false,false,true,-44.829998,-2520.47,17.01,-0.0041566906,0.0023871975,0.87275106,0.48814192,-310.961,1337.5609,8.341001,0.00040999998,-0.00071,2.8905098
182.125,2000,0,91.24,0.000002697398,0.000002697398,0.000002697398,0.99999994,0,0,0,0,0,0,1,1,0,0,0,false,false,true,-47.42,-2509.3198,17.01,-0.004189059,0.0023332492,0.8785669,0.47759506,-317.821,1333.721,8.341001,0.00040999998,-0.00061,2.90851
182.13333,2000,0,91.24,0.000002697398,0.000002697398,0.000002697398,0.99999994,0,0,0,0,0,0,1,1,0,0,0,false,false,true,-50.07,-2498.21,17.01,-0.0042160335,0.0022793016,0.8842901,0.4669133,-324.781,1329.641,8.341001,0.00040999998,-0.00051,2.92621
182.14166,2000,0,91.24,0.000002697398,0.000002697398,0.000002697398,0.99999994,0,0,0,0,0,0,1,1,0,0,0,false,false,true,-52.78,-2487.13,17.01,-0.004243007,0.0022253534,0.88991725,0.4560967,-331.831,1325.3109,8.341001,0.00040999998,-0.00040999998,2.94361
182.15,2000,0,91.24,0.000002697398,0.000002697398,0.000002697398,0.99999994,0,0,0,0,0,0,1,1,0,0,0,false,false,true,-55.55,-2476.0898,17.01,-0.004269981,0.0021714054,0.8954455,0.4451452,-338.961,1320.741,8.341001,0.00030999997,-0.00040999998,2.96071
182.15834,2000,0,91.24,0.000002697398,0.000002697398,0.000002697398,0.99999994,0,0,0,0,0,0,1,1,0,0,0,false,false,true,-58.37,-2465.0798,17.01,-0.004296955,0.0021174573,0.9008691,0.4340643,-346.151,1315.9309,8.341001,0.00030999997,-0.00030999997,2.9774098
182.16667,2000,0,91.24,0.000002697398,0.000002697398,0.000002697398,0.99999994,0,0,0,0,0,0,1,1,0,0,0,false,false,true,-61.25,-2454.1099,17.01,-0.004323929,0.0020635095,0.90618515,0.42285383,-353.391,1310.881,8.341001,0.00030999997,-0.00030999997,2.99381
182.175,2000,0,91.24,0.000002697398,0.000002697398,0.000002697398,0.99999994,0,0,0,0,0,0,1,1,0,0,0,false,false,true,-64.189995,-2443.19,17.01,-0.0043509034,0.0020095618,0.9113884,0.41151938,-360.671,1305.601,8.341001,0.00030999997,-0.00030999997,3.0099099
182.18333,2000,0,91.24,0.000002697398,0.000002697398,0.000002697398,0.99999994,0,0,0,0,0,0,1,1,0,0,0,false,false,true,-67.2,-2432.31,17.01,-0.0043778773,0.0019556137,0.9164784,0.40005535,-367.981,1300.0809,8.341001,0.00030999997,-0.00021,3.02561
182.19167,2000,0,91.24,0.000002697398,0.000002697398,0.000002697398,0.99999994,0,0,0,0,0,0,1,1,0,0,0,false,false,true,-70.27,-2421.48,17.01,-0.0044048512,0.001896271,0.9214477,0.38847274,-375.311,1294.341,8.341001,0.00030999997,-0.00021,3.04101
182.2,2000,0,91.24,0.000002697398,0.000002697398,0.000002697398,0.99999994,0,0,0,0,0,0,1,1,0,0,0,false,false,true,-73.4,-2410.69,17.01,-0.0044264304,0.0018369282,0.92629606,0.37676594,-382.641,1288.371,8.341001,0.00030999997,-0.00010999999,3.05611
182.20833,2000,0,91.24,0.000002697398,0.000002697398,0.000002697398,0.99999994,0,0,0,0,0,0,1,1,0,0,0,false,false,true,-76.59,-2399.95,17.01,-0.004448009,0.0017775854,0.9310185,0.3649405,-389.971,1282.1909,8.341001,0.00030999997,-0.00010999999,3.0708098
182.21666,2000,0,91.24,0.000002697398,0.000002697398,0.000002697398,0.99999994,0,0,0,0,0,0,1,1,0,0,0,false,false,true,-79.84,-2389.26,17.01,-0.0044695884,0.0017182425,0.9356124,0.35299635,-397.281,1275.7909,8.341001,0.00030999997,-0.00010999999,3.0852098
182.225,2000,0,91.24,0.000002697398,0.000002697398,0.000002697398,0.99999994,0,0,0,0,0,0,1,1,0,0,0,false,false,true,-83.15,-2378.63,17.01,-0.0044911676,0.0016588998,0.9400732,0.3409389,-404.57098,1269.1909,8.341001,0.00030999997,-0.00010999999,3.09921
182.23334,2000,0,91.24,0.000002697398,0.000002697398,0.000002697398,0.99999994,0,0,0,0,0,0,1,1,0,0,0,false,false,true,-86.52,-2368.05,17.01,-0.004512747,0.001599557,0.94439656,0.32877362,-411.831,1262.391,8.341001,0.00021,0,3.11291
182.24167,2000,0,91.24,0.000002697398,0.000002697398,0.000002697398,0.99999994,0,0,0,0,0,0,1,1,0,0,0,false,false,true,-89.95,-2357.53,17.01,-0.0045343256,0.0015402142,0.94858193,0.31649494,-419.051,1255.391,8.341001,0.00021,0,3.12621
182.25,2000,0,91.24,0.000002697398,0.000002697398,0.000002697398,0.99999994,0,0,0,0,0,0,1,1,0,0,0,false,false,true,-93.439995,-2347.07,17.01,-0.0045559052,0.0014808716,0.95262355,0.30411392,-426.221,1248.2109,8.341001,0.00021,0,3.13921
182.25833,2000,0,91.24,0.000002697398,0.000002697398,0.000002697398,0.99999994,0,0,0,0,0,0,1,1,0,0,0,false,false,true,-96.99,-2336.67,17.01,-0.0045720898,0.0014215288,0.95651907,0.29163027,-433.341,1240.851,8.341001,0.00021,0,3.15181
182.26666,2000,0,91.24,0.000002697398,0.000002697398,0.000002697398,0.99999994,0,0,0,0,0,0,1,1,0,0,0,false,false,true,-100.6,-2326.3298,17.01,-0.0045882743,0.0013621862,0.9602663,0.27904424,-440.401,1233.3109,8.341001,0.00021,0,3.16411
182.275,2000,0,91.24,0.000002697398,0.000002697398,0.000002697398,0.99999994,0,0,0,0,0,0,1,1,0,0,0,false,false,true,-104.27,-2316.05,17.01,-0.0046044583,0.0013028432,0.9638614,0.26636097,-447.391,1225.611,8.341001,0.00021,0,3.17601
182.28334,2000,0,91.24,0.000002697398,0.000002697398,0.000002697398,0.99999994,0,0,0,0,0,0,1,1,0,0,0,false,false,true,-108,-2305.8398,17.01,-0.0046206433,0.0012435006,0.9673024,0.25358063,-454.311,1217.761,8.341001,0.00021,0,3.18751
182.29167,2000,0,91.24,0.000002697398,0.000002697398,0.000002697398,0.99999994,0,0,0,0,0,0,1,1,0,0,0,false,false,true,-111.79,-2295.69,17.01,-0.0046368274,0.001178763,0.9705843,0.24071404,-461.161,1209.761,8.341001,0.00021,0,3.1986098
182.3,2000,0,91.24,0.000002697398,0.000002697398,0.000002697398,0.99999994,0,0,0,0,0,0,1,1,0,0,0,false,false,true,-115.63,-2285.6099,17.01,-0.0046530114,0.0011140254,0.9737065,0.22775565,-467.931,1201.621,8.341001,0.00021,0,3.20941
182.30833,2000,0,91.24,0.000002697398,0.000002697398,0.000002697398,0.99999994,0,0,0,0,0,0,1,1,0,0,0,false,false,true,-119.53,-2275.5999,17.01,-0.004669196,0.0010492879,0.97666466,0.21471642,-474.621,1193.351,8.341001,0.00021,0,3.21981
182.31667,2000,0,91.24,0.000002697398,0.000002697398,0.000002697398,0.99999994,0,0,0,0,0,0,1,1,0,0,0,false,false,true,-123.49,-2265.66,17.01,-0.004679985,0.0009845501,0.9794569,0.20159619,-481.221,1184.9509,8.341001,0.00021,0,3.22981
182.325,2000,0,91.24,0.000002697398,0.000002697398,0.000002697398,0.99999994,0,0,0,0,0,0,1,1,0,0,0,false,false,true,-127.5,-2255.79,17.01,-0.0046907747,0.00091981265,0.98208153,0.18839511,-487.741,1176.4409,8.341001,0.00021,0,3.23941
182.33333,2000,0,91.24,0.000002697398,0.000002697398,0.000002697398,0.99999994,0,0,0,0,0,0,1,1,0,0,0,false,false,true,-131.56,-2245.99,17.01,-0.0047015646,0.0008550752,0.98453474,0.17512384,-494.171,1167.8209,8.341001,0.00021,0,3.24861
182.34166,2000,0,91.24,0.000002697398,0.000002697398,0.000002697398,0.99999994,0,0,0,0,0,0,1,1,0,0,0,false,false,true,-135.68,-2236.26,17.01,-0.004712354,0.00079033757,0.98681474,0.16178241,-500.521,1159.101,8.341001,0.00010999999,0,3.25741
182.35,2000,0,91.24,0.000002697398,0.000002697398,0.000002697398,0.99999994,0,0,0,0,0,0,1,1,0,0,0,false,false,true,-139.84999,-2226.5999,17.01,-0.0047231438,0.00072560005,0.9889194,0.14837636,-506.781,1150.2909,8.341001,0.00010999999,0,3.26581
182.35834,2000,0,91.24,0.000002697398,0.000002697398,0.000002697398,0.99999994,0,0,0,0,0,0,1,1,0,0,0,false,false,true,-144.06999,-2217.01,17.01,-0.0047339336,0.00066086254,0.9908469,0.13490547,-512.96094,1141.391,8.341001,0.00010999999,0,3.27381
182.36667,2000,0,91.24,0.000002697398,0.000002697398,0.000002697398,0.99999994,0,0,0,0,0,0,1,1,0,0,0,false,false,true,-148.34,-2207.5,17.01,-0.0047447225,0.0005961249,0.992595,0.121375225,-519.061,1132.411,8.341001,0.00010999999,0.00010999999,3.28141
182.375,2000,0,91.24,0.000002697398,0.000002697398,0.000002697398,0.99999994,0,0,0,0,0,0,1,1,0,0,0,false,false,true,-152.67,-2198.06,17.01,-0.0047501177,0.0005313874,0.994162,0.10779115,-525.081,1123.361,8.341001,0.00010999999,0.00010999999,3.2885098
182.38333,2000,0,91.24,0.000002697398,0.000002697398,0.000002697398,0.99999994,0,0,0,0,0,0,1,1,0,0,0,false,false,true,-157.05,-2188.7,17.01,-0.004755513,0.00046664986,0.9955457,0.09415841,-531.02094,1114.251,8.341001,0.00010999999,0.00010999999,3.29521
182.39166,2000,0,91.24,0.000002697398,0.000002697398,0.000002697398,0.99999994,0,0,0,0,0,0,1,1,0,0,0,false,false,true,-161.48,-2179.41,17.01,-0.0047609075,0.00040191232,0.9967445,0.0804826,-536.891,1105.0809,8.341001,0.00010999999,0.00010999999,3.3015099
182.4,2000,0,91.24,0.000002697398,0.000002697398,0.000002697398,0.99999994,0,0,0,0,0,0,1,1,0,0,0,false,false,true,-165.95,-2170.2,17.01,-0.0047663026,0.00033717477,0.9977574,0.06676356,-542.691,1095.861,8.341001,0.00010999999,0.00010999999,3.3073099
182.40834,2000,0,91.24,0.000002697398,0.000002697398,0.000002697398,0.99999994,0,0,0,0,0,0,1,1,0,0,0,false,false,true,-170.47,-2161.07,17.01,-0.004771697,0.0002724372,0.99858266,0.05300674,-548.43097,1086.591,8.341001,0.00010999999,0.00021,3.31271
182.41667,2000,0,91.24,0.000002697398,0.000002697398,0.000002697398,0.99999994,0,0,0,0,0,0,1,1,0,0,0,false,false,true,-175.04,-2152.02,17.01,-0.0047716973,0.00020769966,0.99921924,0.039217643,-554.11096,1077.281,8.341001,0.00010999999,0.00021,3.31761
182.425,2000,0,91.24,0.000002697398,0.000002697398,0.000002697398,0.99999994,0,0,0,0,0,0,1,1,0,0,0,false,false,true,-179.65999,-2143.04,17.01,-0.0047716964,0.00014296208,0.9996658,0.02540148,-559.74097,1067.9309,8.341001,0.00010999999,0.00021,3.32211
182.43333,2000,0,91.24,0.000002697398,0.000002697398,0.000002697398,0.99999994,0,0,0,0,0,0,1,1,0,0,0,false,false,true,-184.31999,-2134.14,17.01,-0.0047716973,0.00007822455,0.99992174,0.011563831,-565.321,1058.5409,8.341001,0.00010999999,0.00021,3.32611
182.44167,2000,0,91.24,0.000002697398,0.000002697398,0.000002697398,0.99999994,0,0,0,0,0,0,1,1,0,0,0,false,false,true,-189.03,-2125.32,17.01,-0.004771697,0.000013486991,0.99998593,-0.0022954857,-570.871,1049.121,8.341001,0.00010999999,0.00021,3.3296099
182.45,2000,0,91.24,0.000002697398,0.000002697398,0.000002697398,0.99999994,0,0,0,0,0,0,1,1,0,0,0,false,false,true,-193.79,-2116.5798,17.01,-0.004771697,-0.000051250565,0.9998579,-0.016165549,-576.381,1039.6709,8.341001,0.00010999999,0.00021,3.33261
182.45833,2000,0,91.24,0.000002697398,0.000002697398,0.000002697398,0.99999994,0,0,0,0,0,0,1,1,0,0,0,false,false,true,-198.59,-2107.92,17.01,-0.004771697,-0.00011598812,0.99953705,-0.030046444,-581.871,1030.1909,8.341001,0.00010999999,0.00021,3.33511
182.46666,2000,0,91.24,0.000002697398,0.000002697398,0.000002697398,0.99999994,0,0,0,0,0,0,1,1,0,0,0,false,false,true,-203.44,-2099.3298,17.01,-0.0047663026,-0.00018072568,0.9990231,-0.043932695,-587.35095,1020.68097,8.341001,0.00021,0.00030999997,3.33711
182.475,2000,0,91.24,0.000002697398,0.000002697398,0.000002697398,0.99999994,0,0,0,0,0,0,1,1,0,0,0,false,false,true,-208.33,-2090.82,17.01,-0.0047609075,-0.00024546322,0.99831563,-0.057818938,-592.821,1011.1409,8.341001,0.00021,0.00030999997,3.33851
182.48334,2000,0,91.24,0.000002697398,0.000002697398,0.000002697398,0.99999994,0,0,0,0,0,0,1,1,0,0,0,false,false,true,-213.26999,-2082.39,17.01,-0.004755513,-0.00031020076,0.9974148,-0.07169979,-598.29095,1001.571,8.341001,0.00021,0.00030999997,3.3394098
182.49167,2000,0,91.24,0.000002697398,0.000002697398,0.000002697398,0.99999994,0,0,0,0,0,0,1,1,0,0,0,false,false,true,-218.26,-2074.04,17.01,-0.0047501177,-0.00037493833,0.9963207,-0.085569896,-603.77094,991.97095,8.341001,0.00021,0.00030999997,3.33971
182.5,2000,0,91.24,0.000002697398,0.000002697398,0.000002697398,0.99999994,0,0,0,0,0,0,1,1,0,0,0,false,false,true,-223.29,-2065.77,17.01,-0.0047447225,-0.00043967582,0.9950336,-0.099423766,-609.27094,982.34094,8.341001,0.00021,0.00030999997,3.33931
182.50833,2000,0,91.24,0.000002697398,0.000002697398,0.000002697398,0.99999994,0,0,0,0,0,0,1,1,0,0,0,false,false,true,-228.37,-2057.5798,17.01,-0.0047393283,-0.00050441345,0.99355435,-0.113256074,-614.701,972.60095,8.341001,0.00021,0.00030999997,3.34181
182.51666,2000,0,91.24,0.000002697398,0.000002697398,0.000002697398,0.99999994,0,0,0,0,0,0,1,1,0,0,0,false,false,true,-233.48999,-2049.47,17.01,-0.004728538,-0.0005691509,0.9918812,-0.12707761,-620.04095,962.751,8.341001,0.00021,0.00040999998,3.34771
182.525,2000,0,91.24,0.000002697398,0.000002697398,0.000002697398,0.99999994,0,0,0,0,0,0,1,1,0,0,0,false,false,true,-238.65999,-2041.45,17.01,-0.004717749,-0.0006338885,0.99001247,-0.14089914,-625.311,952.79095,8.341001,0.00021,0.00040999998,3.35691
182.53334,2000,0,91.24,0.000002697398,0.000002697398,0.000002697398,0.99999994,0,0,0,0,0,0,1,1,0,0,0,false,false,true,-243.87,-2033.51,17.01,-0.00470696,-0.00069862616,0.9879451,-0.15473145,-630.501,942.73096,8.341001,0.00021,0.00040999998,3.36941
182.54167,2000,0,91.24,0.000002697398,0.000002697398,0.000002697398,0.99999994,0,0,0,0,0,0,1,1,0,0,0,false,false,true,-249.12,-2025.6499,17.01,-0.00469617,-0.00076336367,0.9856755,-0.16858532,-635.621,932.571,8.341001,0.00021,0.00030999997,3.38521
182.55,2000,0,91.24,0.000002697398,0.000002697398,0.000002697398,0.99999994,0,0,0,0,0,0,1,1,0,0,0,false,false,true,-254.42,-2017.88,17.01,-0.004685381,-0.00082810124,0.9831996,-0.18247162,-640.68097,922.311,8.341001,0.00021,0.00030999997,3.4042099
182.55833,2000,0,91.24,0.000002697398,0.000002697398,0.000002697398,0.99999994,0,0,0,0,0,0,1,1,0,0,0,false,false,true,-259.75998,-2010.19,17.01,-0.0046745907,-0.00089823356,0.980512,-0.19640101,-645.68097,911.9509,8.341001,0.00021,0.00030999997,3.4263098
182.56667,2000,0,91.24,0.000002697398,0.000002697398,0.000002697398,0.99999994,0,0,0,0,0,0,1,1,0,0,0,false,false,true,-265.13998,-2002.59,17.01,-0.004658406,-0.00096836593,0.97760826,-0.21037897,-650.48096,901.42096,8.341001,0.00010999999,0.00030999997,3.4537098
182.575,2000,0,91.24,0.000002697398,0.000002697398,0.000002697398,0.99999994,0,0,0,0,0,0,1,1,0,0,0,false,false,true,-270.56,-1995.08,17.01,-0.004642222,-0.0010384982,0.9744792,-0.22442706,-655.071,890.73096,8.341001,0,0.00021,3.48631
182.58333,2000,0,91.24,0.000002697398,0.000002697398,0.000002697398,0.99999994,0,0,0,0,0,0,1,1,0,0,0,false,false,true,-276.02,-1987.6599,17.01,-0.004626037,-0.0011086304,0.9711169,-0.23855609,-659.46094,879.881,8.341001,-0.00010999999,0.00010999999,3.5241098
182.59166,2000,0,91.24,0.000002697398,0.000002697398,0.000002697398,0.99999994,0,0,0,0,0,0,1,1,0,0,0,false,false,true,-281.52,-1980.33,17.01,-0.004609853,-0.0011787629,0.96751004,-0.25278762,-663.65094,868.8909,8.341001,-0.00021,0,3.56691
182.6,2000,0,91.24,0.000002697398,0.000002697398,0.000002697398,0.99999994,0,0,0,0,0,0,1,1,0,0,0,false,false,true,-287.05,-1973.09,17.01,-0.004593669,-0.0012488953,0.96364653,-0.26713783,-667.641,857.77094,8.341001,-0.00030999997,-0.00010999999,3.6147099
182.60834,2000,0,91.24,0.000002697398,0.000002697398,0.000002697398,0.99999994,0,0,0,0,0,0,1,1,0,0,0,false,false,true,-292.61,-1965.94,17.01,-0.0045720898,-0.0013190276,0.9595133,-0.2816229,-671.43097,846.53094,8.341001,-0.00040999998,-0.00021,3.66741
182.61667,2000,0,91.24,0.000002697398,0.000002697398,0.000002697398,0.99999994,0,0,0,0,0,0,1,1,0,0,0,false,false,true,-298.21,-1958.89,17.01,-0.00455051,-0.0013891598,0.9550973,-0.29625362,-675.03094,835.17096,8.341001,-0.00051,-0.00030999997,3.72491
182.625,2000,0,91.24,0.000002697398,0.000002697398,0.000002697398,0.99999994,0,0,0,0,0,0,1,1,0,0,0,false,false,true,-303.84,-1951.9299,17.01,-0.0045289313,-0.0014592924,0.95038456,-0.31104085,-678.311,823.59094,8.341001,-0.00061,-0.00040999998,3.7848098
182.63333,2000,0,91.24,0.000002697398,0.000002697398,0.000002697398,0.99999994,0,0,0,0,0,0,1,1,0,0,0,false,false,true,-309.49,-1945.07,17.01,-0.004507352,-0.0015294247,0.9453612,-0.3259899,-681.23096,811.79095,8.341001,-0.00061,-0.00051,3.84671
182.64166,2000,0,91.24,0.000002697398,0.000002697398,0.000002697398,0.99999994,0,0,0,0,0,0,1,1,0,0,0,false,false,true,-315.16998,-1938.2999,17.01,-0.004485773,-0.001599557,0.9400146,-0.34110078,-683.80096,799.79095,8.341001,-0.00061,-0.00051,3.9105098
182.65,2000,0,91.24,0.000002697398,0.000002697398,0.000002697398,0.99999994,0,0,0,0,0,0,1,1,0,0,0,false,false,true,-320.87,-1931.64,17.01,-0.0044587995,-0.0016696895,0.9343314,-0.35637352,-685.84094,787.86096,8.341001,-0.00061,-0.00051,3.97411
182.65834,2000,0,91.24,0.000002697398,0.000002697398,0.000002697398,0.99999994,0,0,0,0,0,0,1,1,0,0,0,false,false,true,-326.59,-1925.07,17.01,-0.004431825,-0.0017398219,0.9283017,-0.37179732,-687.371,776.04095,8.341001,-0.00051,-0.00051,4.0370097
182.66667,2000,0,91.24,0.000002697398,0.000002697398,0.000002697398,0.99999994,0,0,0,0,0,0,1,1,0,0,0,false,false,true,-332.32,-1918.6,17.01,-0.0044048512,-0.0018099542,0.92191565,-0.38736135,-688.41095,764.371,8.341001,-0.00040999998,-0.00051,4.09921
182.675,2000,0,91.24,0.000002697398,0.000002697398,0.000002697398,0.99999994,0,0,0,0,0,0,1,1,0,0,0,false,false,true,-338.06,-1912.23,17.01,-0.004372482,-0.0018800865,0.9151658,-0.40304944,-688.97095,752.871,8.341001,-0.00030999997,-0.00040999998,4.16071
182.68333,2000,0,91.24,0.000002697398,0.000002697398,0.000002697398,0.99999994,0,0,0,0,0,0,1,1,0,0,0,false,false,true,-343.8,-1905.96,17.01,-0.004340113,-0.0019556135,0.90804,-0.41885626,-689.071,741.571,8.341001,-0.00010999999,-0.00040999998,4.22161
182.69167,2000,0,91.24,0.000002697398,0.000002697398,0.000002697398,0.99999994,0,0,0,0,0,0,1,1,0,0,0,false,false,true,-349.53998,-1899.7799,17.01,-0.0043077446,-0.0020311407,0.900531,-0.4347656,-688.73096,730.501,8.341001,0,-0.00030999997,4.28191
182.7,2000,0,91.24,0.000002697398,0.000002697398,0.000002697398,0.99999994,0,0,0,0,0,0,1,1,0,0,0,false,false,true,-355.28,-1893.69,17.01,-0.004269981,-0.0021066677,0.8926318,-0.45076123,-687.881,719.6409,8.341001,0,-0.00021,4.33941
182.70833,2000,0,91.24,0.000002697398,0.000002697398,0.000002697398,0.99999994,0,0,0,0,0,0,1,1,0,0,0,false,false,true,-361.00998,-1887.69,17.01,-0.004232218,-0.0021821952,0.8843358,-0.466827,-686.451,708.98096,8.341001,0,-0.00010999999,4.39191
182.71666,2000,0,91.24,0.000002697398,0.000002697398,0.000002697398,0.99999994,0,0,0,0,0,0,1,1,0,0,0,false,false,true,-366.72998,-1881.7799,17.01,-0.004194454,-0.0022577222,0.87564564,-0.4829305,-684.46094,698.561,8.341001,0.00010999999,0,4.4394097
182.725,2000,0,91.24,0.000002697398,0.000002697398,0.000002697398,0.99999994,0,0,0,0,0,0,1,1,0,0,0,false,false,true,-372.43,-1875.96,17.01,-0.0041512954,-0.0023332492,0.866563,-0.49904484,-681.941,688.41095,8.341001,0.00021,0,4.4819098
182.73334,2000,0,91.24,0.000002697398,0.000002697398,0.000002697398,0.99999994,0,0,0,0,0,0,1,1,0,0,0,false,false,true,-378.11,-1870.22,17.01,-0.0041081365,-0.0024087762,0.85709417,-0.51513743,-678.92096,678.561,8.341001,0.00030999997,0,4.51941
182.74167,2000,0,91.24,0.000002697398,0.000002697398,0.000002697398,0.99999994,0,0,0,0,0,0,1,1,0,0,0,false,false,true,-383.77,-1864.57,17.01,-0.0040649786,-0.0024843037,0.84724104,-0.5311871,-675.43097,669.03094,8.341001,0.00030999997,0.00010999999,4.55201
182.75,2000,0,91.24,0.000002697398,0.000002697398,0.000002697398,0.99999994,0,0,0,0,0,0,1,1,0,0,0,false,false,true,-389.4,-1858.99,17.01,-0.004016426,-0.002559831,0.8370136,-0.5471613,-671.52094,659.85095,8.341001,0.00040999998,0.00021,4.57971
182.75833,2000,0,91.24,0.000002697398,0.000002697398,0.000002697398,0.99999994,0,0,0,0,0,0,1,1,0,0,0,false,false,true,-395,-1853.49,17.01,-0.003967873,-0.0026353581,0.8264208,-0.5630328,-667.22095,651.04095,8.341001,0.00051,0.00040999998,4.60261
182.76666,2000,0,91.24,0.000002697398,0.000002697398,0.000002697398,0.99999994,0,0,0,0,0,0,1,1,0,0,0,false,false,true,-400.56,-1848.0599,17.01,-0.003913924,-0.0027162796,0.8154734,-0.57877475,-662.571,642.61096,8.341001,0.00051,0.00051,4.62071
182.775,2000,0,91.24,0.000002697398,0.000002697398,0.000002697398,0.99999994,0,0,0,0,0,0,1,1,0,0,0,false,false,true,-406.08,-1842.7,17.01,-0.0038599768,-0.002791807,0.80418056,-0.59436584,-657.61096,634.571,8.341001,0.00051,0.00061,4.63401
182.78334,2000,0,91.24,0.000002697398,0.000002697398,0.000002697398,0.99999994,0,0,0,0,0,0,1,1,0,0,0,false,false,true,-411.56,-1837.4099,17.01,-0.0038060287,-0.002867334,0.7925572,-0.6097788,-652.391,626.941,8.341001,0.00051,0.00071,4.64261
182.79167,2000,0,91.24,0.000002697398,0.000002697398,0.000002697398,0.99999994,0,0,0,0,0,0,1,1,0,0,0,false,false,true,-417,-1832.19,17.01,-0.003746686,-0.0029428613,0.780612,-0.6249976,-646.951,619.71094,8.331,0.00051,0.00081,4.64661
182.8,2000,0,91.24,0.000002697398,0.000002697398,0.000002697398,0.99999994,0,0,0,0,0,0,1,1,0,0,0,false,false,true,-422.38998,-1827.0299,17.01,-0.003687343,-0.0030183885,0.768364,-0.6399952,-641.33093,612.891,8.331,0.00051,0.00091,4.64601
182.80833,2000,0,91.24,0.000002697398,0.000002697398,0.000002697398,0.99999994,0,0,0,0,0,0,1,1,0,0,0,false,false,true,-427.72998,-1821.9199,17.01,-0.0036280006,-0.0030939158,0.7558304,-0.65475005,-635.58093,606.48096,8.331,0.00051,0.0010099999,4.64081
182.81667,2000,0,91.24,0.000002697398,0.000002697398,0.000002697398,0.99999994,0,0,0,0,0,0,1,1,0,0,0,false,false,true,-433.03,-1816.87,17.01,-0.0035632628,-0.0031694428,0.74303037,-0.66924053,-629.74097,600.46094,8.331,0.00051,0.0010099999,4.6311097
182.825,2000,0,91.24,0.000002697398,0.000002697398,0.000002697398,0.99999994,0,0,0,0,0,0,1,1,0,0,0,false,false,true,-438.28,-1811.87,17.01,-0.0034985254,-0.003239575,0.72998124,-0.68345046,-623.85095,594.831,8.331,0.00040999998,0.0010099999,4.61691
182.83333,2000,0,91.24,0.000002697398,0.000002697398,0.000002697398,0.99999994,0,0,0,0,0,0,1,1,0,0,0,false,false,true,-443.47998,-1806.9099,17.01,-0.0034337877,-0.0033097074,0.71670145,-0.6973637,-617.96094,589.571,8.331,0.00040999998,0.0010099999,4.59821
182.84166,2000,0,91.24,0.000002697398,0.000002697398,0.000002697398,0.99999994,0,0,0,0,0,0,1,1,0,0,0,false,false,true,-448.63,-1802,17.01,0.00336905,0.0033798397,-0.70321167,0.71096444,-612.10095,584.66095,8.331,0.00040999998,0.0010099999,4.57511
182.85,2000,0,91.24,0.000002697398,0.000002697398,0.000002697398,0.99999994,0,0,0,0,0,0,1,1,0,0,0,false,false,true,-453.72998,-1797.13,17.01,0.0033043127,0.0034499723,-0.6895304,0.7242409,-606.30096,580.081,8.321,0.00030999997,0.00111,4.54761
182.85834,2000,0,91.24,0.000002697398,0.000002697398,0.000002697398,0.99999994,0,0,0,0,0,0,1,1,0,0,0,false,false,true,-458.78,-1792.2999,17.01,0.0032341804,0.0035147096,-0.6756819,0.7371778,-600.61096,575.811,8.321,0.00021,0.00111,4.51571
182.86667,2000,0,91.24,0.000002697398,0.000002697398,0.000002697398,0.99999994,0,0,0,0,0,0,1,1,0,0,0,false,false,true,-463.78998,-1787.5,17.01,0.0031640478,0.0035794473,-0.66169316,0.74975944,-595.05096,571.821,8.321,0.00010999999,0.00111,4.47931
182.875,2000,0,91.24,0.000002697398,0.000002697398,0.000002697398,0.99999994,0,0,0,0,0,0,1,1,0,0,0,false,false,true,-468.75,-1782.73,17.01,0.0030939155,0.003644185,-0.6475857,0.7619775,-589.65094,568.081,8.321,0.00010999999,0.00111,4.43851
182.88333,2000,0,91.24,0.000002697398,0.000002697398,0.000002697398,0.99999994,0,0,0,0,0,0,1,1,0,0,0,false,false,true,-473.66,-1778,17.01,0.0030237832,0.0037035276,-0.6333865,0.77382076,-584.441,564.561,8.321,0,0.00111,4.39331
182.89166,2000,0,91.24,0.000002697398,0.000002697398,0.000002697398,0.99999994,0,0,0,0,0,0,1,1,0,0,0,false,false,true,-478.53,-1773.2999,17.01,0.002953651,0.0037628703,-0.61911726,0.78528386,-579.41095,561.201,8.321,0,0.00111,4.34361
182.9,2000,0,91.24,0.000002697398,0.000002697398,0.000002697398,0.99999994,0,0,0,0,0,0,1,1,0,0,0,false,false,true,-483.36,-1768.62,17.01,0.0028835186,0.0038168184,-0.6048048,0.7963593,-574.571,557.96094,8.311,0,0.00111,4.28971
182.90834,2000,0,91.24,0.000002697398,0.000002697398,0.000002697398,0.99999994,0,0,0,0,0,0,1,1,0,0,0,false,false,true,-488.15,-1763.97,17.01,0.0028133863,0.0038707664,-0.59047616,0.8070408,-569.91095,554.80096,8.311,0,0.00111,4.2326097
182.91667,2000,0,91.24,0.000002697398,0.000002697398,0.000002697398,0.99999994,0,0,0,0,0,0,1,1,0,0,0,false,false,true,-492.9,-1759.35,17.01,0.0027432537,0.003924714,-0.5761529,0.81732786,-565.40094,551.68097,8.311,-0.00010999999,0.00111,4.17351
182.925,2000,0,91.24,0.000002697398,0.000002697398,0.000002697398,0.99999994,0,0,0,0,0,0,1,1,0,0,0,false,false,true,-497.61,-1754.75,17.01,0.0026731214,0.003973267,-0.56185126,0.8272243,-561.03094,548.59094,8.311,-0.00021,0.0010099999,4.11291
182.93333,2000,0,91.24,0.000002697398,0.000002697398,0.000002697398,0.99999994,0,0,0,0,0,0,1,1,0,0,0,false,false,true,-502.28998,-1750.1799,17.01,0.0026029893,0.0040218206,-0.5475928,0.8367312,-556.79095,545.511,8.311,-0.00030999997,0.00091,4.05121
182.94167,2000,0,91.24,0.000002697398,0.000002697398,0.000002697398,0.99999994,0,0,0,0,0,0,1,1,0,0,0,false,false,true,-506.93,-1745.63,17.01,0.0025328568,0.0040703737,-0.53339356,0.8458535,-552.68097,542.441,8.311,-0.00040999998,0.00081,3.98871
182.95,2000,0,91.24,0.000002697398,0.000002697398,0.000002697398,0.99999994,0,0,0,0,0,0,1,1,0,0,0,false,false,true,-511.53998,-1741.11,17.01,0.0024627247,0.004113532,-0.51926464,0.8546,-548.691,539.36096,8.311,-0.00051,0.00071,3.9258099
182.95833,2000,0,91.24,0.000002697398,0.000002697398,0.000002697398,0.99999994,0,0,0,0,0,0,1,1,0,0,0,false,false,true,-516.11,-1736.62,17.01,0.002392592,0.00415669,-0.5052165,0.86297923,-544.811,536.27094,8.311,-0.00061,0.00061,3.86281
182.96666,2000,0,91.24,0.000002697398,0.000002697398,0.000002697398,0.99999994,0,0,0,0,0,0,1,1,0,0,0,false,false,true,-520.64996,-1732.1499,17.01,0.0023224594,0.0041944534,-0.49126002,0.8709996,-541.04095,533.15094,8.311,-0.00061,0.00051,3.80001
182.975,2000,0,91.24,0.000002697398,0.000002697398,0.000002697398,0.99999994,0,0,0,0,0,0,1,1,0,0,0,false,false,true,-525.16,-1727.71,17.01,0.0022523273,0.0042322176,-0.4774062,0.87866956,-537.36096,530.001,8.301001,-0.00061,0.00040999998,3.73771
182.98334,2000,0,91.24,0.000002697398,0.000002697398,0.000002697398,0.99999994,0,0,0,0,0,0,1,1,0,0,0,false,false,true,-529.64,-1723.2899,17.01,0.0021821947,0.0042645857,-0.46366554,0.8859972,-533.77094,526.811,8.301001,-0.00061,0.00030999997,3.67611
182.99167,2000,0,91.24,0.000002697398,0.000002697398,0.000002697398,0.99999994,0,0,0,0,0,0,1,1,0,0,0,false,false,true,-534.08997,-1718.8999,17.01,0.0021120629,0.0042969557,-0.4500383,0.8929964,-530.261,523.571,8.301001,-0.00061,0.00021,3.61551
183,2000,0,91.24,0.000002697398,0.000002697398,0.000002697398,0.99999994,0,0,0,0,0,0,1,1,0,0,0,false,false,true,-538.51,-1714.5399,17.01,0.0020419303,0.004329324,-0.4365351,0.8996744,-526.821,520.27094,8.301001,-0.00051,0.00010999999,3.55601
183.00833,2000,0,91.24,0.000002697398,0.000002697398,0.000002697398,0.99999994,0,0,0,0,0,0,1,1,0,0,0,false,false,true,-542.89996,-1710.2,17.01,0.0019771927,0.0043562977,-0.42315593,0.9060442,-523.43097,516.91095,8.301001,-0.00040999998,0,3.49791
183.01666,2000,0,91.24,0.000002697398,0.000002697398,0.000002697398,0.99999994,0,0,0,0,0,0,1,1,0,0,0,false,false,true,-547.26,-1705.89,17.01,0.0019124552,0.0043832716,-0.40990627,0.91211504,-520.09094,513.48096,8.301001,-0.00040999998,0,3.4414098
183.025,2000,0,91.24,0.000002697398,0.000002697398,0.000002697398,0.99999994,0,0,0,0,0,0,1,1,0,0,0,false,false,true,-551.58997,-1701.61,17.01,0.0018477174,0.004410245,-0.39678603,0.91789854,-516.79095,509.981,8.301001,-0.00040999998,0,3.38671
183.03334,2000,0,91.24,0.000002697398,0.000002697398,0.000002697398,0.99999994,0,0,0,0,0,0,1,1,0,0,0,false,false,true,-555.89996,-1697.36,17.01,0.0017829802,0.00443722,-0.38379532,0.92340577,-513.52094,506.411,8.301001,-0.00030999997,0,3.33391
183.04167,2000,0,91.24,0.000002697398,0.000002697398,0.000002697398,0.99999994,0,0,0,0,0,0,1,1,0,0,0,false,false,true,-560.18,-1693.14,17.01,0.0017182427,0.0044587995,-0.37092876,0.928649,-510.281,502.761,8.301001,-0.00030999997,0,3.28321
183.05,2000,0,91.24,0.000002697398,0.000002697398,0.000002697398,0.99999994,0,0,0,0,0,0,1,1,0,0,0,false,false,true,-564.43,-1688.95,17.01,0.001653505,0.0044803782,-0.35819152,0.93363583,-507.051,499.031,8.301001,-0.00021,-0.00010999999,3.2348099
183.05833,2000,0,91.24,0.000002697398,0.000002697398,0.000002697398,0.99999994,0,0,0,0,0,0,1,1,0,0,0,false,false,true,-568.66,-1684.7899,17.01,0.0015941623,0.004501958,-0.3455731,0.93837965,-503.831,495.221,8.301001,-0.00010999999,-0.00010999999,3.1888099
183.06667,2000,0,91.24,0.000002697398,0.000002697398,0.000002697398,0.99999994,0,0,0,0,0,0,1,1,0,0,0,false,false,true,-572.86,-1680.6599,17.01,0.0015348196,0.0045235367,-0.33307332,0.9428888,-500.611,491.331,8.301001,0,-0.00021,3.14531
183.075,2000,0,91.24,0.000002697398,0.000002697398,0.000002697398,0.99999994,0,0,0,0,0,0,1,1,0,0,0,false,false,true,-577.02997,-1676.57,17.01,0.0014754769,0.004545116,-0.32068682,0.9471732,-497.38098,487.371,8.301001,0,-0.00030999997,3.1045098
183.08333,2000,0,91.24,0.000002697398,0.000002697398,0.000002697398,0.99999994,0,0,0,0,0,0,1,1,0,0,0,false,false,true,-581.17,-1672.51,17.01,0.001416134,0.0045613,-0.30840817,0.9512421,-494.13098,483.331,8.301001,0,-0.00040999998,3.06651
183.09166,2000,0,91.24,0.000002697398,0.000002697398,0.000002697398,0.99999994,0,0,0,0,0,0,1,1,0,0,0,false,false,true,-585.29,-1668.48,17.01,0.0013567912,0.0045774844,-0.29622668,0.95510566,-490.861,479.211,8.301001,0,-0.00040999998,3.03141
183.1,2000,0,91.24,0.000002697398,0.000002697398,0.000002697398,0.99999994,0,0,0,0,0,0,1,1,0,0,0,false,false,true,-589.38,-1664.49,17.01,0.0012974484,0.004593669,-0.28413692,0.95877177,-487.491,474.981,8.301001,0,-0.00040999998,2.99941
183.10834,2000,0,91.24,0.000002697398,0.000002697398,0.000002697398,0.99999994,0,0,0,0,0,0,1,1,0,0,0,false,false,true,-593.44,-1660.5299,17.01,0.0012381057,0.004609853,-0.27213344,0.9622476,-484.011,470.661,8.301001,0.00010999999,-0.00040999998,2.9702098
183.11667,2000,0,91.24,0.000002697398,0.000002697398,0.000002697398,0.99999994,0,0,0,0,0,0,1,1,0,0,0,false,false,true,-597.47,-1656.61,17.01,0.0011841578,0.004626038,-0.26020554,0.9655414,-480.401,466.271,8.301001,0.00021,-0.00051,2.9437099
183.125,2000,0,91.24,0.000002697398,0.000002697398,0.000002697398,0.99999994,0,0,0,0,0,0,1,1,0,0,0,false,false,true,-601.47,-1652.72,17.01,0.0011302098,0.004636827,-0.24834228,0.96866053,-476.651,461.811,8.301001,0.00021,-0.00051,2.91991
183.13333,2000,0,91.24,0.000002697398,0.000002697398,0.000002697398,0.99999994,0,0,0,0,0,0,1,1,0,0,0,false,false,true,-605.44,-1648.87,17.01,0.0010762617,0.0046476168,-0.23653843,0.97161037,-472.751,457.311,8.301001,0.00021,-0.00051,2.89871
183.14166,2000,0,91.24,0.000002697398,0.000002697398,0.000002697398,0.99999994,0,0,0,0,0,0,1,1,0,0,0,false,false,true,-609.38,-1645.0599,17.01,0.001022314,0.0046584066,-0.22478853,0.9743959,-468.691,452.781,8.301001,0.00021,-0.00051,2.88001
183.15,2000,0,91.24,0.000002697398,0.000002697398,0.000002697398,0.99999994,0,0,0,0,0,0,1,1,0,0,0,false,false,true,-613.29,-1641.2899,17.01,0.00096836593,0.004669196,-0.21308176,0.97702265,-464.461,448.231,8.301001,0.00030999997,-0.00051,2.8638098
183.15834,2000,0,91.24,0.000002697398,0.000002697398,0.000002697398,0.99999994,0,0,0,0,0,0,1,1,0,0,0,false,false,true,-617.16,-1637.5499,17.01,0.000914418,0.004679986,-0.20140739,0.97949594,-460.051,443.681,8.301001,0.00030999997,-0.00051,2.85001
183.16667,2000,0,91.24,0.000002697398,0.000002697398,0.000002697398,0.99999994,0,0,0,0,0,0,1,1,0,0,0,false,false,true,-620.99,-1633.85,17.01,0.0008604699,0.0046907747,-0.18975995,0.9818188,-455.461,439.141,8.301001,0.00030999997,-0.00051,2.8387098
183.175,2000,0,91.24,0.000002697398,0.000002697398,0.000002697398,0.99999994,0,0,0,0,0,0,1,1,0,0,0,false,false,true,-624.79,-1630.19,17.01,0.00080652203,0.00469617,-0.17813414,0.9839946,-450.681,434.631,8.301001,0.00030999997,-0.00051,2.82981
183.18333,2000,0,91.24,0.000002697398,0.000002697398,0.000002697398,0.99999994,0,0,0,0,0,0,1,1,0,0,0,false,false,true,-628.55,-1626.57,17.01,0.0007525741,0.004701565,-0.16651912,0.9860267,-445.701,430.171,8.301001,0.00040999998,-0.00040999998,2.82341
183.19167,2000,0,91.24,0.000002697398,0.000002697398,0.000002697398,0.99999994,0,0,0,0,0,0,1,1,0,0,0,false,false,true,-632.26,-1622.99,17.01,0.00069862616,0.00470696,-0.15490948,0.9879172,-440.521,425.771,8.301001,0.00040999998,-0.00030999997,2.8194098
183.2,2000,0,91.24,0.000002697398,0.000002697398,0.000002697398,0.99999994,0,0,0,0,0,0,1,1,0,0,0,false,false,true,-635.93,-1619.44,17.01,0.00064467813,0.0047123544,-0.14329442,0.9896686,-435.131,421.451,8.301001,0.00040999998,-0.00030999997,2.81781
183.20833,2000,0,91.24,0.000002697398,0.000002697398,0.000002697398,0.99999994,0,0,0,0,0,0,1,1,0,0,0,false,false,true,-639.56,-1615.9299,17.01,0.00059073017,0.004717749,-0.1316632,0.99128306,-429.531,417.221,8.301001,0.00051,-0.00021,2.8187099
183.21666,2000,0,91.24,0.000002697398,0.000002697398,0.000002697398,0.99999994,0,0,0,0,0,0,1,1,0,0,0,false,false,true,-643.14,-1612.45,17.01,0.0005367822,0.0047231438,-0.120010406,0.9927612,-423.721,413.10098,8.301001,0.00051,-0.00021,2.82211
183.225,2000,0,91.24,0.000002697398,0.000002697398,0.000002697398,0.99999994,0,0,0,0,0,0,1,1,0,0,0,false,false,true,-646.67,-1609.01,17.01,0.0004828343,0.004728539,-0.10833063,0.99410355,-417.691,409.101,8.301001,0.00051,-0.00021,2.8280098
183.23334,2000,0,91.24,0.000002697398,0.000002697398,0.000002697398,0.99999994,0,0,0,0,0,0,1,1,0,0,0,false,false,true,-650.14996,-1605.6,17.01,0.0004288863,0.0047339336,-0.09660769,0.99531114,-411.451,405.241,8.301001,0.00061,-0.00021,2.83651
183.24167,2000,0,91.24,0.000002697398,0.000002697398,0.000002697398,0.99999994,0,0,0,0,0,0,1,1,0,0,0,false,false,true,-653.57996,-1602.22,17.01,0.00037493836,0.0047393288,-0.08483621,0.99638355,-404.991,401.541,8.301001,0.00061,-0.00021,2.84771
183.25,2000,0,91.24,0.000002697398,0.000002697398,0.000002697398,0.99999994,0,0,0,0,0,0,1,1,0,0,0,false,false,true,-656.95,-1598.87,17.01,0.0003209904,0.0047447234,-0.07300538,0.9973202,-398.311,398.021,8.301001,0.00061,-0.00021,2.86161
183.25833,2000,0,91.24,0.000002697398,0.000002697398,0.000002697398,0.99999994,0,0,0,0,0,0,1,1,0,0,0,false,false,true,-660.26996,-1595.5499,17.01,0.0002670424,0.0047501177,-0.061109807,0.99811965,-391.411,394.701,8.301001,0.00061,-0.00021,2.8782098
183.26666,2000,0,91.24,0.000002697398,0.000002697398,0.000002697398,0.99999994,0,0,0,0,0,0,1,1,0,0,0,false,false,true,-663.52997,-1592.26,17.01,0.00021309445,0.0047501177,-0.049133275,0.99878085,-384.291,391.601,8.301001,0.00061,-0.00021,2.8977098
183.275,2000,0,91.24,0.000002697398,0.000002697398,0.000002697398,0.99999994,0,0,0,0,0,0,1,1,0,0,0,false,false,true,-666.73,-1589,17.01,0.0001591465,0.004750118,-0.03707047,0.9993013,-376.951,388.741,8.301001,0.00061,-0.00021,2.92021
183.28334,2000,0,91.24,0.000002697398,0.000002697398,0.000002697398,0.99999994,0,0,0,0,0,0,1,1,0,0,0,false,false,true,-669.87,-1585.76,17.01,0.000105198524,0.0047501177,-0.024910556,0.9996783,-369.401,386.141,8.301001,0.00061,-0.00021,2.9458098
183.29167,2000,0,91.24,0.000002697398,0.000002697398,0.000002697398,0.99999994,0,0,0,0,0,0,1,1,0,0,0,false,false,true,-672.95,-1582.5399,17.01,0.000051250565,0.0047501177,-0.012637352,0.9999088,-361.631,383.82098,8.301001,0.00061,-0.00021,2.9746099
183.3,2000,0,91.24,0.000002697398,0.000002697398,0.000002697398,0.99999994,0,0,0,0,0,0,1,1,0,0,0,false,false,true,-675.95996,-1579.34,17.01,-0.000002697398,0.0047501177,-0.00024546322,0.9999886,-353.651,381.811,8.301001,0.00061,-0.00021,3.00681
183.30833,2000,0,91.24,0.000002697398,0.000002697398,0.000002697398,0.99999994,0,0,0,0,0,0,1,1,0,0,0,false,false,true,-678.91,-1576.1599,17.01,-0.00006204016,0.004750118,0.012281339,0.9999133,-345.471,380.131,8.301001,0.00061,-0.00021,3.04251
183.31667,2000,0,91.24,0.000002697398,0.000002697398,0.000002697398,0.99999994,0,0,0,0,0,0,1,1,0,0,0,false,false,true,-681.79,-1572.99,17.01,-0.00012138292,0.0047501177,0.024953714,0.99967724,-337.091,378.811,8.301001,0.00061,-0.00021,3.08201
183.325,2000,0,91.24,0.000002697398,0.000002697398,0.000002697398,0.99999994,0,0,0,0,0,0,1,1,0,0,0,false,false,true,-684.6,-1569.83,17.01,-0.00018072566,0.004744723,0.03778802,0.99927443,-328.511,377.881,8.301001,0.00071,-0.00021,3.1254098
183.33333,2000,0,91.24,0.000002697398,0.000002697398,0.000002697398,0.99999994,0,0,0,0,0,0,1,1,0,0,0,false,false,true,-687.33997,-1566.6799,17.01,-0.00024006843,0.0047393283,0.050800268,0.9986975,-319.751,377.371,8.301001,0.00071,-0.00021,3.17311
183.34166,2000,0,91.24,0.000002697398,0.000002697398,0.000002697398,0.99999994,0,0,0,0,0,0,1,1,0,0,0,false,false,true,-690,-1563.5399,17.01,-0.00029941121,0.004733934,0.06400142,0.9979385,-310.811,377.201,8.301001,0.00071,-0.00010999999,3.22211
183.35,2000,0,91.24,0.000002697398,0.000002697398,0.000002697398,0.99999994,0,0,0,0,0,0,1,1,0,0,0,false,false,true,-692.58997,-1560.4,17.01,-0.00035875395,0.004728539,0.07739139,0.9969895,-301.691,377.331,8.301001,0.00071,0,3.27021
183.35834,2000,0,91.24,0.000002697398,0.000002697398,0.000002697398,0.99999994,0,0,0,0,0,0,1,1,0,0,0,false,false,true,-695.1,-1557.26,17.01,-0.0004180967,0.0047231438,0.090970084,0.9958423,-292.391,377.791,8.301001,0.00071,0,3.31771
183.36667,2000,0,91.24,0.000002697398,0.000002697398,0.000002697398,0.99999994,0,0,0,0,0,0,1,1,0,0,0,false,false,true,-697.54,-1554.11,17.01,-0.00048283426,0.004717749,0.1047269,0.99448967,-282.921,378.611,8.301001,0.00061,0,3.3647099
183.375,2000,0,91.24,0.000002697398,0.000002697398,0.000002697398,0.99999994,0,0,0,0,0,0,1,1,0,0,0,false,false,true,-699.89996,-1550.95,17.01,-0.00054757186,0.004712355,0.11865627,0.99292403,-273.29102,379.831,8.301001,0.00061,0,3.41131
183.38333,2000,0,91.24,0.000002697398,0.000002697398,0.000002697398,0.99999994,0,0,0,0,0,0,1,1,0,0,0,false,false,true,-702.18,-1547.7799,17.01,-0.0006123093,0.0047015646,0.13275833,0.991137,-263.501,381.491,8.301001,0.00061,0,3.45771
183.39166,2000,0,91.24,0.000002697398,0.000002697398,0.000002697398,0.99999994,0,0,0,0,0,0,1,1,0,0,0,false,false,true,-704.38,-1544.6,17.01,-0.00067704695,0.0046907756,0.14702228,0.9891218,-253.571,383.631,8.301001,0.00051,0,3.5041099
183.4,2000,0,91.24,0.000002697398,0.000002697398,0.000002697398,0.99999994,0,0,0,0,0,0,1,1,0,0,0,false,false,true,-706.49,-1541.4,17.01,-0.00074178446,0.0046799853,0.16144796,0.9868698,-243.501,386.191,8.301001,0.00040999998,0.00010999999,3.54811
183.40834,2000,0,91.24,0.000002697398,0.000002697398,0.000002697398,0.99999994,0,0,0,0,0,0,1,1,0,0,0,false,false,true,-708.51996,-1538.1799,17.01,-0.00080652203,0.004669196,0.17601939,0.98437524,-233.291,389.171,8.301001,0.00021,0.00010999999,3.5889099
183.41667,2000,0,91.24,0.000002697398,0.000002697398,0.000002697398,0.99999994,0,0,0,0,0,0,1,1,0,0,0,false,false,true,-710.45996,-1534.94,17.01,-0.00087665423,0.0046584057,0.19072028,0.9816328,-223.061,392.371,8.301001,0.00010999999,0.00010999999,3.6270099
183.425,2000,0,91.24,0.000002697398,0.000002697398,0.000002697398,0.99999994,0,0,0,0,0,0,1,1,0,0,0,false,false,true,-712.32,-1531.6699,17.01,-0.0009467867,0.0046476168,0.2055344,0.97863835,-212.811,395.831,8.301001,0.00010999999,0.00010999999,3.66241
183.43333,2000,0,91.24,0.000002697398,0.000002697398,0.000002697398,0.99999994,0,0,0,0,0,0,1,1,0,0,0,false,false,true,-714.08997,-1528.37,17.01,-0.0010169192,0.0046314327,0.22044572,0.9753877,-202.55101,399.581,8.301001,0.00010999999,0.00010999999,3.69521
183.44167,2000,0,91.24,0.000002697398,0.000002697398,0.000002697398,0.99999994,0,0,0,0,0,0,1,1,0,0,0,false,false,true,-715.77997,-1525.0399,17.01,-0.0010870514,0.004615248,0.23543793,0.97187775,-192.321,403.621,8.301001,0.00010999999,0.00010999999,3.72501
183.45,2000,0,91.24,0.000002697398,0.000002697398,0.000002697398,0.99999994,0,0,0,0,0,0,1,1,0,0,0,false,false,true,-717.38,-1521.6799,17.01,-0.0011571838,0.0045990637,0.25049478,0.96810627,-182.351,407.781,8.301001,0,0.00021,3.7495098
183.45833,2000,0,91.24,0.000002697398,0.000002697398,0.000002697398,0.99999994,0,0,0,0,0,0,1,1,0,0,0,false,false,true,-718.89996,-1518.2799,17.01,-0.0012273161,0.004582879,0.2655895,0.9640745,-172.641,412.091,8.301001,0,0.00021,3.7692099
183.46666,2000,0,91.24,0.000002697398,0.000002697398,0.000002697398,0.99999994,0,0,0,0,0,0,1,1,0,0,0,false,false,true,-720.33997,-1514.85,17.01,-0.0012974484,0.0045613,0.28069502,0.9597852,-163.19101,416.561,8.301001,0,0.00021,3.78391
183.475,2000,0,91.24,0.000002697398,0.000002697398,0.000002697398,0.99999994,0,0,0,0,0,0,1,1,0,0,0,false,false,true,-721.7,-1511.38,17.01,-0.0013675808,0.0045397207,0.29578966,0.95524126,-154.001,421.221,8.301001,0,0.00021,3.7936099
183.48334,2000,0,91.24,0.000002697398,0.000002697398,0.000002697398,0.99999994,0,0,0,0,0,0,1,1,0,0,0,false,false,true,-722.98,-1507.87,17.01,-0.0014377132,0.0045181415,0.31085202,0.9504464,-145.08101,426.051,8.301001,-0.00010999999,0.00030999997,3.7990098
183.49167,2000,0,91.24,0.000002697398,0.000002697398,0.000002697398,0.99999994,0,0,0,0,0,0,1,1,0,0,0,false,false,true,-724.19,-1504.32,17.01,-0.0015078456,0.0044965628,0.32585508,0.9454078,-136.47101,430.841,8.301001,-0.00021,0.00030999997,3.80541
183.5,2000,0,91.24,0.000002697398,0.000002697398,0.000002697398,0.99999994,0,0,0,0,0,0,1,1,0,0,0,false,false,true,-725.32996,-1500.73,17.01,-0.0015779779,0.004474983,0.340804,0.9401223,-128.16101,435.611,8.301001,-0.00021,0.00021,3.81251
183.50833,2000,0,91.24,0.000002697398,0.000002697398,0.000002697398,0.99999994,0,0,0,0,0,0,1,1,0,0,0,false,false,true,-726.39996,-1497.1,17.01,-0.0016481102,0.004448009,0.35569373,0.93459046,-120.15099,440.381,8.301001,-0.00030999997,0.00010999999,3.82001
183.51666,2000,0,91.24,0.000002697398,0.000002697398,0.000002697398,0.99999994,0,0,0,0,0,0,1,1,0,0,0,false,false,true,-727.39996,-1493.4299,17.01,-0.0017182427,0.0044210358,0.37052414,0.9288107,-112.431,445.161,8.301001,-0.00030999997,0.00010999999,3.8278098
183.525,2000,0,91.24,0.000002697398,0.000002697398,0.000002697398,0.99999994,0,0,0,0,0,0,1,1,0,0,0,false,false,true,-728.33997,-1489.72,17.01,-0.0017883751,0.004394062,0.3852897,0.92278343,-105.010994,449.961,8.301001,-0.00030999997,0.00010999999,3.8357098
183.53334,2000,0,91.24,0.000002697398,0.000002697398,0.000002697398,0.99999994,0,0,0,0,0,0,1,1,0,0,0,false,false,true,-729.20996,-1485.97,17.01,-0.0018585073,0.0043670875,0.3999906,0.9165069,-97.891,454.791,8.301001,-0.00040999998,0,3.8436098
183.54167,2000,0,91.24,0.000002697398,0.000002697398,0.000002697398,0.99999994,0,0,0,0,0,0,1,1,0,0,0,false,false,true,-730.02997,-1482.1799,17.01,-0.0019286396,0.004340113,0.41461596,0.90998405,-91.071,459.651,8.301001,-0.00040999998,0,3.85141
183.55,2000,0,91.24,0.000002697398,0.000002697398,0.000002697398,0.99999994,0,0,0,0,0,0,1,1,0,0,0,false,false,true,-730.79,-1478.35,17.01,-0.0019987721,0.004307745,0.42916575,0.90321326,-84.561,464.551,8.301001,-0.00040999998,0,3.85901
183.55833,2000,0,91.24,0.000002697398,0.000002697398,0.000002697398,0.99999994,0,0,0,0,0,0,1,1,0,0,0,false,false,true,-731.49,-1474.48,17.01,-0.0020689042,0.004275376,0.44363466,0.89619505,-78.361,469.491,8.301001,-0.00040999998,0,3.86641
183.56667,2000,0,91.24,0.000002697398,0.000002697398,0.000002697398,0.99999994,0,0,0,0,0,0,1,1,0,0,0,false,false,true,-732.13995,-1470.57,17.01,-0.0021390365,0.004243007,0.45801187,0.8889333,-72.480995,474.481,8.301001,-0.00040999998,0,3.87351
183.575,2000,0,91.24,0.000002697398,0.000002697398,0.000002697398,0.99999994,0,0,0,0,0,0,1,1,0,0,0,false,false,true,-732.74,-1466.62,17.01,-0.0022091689,0.0042106383,0.47229728,0.88142645,-66.931,479.511,8.301001,-0.00040999998,-0.00010999999,3.8803098
183.58333,2000,0,91.24,0.000002697398,0.000002697398,0.000002697398,0.99999994,0,0,0,0,0,0,1,1,0,0,0,false,false,true,-733.3,-1462.62,17.01,-0.0022793016,0.004172875,0.48648572,0.8736756,-61.720997,484.581,8.301001,-0.00040999998,-0.00021,3.88671
183.59166,2000,0,91.24,0.000002697398,0.000002697398,0.000002697398,0.99999994,0,0,0,0,0,0,1,1,0,0,0,false,false,true,-733.81,-1458.58,17.01,-0.002349434,0.0041351113,0.5005716,0.865682,-56.850998,489.681,8.301001,-0.00030999997,-0.00021,3.89271
183.6,2000,0,91.24,0.000002697398,0.000002697398,0.000002697398,0.99999994,0,0,0,0,0,0,1,1,0,0,0,false,false,true,-734.27997,-1454.5,17.01,-0.0024195663,0.004097348,0.5145441,0.85745066,-52.330997,494.811,8.301001,-0.00030999997,-0.00021,3.8982098
183.60834,2000,0,91.24,0.000002697398,0.000002697398,0.000002697398,0.99999994,0,0,0,0,0,0,1,1,0,0,0,false,false,true,-734.72,-1450.38,17.01,-0.0024896984,0.004059584,0.5284034,0.84898,-48.170998,499.971,8.301001,-0.00021,-0.00021,3.90321
183.61667,2000,0,91.24,0.000002697398,0.000002697398,0.000002697398,0.99999994,0,0,0,0,0,0,1,1,0,0,0,false,false,true,-735.12,-1446.21,17.01,-0.002554436,0.0040164255,0.54213864,0.84027547,-44.380997,505.141,8.301001,-0.00010999999,-0.00021,3.9077098
183.625,2000,0,91.24,0.000002697398,0.000002697398,0.000002697398,0.99999994,0,0,0,0,0,0,1,1,0,0,0,false,false,true,-735.49,-1442,17.01,-0.0026191734,0.003973267,0.5557497,0.83133596,-40.970997,510.32098,8.301001,-0.00010999999,-0.00021,3.91161
183.63333,2000,0,91.24,0.000002697398,0.000002697398,0.000002697398,0.99999994,0,0,0,0,0,0,1,1,0,0,0,false,false,true,-735.82996,-1437.75,17.01,-0.002683911,0.0039301086,0.56922597,0.8221673,-37.951,515.49097,8.301001,-0.00010999999,-0.00021,3.9149098
183.64166,2000,0,91.24,0.000002697398,0.000002697398,0.000002697398,0.99999994,0,0,0,0,0,0,1,1,0,0,0,false,false,true,-736.14996,-1433.45,17.01,-0.0027486486,0.0038869507,0.5825619,0.8127723,-35.330997,520.65094,8.301001,-0.00010999999,-0.00021,3.91761
183.65,2000,0,91.24,0.000002697398,0.000002697398,0.000002697398,0.99999994,0,0,0,0,0,0,1,1,0,0,0,false,false,true,-736.44,-1429.11,17.01,-0.0028133863,0.0038437922,0.5957523,0.803154,-33.111,525.78094,8.301001,-0.00010999999,-0.00021,3.91961
183.65834,2000,0,91.24,0.000002697398,0.000002697398,0.000002697398,0.99999994,0,0,0,0,0,0,1,1,0,0,0,false,false,true,-736.72,-1424.73,17.01,-0.0028781237,0.0037952391,0.6087916,0.79331577,-31.300999,530.86096,8.301001,-0.00010999999,-0.00030999997,3.92091
183.66667,2000,0,91.24,0.000002697398,0.000002697398,0.000002697398,0.99999994,0,0,0,0,0,0,1,1,0,0,0,false,false,true,-736.98,-1420.3099,17.01,-0.0029428613,0.003746686,0.621669,0.7832655,-29.911,535.881,8.301001,-0.00010999999,-0.00030999997,3.9214098
183.675,2000,0,91.24,0.000002697398,0.000002697398,0.000002697398,0.99999994,0,0,0,0,0,0,1,1,0,0,0,false,false,true,-737.23,-1415.84,17.01,-0.0030022042,0.003698133,0.63438463,0.77300286,-28.950998,540.821,8.301001,-0.00010999999,-0.00030999997,3.92111
183.68333,2000,0,91.24,0.000002697398,0.000002697398,0.000002697398,0.99999994,0,0,0,0,0,0,1,1,0,0,0,false,false,true,-737.47,-1411.33,17.01,-0.0030615467,0.0036495796,0.6469275,0.7625366,-28.421,545.67096,8.301001,-0.00010999999,-0.00030999997,3.91991
183.69167,2000,0,91.24,0.000002697398,0.000002697398,0.000002697398,0.99999994,0,0,0,0,0,0,1,1,0,0,0,false,false,true,-737.70996,-1406.78,17.01,-0.00312089,0.0036010267,0.6592925,0.7518714,-28.300999,550.501,8.301001,-0.00010999999,-0.00030999997,3.91731
183.7,2000,0,91.24,0.000002697398,0.000002697398,0.000002697398,0.99999994,0,0,0,0,0,0,1,1,0,0,0,false,false,true,-737.95,-1402.19,17.01,-0.0031802324,0.0035470785,0.6714739,0.74101275,-28.581,555.30096,8.301001,-0.00010999999,-0.00040999998,3.91411
183.70833,2000,0,91.24,0.000002697398,0.000002697398,0.000002697398,0.99999994,0,0,0,0,0,0,1,1,0,0,0,false,false,true,-738.19,-1397.5599,17.01,-0.003239575,0.0034931304,0.6834666,0.7299661,-29.261,560.04095,8.301001,-0.00010999999,-0.00040999998,3.91041
183.71666,2000,0,91.24,0.000002697398,0.000002697398,0.000002697398,0.99999994,0,0,0,0,0,0,1,1,0,0,0,false,false,true,-738.43,-1392.89,17.01,-0.0032989178,0.0034391826,0.6952704,0.71873236,-30.331,564.701,8.301001,-0.00010999999,-0.00040999998,3.9065099
183.725,2000,0,91.24,0.000002697398,0.000002697398,0.000002697398,0.99999994,0,0,0,0,0,0,1,1,0,0,0,false,false,true,-738.68,-1388.1799,17.01,-0.0033582607,0.0033852349,0.7068748,0.7073226,-31.780998,569.251,8.301001,-0.00010999999,-0.00040999998,3.9026098
183.73334,2000,0,91.24,0.000002697398,0.000002697398,0.000002697398,0.99999994,0,0,0,0,0,0,1,1,0,0,0,false,false,true,-738.94,-1383.44,17.01,-0.0034122085,0.0033312866,0.71828324,0.6957344,-33.611,573.68097,8.301001,-0.00010999999,-0.00030999997,3.89901
183.74167,2000,0,91.24,0.000002697398,0.000002697398,0.000002697398,0.99999994,0,0,0,0,0,0,1,1,0,0,0,false,false,true,-739.22,-1378.6599,17.01,-0.0034661568,0.0032773388,0.72949094,0.6839738,-35.810997,577.98096,8.301001,-0.00010999999,-0.00030999997,3.8963099
183.75,2000,0,91.24,0.000002697398,0.000002697398,0.000002697398,0.99999994,0,0,0,0,0,0,1,1,0,0,0,false,false,true,-739.51996,-1373.84,17.01,-0.0035201046,0.0032179959,0.740499,0.67204034,-38.380997,582.16095,8.301001,-0.00010999999,-0.00030999997,3.8949099
183.75833,2000,0,91.24,0.000002697398,0.000002697398,0.000002697398,0.99999994,0,0,0,0,0,0,1,1,0,0,0,false,false,true,-739.83997,-1368.99,17.01,-0.003574052,0.003158653,0.7513079,0.6599344,-41.301,586.191,8.301001,-0.00010999999,-0.00030999997,3.89481
183.76666,2000,0,91.24,0.000002697398,0.000002697398,0.000002697398,0.99999994,0,0,0,0,0,0,1,1,0,0,0,false,false,true,-740.18,-1364.1,17.01,-0.0036280004,0.0030993104,0.761918,0.6476558,-44.560997,590.061,8.301001,-0.00010999999,-0.00030999997,3.89601
183.775,2000,0,91.24,0.000002697398,0.000002697398,0.000002697398,0.99999994,0,0,0,0,0,0,1,1,0,0,0,false,false,true,-740.55,-1359.1799,17.01,-0.0036765535,0.0030399675,0.7723291,0.6352046,-48.170998,593.80096,8.301001,-0.00010999999,-0.00021,3.8982098
183.78334,2000,0,91.24,0.000002697398,0.000002697398,0.000002697398,0.99999994,0,0,0,0,0,0,1,1,0,0,0,false,false,true,-740.95,-1354.23,17.01,-0.0037251068,0.0029806248,0.78254527,0.6225753,-52.121,597.391,8.311,-0.00010999999,-0.00021,3.90131
183.79167,2000,0,91.24,0.000002697398,0.000002697398,0.000002697398,0.99999994,0,0,0,0,0,0,1,1,0,0,0,false,false,true,-741.38,-1349.25,17.01,-0.00377366,0.002921282,0.7925613,0.60977346,-56.380997,600.821,8.311,-0.00010999999,-0.00021,3.90531
183.8,2000,0,91.24,0.000002697398,0.000002697398,0.000002697398,0.99999994,0,0,0,0,0,0,1,1,0,0,0,false,false,true,-741.85,-1344.24,17.01,-0.003822213,0.0028619394,0.80237657,0.5967989,-60.950996,604.071,8.311,-0.00010999999,-0.00021,3.9100099
183.80833,2000,0,91.24,0.000002697398,0.000002697398,0.000002697398,0.99999994,0,0,0,0,0,0,1,1,0,0,0,false,false,true,-742.36,-1339.21,17.01,-0.003870766,0.0027972015,0.81199384,0.58364624,-65.811,607.131,8.311,0,-0.00010999999,3.9154098
183.81667,2000,0,91.24,0.000002697398,0.000002697398,0.000002697398,0.99999994,0,0,0,0,0,0,1,1,0,0,0,false,false,true,-742.91,-1334.15,17.01,-0.0039139246,0.002732464,0.82140785,0.57032114,-70.940994,610.001,8.311,0,-0.00010999999,3.9214098
183.825,2000,0,91.24,0.000002697398,0.000002697398,0.000002697398,0.99999994,0,0,0,0,0,0,1,1,0,0,0,false,false,true,-743.5,-1329.07,17.01,-0.003957083,0.0026677267,0.8306172,0.55682325,-76.331,612.66095,8.311,0,-0.00010999999,3.92801
183.83333,2000,0,91.24,0.000002697398,0.000002697398,0.000002697398,0.99999994,0,0,0,0,0,0,1,1,0,0,0,false,false,true,-744.13995,-1323.96,17.01,-0.004000241,0.002602989,0.8396202,0.54315287,-81.971,615.10095,8.311,0,-0.00010999999,3.9351099
183.84166,2000,0,91.24,0.000002697398,0.000002697398,0.000002697398,0.99999994,0,0,0,0,0,0,1,1,0,0,0,false,false,true,-744.82,-1318.83,17.01,-0.0040433994,0.0025382515,0.8484118,0.5293151,-87.840996,617.311,8.311,0,0,3.94271
183.85,2000,0,91.24,0.000002697398,0.000002697398,0.000002697398,0.99999994,0,0,0,0,0,0,1,1,0,0,0,false,false,true,-745.55,-1313.69,17.01,-0.004086558,0.002473514,0.8569936,0.51530474,-93.931,619.29095,8.311,0,0,3.9507098
183.85834,2000,0,91.24,0.000002697398,0.000002697398,0.000002697398,0.99999994,0,0,0,0,0,0,1,1,0,0,0,false,false,true,-746.32996,-1308.53,17.01,-0.0041243215,0.0024033815,0.8653604,0.50112724,-100.221,621.03094,8.311,0,0,3.95911
183.86667,2000,0,91.24,0.000002697398,0.000002697398,0.000002697398,0.99999994,0,0,0,0,0,0,1,1,0,0,0,false,false,true,-747.17,-1303.35,17.01,-0.0041620852,0.0023332492,0.8735102,0.4867824,-106.701,622.52094,8.311,0,0,3.9679098
