time,ball_loc_x,ball_loc_y,ball_loc_z,ball_rot_x,ball_rot_y,ball_rot_z,ball_rot_w,ball_vel_x,ball_vel_y,ball_vel_z,ball_ang_x,ball_ang_y,ball_ang_z,player0_throttle,player0_steer,player0_pitch,player0_yaw,player0_roll,player0_jump,player0_boost,player0_handbrake,player0_loc_x,player0_loc_y,player0_loc_z,player0_rot_x,player0_rot_y,player0_rot_z,player0_rot_w,player0_vel_x,player0_vel_y,player0_vel_z,player0_ang_x,player0_ang_y,player0_ang_z
64.38333,2000,0,91.24,0.000002697398,0.000002697398,0.000002697398,0.99999994,0,0,0,0,0,0,0,0,0,0,0,false,false,false,0,0.14,17.01,-0.00336905,0.0033798397,0.7071014,0.7070959,0,0.011,8.321,-0.00051,0,0
64.39167,2000,0,73,0.000002697398,0.000002697398,0.000002697398,0.99999994,0,0,0,0,0,0,0.503937,0,0,0,0,false,false,false,0,0,16.94,0.0000026973983,0.0000026973983,0.70710677,0.70710677,0,6.711,2.041,-0.050809998,0,0
64.4,2000,0,87.6,0.000002697398,0.000002697398,0.000002697398,0.99999994,0,0,0,0,0,0,0.503937,0,0,0,0,false,false,false,0,0.06,16.89,-0.00014835689,0.00015375168,0.7071067,0.7071067,0,13.401,3.8809998,-0.085609995,0,0
64.40833,2000,0,90.52,0.000002697398,0.000002697398,0.000002697398,0.99999994,0,0,0,0,0,0,0.503937,0,0,0,0,false,false,false,0,0.17,16.85,-0.00040191234,0.00040730715,0.70710653,0.70710677,0,20.060999,5.481,-0.107209995,0,0
64.416664,2000,0,91.1,0.000002697398,0.000002697398,0.000002697398,0.99999994,0,0,0,0,0,0,0.503937,0,0,0,0,false,false,false,0,0.34,16.83,-0.00072020525,0.00072560005,0.7071067,0.707106,0,26.690998,6.791,-0.11630999,0,0
64.425,2000,0,91.22,0.000002697398,0.000002697398,0.000002697398,0.99999994,0,0,0,0,0,0,0.503937,0,0,0,0,false,false,false,0,0.56,16.82,-0.0010654721,0.001070867,0.70710516,0.7071067,0,33.291,7.7409997,-0.114709996,0,0
64.433334,2000,0,91.24,0.000002697398,0.000002697398,0.000002697398,0.99999994,0,0,0,0,0,0,0.503937,0,0,0,0,false,false,false,0,0.84,16.82,-0.0014053443,0.0014107391,0.7071067,0.70710397,0,39.861,8.431,-0.10660999,0,0
64.441666,2000,0,91.24,0.000002697398,0.000002697398,0.000002697398,0.99999994,0,0,0,0,0,0,0.503937,0,0,0,0,false,false,false,0,1.17,16.82,-0.0017182427,0.0017236375,0.707108,0.70710135,0,46.400997,8.9210005,-0.09520999,0,0
64.45,2000,0,91.24,0.000002697398,0.000002697398,0.000002697398,0.99999994,0,0,0,0,0,0,0.503937,0,0,0,0,false,false,false,0,1.56,16.83,-0.001998772,0.0020041666,0.70710653,0.7071013,0,52.911,9.281,-0.08241,0,0
64.458336,2000,0,91.24,0.000002697398,0.000002697398,0.000002697398,0.99999994,0,0,0,0,0,0,0.503937,0,0,0,0,false,false,false,0,2,16.84,-0.0022415377,0.0022469326,0.70710504,0.7071013,0,59.400997,9.521,-0.06951,0,0
64.46667,2000,0,91.24,0.000002697398,0.000002697398,0.000002697398,0.99999994,0,0,0,0,0,0,0.503937,0,0,0,0,false,false,false,0,2.5,16.85,-0.00244654,0.0024519349,0.70710367,0.7071013,0,65.861,9.6710005,-0.057409998,0,0
64.475,2000,0,91.24,0.000002697398,0.000002697398,0.000002697398,0.99999994,0,0,0,0,0,0,0.503937,0,0,0,0,false,false,false,0,3.05,16.859999,-0.0026137787,0.0026191734,0.7071025,0.7071013,0,72.291,9.771,-0.046509996,0,0
64.48333,2000,0,91.24,0.000002697398,0.000002697398,0.000002697398,0.99999994,0,0,0,0,0,0,0.503937,0,0,0,0,false,false,false,0,3.6499999,16.869999,-0.0027486486,0.0027540433,0.70710146,0.7071013,0,78.690994,9.821,-0.03701,0,0
64.49167,2000,0,91.24,0.000002697398,0.000002697398,0.000002697398,0.99999994,0,0,0,0,0,0,0.503937,0,0,0,0,false,false,false,0,4.31,16.88,-0.0028565445,0.0028619394,0.70710063,0.7071013,0,85.071,9.841001,-0.02901,0,0
64.5,2000,0,91.24,0.000002697398,0.000002697398,0.000002697398,0.99999994,0,0,0,0,0,0,0.503937,0,0,0,0,false,false,false,0,5.02,16.89,-0.0029428613,0.002948256,0.7071013,0.7070999,0,91.421,9.821,-0.022809999,0,0
64.50833,2000,0,91.24,0.000002697398,0.000002697398,0.000002697398,0.99999994,0,0,0,0,0,0,0.503937,0,0,0,0,false,false,false,0,5.7799997,16.9,-0.003007599,0.0030129936,0.7070993,0.7071013,0,97.741,9.761001,-0.01821,0,0
64.51667,2000,0,91.24,0.000002697398,0.000002697398,0.000002697398,0.99999994,0,0,0,0,0,0,0.503937,0,0,0,0,false,false,false,0,6.5899997,16.91,-0.0030615467,0.0030669416,0.7071013,0.7070989,0,104.031,9.681,-0.01481,0,0
64.525,2000,0,91.24,0.000002697398,0.000002697398,0.000002697398,0.99999994,0,0,0,0,0,0,0.503937,0,0,0,0,false,false,false,0,7.46,16.92,-0.0031047051,0.0031101,0.7070985,0.7071013,0,110.300995,9.591001,-0.012309999,0,0
64.53333,2000,0,91.24,0.000002697398,0.000002697398,0.000002697398,0.99999994,0,0,0,0,0,0,0.503937,0,0,0,0,false,false,false,0,8.38,16.93,-0.0031424686,0.0031478636,0.7070959,0.70710355,0,116.541,9.491,-0.01031,0,0
64.541664,2000,0,91.24,0.000002697398,0.000002697398,0.000002697398,0.99999994,0,0,0,0,0,0,0.503937,0,0,0,0,false,false,false,0,9.349999,16.94,-0.0031748374,0.0031802324,0.7070959,0.70710325,0,122.751,9.391,-0.00871,0,0
64.55,2000,0,91.24,0.000002697398,0.000002697398,0.000002697398,0.99999994,0,0,0,0,0,0,0.503937,0,0,0,0,false,false,false,0,10.37,16.949999,-0.0032018116,0.0032072063,0.7070959,0.707103,0,128.94101,9.281,-0.00741,0,0
64.558334,2000,0,91.24,0.000002697398,0.000002697398,0.000002697398,0.99999994,0,0,0,0,0,0,0.503937,0,0,0,0,false,false,false,0,11.44,16.96,-0.0032233908,0.0032287855,0.7070959,0.70710284,0,135.101,9.1710005,-0.00631,0,0
64.566666,2000,0,91.24,0.000002697398,0.000002697398,0.000002697398,0.99999994,0,0,0,0,0,0,0.503937,0,0,0,0,false,false,false,0,12.57,16.97,-0.003239575,0.0032449698,0.7070959,0.70710266,0,141.231,9.061,-0.0054099998,0,0
64.575,2000,0,91.24,0.000002697398,0.000002697398,0.000002697398,0.99999994,0,0,0,0,0,0,0.503937,0,0,0,0,false,false,false,0,13.75,16.98,-0.0032557594,0.0032611543,0.7070959,0.70710254,0,147.341,8.951,-0.00471,0,0
64.583336,2000,0,91.24,0.000002697398,0.000002697398,0.000002697398,0.99999994,0,0,0,0,0,0,0.503937,0,0,0,0,false,false,false,0,14.98,16.99,-0.003271944,0.0032773386,0.7070959,0.70710236,0,153.421,8.841001,-0.00401,0,0
64.59167,2000,0,91.24,0.000002697398,0.000002697398,0.000002697398,0.99999994,0,0,0,0,0,0,0.503937,0,0,0,0,false,false,false,0,16.26,17,-0.0032827335,0.0032881282,0.7070959,0.7071023,0,159.47101,8.731,-0.00341,0,0
64.6,2000,0,91.24,0.000002697398,0.000002697398,0.000002697398,0.99999994,0,0,0,0,0,0,0.503937,0,0,0,0,false,false,false,0,17.59,17.01,-0.0032935233,0.003298918,0.707096,0.7071022,0,165.501,8.621,-0.00301,0,0
64.60833,2000,0,91.24,0.000002697398,0.000002697398,0.000002697398,0.99999994,0,0,0,0,0,0,0.503937,0,0,0,0,false,false,false,0,18.97,17.01,-0.0033043127,0.0033097074,0.7070959,0.70710206,0,171.501,8.511001,-0.00261,0,0
64.61667,2000,0,91.24,0.000002697398,0.000002697398,0.000002697398,0.99999994,0,0,0,0,0,0,0.503937,0,0,0,0,false,false,false,0,20.4,17.01,-0.0033097074,0.0033151023,0.7070959,0.707102,0,177.47101,8.441,-0.00221,0,0
64.625,2000,0,91.24,0.000002697398,0.000002697398,0.000002697398,0.99999994,0,0,0,0,0,0,0.503937,0,0,0,0,false,false,false,0,21.88,17.01,-0.0033151023,0.003320497,0.7070959,0.707102,0,183.421,8.391,-0.0019099999,0,0
64.63333,2000,0,91.24,0.000002697398,0.000002697398,0.000002697398,0.99999994,0,0,0,0,0,0,0.503937,0,0,0,0,false,false,false,0,23.41,17.01,-0.0033204972,0.0033258921,0.707096,0.70710194,0,189.341,8.361,-0.0017099999,0,0
64.64167,2000,0,91.24,0.000002697398,0.000002697398,0.000002697398,0.99999994,0,0,0,0,0,0,0.503937,0,0,0,0,false,false,false,0,24.99,17.01,-0.003325892,0.0033312866,0.7070959,0.7071019,0,195.241,8.341001,-0.00151,0,0
64.65,2000,0,91.24,0.000002697398,0.000002697398,0.000002697398,0.99999994,0,0,0,0,0,0,0.503937,0,0,0,0,false,false,false,0,26.619999,17.01,-0.0033312866,0.0033366815,0.7070959,0.7071018,0,201.11101,8.331,-0.00131,0,0
64.65833,2000,0,91.24,0.000002697398,0.000002697398,0.000002697398,0.99999994,0,0,0,0,0,0,0.503937,0,0,0,0,false,false,false,0,28.3,17.01,-0.0033366815,0.0033420762,0.7070959,0.70710176,0,206.961,8.321,-0.0012099999,0,0
64.666664,2000,0,91.24,0.000002697398,0.000002697398,0.000002697398,0.99999994,0,0,0,0,0,0,0.503937,0,0,0,0,false,false,false,0,30.019999,17.01,-0.0033420762,0.003347471,0.7070959,0.7071017,0,212.781,8.321,-0.0010099999,0,0
64.675,2000,0,91.24,0.000002697398,0.000002697398,0.000002697398,0.99999994,0,0,0,0,0,0,0.503937,0,0,0,0,false,false,false,0,31.789999,17.01,-0.003347471,0.0033528658,0.7070959,0.70710164,0,218.58101,8.321,-0.00081,0,0
64.683334,2000,0,91.24,0.000002697398,0.000002697398,0.000002697398,0.99999994,0,0,0,0,0,0,0.503937,0,0,0,0,false,false,false,0,33.61,17.01,-0.003347471,0.0033528658,0.7070959,0.70710164,0,224.351,8.321,-0.00061,0,0
64.691666,2000,0,91.24,0.000002697398,0.000002697398,0.000002697398,0.99999994,0,0,0,0,0,0,0.503937,0,0,0,0,false,false,false,0,35.48,17.01,-0.003347471,0.0033528658,0.7070959,0.70710164,0,230.101,8.321,-0.00051,0,0
64.7,2000,0,91.24,0.000002697398,0.000002697398,0.000002697398,0.99999994,0,0,0,0,0,0,0.503937,0,0,0,0,false,false,false,0,37.399998,17.01,-0.003347471,0.0033528658,0.7070959,0.70710164,0,235.821,8.321,-0.00051,0,0
64.708336,2000,0,91.24,0.000002697398,0.000002697398,0.000002697398,0.99999994,0,0,0,0,0,0,0.503937,0,0,0,0,false,false,false,0,39.37,17.01,-0.003347471,0.0033528658,0.7070959,0.70710164,0,241.521,8.321,-0.00051,0,0
64.71667,2000,0,91.24,0.000002697398,0.000002697398,0.000002697398,0.99999994,0,0,0,0,0,0,0.503937,0,0,0,0,false,false,false,0,41.379997,17.01,-0.003347471,0.0033528658,0.7070959,0.70710164,0,247.191,8.321,-0.00051,0,0
64.725,2000,0,91.24,0.000002697398,0.000002697398,0.000002697398,0.99999994,0,0,0,0,0,0,0.503937,0,0,0,0,false,false,false,0,43.44,17.01,-0.003347471,0.0033528658,0.7070959,0.70710164,0,252.841,8.321,-0.00051,0,0
64.73333,2000,0,91.24,0.000002697398,0.000002697398,0.000002697398,0.99999994,0,0,0,0,0,0,0.503937,0,0,0,0,false,false,false,0,45.55,17.01,-0.003347471,0.0033528658,0.7070959,0.70710164,0,258.461,8.321,-0.00051,0,0
64.74167,2000,0,91.24,0.000002697398,0.000002697398,0.000002697398,0.99999994,0,0,0,0,0,0,0.503937,0,0,0,0,false,false,false,0,47.7,17.01,-0.003347471,0.0033528658,0.7070959,0.70710164,0,264.061,8.321,-0.00051,0,0
64.75,2000,0,91.24,0.000002697398,0.000002697398,0.000002697398,0.99999994,0,0,0,0,0,0,0.503937,0,0,0,0,false,false,false,0,49.899998,17.01,-0.003347471,0.0033528658,0.7070959,0.70710164,0,269.631,8.321,-0.00051,0,0
64.75833,2000,0,91.24,0.000002697398,0.000002697398,0.000002697398,0.99999994,0,0,0,0,0,0,0.503937,0,0,0,0,false,false,false,0,52.149998,17.01,-0.003347471,0.0033528658,0.7070959,0.70710164,0,275.181,8.321,-0.00051,0,0
64.76667,2000,0,91.24,0.000002697398,0.000002697398,0.000002697398,0.99999994,0,0,0,0,0,0,0.503937,0,0,0,0,false,false,false,0,54.44,17.01,-0.003347471,0.0033528658,0.7070959,0.70710164,0,280.711,8.321,-0.00051,0,0
64.775,2000,0,91.24,0.000002697398,0.000002697398,0.000002697398,0.99999994,0,0,0,0,0,0,0.503937,0,0,0,0,false,false,false,0,56.78,17.01,-0.003347471,0.0033528658,0.7070959,0.70710164,0,286.211,8.321,-0.00051,0,0
64.78333,2000,0,91.24,0.000002697398,0.000002697398,0.000002697398,0.99999994,0,0,0,0,0,0,0.503937,0,0,0,0,false,false,false,0,59.17,17.01,-0.003347471,0.0033528658,0.7070959,0.70710164,0,291.691,8.321,-0.00051,0,0
64.791664,2000,0,91.24,0.000002697398,0.000002697398,0.000002697398,0.99999994,0,0,0,0,0,0,0.503937,0,0,0,0,false,false,false,0,61.6,17.01,-0.003347471,0.0033528658,0.7070959,0.70710164,0,297.151,8.321,-0.00051,0,0
64.8,2000,0,91.24,0.000002697398,0.000002697398,0.000002697398,0.99999994,0,0,0,0,0,0,0.503937,0,0,0,0,false,false,false,0,64.08,17.01,-0.003347471,0.0033528658,0.7070959,0.70710164,0,302.581,8.321,-0.00051,0,0
64.808334,2000,0,91.24,0.000002697398,0.000002697398,0.000002697398,0.99999994,0,0,0,0,0,0,0.503937,0,0,0,0,false,false,false,0,66.6,17.01,-0.003347471,0.0033528658,0.7070959,0.70710164,0,307.991,8.321,-0.00051,0,0
64.816666,2000,0,91.24,0.000002697398,0.000002697398,0.000002697398,0.99999994,0,0,0,0,0,0,0.503937,0,0,0,0,false,false,false,0,69.17,17.01,-0.003347471,0.0033528658,0.7070959,0.70710164,0,313.371,8.321,-0.00051,0,0
64.825,2000,0,91.24,0.000002697398,0.000002697398,0.000002697398,0.99999994,0,0,0,0,0,0,0.503937,0,0,0,0,false,false,false,0,71.78,17.01,-0.003347471,0.0033528658,0.7070959,0.70710164,0,318.731,8.321,-0.00051,0,0
64.833336,2000,0,91.24,0.000002697398,0.000002697398,0.000002697398,0.99999994,0,0,0,0,0,0,0.503937,0,0,0,0,false,false,false,0,74.439995,17.01,-0.003347471,0.0033528658,0.7070959,0.70710164,0,324.071,8.321,-0.00051,0,0
64.84167,2000,0,91.24,0.000002697398,0.000002697398,0.000002697398,0.99999994,0,0,0,0,0,0,0.503937,0,0,0,0,false,false,false,0,77.14,17.01,-0.003347471,0.0033528658,0.7070959,0.70710164,0,329.391,8.321,-0.00051,0,0
64.85,2000,0,91.24,0.000002697398,0.000002697398,0.000002697398,0.99999994,0,0,0,0,0,0,0.503937,0,0,0,0,false,false,false,0,79.88,17.01,-0.003347471,0.0033528658,0.7070959,0.70710164,0,334.681,8.321,-0.00051,0,0
64.85833,2000,0,91.24,0.000002697398,0.000002697398,0.000002697398,0.99999994,0,0,0,0,0,0,0.503937,0,0,0,0,false,false,false,0,82.67,17.01,-0.003347471,0.0033528658,0.7070959,0.70710164,0,339.951,8.321,-0.00051,0,0
64.86667,2000,0,91.24,0.000002697398,0.000002697398,0.000002697398,0.99999994,0,0,0,0,0,0,0.503937,0,0,0,0,false,false,false,0,85.5,17.01,-0.003347471,0.0033528658,0.7070959,0.70710164,0,345.201,8.321,-0.00051,0,0
64.875,2000,0,91.24,0.000002697398,0.000002697398,0.000002697398,0.99999994,0,0,0,0,0,0,0.503937,0,0,0,0,false,false,false,0,88.38,17.01,-0.003347471,0.0033528658,0.7070959,0.70710164,0,350.421,8.321,-0.00051,0,0
64.88333,2000,0,91.24,0.000002697398,0.000002697398,0.000002697398,0.99999994,0,0,0,0,0,0,0.503937,0,0,0,0,false,false,false,0,91.299995,17.01,-0.003347471,0.0033528658,0.7070959,0.70710164,0,355.621,8.321,-0.00051,0,0
64.89167,2000,0,91.24,0.000002697398,0.000002697398,0.000002697398,0.99999994,0,0,0,0,0,0,0.503937,0,0,0,0,false,false,false,0,94.259995,17.01,-0.003347471,0.0033528658,0.7070959,0.70710164,0,360.801,8.321,-0.00051,0,0
64.9,2000,0,91.24,0.000002697398,0.000002697398,0.000002697398,0.99999994,0,0,0,0,0,0,0.503937,0,0,0,0,false,false,false,0,97.27,17.01,-0.003347471,0.0033528658,0.7070959,0.70710164,0,365.961,8.321,-0.00051,0,0
64.90833,2000,0,91.24,0.000002697398,0.000002697398,0.000002697398,0.99999994,0,0,0,0,0,0,0.503937,0,0,0,0,false,false,false,0,100.32,17.01,-0.003347471,0.0033528658,0.7070959,0.70710164,0,371.091,8.321,-0.00051,0,0
64.916664,2000,0,91.24,0.000002697398,0.000002697398,0.000002697398,0.99999994,0,0,0,0,0,0,0.503937,0,0,0,0,false,false,false,0,103.409996,17.01,-0.003347471,0.0033528658,0.7070959,0.70710164,0,376.201,8.321,-0.00051,0,0
64.925,2000,0,91.24,0.000002697398,0.000002697398,0.000002697398,0.99999994,0,0,0,0,0,0,0.503937,0,0,0,0,false,false,false,0,106.549995,17.01,-0.003347471,0.0033528658,0.7070959,0.70710164,0,381.291,8.321,-0.00051,0,0
64.933334,2000,0,91.24,0.000002697398,0.000002697398,0.000002697398,0.99999994,0,0,0,0,0,0,0.503937,0,0,0,0,false,false,false,0,109.729996,17.01,-0.003347471,0.0033528658,0.7070959,0.70710164,0,386.361,8.321,-0.00051,0,0
64.941666,2000,0,91.24,0.000002697398,0.000002697398,0.000002697398,0.99999994,0,0,0,0,0,0,0.503937,0,0,0,0,false,false,false,0,112.95,17.01,-0.003347471,0.0033528658,0.7070959,0.70710164,0,391.411,8.321,-0.00051,0,0
64.95,2000,0,91.24,0.000002697398,0.000002697398,0.000002697398,0.99999994,0,0,0,0,0,0,0.503937,0,0,0,0,false,false,false,0,116.21,17.01,-0.003347471,0.0033528658,0.7070959,0.70710164,0,396.431,8.321,-0.00051,0,0
64.958336,2000,0,91.24,0.000002697398,0.000002697398,0.000002697398,0.99999994,0,0,0,0,0,0,0.503937,0,0,0,0,false,false,false,0,119.509995,17.01,-0.003347471,0.0033528658,0.7070959,0.70710164,0,401.431,8.321,-0.00051,0,0
64.96667,2000,0,91.24,0.000002697398,0.000002697398,0.000002697398,0.99999994,0,0,0,0,0,0,0.503937,0,0,0,0,false,false,false,0,122.86,17.01,-0.003347471,0.0033528658,0.7070959,0.70710164,0,406.411,8.321,-0.00051,0,0
64.975,2000,0,91.24,0.000002697398,0.000002697398,0.000002697398,0.99999994,0,0,0,0,0,0,0.503937,0,0,0,0,false,false,false,0,126.25,17.01,-0.003347471,0.0033528658,0.7070959,0.70710164,0,411.371,8.321,-0.00051,0,0
64.98333,2000,0,91.24,0.000002697398,0.000002697398,0.000002697398,0.99999994,0,0,0,0,0,0,0.503937,0,0,0,0,false,false,false,0,129.68,17.01,-0.003347471,0.0033528658,0.7070959,0.70710164,0,416.311,8.321,-0.00051,0,0
64.99167,2000,0,91.24,0.000002697398,0.000002697398,0.000002697398,0.99999994,0,0,0,0,0,0,0.503937,0,0,0,0,false,false,false,0,133.15,17.01,-0.003347471,0.0033528658,0.7070959,0.70710164,0,421.231,8.321,-0.00051,0,0
65,2000,0,91.24,0.000002697398,0.000002697398,0.000002697398,0.99999994,0,0,0,0,0,0,0.503937,0,0,0,0,false,false,false,0,136.66,17.01,-0.003347471,0.0033528658,0.7070959,0.70710164,0,426.131,8.321,-0.00051,0,0
65.00833,2000,0,91.24,0.000002697398,0.000002697398,0.000002697398,0.99999994,0,0,0,0,0,0,0.503937,0,0,0,0,false,false,false,0,140.20999,17.01,-0.003347471,0.0033528658,0.7070959,0.70710164,0,431.001,8.321,-0.00051,0,0
65.01667,2000,0,91.24,0.000002697398,0.000002697398,0.000002697398,0.99999994,0,0,0,0,0,0,0.503937,0,0,0,0,false,false,false,0,143.8,17.01,-0.003347471,0.0033528658,0.7070959,0.70710164,0,435.85098,8.321,-0.00051,0,0
65.025,2000,0,91.24,0.000002697398,0.000002697398,0.000002697398,0.99999994,0,0,0,0,0,0,0.503937,0,0,0,0,false,false,false,0,147.43,17.01,-0.003347471,0.0033528658,0.7070959,0.70710164,0,440.681,8.321,-0.00061,0,0
65.03333,2000,0,91.24,0.000002697398,0.000002697398,0.000002697398,0.99999994,0,0,0,0,0,0,0.503937,0,0,0,0,false,false,false,0,151.09999,17.01,-0.003347471,0.0033528658,0.7070959,0.70710164,0,445.491,8.321,-0.00061,0,0
65.041664,2000,0,91.24,0.000002697398,0.000002697398,0.000002697398,0.99999994,0,0,0,0,0,0,0.503937,0,0,0,0,false,false,false,0,154.81,17.01,-0.003347471,0.0033528658,0.7070959,0.70710164,0,450.281,8.321,-0.00061,0,0
65.05,2000,0,91.24,0.000002697398,0.000002697398,0.000002697398,0.99999994,0,0,0,0,0,0,0.503937,0,0,0,0,false,false,false,0,158.56,17.01,-0.003347471,0.0033528658,0.7070959,0.70710164,0,455.051,8.321,-0.00061,0,0
65.058334,2000,0,91.24,0.000002697398,0.000002697398,0.000002697398,0.99999994,0,0,0,0,0,0,0.503937,0,0,0,0,false,false,false,0,162.34999,17.01,-0.003347471,0.0033528658,0.7070959,0.70710164,0,459.801,8.321,-0.00061,0,0
65.066666,2000,0,91.24,0.000002697398,0.000002697398,0.000002697398,0.99999994,0,0,0,0,0,0,0.503937,0,0,0,0,false,false,false,0,166.18,17.01,-0.003347471,0.0033528658,0.7070959,0.70710164,0,464.531,8.321,-0.00061,0,0
65.075,2000,0,91.24,0.000002697398,0.000002697398,0.000002697398,0.99999994,0,0,0,0,0,0,0.503937,0,0,0,0,false,false,false,0,170.05,17.01,-0.003347471,0.0033528658,0.7070959,0.70710164,0,469.241,8.321,-0.00061,0,0
65.083336,2000,0,91.24,0.000002697398,0.000002697398,0.000002697398,0.99999994,0,0,0,0,0,0,0.503937,0,0,0,0,false,false,false,0,173.95999,17.01,-0.003347471,0.0033528658,0.7070959,0.70710164,0,473.931,8.321,-0.00061,0,0
65.09167,2000,0,91.24,0.000002697398,0.000002697398,0.000002697398,0.99999994,0,0,0,0,0,0,0.503937,0,0,0,0,false,false,false,0,177.90999,17.01,-0.003347471,0.0033528658,0.7070959,0.70710164,0,478.60098,8.321,-0.00061,0,0
65.1,2000,0,91.24,0.000002697398,0.000002697398,0.000002697398,0.99999994,0,0,0,0,0,0,0.503937,0,0,0,0,false,false,false,0,181.9,17.01,-0.003347471,0.0033528658,0.7070959,0.70710164,0,483.251,8.321,-0.00061,0,0
65.10833,2000,0,91.24,0.000002697398,0.000002697398,0.000002697398,0.99999994,0,0,0,0,0,0,0.503937,0,0,0,0,false,false,false,0,185.93,17.01,-0.003347471,0.0033528658,0.7070959,0.70710164,0,487.88098,8.321,-0.00061,0,0
65.11667,2000,0,91.24,0.000002697398,0.000002697398,0.000002697398,0.99999994,0,0,0,0,0,0,0.503937,0,0,0,0,false,false,false,0,190,17.01,-0.003347471,0.0033528658,0.7070959,0.70710164,0,492.491,8.321,-0.00061,0,0
65.125,2000,0,91.24,0.000002697398,0.000002697398,0.000002697398,0.99999994,0,0,0,0,0,0,0.503937,0,0,0,0,false,false,false,0,194.09999,17.01,-0.003347471,0.0033528658,0.7070959,0.70710164,0,497.081,8.321,-0.00061,0,0
65.13333,2000,0,91.24,0.000002697398,0.000002697398,0.000002697398,0.99999994,0,0,0,0,0,0,0.503937,0,0,0,0,false,false,false,0,198.23999,17.01,-0.003347471,0.0033528658,0.7070959,0.70710164,0,501.651,8.321,-0.00061,0,0
65.14167,2000,0,91.24,0.000002697398,0.000002697398,0.000002697398,0.99999994,0,0,0,0,0,0,0,1,0,0,0,false,false,true,0,202.42,17.01,-0.003347471,0.0033528658,0.7070959,0.70710164,-11.061,497.981,8.351,-0.00091,0.00281,0.30031002
65.15,2000,0,91.24,0.000002697398,0.000002697398,0.000002697398,0.99999994,0,0,0,0,0,0,0,1,0,0,0,false,false,true,-0.089999996,206.56999,17.01,-0.0033474711,0.0033582607,0.7079799,0.70621663,-18.571,495.461,8.361,-0.00111,0.00361,0.50231
65.15833,2000,0,91.24,0.000002697398,0.000002697398,0.000002697398,0.99999994,0,0,0,0,0,0,0,1,0,0,0,false,false,true,-0.24,210.7,17.01,-0.003347471,0.0033636554,0.7094566,0.704733,-25.230999,493.221,8.361,-0.00111,0.00371,0.67571
65.166664,2000,0,91.24,0.000002697398,0.000002697398,0.000002697398,0.99999994,0,0,0,0,0,0,0,1,0,0,0,false,false,true,-0.45,214.81,17.01,-0.003347471,0.00336905,0.71143913,0.70273155,-31.251,491.211,8.361,-0.00111,0.00341,0.82411
65.175,2000,0,91.24,0.000002697398,0.000002697398,0.000002697398,0.99999994,0,0,0,0,0,0,0,1,0,0,0,false,false,true,-0.71,218.9,17.01,-0.0033528658,0.00336905,0.7138501,0.7002823,-36.771,489.38098,8.361,-0.00111,0.00291,0.95101
65.183334,2000,0,91.24,0.000002697398,0.000002697398,0.000002697398,0.99999994,0,0,0,0,0,0,0,1,0,0,0,false,false,true,-1.02,222.98,17.01,-0.0033582605,0.00336905,0.7166175,0.69745004,-41.911,487.701,8.361,-0.0010099999,0.0023100001,1.05951
65.191666,2000,0,91.24,0.000002697398,0.000002697398,0.000002697398,0.99999994,0,0,0,0,0,0,0,1,0,0,0,false,false,true,-1.37,227.04,17.01,-0.00336905,0.0033636554,0.7196912,0.6942778,-46.751,486.13098,8.361,-0.00091,0.0016099999,1.15241
65.2,2000,0,91.24,0.000002697398,0.000002697398,0.000002697398,0.99999994,0,0,0,0,0,0,0,1,0,0,0,false,false,true,-1.76,231.09,17.01,-0.0033852346,0.0033528658,0.7230164,0.6908143,-51.361,484.651,8.351,-0.00081,0.0010099999,1.23201
65.208336,2000,0,91.24,0.000002697398,0.000002697398,0.000002697398,0.99999994,0,0,0,0,0,0,0,1,0,0,0,false,false,true,-2.19,235.12999,17.01,-0.003401419,0.0033420762,0.72655475,0.68709195,-55.771,483.241,8.351,-0.00071,0.00051,1.30031
65.21667,2000,0,91.24,0.000002697398,0.000002697398,0.000002697398,0.99999994,0,0,0,0,0,0,0,1,0,0,0,false,false,true,-2.6499999,239.15999,17.01,-0.003417603,0.0033258914,0.73026896,0.6831429,-60.021,481.891,8.351,-0.00061,0,1.35901
65.225,2000,0,91.24,0.000002697398,0.000002697398,0.000002697398,0.99999994,0,0,0,0,0,0,0,1,0,0,0,false,false,true,-3.1499999,243.18,17.01,-0.0034391826,0.0033097074,0.7341279,0.67899436,-64.120995,480.581,8.341001,-0.00061,-0.00030999997,1.40951
65.23333,2000,0,91.24,0.000002697398,0.000002697398,0.000002697398,0.99999994,0,0,0,0,0,0,0,1,0,0,0,false,false,true,-3.6799998,247.18,17.01,-0.0034607616,0.0032881282,0.7381011,0.6746731,-68.090996,479.301,8.341001,-0.00051,-0.00051,1.45301
65.24167,2000,0,91.24,0.000002697398,0.000002697398,0.000002697398,0.99999994,0,0,0,0,0,0,0,1,0,0,0,false,false,true,-4.25,251.17,17.01,-0.0034823408,0.003266549,0.74217415,0.67019,-71.921,478.051,8.341001,-0.00040999998,-0.00071,1.49061
65.25,2000,0,91.24,0.000002697398,0.000002697398,0.000002697398,0.99999994,0,0,0,0,0,0,0,1,0,0,0,false,false,true,-4.85,255.15,17.01,-0.0035039203,0.00324497,0.74632305,0.6655667,-75.611,476.82098,8.341001,-0.00040999998,-0.00091,1.52301
65.25833,2000,0,91.24,0.000002697398,0.000002697398,0.000002697398,0.99999994,0,0,0,0,0,0,0,1,0,0,0,false,false,true,-5.48,259.12,17.01,-0.0035308942,0.0032233908,0.7505298,0.6608192,-79.141,475.611,8.341001,-0.00030999997,-0.0010099999,1.55091
65.26667,2000,0,91.24,0.000002697398,0.000002697398,0.000002697398,0.99999994,0,0,0,0,0,0,0,1,0,0,0,false,false,true,-6.14,263.08,17.01,-0.003557868,0.0031964167,0.75478643,0.6559531,-82.510994,474.431,8.341001,-0.00021,-0.00111,1.5749099
65.275,2000,0,91.24,0.000002697398,0.000002697398,0.000002697398,0.99999994,0,0,0,0,0,0,0,1,0,0,0,false,false,true,-6.83,267.03,17.01,-0.0035848422,0.003169443,0.75907594,0.65098447,-85.690994,473.281,8.341001,-0.00010999999,-0.00111,1.59551
65.28333,2000,0,91.24,0.000002697398,0.000002697398,0.000002697398,0.99999994,0,0,0,0,0,0,0,1,0,0,0,false,false,true,-7.54,270.97,17.01,-0.003611816,0.0031424686,0.7633865,0.6459241,-88.671,472.181,8.331,-0.00010999999,-0.00111,1.61311
65.291664,2000,0,91.24,0.000002697398,0.000002697398,0.000002697398,0.99999994,0,0,0,0,0,0,0,1,0,0,0,false,false,true,-8.28,274.9,17.01,-0.00363879,0.0031154947,0.76771164,0.6407774,-91.431,471.13098,8.331,0,-0.00111,1.6280099
65.3,2000,0,91.24,0.000002697398,0.000002697398,0.000002697398,0.99999994,0,0,0,0,0,0,0,1,0,0,0,false,false,true,-9.04,278.83,17.01,-0.003665764,0.0030885208,0.77204037,0.63555527,-93.940994,470.141,8.331,0,-0.0010099999,1.64041
65.308334,2000,0,91.24,0.000002697398,0.000002697398,0.000002697398,0.99999994,0,0,0,0,0,0,0,1,0,0,0,false,false,true,-9.82,282.75,17.01,-0.003687343,0.0030615467,0.77636683,0.630263,-96.171,469.231,8.331,0,-0.00091,1.65061
65.316666,2000,0,91.24,0.000002697398,0.000002697398,0.000002697398,0.99999994,0,0,0,0,0,0,0,1,0,0,0,false,false,true,-10.62,286.66,17.01,-0.0037089223,0.0030345728,0.780681,0.62491125,-98.090996,468.421,8.331,0,-0.00091,1.65881
65.325,2000,0,91.24,0.000002697398,0.000002697398,0.000002697398,0.99999994,0,0,0,0,0,0,0,1,0,0,0,false,false,true,-11.44,290.56,17.01,-0.0037305015,0.003007599,0.7849817,0.6195003,-99.671,467.731,8.331,0,-0.00091,1.66501
65.333336,2000,0,91.24,0.000002697398,0.000002697398,0.000002697398,0.99999994,0,0,0,0,0,0,0,1,0,0,0,false,false,true,-12.2699995,294.46,17.01,-0.0037520807,0.0029806248,0.7892597,0.61404073,-100.870995,467.191,8.321,0,-0.00091,1.66941
65.34167,2000,0,91.24,0.000002697398,0.000002697398,0.000002697398,0.99999994,0,0,0,0,0,0,0,1,0,0,0,false,false,true,-13.11,298.35,17.01,-0.00377366,0.002953651,0.79351014,0.60853803,-102.131,466.60098,8.321,0,-0.00091,1.67371
65.35,2000,0,91.24,0.000002697398,0.000002697398,0.000002697398,0.99999994,0,0,0,0,0,0,0,1,0,0,0,false,false,true,-13.96,302.24,17.01,-0.0037952391,0.0029266768,0.79773265,0.6029921,-103.440994,465.971,8.321,0,-0.00091,1.67791
65.35833,2000,0,91.24,0.000002697398,0.000002697398,0.000002697398,0.99999994,0,0,0,0,0,0,0,1,0,0,0,false,false,true,-14.82,306.12,17.01,-0.0038168184,0.0028997029,0.8019307,0.5973977,-104.800995,465.301,8.321,0,-0.00091,1.6820099
65.36667,2000,0,91.24,0.000002697398,0.000002697398,0.000002697398,0.99999994,0,0,0,0,0,0,0,1,0,0,0,false,false,true,-15.69,310,17.01,-0.003838397,0.0028727287,0.8060997,0.5917601,-106.211,464.581,8.321,0,-0.00081,1.68601
65.375,2000,0,91.24,0.000002697398,0.000002697398,0.000002697398,0.99999994,0,0,0,0,0,0,0,1,0,0,0,false,false,true,-16.58,313.87,17.01,-0.0038599768,0.0028457548,0.8102354,0.58608484,-107.671,463.811,8.321,0,-0.00081,1.6899099
65.38333,2000,0,91.24,0.000002697398,0.000002697398,0.000002697398,0.99999994,0,0,0,0,0,0,0,1,0,0,0,false,false,true,-17.48,317.74,17.01,-0.0038815557,0.002818781,0.81434137,0.58036625,-109.171,463.001,8.321,0.00010999999,-0.00081,1.69371
65.39167,2000,0,91.24,0.000002697398,0.000002697398,0.000002697398,0.99999994,0,0,0,0,0,0,0,1,0,0,0,false,false,true,-18.39,321.6,17.01,-0.003903135,0.0027864121,0.818417,0.57460463,-110.711,462.141,8.321,0.00010999999,-0.00071,1.69741
65.4,2000,0,91.24,0.000002697398,0.000002697398,0.000002697398,0.99999994,0,0,0,0,0,0,0,1,0,0,0,false,false,true,-19.31,325.44998,17.01,-0.003924714,0.0027540433,0.82246196,0.5687998,-112.291,461.231,8.321,0.00010999999,-0.00071,1.70091
65.40833,2000,0,91.24,0.000002697398,0.000002697398,0.000002697398,0.99999994,0,0,0,0,0,0,0,1,0,0,0,false,false,true,-20.25,329.28998,17.01,-0.0039462927,0.0027216743,0.82647204,0.5629571,-113.90099,460.271,8.321,0.00010999999,-0.00061,1.7043099
65.416664,2000,0,91.24,0.000002697398,0.000002697398,0.000002697398,0.99999994,0,0,0,0,0,0,0,1,0,0,0,false,false,true,-21.199999,333.13,17.01,-0.0039678724,0.002689306,0.8304471,0.5570768,-115.541,459.261,8.321,0.00010999999,-0.00051,1.70761
65.425,2000,0,91.24,0.000002697398,0.000002697398,0.000002697398,0.99999994,0,0,0,0,0,0,0,1,0,0,0,false,false,true,-22.16,336.96,17.01,-0.0039894516,0.002656937,0.8343901,0.55115336,-117.211,458.201,8.321,0,-0.00040999998,1.71081
65.433334,2000,0,91.24,0.000002697398,0.000002697398,0.000002697398,0.99999994,0,0,0,0,0,0,0,1,0,0,0,false,false,true,-23.14,340.78,17.01,-0.004011031,0.002629963,0.83829737,0.54519206,-118.910995,457.091,8.321,0,-0.00030999997,1.71391
65.441666,2000,0,91.24,0.000002697398,0.000002697398,0.000002697398,0.99999994,0,0,0,0,0,0,0,1,0,0,0,false,false,true,-24.13,344.59,17.01,-0.00403261,0.002602989,0.84216845,0.539193,-120.641,455.931,8.321,0,-0.00030999997,1.71691
65.45,2000,0,91.24,0.000002697398,0.000002697398,0.000002697398,0.99999994,0,0,0,0,0,0,0,1,0,0,0,false,false,true,-25.14,348.38998,17.01,-0.0040541897,0.0025760154,0.8460031,0.5331563,-122.391,454.721,8.321,0,-0.00021,1.71981
65.458336,2000,0,91.24,0.000002697398,0.000002697398,0.000002697398,0.99999994,0,0,0,0,0,0,0,1,0,0,0,false,false,true,-26.16,352.18,17.01,-0.0040757684,0.002549041,0.84980094,0.52708167,-124.160995,453.461,8.321,0.00010999999,-0.00021,1.72251
65.46667,2000,0,91.24,0.000002697398,0.000002697398,0.000002697398,0.99999994,0,0,0,0,0,0,0,1,0,0,0,false,false,true,-27.189999,355.96,17.01,-0.0040919525,0.0025166722,0.85356176,0.5209694,-125.951,452.151,8.321,0.00021,-0.00010999999,1.7251099
65.475,2000,0,91.24,0.000002697398,0.000002697398,0.000002697398,0.99999994,0,0,0,0,0,0,0,1,0,0,0,false,false,true,-28.24,359.72998,17.01,-0.004108137,0.0024843037,0.8572852,0.5148192,-127.760994,450.791,8.321,0.00021,-0.00010999999,1.72761
65.48333,2000,0,91.24,0.000002697398,0.000002697398,0.000002697398,0.99999994,0,0,0,0,0,0,0,1,0,0,0,false,false,true,-29.3,363.49,17.01,-0.0041243215,0.0024519349,0.86096776,0.5086368,-129.58101,449.381,8.321,0.00010999999,-0.00010999999,1.7300099
65.49167,2000,0,91.24,0.000002697398,0.000002697398,0.000002697398,0.99999994,0,0,0,0,0,0,0,1,0,0,0,false,false,true,-30.38,367.22998,17.01,-0.004140506,0.002419566,0.8646123,0.5024166,-131.41101,447.921,8.321,0.00010999999,-0.00010999999,1.7323099
65.5,2000,0,91.24,0.000002697398,0.000002697398,0.000002697398,0.99999994,0,0,0,0,0,0,0,1,0,0,0,false,false,true,-31.48,370.96,17.01,-0.0041566906,0.0023871975,0.86821556,0.496164,-133.251,446.411,8.321,0,-0.00010999999,1.7344099
65.50833,2000,0,91.24,0.000002697398,0.000002697398,0.000002697398,0.99999994,0,0,0,0,0,0,0,1,0,0,0,false,false,true,-32.59,374.68,17.01,-0.0041728746,0.0023548284,0.8717772,0.489879,-135.101,444.85098,8.321,0,-0.00010999999,1.73641
65.51667,2000,0,91.24,0.000002697398,0.000002697398,0.000002697398,0.99999994,0,0,0,0,0,0,0,1,0,0,0,false,false,true,-33.719997,378.38998,17.01,-0.0041890587,0.0023224594,0.8753,0.48355627,-136.951,443.241,8.321,0,-0.00010999999,1.73831
65.525,2000,0,91.24,0.000002697398,0.000002697398,0.000002697398,0.99999994,0,0,0,0,0,0,0,1,0,0,0,false,false,true,-34.86,382.08,17.01,-0.004205243,0.0022900908,0.8787809,0.47720125,-138.811,441.581,8.321,0,-0.00010999999,1.7401099
65.53333,2000,0,91.24,0.000002697398,0.000002697398,0.000002697398,0.99999994,0,0,0,0,0,0,0,1,0,0,0,false,false,true,-36.02,385.75998,17.01,-0.0042214277,0.0022577222,0.8822167,0.47081912,-140.671,439.871,8.321,0,-0.00010999999,1.74171
65.541664,2000,0,91.24,0.000002697398,0.000002697398,0.000002697398,0.99999994,0,0,0,0,0,0,0,1,0,0,0,false,false,true,-37.19,389.43,17.01,-0.0042376122,0.0022253534,0.8856101,0.4644047,-142.531,438.111,8.321,0,-0.00010999999,1.74321
65.55,2000,0,91.24,0.000002697398,0.000002697398,0.000002697398,0.99999994,0,0,0,0,0,0,0,1,0,0,0,false,false,true,-38.379997,393.08,17.01,-0.004253797,0.0021929846,0.8889609,0.45795792,-144.381,436.311,8.321,0,-0.00010999999,1.74461
65.558334,2000,0,91.24,0.000002697398,0.000002697398,0.000002697398,0.99999994,0,0,0,0,0,0,0,1,0,0,0,false,false,true,-39.579998,396.72,17.01,-0.004269981,0.0021606158,0.8922663,0.45148408,-146.231,434.461,8.321,0,-0.00010999999,1.7459099
65.566666,2000,0,91.24,0.000002697398,0.000002697398,0.000002697398,0.99999994,0,0,0,0,0,0,0,1,0,0,0,false,false,true,-40.8,400.34,17.01,-0.0042861653,0.002128247,0.895526,0.44498336,-148.071,432.561,8.321,-0.00010999999,-0.00010999999,1.74701
65.575,2000,0,91.24,0.000002697398,0.000002697398,0.000002697398,0.99999994,0,0,0,0,0,0,0,1,0,0,0,false,false,true,-42.03,403.94,17.01,-0.0043023503,0.0020958784,0.8987427,0.43845028,-149.901,430.621,8.321,-0.00010999999,-0.00010999999,1.7480099
65.583336,2000,0,91.24,0.000002697398,0.000002697398,0.000002697398,0.99999994,0,0,0,0,0,0,0,1,0,0,0,false,false,true,-43.28,407.53,17.01,-0.004318534,0.0020635095,0.90191346,0.4318902,-151.72101,428.631,8.321,-0.00010999999,-0.00010999999,1.74891
65.59167,2000,0,91.24,0.000002697398,0.000002697398,0.000002697398,0.99999994,0,0,0,0,0,0,0,1,0,0,0,false,false,true,-44.539997,411.09998,17.01,-0.004334719,0.002031141,0.9050358,0.42530847,-153.531,426.60098,8.321,-0.00010999999,-0.00010999999,1.74971
65.6,2000,0,91.24,0.000002697398,0.000002697398,0.000002697398,0.99999994,0,0,0,0,0,0,0,1,0,0,0,false,false,true,-45.82,414.65,17.01,-0.004350903,0.001998772,0.908112,0.41869983,-155.33101,424.521,8.321,-0.00010999999,0,1.75031
65.60833,2000,0,91.24,0.000002697398,0.000002697398,0.000002697398,0.99999994,0,0,0,0,0,0,0,1,0,0,0,false,false,true,-47.11,418.19,17.01,-0.004367088,0.0019664033,0.9111422,0.41206425,-157.11101,422.401,8.321,-0.00010999999,0,1.75081
65.61667,2000,0,91.24,0.000002697398,0.000002697398,0.000002697398,0.99999994,0,0,0,0,0,0,0,1,0,0,0,false,false,true,-48.42,421.71,17.01,-0.0043832716,0.0019340344,0.9141237,0.40540695,-158.881,420.241,8.321,-0.00010999999,0,1.75121
65.625,2000,0,91.24,0.000002697398,0.000002697398,0.000002697398,0.99999994,0,0,0,0,0,0,0,1,0,0,0,false,false,true,-49.739998,425.21,17.01,-0.004399456,0.0019016657,0.91705656,0.3987282,-160.631,418.041,8.321,-0.00010999999,0,1.75141
65.63333,2000,0,91.24,0.000002697398,0.000002697398,0.000002697398,0.99999994,0,0,0,0,0,0,0,1,0,0,0,false,false,true,-51.079998,428.69,17.01,-0.0044156406,0.0018692969,0.91994077,0.39202785,-162.36101,415.801,8.321,-0.00010999999,0,1.75151
65.64167,2000,0,91.24,0.000002697398,0.000002697398,0.000002697398,0.99999994,0,0,0,0,0,0,0,1,0,0,0,false,false,true,-52.43,432.16,17.01,-0.004431825,0.0018369282,0.9227764,0.38530588,-164.071,413.521,8.321,-0.00010999999,0,1.75151
65.65,2000,0,91.24,0.000002697398,0.000002697398,0.000002697398,0.99999994,0,0,0,0,0,0,0,1,0,0,0,false,false,true,-53.8,435.61,17.01,-0.004442615,0.0018045595,0.92556334,0.3785624,-165.751,411.201,8.321,-0.00010999999,0,1.75141
65.65833,2000,0,91.24,0.000002697398,0.000002697398,0.000002697398,0.99999994,0,0,0,0,0,0,0,1,0,0,0,false,false,true,-55.18,439.03998,17.01,-0.0044534043,0.0017721907,0.9283015,0.37179732,-167.41101,408.841,8.321,-0.00010999999,0,1.75111
65.666664,2000,0,91.24,0.000002697398,0.000002697398,0.000002697398,0.99999994,0,0,0,0,0,0,0,1,0,0,0,false,false,true,-56.579998,442.44998,17.01,-0.0044641937,0.0017398217,0.93098885,0.36501604,-169.041,406.451,8.321,-0.00010999999,0,1.75071
65.675,2000,0,91.24,0.000002697398,0.000002697398,0.000002697398,0.99999994,0,0,0,0,0,0,0,1,0,0,0,false,false,true,-57.989998,445.84,17.01,-0.004474983,0.0017074529,0.9336275,0.3582131,-170.651,404.021,8.321,-0.00010999999,0,1.7502099
65.683334,2000,0,91.24,0.000002697398,0.000002697398,0.000002697398,0.99999994,0,0,0,0,0,0,0,1,0,0,0,false,false,true,-59.41,449.21,17.01,-0.0044857725,0.001675084,0.9362152,0.35139406,-172.231,401.561,8.321,-0.00010999999,0,1.7495099
65.691666,2000,0,91.24,0.000002697398,0.000002697398,0.000002697398,0.99999994,0,0,0,0,0,0,0,1,0,0,0,false,false,true,-60.85,452.56,17.01,-0.004496562,0.0016427152,0.93875235,0.34455886,-173.781,399.061,8.321,-0.00010999999,0,1.7487099
65.7,2000,0,91.24,0.000002697398,0.000002697398,0.000002697398,0.99999994,0,0,0,0,0,0,0,1,0,0,0,false,false,true,-62.3,455.88998,17.01,-0.0045073526,0.0016103467,0.94123894,0.33770743,-175.30101,396.531,8.321,-0.00010999999,0,1.74781
65.708336,2000,0,91.24,0.000002697398,0.000002697398,0.000002697398,0.99999994,0,0,0,0,0,0,0,1,0,0,0,false,false,true,-63.76,459.19,17.01,-0.0045181415,0.0015779779,0.94367284,0.33084524,-176.791,393.971,8.321,-0.00010999999,0,1.74671
65.71667,2000,0,91.24,0.000002697398,0.000002697398,0.000002697398,0.99999994,0,0,0,0,0,0,0,1,0,0,0,false,false,true,-65.229996,462.47,17.01,-0.004528932,0.0015456092,0.9460563,0.3239669,-178.241,391.381,8.321,-0.00010999999,0,1.74551
65.725,2000,0,91.24,0.000002697398,0.000002697398,0.000002697398,0.99999994,0,0,0,0,0,0,0,1,0,0,0,false,false,true,-66.72,465.72998,17.01,-0.0045397207,0.0015132403,0.94838744,0.3170776,-179.661,388.771,8.321,-0.00010999999,0,1.74421
65.73333,2000,0,91.24,0.000002697398,0.000002697398,0.000002697398,0.99999994,0,0,0,0,0,0,0,1,0,0,0,false,false,true,-68.22,468.97,17.01,-0.0045505106,0.0014808716,0.9506665,0.31017768,-181.05101,386.131,8.321,-0.00010999999,0,1.74271
65.74167,2000,0,91.24,0.000002697398,0.000002697398,0.000002697398,0.99999994,0,0,0,0,0,0,0,1,0,0,0,false,false,true,-69.729996,472.19,17.01,-0.0045613,0.0014485028,0.95289356,0.30326694,-182.401,383.461,8.321,-0.00010999999,0,1.74111
65.75,2000,0,91.24,0.000002697398,0.000002697398,0.000002697398,0.99999994,0,0,0,0,0,0,0,1,0,0,0,false,false,true,-71.25,475.38998,17.01,-0.00457209,0.0014161341,0.9550688,0.29634535,-183.72101,380.771,8.321,-0.00010999999,0,1.7394099
65.75833,2000,0,91.24,0.000002697398,0.000002697398,0.000002697398,0.99999994,0,0,0,0,0,0,0,1,0,0,0,false,false,true,-72.78,478.56,17.01,-0.004582879,0.0013837651,0.9571907,0.2894184,-185.001,378.061,8.321,-0.00010999999,0,1.73751
65.76667,2000,0,91.24,0.000002697398,0.000002697398,0.000002697398,0.99999994,0,0,0,0,0,0,0,1,0,0,0,false,false,true,-74.32,481.71,17.01,-0.004593669,0.0013513964,0.95926094,0.28248072,-186.241,375.331,8.321,-0.00010999999,0,1.73551
65.775,2000,0,91.24,0.000002697398,0.000002697398,0.000002697398,0.99999994,0,0,0,0,0,0,0,1,0,0,0,false,false,true,-75.869995,484.84,17.01,-0.0046044583,0.0013190276,0.9612783,0.27553752,-187.44101,372.581,8.321,-0.00010999999,0,1.73341
65.78333,2000,0,91.24,0.000002697398,0.000002697398,0.000002697398,0.99999994,0,0,0,0,0,0,0,1,0,0,0,false,false,true,-77.43,487.94,17.01,-0.004615248,0.0012866588,0.9632429,0.26858902,-188.601,369.811,8.321,0,0,1.73121
65.791664,2000,0,91.24,0.000002697398,0.000002697398,0.000002697398,0.99999994,0,0,0,0,0,0,0,1,0,0,0,false,false,true,-79,491.02,17.01,-0.0046260376,0.0012542901,0.9651549,0.26163512,-189.72101,367.021,8.321,0,0,1.72881
65.8,2000,0,91.24,0.000002697398,0.000002697398,0.000002697398,0.99999994,0,0,0,0,0,0,0,1,0,0,0,false,false,true,-80.58,494.08,17.01,-0.0046368274,0.0012219214,0.96701455,0.25467587,-190.80101,364.221,8.321,0,0,1.72631
65.808334,2000,0,91.24,0.000002697398,0.000002697398,0.000002697398,0.99999994,0,0,0,0,0,0,0,1,0,0,0,false,false,true,-82.17,497.12,17.01,-0.0046476168,0.0011895525,0.968822,0.24771109,-191.841,361.401,8.321,0,0,1.72371
65.816666,2000,0,91.24,0.000002697398,0.000002697398,0.000002697398,0.99999994,0,0,0,0,0,0,0,1,0,0,0,false,false,true,-83.77,500.12997,17.01,-0.004658406,0.0011571838,0.9705761,0.24074641,-192.841,358.57098,8.321,0,0,1.72091
65.825,2000,0,91.24,0.000002697398,0.000002697398,0.000002697398,0.99999994,0,0,0,0,0,0,0,1,0,0,0,false,false,true,-85.38,503.12,17.01,-0.0046691964,0.0011248151,0.9722772,0.23378174,-193.80101,355.731,8.321,0,0,1.71801
65.833336,2000,0,91.24,0.000002697398,0.000002697398,0.000002697398,0.99999994,0,0,0,0,0,0,0,1,0,0,0,false,false,true,-86.99,506.08,17.01,-0.004674591,0.0010924463,0.97392553,0.22681697,-194.72101,352.881,8.321,0,0,1.7150099
65.84167,2000,0,91.24,0.000002697398,0.000002697398,0.000002697398,0.99999994,0,0,0,0,0,0,0,1,0,0,0,false,false,true,-88.61,509.02,17.01,-0.0046799853,0.0010600775,0.9755213,0.21985227,-195.601,350.021,8.321,0,0,1.71181
65.85,2000,0,91.24,0.000002697398,0.000002697398,0.000002697398,0.99999994,0,0,0,0,0,0,0,1,0,0,0,false,false,true,-90.24,511.94,17.01,-0.004685381,0.0010277088,0.9770649,0.2128876,-196.44101,347.151,8.321,0,0,1.7085099
65.85833,2000,0,91.24,0.000002697398,0.000002697398,0.000002697398,0.99999994,0,0,0,0,0,0,0,1,0,0,0,false,false,true,-91.88,514.83,17.01,-0.0046907756,0.00099534,0.9785553,0.20592824,-197.241,344.281,8.321,0,0,1.70511
65.86667,2000,0,91.24,0.000002697398,0.000002697398,0.000002697398,0.99999994,0,0,0,0,0,0,0,1,0,0,0,false,false,true,-93.52,517.7,17.01,-0.00469617,0.0009629711,0.979994,0.19896893,-197.991,341.401,8.321,0,0,1.70161
65.875,2000,0,91.24,0.000002697398,0.000002697398,0.000002697398,0.99999994,0,0,0,0,0,0,0,1,0,0,0,false,false,true,-95.17,520.55,17.01,-0.0047015646,0.0009306023,0.9813802,0.19201504,-198.701,338.521,8.321,0,0,1.69791
65.88333,2000,0,91.24,0.000002697398,0.000002697398,0.000002697398,0.99999994,0,0,0,0,0,0,0,1,0,0,0,false,false,true,-96.829994,523.37,17.01,-0.00470696,0.0008982336,0.9827143,0.18506648,-199.371,335.641,8.321,0,0,1.6941099
65.89167,2000,0,91.24,0.000002697398,0.000002697398,0.000002697398,0.99999994,0,0,0,0,0,0,0,1,0,0,0,false,false,true,-98.49,526.17,17.01,-0.0047123544,0.0008658648,0.98399645,0.17812335,-200.001,332.761,8.321,0.00010999999,-0.00010999999,1.69021
65.9,2000,0,91.24,0.000002697398,0.000002697398,0.000002697398,0.99999994,0,0,0,0,0,0,0,1,0,0,0,false,false,true,-100.159996,528.94,17.01,-0.004717749,0.000833496,0.98522615,0.17119104,-200.591,329.881,8.321,0.00010999999,-0.00010999999,1.6862099
65.90833,2000,0,91.24,0.000002697398,0.000002697398,0.000002697398,0.99999994,0,0,0,0,0,0,0,1,0,0,0,false,false,true,-101.829994,531.69,17.01,-0.0047231438,0.00080112723,0.9864047,0.16426404,-201.131,327.001,8.321,0.00010999999,-0.00010999999,1.6820099
65.916664,2000,0,91.24,0.000002697398,0.000002697398,0.000002697398,0.99999994,0,0,0,0,0,0,0,1,0,0,0,false,false,true,-103.509995,534.41,17.01,-0.004728539,0.00076875853,0.9875316,0.15734792,-201.631,324.121,8.321,0.00021,-0.00010999999,1.6777099
65.925,2000,0,91.24,0.000002697398,0.000002697398,0.000002697398,0.99999994,0,0,0,0,0,0,0,1,0,0,0,false,false,true,-105.189995,537.11,17.01,-0.004733933,0.0007363896,0.988607,0.15044256,-202.091,321.251,8.321,0.00021,-0.00010999999,1.6733099
65.933334,2000,0,91.24,0.000002697398,0.000002697398,0.000002697398,0.99999994,0,0,0,0,0,0,0,1,0,0,0,false,false,true,-106.869995,539.79,17.01,-0.0047393283,0.0007040209,0.9896317,0.14354794,-202.511,318.381,8.321,0.00021,-0.00010999999,1.66881
65.941666,2000,0,91.24,0.000002697398,0.000002697398,0.000002697398,0.99999994,0,0,0,0,0,0,0,1,0,0,0,false,false,true,-108.56,542.44,17.01,-0.004744723,0.0006716521,0.9906058,0.13666417,-202.891,315.521,8.321,0.00021,-0.00010999999,1.66411
65.95,2000,0,91.24,0.000002697398,0.000002697398,0.000002697398,0.99999994,0,0,0,0,0,0,0,1,0,0,0,false,false,true,-110.25,545.07,17.01,-0.0047501177,0.00063928333,0.9915297,0.1297912,-203.231,312.671,8.321,0.00021,-0.00010999999,1.65931
65.958336,2000,0,91.24,0.000002697398,0.000002697398,0.000002697398,0.99999994,0,0,0,0,0,0,0,1,0,0,0,false,false,true,-111.939995,547.68,17.01,-0.004755513,0.0006069146,0.99240315,0.12293442,-203.531,309.831,8.321,0.00030999997,-0.00010999999,1.65441
65.96667,2000,0,91.24,0.000002697398,0.000002697398,0.000002697398,0.99999994,0,0,0,0,0,0,0,1,0,0,0,false,false,true,-113.64,550.26,17.01,-0.0047609075,0.00057454576,0.99322724,0.116088346,-203.791,307.001,8.321,0.00030999997,-0.00010999999,1.64941
65.975,2000,0,91.24,0.000002697398,0.000002697398,0.000002697398,0.99999994,0,0,0,0,0,0,0,1,0,0,0,false,false,true,-115.34,552.82,17.01,-0.004766302,0.000542177,0.99400175,0.10925853,-204.011,304.181,8.321,0.00030999997,-0.00010999999,1.64431
65.98333,2000,0,91.24,0.000002697398,0.000002697398,0.000002697398,0.99999994,0,0,0,0,0,0,0,1,0,0,0,false,false,true,-117.04,555.35,17.01,-0.004771697,0.0005098082,0.9947271,0.1024449,-204.19101,301.381,8.321,0.00030999997,-0.00010999999,1.63911
65.99167,2000,0,91.24,0.000002697398,0.000002697398,0.000002697398,0.99999994,0,0,0,0,0,0,0,1,0,0,0,false,false,true,-118.74,557.86,17.01,-0.004777092,0.00047743946,0.99540365,0.09564737,-204.33101,298.591,8.321,0.00030999997,0,1.63371
66,2000,0,91.24,0.000002697398,0.000002697398,0.000002697398,0.99999994,0,0,0,0,0,0,0,1,0,0,0,false,false,true,-120.439995,560.35,17.01,-0.0047824867,0.00044507068,0.99603146,0.08887151,-204.431,295.811,8.321,0.00030999997,0,1.62821
66.00833,2000,0,91.24,0.000002697398,0.000002697398,0.000002697398,0.99999994,0,0,0,0,0,0,0,1,0,0,0,false,false,true,-122.14,562.82,17.01,-0.0047878814,0.0004127019,0.9966115,0.08211183,-204.501,293.051,8.321,0.00040999998,0,1.62261
66.01667,2000,0,91.24,0.000002697398,0.000002697398,0.000002697398,0.99999994,0,0,0,0,0,0,0,1,0,0,0,false,false,true,-123.84,565.26,17.01,-0.0047878814,0.00038033313,0.99714375,0.07537364,-204.531,290.311,8.321,0.00040999998,0,1.61691
66.025,2000,0,91.24,0.000002697398,0.000002697398,0.000002697398,0.99999994,0,0,0,0,0,0,0,1,0,0,0,false,false,true,-125.54,567.68,17.01,-0.004787882,0.00034796438,0.9976291,0.068651736,-204.521,287.591,8.321,0.00040999998,0,1.61111
66.03333,2000,0,91.24,0.000002697398,0.000002697398,0.000002697398,0.99999994,0,0,0,0,0,0,0,1,0,0,0,false,false,true,-127.24,570.08,17.01,-0.0047878814,0.00031559556,0.99806756,0.061951395,-204.481,284.891,8.321,0.00040999998,0,1.60521
66.041664,2000,0,91.24,0.000002697398,0.000002697398,0.000002697398,0.99999994,0,0,0,0,0,0,0,1,0,0,0,false,false,true,-128.94,572.45,17.01,-0.004787881,0.00028322675,0.99845964,0.055272628,-204.401,282.211,8.321,0.00040999998,0,1.59911
66.05,2000,0,91.24,0.000002697398,0.000002697398,0.000002697398,0.99999994,0,0,0,0,0,0,0,1,0,0,0,false,false,true,-130.64,574.8,17.01,-0.0047878814,0.00025085802,0.99880576,0.048620768,-204.291,279.551,8.321,0.00040999998,0,1.5929099
66.058334,2000,0,91.24,0.000002697398,0.000002697398,0.000002697398,0.99999994,0,0,0,0,0,0,0,1,0,0,0,false,false,true,-132.34,577.13,17.01,-0.004787882,0.00021848927,0.99910647,0.041990567,-204.141,276.911,8.321,0.00040999998,0,1.58661
66.066666,2000,0,91.24,0.000002697398,0.000002697398,0.000002697398,0.99999994,0,0,0,0,0,0,0,1,0,0,0,false,false,true,-134.04,579.44,17.01,-0.004787882,0.00018612048,0.9993622,0.035387337,-203.961,274.29102,8.321,0.00040999998,0,1.58021
66.075,2000,0,91.24,0.000002697398,0.000002697398,0.000002697398,0.99999994,0,0,0,0,0,0,0,1,0,0,0,false,false,true,-135.73999,581.73,17.01,-0.004787882,0.0001537517,0.9995735,0.0288056,-203.751,271.701,8.321,0.00040999998,0,1.57371
66.083336,2000,0,91.24,0.000002697398,0.000002697398,0.000002697398,0.99999994,0,0,0,0,0,0,0,1,0,0,0,false,false,true,-137.44,583.99,17.01,-0.0047878814,0.00012138292,0.9997409,0.02225092,-203.511,269.131,8.321,0.00040999998,0,1.56711
66.09167,2000,0,91.24,0.000002697398,0.000002697398,0.000002697398,0.99999994,0,0,0,0,0,0,0,1,0,0,0,false,false,true,-139.14,586.23,17.01,-0.004787882,0.000089014145,0.9998649,0.01572322,-203.241,266.591,8.321,0.00040999998,0,1.56041
66.1,2000,0,91.24,0.000002697398,0.000002697398,0.000002697398,0.99999994,0,0,0,0,0,0,0,1,0,0,0,false,false,true,-140.83,588.45,17.01,-0.0047878814,0.00005664536,0.99994594,0.009222404,-202.94101,264.071,8.321,0.00040999998,-0.00010999999,1.55361
66.10833,2000,0,91.24,0.000002697398,0.000002697398,0.000002697398,0.99999994,0,0,0,0,0,0,0,1,0,0,0,false,false,true,-142.52,590.64996,17.01,-0.0047878814,0.000024276582,0.9999847,0.0027486486,-202.61101,261.581,8.321,0.00040999998,-0.00010999999,1.54671
66.11667,2000,0,91.24,0.000002697398,0.000002697398,0.000002697398,0.99999994,0,0,0,0,0,0,0,1,0,0,0,false,false,true,-144.20999,592.83,17.01,-0.0047878814,-0.000008092194,0.99998164,-0.0036981327,-202.251,259.121,8.321,0.00040999998,-0.00010999999,1.5397099
66.125,2000,0,91.24,0.000002697398,0.000002697398,0.000002697398,0.99999994,0,0,0,0,0,0,0,1,0,0,0,false,false,true,-145.9,594.99,17.01,-0.004787882,-0.000040460975,0.99993736,-0.010112588,-201.871,256.681,8.321,0.00040999998,-0.00010999999,1.5326099
66.13333,2000,0,91.24,0.000002697398,0.000002697398,0.000002697398,0.99999994,0,0,0,0,0,0,0,1,0,0,0,false,false,true,-147.58,597.13,17.01,-0.004787882,-0.00007282975,0.99985236,-0.016500028,-201.461,254.271,8.321,0.00030999997,-0.00010999999,1.5253099
66.14167,2000,0,91.24,0.000002697398,0.000002697398,0.000002697398,0.99999994,0,0,0,0,0,0,0,1,0,0,0,false,false,true,-149.26,599.25,17.01,-0.0047878814,-0.000105198524,0.99972725,-0.022855138,-201.031,251.891,8.321,0.00030999997,-0.00010999999,1.51791
66.15,2000,0,91.24,0.000002697398,0.000002697398,0.000002697398,0.99999994,0,0,0,0,0,0,0,1,0,0,0,false,false,true,-150.94,601.35,17.01,-0.004787882,-0.00013756732,0.99956274,-0.029177884,-200.571,249.541,8.321,0.00030999997,-0.00010999999,1.51041
66.15833,2000,0,91.24,0.000002697398,0.000002697398,0.000002697398,0.99999994,0,0,0,0,0,0,0,1,0,0,0,false,false,true,-152.61,603.43,17.01,-0.0047878814,-0.00016993607,0.99935925,-0.035468213,-200.091,247.22101,8.321,0.00021,-0.00010999999,1.50281
66.166664,2000,0,91.24,0.000002697398,0.000002697398,0.000002697398,0.99999994,0,0,0,0,0,0,0,1,0,0,0,false,false,true,-154.28,605.49,17.01,-0.004787882,-0.00020230487,0.99911755,-0.04172622,-199.591,244.931,8.321,0.00021,-0.00010999999,1.49511
66.175,2000,0,91.24,0.000002697398,0.000002697398,0.000002697398,0.99999994,0,0,0,0,0,0,0,1,0,0,0,false,false,true,-155.94,607.52997,17.01,-0.0047878814,-0.00023467363,0.99883807,-0.047951814,-199.061,242.671,8.321,0.00010999999,-0.00010999999,1.4873099
66.183334,2000,0,91.24,0.000002697398,0.000002697398,0.000002697398,0.99999994,0,0,0,0,0,0,0,1,0,0,0,false,false,true,-157.59999,609.55,17.01,-0.0047878814,-0.0002670424,0.9985218,-0.05413969,-198.511,240.451,8.321,0.00010999999,0,1.4794099
66.191666,2000,0,91.24,0.000002697398,0.000002697398,0.000002697398,0.99999994,0,0,0,0,0,0,0,1,0,0,0,false,false,true,-159.25,611.55,17.01,-0.004787882,-0.00029941121,0.998169,-0.060295153,-197.94101,238.261,8.321,0,0,1.4714099
66.2,2000,0,91.24,0.000002697398,0.000002697398,0.000002697398,0.99999994,0,0,0,0,0,0,0,1,0,0,0,false,false,true,-160.9,613.54,17.01,-0.0047878814,-0.00032638517,0.9977806,-0.06641289,-197.36101,236.101,8.321,0,0,1.46331
66.208336,2000,0,91.24,0.000002697398,0.000002697398,0.000002697398,0.99999994,0,0,0,0,0,0,0,1,0,0,0,false,false,true,-162.54,615.51,17.01,-0.0047878814,-0.00035335915,0.9973573,-0.07249287,-196.761,233.97101,8.321,0,0,1.45511
66.21667,2000,0,91.24,0.000002697398,0.000002697398,0.000002697398,0.99999994,0,0,0,0,0,0,0,1,0,0,0,false,false,true,-164.18,617.45996,17.01,-0.0047878814,-0.00038033313,0.9968993,-0.07854043,-196.141,231.881,8.321,0,0,1.44681
66.225,2000,0,91.24,0.000002697398,0.000002697398,0.000002697398,0.99999994,0,0,0,0,0,0,0,1,0,0,0,false,false,true,-165.81,619.39,17.01,-0.0047878814,-0.00040730712,0.99640757,-0.08455028,-195.501,229.821,8.321,0,0,1.4384099
66.23333,2000,0,91.24,0.000002697398,0.000002697398,0.000002697398,0.99999994,0,0,0,0,0,0,0,1,0,0,0,false,false,true,-167.44,621.31,17.01,-0.004787882,-0.00043428113,0.9958828,-0.09052233,-194.851,227.791,8.321,0,0,1.42991
66.24167,2000,0,91.24,0.000002697398,0.000002697398,0.000002697398,0.99999994,0,0,0,0,0,0,0,1,0,0,0,false,false,true,-169.06,623.20996,17.01,-0.0047878814,-0.00046125508,0.9953255,-0.09645664,-194.19101,225.801,8.321,0,0.00010999999,1.42131
66.25,2000,0,91.24,0.000002697398,0.000002697398,0.000002697398,0.99999994,0,0,0,0,0,0,0,1,0,0,0,false,false,true,-170.68,625.08997,17.01,-0.0047824862,-0.000488229,0.9947369,-0.10234775,-193.511,223.841,8.321,0,0.00021,1.4126099
66.25833,2000,0,91.24,0.000002697398,0.000002697398,0.000002697398,0.99999994,0,0,0,0,0,0,0,1,0,0,0,false,false,true,-172.29,626.95996,17.01,-0.0047770916,-0.00051520293,0.99411726,-0.10820114,-192.821,221.921,8.321,0,0.00021,1.40381
66.26667,2000,0,91.24,0.000002697398,0.000002697398,0.000002697398,0.99999994,0,0,0,0,0,0,0,1,0,0,0,false,false,true,-173.9,628.81,17.01,-0.0047716964,-0.00054217695,0.9934677,-0.11401133,-192.121,220.031,8.321,0.00010999999,0.00021,1.39481
66.275,2000,0,91.24,0.000002697398,0.000002697398,0.000002697398,0.99999994,0,0,0,0,0,0,0,1,0,0,0,false,false,true,-175.5,630.64,17.01,-0.0047663017,-0.0005691509,0.99278826,-0.119783804,-191.411,218.171,8.321,0.00010999999,0.00010999999,1.38571
66.28333,2000,0,91.24,0.000002697398,0.000002697398,0.000002697398,0.99999994,0,0,0,0,0,0,0,1,0,0,0,false,false,true,-177.09999,632.45996,17.01,-0.004760908,-0.000596125,0.99208033,-0.1255131,-190.69101,216.351,8.321,0.00010999999,0.00010999999,1.37651
66.291664,2000,0,91.24,0.000002697398,0.000002697398,0.000002697398,0.99999994,0,0,0,0,0,0,0,1,0,0,0,false,false,true,-178.69,634.26,17.01,-0.0047555123,-0.00062309887,0.9913443,-0.13119923,-189.961,214.561,8.321,0.00021,0.00010999999,1.36721
66.3,2000,0,91.24,0.000002697398,0.000002697398,0.000002697398,0.99999994,0,0,0,0,0,0,0,1,0,0,0,false,false,true,-180.26999,636.05,17.01,-0.004750118,-0.000650073,0.9905812,-0.13684222,-189.231,212.811,8.321,0.00021,0,1.35781
66.308334,2000,0,91.24,0.000002697398,0.000002697398,0.000002697398,0.99999994,0,0,0,0,0,0,0,1,0,0,0,false,false,true,-181.84999,637.82,17.01,-0.0047447234,-0.00067704695,0.9897915,-0.14244206,-188.491,211.091,8.321,0.00021,0,1.34831
66.316666,2000,0,91.24,0.000002697398,0.000002697398,0.000002697398,0.99999994,0,0,0,0,0,0,0,1,0,0,0,false,false,true,-183.42,639.57996,17.01,-0.0047393283,-0.0007040209,0.9889759,-0.14799869,-187.741,209.411,8.321,0.00021,0,1.33871
66.325,2000,0,91.24,0.000002697398,0.000002697398,0.000002697398,0.99999994,0,0,0,0,0,0,0,1,0,0,0,false,false,true,-184.98,641.32996,17.01,-0.0047339336,-0.00073099486,0.9881351,-0.15351221,-186.991,207.761,8.321,0.00021,0,1.32901
66.333336,2000,0,91.24,0.000002697398,0.000002697398,0.000002697398,0.99999994,0,0,0,0,0,0,0,1,0,0,0,false,false,true,-186.54,643.06,17.01,-0.0047285384,-0.00075796887,0.9872697,-0.15898253,-186.241,206.151,8.321,0.00021,0,1.31911
66.34167,2000,0,91.24,0.000002697398,0.000002697398,0.000002697398,0.99999994,0,0,0,0,0,0,0,1,0,0,0,false,false,true,-188.09,644.77997,17.01,-0.0047231438,-0.0007849428,0.98638135,-0.16440435,-185.481,204.571,8.321,0.00021,0,1.3091099
66.35,2000,0,91.24,0.000002697398,0.000002697398,0.000002697398,0.99999994,0,0,0,0,0,0,0,1,0,0,0,false,false,true,-189.64,646.48,17.01,-0.004717749,-0.00081191683,0.9854698,-0.16978295,-184.72101,203.021,8.321,0.00021,0,1.29901
66.35833,2000,0,91.24,0.000002697398,0.000002697398,0.000002697398,0.99999994,0,0,0,0,0,0,0,1,0,0,0,false,false,true,-191.18,648.17,17.01,-0.0047123544,-0.0008388908,0.98453665,-0.17511305,-183.951,201.501,8.321,0.00021,0,1.28921
66.36667,2000,0,91.24,0.000002697398,0.000002697398,0.000002697398,0.99999994,0,0,0,0,0,0,0,1,0,0,0,false,false,true,-192.70999,649.85,17.01,-0.00470696,-0.00086586486,0.98358166,-0.18039997,-183.171,200.001,8.321,0.00021,0,1.2797099
66.375,2000,0,91.24,0.000002697398,0.000002697398,0.000002697398,0.99999994,0,0,0,0,0,0,0,1,0,0,0,false,false,true,-194.23999,651.51996,17.01,-0.004701565,-0.0008928388,0.98260546,-0.18564376,-182.381,198.531,8.321,0.00021,0,1.27051
66.38333,2000,0,91.24,0.000002697398,0.000002697398,0.000002697398,0.99999994,0,0,0,0,0,0,0,1,0,0,0,false,false,true,-195.76,653.17,17.01,-0.0046961694,-0.00091981265,0.9816085,-0.19084431,-181.591,197.08101,8.321,0.00021,0,1.26151
66.39167,2000,0,91.24,0.000002697398,0.000002697398,0.000002697398,0.99999994,0,0,0,0,0,0,0,1,0,0,0,false,false,true,-197.26999,654.81,17.01,-0.0046907747,-0.0009467866,0.9805917,-0.19600178,-180.791,195.661,8.321,0.00021,-0.00010999999,1.25281
66.4,2000,0,91.24,0.000002697398,0.000002697398,0.000002697398,0.99999994,0,0,0,0,0,0,0,1,0,0,0,false,false,true,-198.78,656.44,17.01,-0.004685381,-0.0009737608,0.9795557,-0.20111607,-179.981,194.271,8.321,0.00010999999,-0.00010999999,1.24431
66.40833,2000,0,91.24,0.000002697398,0.000002697398,0.000002697398,0.99999994,0,0,0,0,0,0,0,1,0,0,0,false,false,true,-200.28,658.06,17.01,-0.004679986,-0.0010007347,0.9784997,-0.20619263,-179.171,192.901,8.321,0,-0.00010999999,1.23611
66.416664,2000,0,91.24,0.000002697398,0.000002697398,0.000002697398,0.99999994,0,0,0,0,0,0,0,1,0,0,0,false,false,true,-201.76999,659.67,17.01,-0.0046745907,-0.0010223138,0.9774243,-0.21123135,-178.351,191.561,8.321,0,-0.00010999999,1.22811
66.425,2000,0,91.24,0.000002697398,0.000002697398,0.000002697398,0.99999994,0,0,0,0,0,0,0,1,0,0,0,false,false,true,-203.26,661.26996,17.01,-0.004669196,-0.001043893,0.97633016,-0.21623236,-177.531,190.241,8.321,0,-0.00010999999,1.22031
66.433334,2000,0,91.24,0.000002697398,0.000002697398,0.000002697398,0.99999994,0,0,0,0,0,0,0,1,0,0,0,false,false,true,-204.73999,662.86,17.01,-0.004663801,-0.001065472,0.9752176,-0.22119555,-176.711,188.951,8.321,0,-0.00010999999,1.21281
66.441666,2000,0,91.24,0.000002697398,0.000002697398,0.000002697398,0.99999994,0,0,0,0,0,0,0,1,0,0,0,false,false,true,-206.20999,664.43,17.01,-0.004658406,-0.0010870514,0.9740874,-0.22612102,-175.881,187.69101,8.321,0,-0.00010999999,1.20551
66.45,2000,0,91.24,0.000002697398,0.000002697398,0.000002697398,0.99999994,0,0,0,0,0,0,0,1,0,0,0,false,false,true,-207.68,665.99,17.01,-0.0046530114,-0.0011086306,0.97293985,-0.23100875,-175.05101,186.451,8.321,0,-0.00010999999,1.19841
66.458336,2000,0,91.24,0.000002697398,0.000002697398,0.000002697398,0.99999994,0,0,0,0,0,0,0,1,0,0,0,false,false,true,-209.14,667.54,17.01,-0.0046476168,-0.0011302098,0.9717742,-0.23586407,-174.22101,185.241,8.321,0,-0.00010999999,1.19151
66.46667,2000,0,91.24,0.000002697398,0.000002697398,0.000002697398,0.99999994,0,0,0,0,0,0,0,1,0,0,0,false,false,true,-210.59,669.07996,17.01,-0.0046422225,-0.0011517891,0.97059095,-0.24068707,-173.391,184.05101,8.321,0.00010999999,-0.00010999999,1.18481
66.475,2000,0,91.24,0.000002697398,0.000002697398,0.000002697398,0.99999994,0,0,0,0,0,0,0,1,0,0,0,false,false,true,-212.03,670.61,17.01,-0.004636827,-0.0011733681,0.9693904,-0.24547765,-172.561,182.891,8.321,0.00010999999,-0.00010999999,1.17831
66.48333,2000,0,91.24,0.000002697398,0.000002697398,0.000002697398,0.99999994,0,0,0,0,0,0,0,1,0,0,0,false,false,true,-213.47,672.13,17.01,-0.0046314322,-0.0011949473,0.968173,-0.2502359,-171.731,181.761,8.321,0.00010999999,-0.00010999999,1.17201
66.49167,2000,0,91.24,0.000002697398,0.000002697398,0.000002697398,0.99999994,0,0,0,0,0,0,0,1,0,0,0,false,false,true,-214.9,673.64,17.01,-0.004626037,-0.0012165264,0.96693915,-0.2549617,-170.91101,180.651,8.321,0.00021,-0.00010999999,1.16591
66.5,2000,0,91.24,0.000002697398,0.000002697398,0.000002697398,0.99999994,0,0,0,0,0,0,0,1,0,0,0,false,false,true,-216.31999,675.14996,17.01,-0.004620643,-0.0012381057,0.9656895,-0.25965524,-170.091,179.571,8.321,0.00021,-0.00010999999,1.16001
66.50833,2000,0,91.24,0.000002697398,0.000002697398,0.000002697398,0.99999994,0,0,0,0,0,0,0,1,0,0,0,false,false,true,-217.73999,676.64996,17.01,-0.004615248,-0.0012596849,0.96442264,-0.26432174,-169.271,178.511,8.321,0.00021,-0.00010999999,1.15431
66.51667,2000,0,91.24,0.000002697398,0.000002697398,0.000002697398,0.99999994,0,0,0,0,0,0,0,1,0,0,0,false,false,true,-219.15,678.14,17.01,-0.004609853,-0.001281264,0.96314055,-0.26895586,-168.461,177.481,8.321,0.00021,-0.00010999999,1.14871
66.525,2000,0,91.24,0.000002697398,0.000002697398,0.000002697398,0.99999994,0,0,0,0,0,0,0,1,0,0,0,false,false,true,-220.54999,679.62,17.01,-0.0046044583,-0.0013028432,0.9618421,-0.27356306,-167.651,176.481,8.321,0.00021,-0.00010999999,1.14331
66.53333,2000,0,91.24,0.000002697398,0.000002697398,0.000002697398,0.99999994,0,0,0,0,0,0,0,1,0,0,0,false,false,true,-221.95,681.08997,17.01,-0.004599063,-0.0013244223,0.96052754,-0.27814323,-166.851,175.501,8.321,0.00021,-0.00010999999,1.13811
