time,ball_loc_x,ball_loc_y,ball_loc_z,ball_rot_x,ball_rot_y,ball_rot_z,ball_rot_w,ball_vel_x,ball_vel_y,ball_vel_z,ball_ang_x,ball_ang_y,ball_ang_z,player0_throttle,player0_steer,player0_pitch,player0_yaw,player0_roll,player0_jump,player0_boost,player0_handbrake,player0_loc_x,player0_loc_y,player0_loc_z,player0_rot_x,player0_rot_y,player0_rot_z,player0_rot_w,player0_vel_x,player0_vel_y,player0_vel_z,player0_ang_x,player0_ang_y,player0_ang_z
110.933334,2000,0,91.24,0.000002697398,0.000002697398,0.000002697398,0.99999994,0,0,0,0,0,0,0,0,0,0,0,false,false,false,0,0.14,17.01,-0.00336905,0.0033798397,0.7071014,0.7070959,0,0.011,8.321,-0.00051,0,0
110.941666,2000,0,73,0.000002697398,0.000002697398,0.000002697398,0.99999994,0,0,0,0,0,0,0.8976378,0,0,0,0,false,false,false,0,0,16.94,0.0000026973983,0.0000026973983,0.70710677,0.70710677,0,0,2.041,-0.050809998,0,0
110.95,2000,0,87.6,0.000002697398,0.000002697398,0.000002697398,0.99999994,0,0,0,0,0,0,0.8976378,0,0,0,0,false,false,false,0,0,16.89,-0.00014835689,0.00015375168,0.7071067,0.7071067,0,11.961,3.8809998,-0.085609995,0,0
110.958336,2000,0,90.52,0.000002697398,0.000002697398,0.000002697398,0.99999994,0,0,0,0,0,0,0.8976378,0,0,0,0,false,false,false,0,0.099999994,16.85,-0.00040191234,0.00040730715,0.70710653,0.70710677,0,23.831,5.481,-0.107209995,0,0
110.96667,2000,0,91.1,0.000002697398,0.000002697398,0.000002697398,0.99999994,0,0,0,0,0,0,0.8976378,0,0,0,0,false,false,false,0,0.29999998,16.83,-0.00072020525,0.00072560005,0.7071067,0.707106,0,35.611,6.791,-0.11630999,0,0
110.975,2000,0,91.22,0.000002697398,0.000002697398,0.000002697398,0.99999994,0,0,0,0,0,0,0.8976378,0,0,0,0,false,false,false,0,0.59999996,16.82,-0.0010654721,0.001070867,0.70710516,0.7071067,0,47.301,7.7409997,-0.114609994,0,0
110.98333,2000,0,91.24,0.000002697398,0.000002697398,0.000002697398,0.99999994,0,0,0,0,0,0,0.8976378,0,0,0,0,false,false,false,0,0.98999995,16.82,-0.0014053443,0.0014107391,0.7071067,0.70710397,0,58.900997,8.431,-0.10651,0,0
110.99167,2000,0,91.24,0.000002697398,0.000002697398,0.000002697398,0.99999994,0,0,0,0,0,0,0.8976378,0,0,0,0,false,false,false,0,1.48,16.82,-0.0017182427,0.0017236375,0.707108,0.70710135,0,70.410995,8.9210005,-0.094909996,0,0
111,2000,0,91.24,0.000002697398,0.000002697398,0.000002697398,0.99999994,0,0,0,0,0,0,0.8976378,0,0,0,0,false,false,false,0,2.07,16.83,-0.001998772,0.0020041666,0.70710653,0.7071013,0,81.831,9.281,-0.08200999,0,0
111.00833,2000,0,91.24,0.000002697398,0.000002697398,0.000002697398,0.99999994,0,0,0,0,0,0,0.8976378,0,0,0,0,false,false,false,0,2.75,16.84,-0.0022415377,0.0022469326,0.70710504,0.7071013,0,93.160995,9.521,-0.06911,0,0
111.01667,2000,0,91.24,0.000002697398,0.000002697398,0.000002697398,0.99999994,0,0,0,0,0,0,0.8976378,0,0,0,0,false,false,false,0,3.53,16.85,-0.00244654,0.0024519349,0.70710367,0.7071013,0,104.410995,9.681,-0.056909997,0,0
111.025,2000,0,91.24,0.000002697398,0.000002697398,0.000002697398,0.99999994,0,0,0,0,0,0,0.8976378,0,0,0,0,false,false,false,0,4.4,16.859999,-0.0026137787,0.0026191734,0.7071025,0.7071013,0,115.571,9.771,-0.045909997,0,0
111.03333,2000,0,91.24,0.000002697398,0.000002697398,0.000002697398,0.99999994,0,0,0,0,0,0,0.8976378,0,0,0,0,false,false,false,0,5.3599997,16.869999,-0.0027486486,0.0027540433,0.70710146,0.7071013,0,126.65099,9.821,-0.036409996,0,0
111.041664,2000,0,91.24,0.000002697398,0.000002697398,0.000002697398,0.99999994,0,0,0,0,0,0,0.8976378,0,0,0,0,false,false,false,0,6.42,16.88,-0.0028565445,0.0028619394,0.70710063,0.7071013,0,137.641,9.841001,-0.02841,0,0
111.05,2000,0,91.24,0.000002697398,0.000002697398,0.000002697398,0.99999994,0,0,0,0,0,0,0.8976378,0,0,0,0,false,false,false,0,7.5699997,16.89,-0.0029428613,0.002948256,0.7071013,0.7070999,0,148.55101,9.821,-0.02221,0,0
111.058334,2000,0,91.24,0.000002697398,0.000002697398,0.000002697398,0.99999994,0,0,0,0,0,0,0.8976378,0,0,0,0,false,false,false,0,8.809999,16.9,-0.003007599,0.0030129936,0.7070993,0.7071013,0,159.371,9.761001,-0.01771,0,0
111.066666,2000,0,91.24,0.000002697398,0.000002697398,0.000002697398,0.99999994,0,0,0,0,0,0,0.8976378,0,0,0,0,false,false,false,0,10.139999,16.91,-0.0030615467,0.0030669416,0.7071013,0.7070989,0,170.11101,9.681,-0.0143099995,0,0
111.075,2000,0,91.24,0.000002697398,0.000002697398,0.000002697398,0.99999994,0,0,0,0,0,0,0.8976378,0,0,0,0,false,false,false,0,11.559999,16.92,-0.0031047051,0.0031101,0.7070985,0.7071013,0,180.771,9.591001,-0.011709999,0,0
111.083336,2000,0,91.24,0.000002697398,0.000002697398,0.000002697398,0.99999994,0,0,0,0,0,0,0.8976378,0,0,0,0,false,false,false,0,13.07,16.93,-0.003137074,0.0031424686,0.7070959,0.7071036,0,191.341,9.491,-0.009709999,0,0
111.09167,2000,0,91.24,0.000002697398,0.000002697398,0.000002697398,0.99999994,0,0,0,0,0,0,0.8976378,0,0,0,0,false,false,false,0,14.66,16.94,-0.003164048,0.003169443,0.707096,0.7071034,0,201.83101,9.391,-0.00821,0,0
111.1,2000,0,91.24,0.000002697398,0.000002697398,0.000002697398,0.99999994,0,0,0,0,0,0,0.8976378,0,0,0,0,false,false,false,0,16.34,16.949999,-0.003185627,0.003191022,0.7070959,0.70710313,0,212.241,9.281,-0.00701,0,0
111.10833,2000,0,91.24,0.000002697398,0.000002697398,0.000002697398,0.99999994,0,0,0,0,0,0,0.8976378,0,0,0,0,false,false,false,0,18.109999,16.96,-0.0032072063,0.0032126012,0.7070959,0.70710295,0,222.571,9.1710005,-0.00611,0,0
111.11667,2000,0,91.24,0.000002697398,0.000002697398,0.000002697398,0.99999994,0,0,0,0,0,0,0.8976378,0,0,0,0,false,false,false,0,19.96,16.97,-0.0032233908,0.0032287855,0.7070959,0.70710284,0,232.821,9.061,-0.00531,0,0
111.125,2000,0,91.24,0.000002697398,0.000002697398,0.000002697398,0.99999994,0,0,0,0,0,0,0.8976378,0,0,0,0,false,false,false,0,21.9,16.98,-0.003239575,0.0032449698,0.7070959,0.70710266,0,242.991,8.951,-0.00461,0,0
111.13333,2000,0,91.24,0.000002697398,0.000002697398,0.000002697398,0.99999994,0,0,0,0,0,0,0.8976378,0,0,0,0,false,false,false,0,23.92,16.99,-0.0032557594,0.0032611543,0.7070959,0.70710254,0,253.091,8.841001,-0.00401,0,0
111.14167,2000,0,91.24,0.000002697398,0.000002697398,0.000002697398,0.99999994,0,0,0,0,0,0,0.8976378,0,0,0,0,false,false,false,0,26.029999,17,-0.003266549,0.003271944,0.7070959,0.7071024,0,263.111,8.731,-0.00341,0,0
111.15,2000,0,91.24,0.000002697398,0.000002697398,0.000002697398,0.99999994,0,0,0,0,0,0,0.8976378,0,0,0,0,false,false,false,0,28.22,17.01,-0.0032773386,0.0032827335,0.7070959,0.7071023,0,273.051,8.621,-0.00301,0,0
111.15833,2000,0,91.24,0.000002697398,0.000002697398,0.000002697398,0.99999994,0,0,0,0,0,0,0.8976378,0,0,0,0,false,false,false,0,30.5,17.01,-0.0032881282,0.003293523,0.7070959,0.70710224,0,282.911,8.511001,-0.00261,0,0
111.166664,2000,0,91.24,0.000002697398,0.000002697398,0.000002697398,0.99999994,0,0,0,0,0,0,0.8976378,0,0,0,0,false,false,false,0,32.86,17.01,-0.0032935233,0.003298918,0.707096,0.7071022,0,292.701,8.441,-0.00221,0,0
111.175,2000,0,91.24,0.000002697398,0.000002697398,0.000002697398,0.99999994,0,0,0,0,0,0,0.8976378,0,0,0,0,false,false,false,0,35.3,17.01,-0.0032989178,0.0033043127,0.7070959,0.7071021,0,302.411,8.391,-0.00201,0,0
111.183334,2000,0,91.24,0.000002697398,0.000002697398,0.000002697398,0.99999994,0,0,0,0,0,0,0.8976378,0,0,0,0,false,false,false,0,37.82,17.01,-0.0033043127,0.0033097074,0.7070959,0.70710206,0,312.051,8.361,-0.0018099999,0,0
111.191666,2000,0,91.24,0.000002697398,0.000002697398,0.000002697398,0.99999994,0,0,0,0,0,0,0.8976378,0,0,0,0,false,false,false,0,40.42,17.01,-0.0033097074,0.0033151023,0.7070959,0.707102,0,321.611,8.341001,-0.0016099999,0,0
111.2,2000,0,91.24,0.000002697398,0.000002697398,0.000002697398,0.99999994,0,0,0,0,0,0,0.8976378,0,0,0,0,false,false,false,0,43.1,17.01,-0.0033151023,0.003320497,0.7070959,0.707102,0,331.101,8.331,-0.0014099999,0,0
111.208336,2000,0,91.24,0.000002697398,0.000002697398,0.000002697398,0.99999994,0,0,0,0,0,0,0.8976378,0,0,0,0,false,false,false,0,45.86,17.01,-0.0033204972,0.0033258921,0.707096,0.70710194,0,340.521,8.321,-0.0012099999,0,0
111.21667,2000,0,91.24,0.000002697398,0.000002697398,0.000002697398,0.99999994,0,0,0,0,0,0,0.8976378,0,0,0,0,false,false,false,0,48.7,17.01,-0.003325892,0.0033312866,0.7070959,0.7071019,0,349.861,8.321,-0.0010099999,0,0
111.225,2000,0,91.24,0.000002697398,0.000002697398,0.000002697398,0.99999994,0,0,0,0,0,0,0.8976378,0,0,0,0,false,false,false,0,51.62,17.01,-0.0033312866,0.0033366815,0.7070959,0.7071018,0,359.131,8.321,-0.00091,0,0
111.23333,2000,0,91.24,0.000002697398,0.000002697398,0.000002697398,0.99999994,0,0,0,0,0,0,0.8976378,0,0,0,0,false,false,false,0,54.61,17.01,-0.0033312866,0.0033420762,0.7070959,0.7071018,0,368.331,8.321,-0.00071,0,0
111.24167,2000,0,91.24,0.000002697398,0.000002697398,0.000002697398,0.99999994,0,0,0,0,0,0,0.8976378,0,0,0,0,false,false,false,0,57.68,17.01,-0.0033312866,0.0033420762,0.7070959,0.7071018,0,377.461,8.321,-0.00061,0,0
111.25,2000,0,91.24,0.000002697398,0.000002697398,0.000002697398,0.99999994,0,0,0,0,0,0,0.8976378,0,0,0,0,false,false,false,0,60.829998,17.01,-0.0033312866,0.0033420762,0.7070959,0.7071018,0,386.521,8.321,-0.00051,0,0
111.25833,2000,0,91.24,0.000002697398,0.000002697398,0.000002697398,0.99999994,0,0,0,0,0,0,0.8976378,0,0,0,0,false,false,false,0,64.049995,17.01,-0.0033312866,0.0033420762,0.7070959,0.7071018,0,395.511,8.321,-0.00051,0,0
111.26667,2000,0,91.24,0.000002697398,0.000002697398,0.000002697398,0.99999994,0,0,0,0,0,0,0.8976378,0,0,0,0,false,false,false,0,67.35,17.01,-0.0033312866,0.0033420762,0.7070959,0.7071018,0,404.431,8.321,-0.00051,0,0
111.275,2000,0,91.24,0.000002697398,0.000002697398,0.000002697398,0.99999994,0,0,0,0,0,0,0.8976378,0,0,0,0,false,false,false,0,70.72,17.01,-0.0033312866,0.0033420762,0.7070959,0.7071018,0,413.281,8.321,-0.00051,0,0
111.28333,2000,0,91.24,0.000002697398,0.000002697398,0.000002697398,0.99999994,0,0,0,0,0,0,0.8976378,0,0,0,0,false,false,false,0,74.159996,17.01,-0.0033312866,0.0033420762,0.7070959,0.7071018,0,422.061,8.321,-0.00051,0,0
111.291664,2000,0,91.24,0.000002697398,0.000002697398,0.000002697398,0.99999994,0,0,0,0,0,0,0.8976378,0,0,0,0,false,false,false,0,77.68,17.01,-0.0033312866,0.0033420762,0.7070959,0.7071018,0,430.781,8.321,-0.00051,0,0
111.3,2000,0,91.24,0.000002697398,0.000002697398,0.000002697398,0.99999994,0,0,0,0,0,0,0.8976378,0,0,0,0,false,false,false,0,81.27,17.01,-0.0033312866,0.0033420762,0.7070959,0.7071018,0,439.431,8.321,-0.00051,0,0
111.308334,2000,0,91.24,0.000002697398,0.000002697398,0.000002697398,0.99999994,0,0,0,0,0,0,0.8976378,0,0,0,0,false,false,false,0,84.93,17.01,-0.0033312866,0.0033420762,0.7070959,0.7071018,0,448.011,8.321,-0.00051,0,0
111.316666,2000,0,91.24,0.000002697398,0.000002697398,0.000002697398,0.99999994,0,0,0,0,0,0,0.8976378,0,0,0,0,false,false,false,0,88.659996,17.01,-0.0033312866,0.0033420762,0.7070959,0.7071018,0,456.531,8.321,-0.00051,0,0
111.325,2000,0,91.24,0.000002697398,0.000002697398,0.000002697398,0.99999994,0,0,0,0,0,0,0.8976378,0,0,0,0,false,false,false,0,92.46,17.01,-0.0033312866,0.0033420762,0.7070959,0.7071018,0,464.981,8.321,-0.00051,0,0
111.333336,2000,0,91.24,0.000002697398,0.000002697398,0.000002697398,0.99999994,0,0,0,0,0,0,0.8976378,0,0,0,0,false,false,false,0,96.329994,17.01,-0.0033312866,0.0033420762,0.7070959,0.7071018,0,473.371,8.321,-0.00051,0,0
111.34167,2000,0,91.24,0.000002697398,0.000002697398,0.000002697398,0.99999994,0,0,0,0,0,0,0.8976378,0,0,0,0,false,false,false,0,100.27,17.01,-0.0033312866,0.0033420762,0.7070959,0.7071018,0,481.691,8.321,-0.00051,0,0
111.35,2000,0,91.24,0.000002697398,0.000002697398,0.000002697398,0.99999994,0,0,0,0,0,0,0.8976378,0,0,0,0,false,false,false,0,104.28,17.01,-0.0033312866,0.0033420762,0.7070959,0.7071018,0,489.951,8.321,-0.00051,0,0
111.35833,2000,0,91.24,0.000002697398,0.000002697398,0.000002697398,0.99999994,0,0,0,0,0,0,0.8976378,0,0,0,0,false,false,false,0,108.36,17.01,-0.0033312866,0.0033420762,0.7070959,0.7071018,0,498.141,8.321,-0.00051,0,0
111.36667,2000,0,91.24,0.000002697398,0.000002697398,0.000002697398,0.99999994,0,0,0,0,0,0,0.8976378,0,0,0,0,false,false,false,0,112.509995,17.01,-0.0033312866,0.0033420762,0.7070959,0.7071018,0,506.271,8.321,-0.00051,0,0
111.375,2000,0,91.24,0.000002697398,0.000002697398,0.000002697398,0.99999994,0,0,0,0,0,0,0.8976378,0,0,0,0,false,false,false,0,116.729996,17.01,-0.0033312866,0.0033420762,0.7070959,0.7071018,0,514.34094,8.321,-0.00061,0,0
111.38333,2000,0,91.24,0.000002697398,0.000002697398,0.000002697398,0.99999994,0,0,0,0,0,0,0.8976378,0,0,0,0,false,false,false,0,121.02,17.01,-0.0033312866,0.0033420762,0.7070959,0.7071018,0,522.35095,8.321,-0.00061,0,0
111.39167,2000,0,91.24,0.000002697398,0.000002697398,0.000002697398,0.99999994,0,0,0,0,0,0,0.8976378,0,0,0,0,false,false,false,0,125.369995,17.01,-0.0033312866,0.0033420762,0.7070959,0.7071018,0,530.30096,8.321,-0.00061,0,0
111.4,2000,0,91.24,0.000002697398,0.000002697398,0.000002697398,0.99999994,0,0,0,0,0,0,0.8976378,0,0,0,0,false,false,false,0,129.79,17.01,-0.0033312866,0.0033420762,0.7070959,0.7071018,0,538.18097,8.321,-0.00061,0,0
111.40833,2000,0,91.24,0.000002697398,0.000002697398,0.000002697398,0.99999994,0,0,0,0,0,0,0.8976378,0,0,0,0,false,false,false,0,134.27,17.01,-0.0033312866,0.0033420762,0.7070959,0.7071018,0,546.001,8.321,-0.00061,0,0
111.416664,2000,0,91.24,0.000002697398,0.000002697398,0.000002697398,0.99999994,0,0,0,0,0,0,0.8976378,0,0,0,0,false,false,false,0,138.81999,17.01,-0.0033312866,0.0033420762,0.7070959,0.7071018,0,553.761,8.321,-0.00061,0,0
111.425,2000,0,91.24,0.000002697398,0.000002697398,0.000002697398,0.99999994,0,0,0,0,0,0,0.8976378,0,0,0,0,false,false,false,0,143.43,17.01,-0.0033312866,0.0033420762,0.7070959,0.7071018,0,561.46094,8.321,-0.00061,0,0
111.433334,2000,0,91.24,0.000002697398,0.000002697398,0.000002697398,0.99999994,0,0,0,0,0,0,0.8976378,0,0,0,0,false,false,false,0,148.11,17.01,-0.0033312866,0.0033420762,0.7070959,0.7071018,0,569.10095,8.321,-0.00061,0,0
111.441666,2000,0,91.24,0.000002697398,0.000002697398,0.000002697398,0.99999994,0,0,0,0,0,0,0.8976378,0,0,0,0,false,false,false,0,152.84999,17.01,-0.0033312866,0.0033420762,0.7070959,0.7071018,0,576.691,8.321,-0.00061,0,0
111.45,2000,0,91.24,0.000002697398,0.000002697398,0.000002697398,0.99999994,0,0,0,0,0,0,0.8976378,0,0,0,0,false,false,false,0,157.66,17.01,-0.0033312866,0.0033420762,0.7070959,0.7071018,0,584.22095,8.321,-0.00061,0,0
111.458336,2000,0,91.24,0.000002697398,0.000002697398,0.000002697398,0.99999994,0,0,0,0,0,0,0.8976378,0,0,0,0,false,false,false,0,162.53,17.01,-0.0033312866,0.0033420762,0.7070959,0.7071018,0,591.691,8.321,-0.00061,0,0
111.46667,2000,0,91.24,0.000002697398,0.000002697398,0.000002697398,0.99999994,0,0,0,0,0,0,0.8976378,0,0,0,0,false,false,false,0,167.45999,17.01,-0.0033312866,0.0033420762,0.7070959,0.7071018,0,599.10095,8.321,-0.00061,0,0
111.475,2000,0,91.24,0.000002697398,0.000002697398,0.000002697398,0.99999994,0,0,0,0,0,0,0.8976378,0,0,0,0,false,false,false,0,172.45,17.01,-0.0033312866,0.0033420762,0.7070959,0.7071018,0,606.46094,8.321,-0.00071,0,0
111.48333,2000,0,91.24,0.000002697398,0.000002697398,0.000002697398,0.99999994,0,0,0,0,0,0,0.8976378,0,0,0,0,false,false,false,0,177.5,17.01,-0.0033312866,0.0033420762,0.7070959,0.7071018,0,613.761,8.321,-0.00071,0,0
111.49167,2000,0,91.24,0.000002697398,0.000002697398,0.000002697398,0.99999994,0,0,0,0,0,0,0.8976378,0,0,0,0,false,false,false,0,182.61,17.01,-0.0033312866,0.0033420762,0.7070959,0.7071018,0,621.001,8.321,-0.00071,0,0
111.5,2000,0,91.24,0.000002697398,0.000002697398,0.000002697398,0.99999994,0,0,0,0,0,0,0.8976378,0,0,0,0,false,false,false,0,187.79,17.01,-0.0033312866,0.0033420762,0.7070959,0.7071018,0,628.191,8.321,-0.00071,0,0
111.50833,2000,0,91.24,0.000002697398,0.000002697398,0.000002697398,0.99999994,0,0,0,0,0,0,0.8976378,0,0,0,0,false,false,false,0,193.01999,17.01,-0.0033312866,0.0033420762,0.7070959,0.7071018,0,635.321,8.321,-0.00071,0,0
111.51667,2000,0,91.24,0.000002697398,0.000002697398,0.000002697398,0.99999994,0,0,0,0,0,0,0.8976378,0,0,0,0,false,false,false,0,198.31,17.01,-0.0033312866,0.0033420762,0.7070959,0.7071018,0,642.40094,8.321,-0.00071,0,0
111.525,2000,0,91.24,0.000002697398,0.000002697398,0.000002697398,0.99999994,0,0,0,0,0,0,0.8976378,0,0,0,0,false,false,false,0,203.65999,17.01,-0.0033312866,0.0033420762,0.7070959,0.7071018,0,649.42096,8.321,-0.00071,0,0
111.53333,2000,0,91.24,0.000002697398,0.000002697398,0.000002697398,0.99999994,0,0,0,0,0,0,0.8976378,0,0,0,0,false,false,false,0,209.06999,17.01,-0.0033312866,0.0033420762,0.7070959,0.7071018,0,656.391,8.321,-0.00071,0,0
111.541664,2000,0,91.24,0.000002697398,0.000002697398,0.000002697398,0.99999994,0,0,0,0,0,0,0.8976378,0,0,0,0,false,false,false,0,214.54,17.01,-0.0033312866,0.0033420762,0.7070959,0.7071018,0,663.30096,8.321,-0.00071,0,0
111.55,2000,0,91.24,0.000002697398,0.000002697398,0.000002697398,0.99999994,0,0,0,0,0,0,0.8976378,0,0,0,0,false,false,false,0,220.06999,17.01,-0.0033312866,0.0033420762,0.7070959,0.7071018,0,670.16095,8.321,-0.00071,0,0
111.558334,2000,0,91.24,0.000002697398,0.000002697398,0.000002697398,0.99999994,0,0,0,0,0,0,0.8976378,0,0,0,0,false,false,false,0,225.65,17.01,-0.0033312866,0.0033420762,0.7070959,0.7071018,0,676.97095,8.321,-0.00071,0,0
111.566666,2000,0,91.24,0.000002697398,0.000002697398,0.000002697398,0.99999994,0,0,0,0,0,0,0.8976378,0,0,0,0,false,false,false,0,231.29,17.01,-0.0033312866,0.0033420762,0.7070959,0.7071018,0,683.73096,8.321,-0.00071,0,0
111.575,2000,0,91.24,0.000002697398,0.000002697398,0.000002697398,0.99999994,0,0,0,0,0,0,0.8976378,0,0,0,0,false,false,false,0,236.98999,17.01,-0.0033312866,0.0033420762,0.7070959,0.7071018,0,690.43097,8.321,-0.00071,0,0
111.583336,2000,0,91.24,0.000002697398,0.000002697398,0.000002697398,0.99999994,0,0,0,0,0,0,0.8976378,0,0,0,0,false,false,false,0,242.73999,17.01,-0.0033312866,0.0033420762,0.7070959,0.7071018,0,697.08093,8.321,-0.00071,0,0
111.59167,2000,0,91.24,0.000002697398,0.000002697398,0.000002697398,0.99999994,0,0,0,0,0,0,0.8976378,0,0,0,0,false,false,false,0,248.54999,17.01,-0.0033312866,0.0033420762,0.7070959,0.7071018,0,703.68097,8.321,-0.00071,0,0
111.6,2000,0,91.24,0.000002697398,0.000002697398,0.000002697398,0.99999994,0,0,0,0,0,0,0.8976378,0,0,0,0,false,false,false,0,254.40999,17.01,-0.0033312866,0.0033420762,0.7070959,0.7071018,0,710.23096,8.321,-0.00081,0,0
111.60833,2000,0,91.24,0.000002697398,0.000002697398,0.000002697398,0.99999994,0,0,0,0,0,0,0.8976378,0,0,0,0,false,false,false,0,260.33,17.01,-0.0033312866,0.0033420762,0.7070959,0.7071018,0,716.73096,8.321,-0.00081,0,0
111.61667,2000,0,91.24,0.000002697398,0.000002697398,0.000002697398,0.99999994,0,0,0,0,0,0,0.8976378,0,0,0,0,false,false,false,0,266.3,17.01,-0.0033312866,0.0033420762,0.7070959,0.7071018,0,723.18097,8.321,-0.00081,0,0
111.625,2000,0,91.24,0.000002697398,0.000002697398,0.000002697398,0.99999994,0,0,0,0,0,0,0.8976378,0,0,0,0,false,false,false,0,272.33,17.01,-0.0033312866,0.0033420762,0.7070959,0.7071018,0,729.58093,8.321,-0.00081,0,0
111.63333,2000,0,91.24,0.000002697398,0.000002697398,0.000002697398,0.99999994,0,0,0,0,0,0,0.8976378,0,0,0,0,false,false,false,0,278.41,17.01,-0.0033312866,0.0033420762,0.7070959,0.7071018,0,735.93097,8.321,-0.00081,0,0
111.64167,2000,0,91.24,0.000002697398,0.000002697398,0.000002697398,0.99999994,0,0,0,0,0,0,0.8976378,0,0,0,0,false,false,false,0,284.54,17.01,-0.0033312866,0.0033420762,0.7070959,0.7071018,0,742.23096,8.321,-0.00081,0,0
111.65,2000,0,91.24,0.000002697398,0.000002697398,0.000002697398,0.99999994,0,0,0,0,0,0,0.8976378,0,0,0,0,false,false,false,0,290.72998,17.01,-0.0033312866,0.0033420762,0.7070959,0.7071018,0,748.48096,8.321,-0.00081,0,0
111.65833,2000,0,91.24,0.000002697398,0.000002697398,0.000002697398,0.99999994,0,0,0,0,0,0,0.8976378,0,0,0,0,false,false,false,0,296.97,17.01,-0.0033312866,0.0033420762,0.7070959,0.7071018,0,754.691,8.321,-0.00081,0,0
111.666664,2000,0,91.24,0.000002697398,0.000002697398,0.000002697398,0.99999994,0,0,0,0,0,0,0.8976378,0,0,0,0,false,false,false,0,303.25998,17.01,-0.0033312866,0.0033420762,0.7070959,0.7071018,0,760.85095,8.321,-0.00081,0,0
111.675,2000,0,91.24,0.000002697398,0.000002697398,0.000002697398,0.99999994,0,0,0,0,0,0,0.8976378,0,0,0,0,false,false,false,0,309.6,17.01,-0.0033312866,0.0033420762,0.7070959,0.7071018,0,766.96094,8.321,-0.00081,0,0
111.683334,2000,0,91.24,0.000002697398,0.000002697398,0.000002697398,0.99999994,0,0,0,0,0,0,0.8976378,0,0,0,0,false,false,false,0,315.99,17.01,-0.0033312866,0.0033420762,0.7070959,0.7071018,0,773.02094,8.321,-0.00081,0,0
111.691666,2000,0,91.24,0.000002697398,0.000002697398,0.000002697398,0.99999994,0,0,0,0,0,0,0.8976378,0,0,0,0,false,false,false,0,322.43,17.01,-0.0033312866,0.0033420762,0.7070959,0.7071018,0,779.04095,8.321,-0.00081,0,0
111.7,2000,0,91.24,0.000002697398,0.000002697398,0.000002697398,0.99999994,0,0,0,0,0,0,0.8976378,0,0,0,0,false,false,false,0,328.91998,17.01,-0.0033312866,0.0033420762,0.7070959,0.7071018,0,785.011,8.321,-0.00081,0,0
111.708336,2000,0,91.24,0.000002697398,0.000002697398,0.000002697398,0.99999994,0,0,0,0,0,0,0.8976378,0,0,0,0,false,false,false,0,335.46,17.01,-0.0033312866,0.0033420762,0.7070959,0.7071018,0,790.93097,8.321,-0.00081,0,0
111.71667,2000,0,91.24,0.000002697398,0.000002697398,0.000002697398,0.99999994,0,0,0,0,0,0,0.8976378,0,0,0,0,false,false,false,0,342.05,17.01,-0.0033312866,0.0033420762,0.7070959,0.7071018,0,796.811,8.321,-0.00081,0,0
111.725,2000,0,91.24,0.000002697398,0.000002697398,0.000002697398,0.99999994,0,0,0,0,0,0,0.8976378,0,0,0,0,false,false,false,0,348.69,17.01,-0.0033312866,0.0033420762,0.7070959,0.7071018,0,802.6409,8.321,-0.00081,0,0
111.73333,2000,0,91.24,0.000002697398,0.000002697398,0.000002697398,0.99999994,0,0,0,0,0,0,0.8976378,0,0,0,0,false,false,false,0,355.38,17.01,-0.0033312866,0.0033420762,0.7070959,0.7071018,0,808.43097,8.321,-0.00091,0,0
111.74167,2000,0,91.24,0.000002697398,0.000002697398,0.000002697398,0.99999994,0,0,0,0,0,0,0.8976378,0,0,0,0,false,false,false,0,362.12,17.01,-0.0033312866,0.003347471,0.7070959,0.70710176,0,814.17096,8.321,-0.00091,0,0
111.75,2000,0,91.24,0.000002697398,0.000002697398,0.000002697398,0.99999994,0,0,0,0,0,0,0.8976378,0,0,0,0,false,false,false,0,368.9,17.01,-0.0033312868,0.003352866,0.707096,0.70710176,0,819.871,8.321,-0.00091,0,0
111.75833,2000,0,91.24,0.000002697398,0.000002697398,0.000002697398,0.99999994,0,0,0,0,0,0,0.8976378,0,0,0,0,false,false,false,0,375.72998,17.01,-0.0033312866,0.0033582605,0.7070959,0.7071017,0,825.53094,8.321,-0.00081,-0.00010999999,0
111.76667,2000,0,91.24,0.000002697398,0.000002697398,0.000002697398,0.99999994,0,0,0,0,0,0,0.8976378,0,0,0,0,false,false,false,0,382.61,17.01,-0.0033312866,0.0033582605,0.7070959,0.7071017,0,831.1409,8.321,-0.00071,-0.00021,0
111.775,2000,0,91.24,0.000002697398,0.000002697398,0.000002697398,0.99999994,0,0,0,0,0,0,0.8976378,0,0,0,0,false,false,false,0,389.53998,17.01,-0.0033312866,0.0033582605,0.7070959,0.7071017,0,836.71094,8.321,-0.00071,-0.00021,0
111.78333,2000,0,91.24,0.000002697398,0.000002697398,0.000002697398,0.99999994,0,0,0,0,0,0,0.8976378,0,0,0,0,false,false,false,0,396.50998,17.01,-0.0033312866,0.0033582605,0.7070959,0.7071017,0,842.24097,8.321,-0.00071,-0.00021,0
111.791664,2000,0,91.24,0.000002697398,0.000002697398,0.000002697398,0.99999994,0,0,0,0,0,0,0.8976378,0,0,0,0,false,false,false,0,403.53,17.01,-0.0033312866,0.0033582605,0.7070959,0.7071017,0,847.72095,8.321,-0.00071,-0.00021,0
111.8,2000,0,91.24,0.000002697398,0.000002697398,0.000002697398,0.99999994,0,0,0,0,0,0,0.8976378,0,0,0,0,false,false,false,0,410.59,17.01,-0.0033312866,0.0033582605,0.7070959,0.7071017,0,853.16095,8.321,-0.00071,-0.00021,0
111.808334,2000,0,91.24,0.000002697398,0.000002697398,0.000002697398,0.99999994,0,0,0,0,0,0,0.8976378,0,0,0,0,false,false,false,0,417.69998,17.01,-0.0033312866,0.0033582605,0.7070959,0.7071017,0,858.561,8.321,-0.00071,-0.00021,0
111.816666,2000,0,91.24,0.000002697398,0.000002697398,0.000002697398,0.99999994,0,0,0,0,0,0,0.8976378,0,0,0,0,false,false,false,0,424.84998,17.01,-0.0033312866,0.0033582605,0.7070959,0.7071017,0,863.92096,8.321,-0.00071,-0.00021,0
111.825,2000,0,91.24,0.000002697398,0.000002697398,0.000002697398,0.99999994,0,0,0,0,0,0,0.8976378,0,0,0,0,false,false,false,0,432.05,17.01,-0.0033312866,0.0033582605,0.7070959,0.7071017,0,869.24097,8.321,-0.00071,-0.00021,0
111.833336,2000,0,91.24,0.000002697398,0.000002697398,0.000002697398,0.99999994,0,0,0,0,0,0,0.8976378,0,0,0,0,false,false,false,0,439.28998,17.01,-0.0033312866,0.0033582605,0.7070959,0.7071017,0,874.52094,8.321,-0.00071,-0.00021,0
111.84167,2000,0,91.24,0.000002697398,0.000002697398,0.000002697398,0.99999994,0,0,0,0,0,0,0.8976378,0,0,0,0,false,false,false,0,446.58,17.01,-0.0033312866,0.0033582605,0.7070959,0.7071017,0,879.761,8.321,-0.00071,-0.00021,0
111.85,2000,0,91.24,0.000002697398,0.000002697398,0.000002697398,0.99999994,0,0,0,0,0,0,0.8976378,0,0,0,0,false,false,false,0,453.91,17.01,-0.0033312866,0.0033582605,0.7070959,0.7071017,0,884.96094,8.321,-0.00071,-0.00021,0
111.85833,2000,0,91.24,0.000002697398,0.000002697398,0.000002697398,0.99999994,0,0,0,0,0,0,0.8976378,0,0,0,0,false,false,false,0,461.28,17.01,-0.0033312866,0.0033582605,0.7070959,0.7071017,0,890.121,8.321,-0.00071,-0.00021,0
111.86667,2000,0,91.24,0.000002697398,0.000002697398,0.000002697398,0.99999994,0,0,0,0,0,0,0.8976378,0,0,0,0,false,false,false,0,468.69998,17.01,-0.0033312866,0.0033582605,0.7070959,0.7071017,0,895.24097,8.321,-0.00071,-0.00021,0
111.875,2000,0,91.24,0.000002697398,0.000002697398,0.000002697398,0.99999994,0,0,0,0,0,0,0.8976378,0,0,0,0,false,false,false,0,476.16,17.01,-0.0033312866,0.0033582605,0.7070959,0.7071017,0,900.321,8.321,-0.00071,-0.00021,0
111.88333,2000,0,91.24,0.000002697398,0.000002697398,0.000002697398,0.99999994,0,0,0,0,0,0,0,1,0,0,0,false,false,true,0,483.66,17.01,-0.0033312866,0.0033582605,0.7070959,0.7071017,-13.221,897.4509,8.341001,-0.0010099999,0.00311,0.36471
111.89167,2000,0,91.24,0.000002697398,0.000002697398,0.000002697398,0.99999994,0,0,0,0,0,0,0,1,0,0,0,false,false,true,-0.11,491.13998,17.01,-0.0033312868,0.0033636556,0.70816827,0.7060278,-23.081,895.27094,8.351,-0.0012099999,0.00421,0.62861
111.9,2000,0,91.24,0.000002697398,0.000002697398,0.000002697398,0.99999994,0,0,0,0,0,0,0,1,0,0,0,false,false,true,-0.29999998,498.59998,17.01,-0.0033312861,0.0033690496,0.71001357,0.7041719,-32.141,893.261,8.351,-0.00131,0.00441,0.85530996
111.90833,2000,0,91.24,0.000002697398,0.000002697398,0.000002697398,0.99999994,0,0,0,0,0,0,0,1,0,0,0,false,false,true,-0.57,506.03998,17.01,-0.0033366815,0.003374445,0.7125192,0.7016364,-40.711,891.35095,8.351,-0.00131,0.00411,1.0505099
111.916664,2000,0,91.24,0.000002697398,0.000002697398,0.000002697398,0.99999994,0,0,0,0,0,0,0,1,0,0,0,false,false,true,-0.90999997,513.47,17.01,-0.0033420762,0.003374445,0.7155817,0.6985128,-49.021,889.501,8.351,-0.0012099999,0.00351,1.2193099
111.925,2000,0,91.24,0.000002697398,0.000002697398,0.000002697398,0.99999994,0,0,0,0,0,0,0,1,0,0,0,false,false,true,-1.3199999,520.88,17.01,-0.0033528658,0.00336905,0.7191236,0.6948658,-57.220997,887.66095,8.351,-0.00111,0.00281,1.3659099
111.933334,2000,0,91.24,0.000002697398,0.000002697398,0.000002697398,0.99999994,0,0,0,0,0,0,0,1,0,0,0,false,false,true,-1.8,528.27997,17.01,-0.00336905,0.0033636554,0.723068,0.6907604,-65.391,885.80096,8.351,-0.0010099999,0.00211,1.4938099
111.941666,2000,0,91.24,0.000002697398,0.000002697398,0.000002697398,0.99999994,0,0,0,0,0,0,0,1,0,0,0,false,false,true,-2.34,535.66,17.01,-0.0033852346,0.0033528658,0.72735476,0.68624496,-73.590996,883.8909,8.351,-0.00091,0.0014099999,1.60591
111.95,2000,0,91.24,0.000002697398,0.000002697398,0.000002697398,0.99999994,0,0,0,0,0,0,0,1,0,0,0,false,false,true,-2.95,543.02997,17.01,-0.0034068138,0.0033366815,0.7319304,0.6813626,-81.831,881.91095,8.351,-0.00081,0.00081,1.70471
111.958336,2000,0,91.24,0.000002697398,0.000002697398,0.000002697398,0.99999994,0,0,0,0,0,0,0,1,0,0,0,false,false,true,-3.6299999,550.38,17.01,-0.003428393,0.0033151023,0.7367522,0.6761459,-90.101,879.84094,8.351,-0.00071,0.00021,1.79221
111.96667,2000,0,91.24,0.000002697398,0.000002697398,0.000002697398,0.99999994,0,0,0,0,0,0,0,1,0,0,0,false,false,true,-4.38,557.70996,17.01,-0.003455367,0.003293523,0.7417793,0.67062694,-98.370995,877.67096,8.351,-0.00061,-0.00010999999,1.87001
111.975,2000,0,91.24,0.000002697398,0.000002697398,0.000002697398,0.99999994,0,0,0,0,0,0,0,1,0,0,0,false,false,true,-5.2,565.01996,17.01,-0.003482341,0.0032665492,0.74698156,0.6648276,-106.611,875.40094,8.351,-0.00051,-0.00040999998,1.93941
111.98333,2000,0,91.24,0.000002697398,0.000002697398,0.000002697398,0.99999994,0,0,0,0,0,0,0,1,0,0,0,false,false,true,-6.0899997,572.31,17.01,-0.003509315,0.003239575,0.7523298,0.6587692,-114.770996,873.03094,8.351,-0.00040999998,-0.00071,2.00151
111.99167,2000,0,91.24,0.000002697398,0.000002697398,0.000002697398,0.99999994,0,0,0,0,0,0,0,1,0,0,0,false,false,true,-7.0499997,579.58997,17.01,-0.0035416838,0.0032072063,0.7577964,0.65247345,-122.800995,870.571,8.351,-0.00030999997,-0.00091,2.05711
112,2000,0,91.24,0.000002697398,0.000002697398,0.000002697398,0.99999994,0,0,0,0,0,0,0,1,0,0,0,false,false,true,-8.07,586.83997,17.01,-0.0035740524,0.0031748374,0.7633592,0.64595646,-130.631,868.03094,8.351,-0.00021,-0.00111,2.1068099
112.00833,2000,0,91.24,0.000002697398,0.000002697398,0.000002697398,0.99999994,0,0,0,0,0,0,0,1,0,0,0,false,false,true,-9.16,594.07,17.01,-0.0036064212,0.0031424686,0.76900136,0.6392291,-138.201,865.43097,8.351,-0.00010999999,-0.0012099999,2.15121
112.01667,2000,0,91.24,0.000002697398,0.000002697398,0.000002697398,0.99999994,0,0,0,0,0,0,0,1,0,0,0,false,false,true,-10.309999,601.27997,17.01,-0.00363879,0.0031047051,0.77469814,0.632313,-145.451,862.80096,8.351,0,-0.00131,2.19071
112.025,2000,0,91.24,0.000002697398,0.000002697398,0.000002697398,0.99999994,0,0,0,0,0,0,0,1,0,0,0,false,false,true,-11.5199995,608.47,17.01,-0.0036711588,0.0030669416,0.7804391,0.6252134,-152.30101,860.18097,8.351,0,-0.00131,2.22561
112.03333,2000,0,91.24,0.000002697398,0.000002697398,0.000002697398,0.99999994,0,0,0,0,0,0,0,1,0,0,0,false,false,true,-12.79,615.64,17.01,-0.0037035276,0.003029178,0.7862012,0.617952,-158.681,857.60095,8.351,0,-0.00131,2.2562099
112.041664,2000,0,91.24,0.000002697398,0.000002697398,0.000002697398,0.99999994,0,0,0,0,0,0,0,1,0,0,0,false,false,true,-14.11,622.79,17.01,-0.0037358964,0.0029914144,0.7919754,0.61053413,-164.511,855.11096,8.341001,0,-0.00131,2.28261
112.05,2000,0,91.24,0.000002697398,0.000002697398,0.000002697398,0.99999994,0,0,0,0,0,0,0,1,0,0,0,false,false,true,-15.48,629.92,17.01,-0.0037682648,0.0029536507,0.7977449,0.60297585,-169.711,852.77094,8.341001,0,-0.00131,2.30491
112.058334,2000,0,91.24,0.000002697398,0.000002697398,0.000002697398,0.99999994,0,0,0,0,0,0,0,1,0,0,0,false,false,true,-16.89,637.02997,17.01,-0.0038006338,0.0029158874,0.8034978,0.59528834,-174.19101,850.6409,8.341001,0,-0.00131,2.32331
112.066666,2000,0,91.24,0.000002697398,0.000002697398,0.000002697398,0.99999994,0,0,0,0,0,0,0,1,0,0,0,false,false,true,-18.34,644.12,17.01,-0.0038330026,0.0028781237,0.8092229,0.5874821,-177.871,848.80096,8.331,0.00010999999,-0.00131,2.33771
112.075,2000,0,91.24,0.000002697398,0.000002697398,0.000002697398,0.99999994,0,0,0,0,0,0,0,1,0,0,0,false,false,true,-19.82,651.19,17.01,-0.0038653715,0.0028349652,0.81490594,0.5795732,-180.671,847.33093,8.331,0.00021,-0.00131,2.3482099
112.083336,2000,0,91.24,0.000002697398,0.000002697398,0.000002697398,0.99999994,0,0,0,0,0,0,0,1,0,0,0,false,false,true,-21.33,658.25,17.01,-0.0038977405,0.0027918073,0.8205373,0.5715728,-183.58101,845.73096,8.331,0.00021,-0.0012099999,2.35831
112.09167,2000,0,91.24,0.000002697398,0.000002697398,0.000002697398,0.99999994,0,0,0,0,0,0,0,1,0,0,0,false,false,true,-22.859999,665.3,17.01,-0.0039301086,0.0027486486,0.8261153,0.56348056,-186.591,844.011,8.331,0.00021,-0.00111,2.36811
112.1,2000,0,91.24,0.000002697398,0.000002697398,0.000002697398,0.99999994,0,0,0,0,0,0,0,1,0,0,0,false,false,true,-24.41,672.32996,17.01,-0.0039624777,0.0027054902,0.8316349,0.55530196,-189.701,842.15094,8.331,0.00021,-0.0010099999,2.37751
112.10833,2000,0,91.24,0.000002697398,0.000002697398,0.000002697398,0.99999994,0,0,0,0,0,0,0,1,0,0,0,false,false,true,-25.99,679.35,17.01,-0.003989451,0.0026623316,0.8370944,0.54703707,-192.901,840.16095,8.331,0.00021,-0.00091,2.38661
112.11667,2000,0,91.24,0.000002697398,0.000002697398,0.000002697398,0.99999994,0,0,0,0,0,0,0,1,0,0,0,false,false,true,-27.599998,686.35,17.01,-0.0040164255,0.0026191734,0.84249294,0.53868586,-196.171,838.03094,8.331,0.00021,-0.00081,2.39541
112.125,2000,0,91.24,0.000002697398,0.000002697398,0.000002697398,0.99999994,0,0,0,0,0,0,0,1,0,0,0,false,false,true,-29.23,693.32996,17.01,-0.004043399,0.002576015,0.8478286,0.53024834,-199.511,835.77094,8.331,0.00021,-0.00071,2.40391
112.13333,2000,0,91.24,0.000002697398,0.000002697398,0.000002697398,0.99999994,0,0,0,0,0,0,0,1,0,0,0,false,false,true,-30.89,700.29,17.01,-0.004070374,0.002532857,0.8530971,0.5217301,-202.911,833.371,8.331,0.00021,-0.00061,2.41201
112.14167,2000,0,91.24,0.000002697398,0.000002697398,0.000002697398,0.99999994,0,0,0,0,0,0,0,1,0,0,0,false,false,true,-32.579998,707.23,17.01,-0.0040973476,0.0024896984,0.858297,0.51313066,-206.36101,830.83093,8.331,0.00021,-0.00051,2.41981
112.15,2000,0,91.24,0.000002697398,0.000002697398,0.000002697398,0.99999994,0,0,0,0,0,0,0,1,0,0,0,false,false,true,-34.3,714.14996,17.01,-0.004124321,0.0024465397,0.86342716,0.5044504,-209.86101,828.15094,8.331,0.00021,-0.00051,2.42731
112.15833,2000,0,91.24,0.000002697398,0.000002697398,0.000002697398,0.99999994,0,0,0,0,0,0,0,1,0,0,0,false,false,true,-36.05,721.05,17.01,-0.004151296,0.0024033817,0.8684836,0.49569464,-213.391,825.34094,8.331,0.00021,-0.00040999998,2.4344099
112.166664,2000,0,91.24,0.000002697398,0.000002697398,0.000002697398,0.99999994,0,0,0,0,0,0,0,1,0,0,0,false,false,true,-37.829998,727.93,17.01,-0.0041782693,0.0023602233,0.8734679,0.48685792,-216.951,822.3909,8.331,0.00021,-0.00040999998,2.44121
112.175,2000,0,91.24,0.000002697398,0.000002697398,0.000002697398,0.99999994,0,0,0,0,0,0,0,1,0,0,0,false,false,true,-39.64,734.77997,17.01,-0.004205243,0.002317065,0.8783762,0.47794572,-220.531,819.30096,8.331,0.00021,-0.00030999997,2.44761
112.183334,2000,0,91.24,0.000002697398,0.000002697398,0.000002697398,0.99999994,0,0,0,0,0,0,0,1,0,0,0,false,false,true,-41.48,741.61,17.01,-0.004226823,0.0022739067,0.8832046,0.46896333,-224.121,816.071,8.331,0.00021,-0.00021,2.4537098
112.191666,2000,0,91.24,0.000002697398,0.000002697398,0.000002697398,0.99999994,0,0,0,0,0,0,0,1,0,0,0,false,false,true,-43.35,748.41,17.01,-0.0042484016,0.002230748,0.8879521,0.45991084,-227.711,812.71094,8.331,0.00021,-0.00021,2.45941
112.2,2000,0,91.24,0.000002697398,0.000002697398,0.000002697398,0.99999994,0,0,0,0,0,0,0,1,0,0,0,false,false,true,-45.25,755.18,17.01,-0.004269981,0.0021875896,0.892618,0.45078817,-231.301,809.22095,8.331,0.00021,-0.00021,2.46481
112.208336,2000,0,91.24,0.000002697398,0.000002697398,0.000002697398,0.99999994,0,0,0,0,0,0,0,1,0,0,0,false,false,true,-47.18,761.92,17.01,-0.00429156,0.0021444315,0.8972014,0.44159544,-234.871,805.59094,8.331,0.00021,-0.00021,2.46981
112.21667,2000,0,91.24,0.000002697398,0.000002697398,0.000002697398,0.99999994,0,0,0,0,0,0,0,1,0,0,0,false,false,true,-49.14,768.63,17.01,-0.0043131392,0.002101273,0.9016988,0.43233794,-238.421,801.83093,8.331,0.00021,-0.00021,2.47441
112.225,2000,0,91.24,0.000002697398,0.000002697398,0.000002697398,0.99999994,0,0,0,0,0,0,0,1,0,0,0,false,false,true,-51.129997,775.31,17.01,-0.0043347185,0.0020581146,0.90610707,0.42302105,-241.951,797.951,8.331,0.00021,-0.00021,2.47871
112.23333,2000,0,91.24,0.000002697398,0.000002697398,0.000002697398,0.99999994,0,0,0,0,0,0,0,1,0,0,0,false,false,true,-53.149998,781.95996,17.01,-0.0043562977,0.0020095615,0.91042805,0.41363952,-245.441,793.941,8.331,0.00021,-0.00021,2.48261
112.24167,2000,0,91.24,0.000002697398,0.000002697398,0.000002697398,0.99999994,0,0,0,0,0,0,0,1,0,0,0,false,false,true,-55.199997,788.57996,17.01,-0.004377877,0.0019610084,0.9146586,0.40419853,-248.891,789.811,8.331,0.00021,-0.00021,2.48611
112.25,2000,0,91.24,0.000002697398,0.000002697398,0.000002697398,0.99999994,0,0,0,0,0,0,0,1,0,0,0,false,false,true,-57.27,795.16,17.01,-0.004399456,0.0019124552,0.9187959,0.3947037,-252.291,785.571,8.331,0.00021,-0.00021,2.48921
112.25833,2000,0,91.24,0.000002697398,0.000002697398,0.000002697398,0.99999994,0,0,0,0,0,0,0,1,0,0,0,false,false,true,-59.37,801.70996,17.01,-0.0044210358,0.0018639022,0.92283946,0.38515484,-255.641,781.21094,8.331,0.00021,-0.00021,2.49191
112.26667,2000,0,91.24,0.000002697398,0.000002697398,0.000002697398,0.99999994,0,0,0,0,0,0,0,1,0,0,0,false,false,true,-61.5,808.22,17.01,-0.0044426145,0.0018153489,0.9267888,0.37555206,-258.931,776.74097,8.331,0.00021,-0.00021,2.49421
112.275,2000,0,91.24,0.000002697398,0.000002697398,0.000002697398,0.99999994,0,0,0,0,0,0,0,1,0,0,0,false,false,true,-63.66,814.69,17.01,-0.0044641937,0.0017667958,0.9306414,0.36590078,-262.151,772.17096,8.331,0.00021,-0.00010999999,2.49611
112.28333,2000,0,91.24,0.000002697398,0.000002697398,0.000002697398,0.99999994,0,0,0,0,0,0,0,1,0,0,0,false,false,true,-65.84,821.12,17.01,-0.0044803782,0.0017182425,0.93439704,0.35620084,-265.301,767.501,8.331,0.00021,0,2.4976099
112.291664,2000,0,91.24,0.000002697398,0.000002697398,0.000002697398,0.99999994,0,0,0,0,0,0,0,1,0,0,0,false,false,true,-68.049995,827.51996,17.01,-0.004496562,0.0016696892,0.93805313,0.3464578,-268.381,762.73096,8.331,0.00010999999,0,2.49861
112.3,2000,0,91.24,0.000002697398,0.000002697398,0.000002697398,0.99999994,0,0,0,0,0,0,0,1,0,0,0,false,false,true,-70.29,833.88,17.01,-0.004512747,0.0016211362,0.94160986,0.3366716,-271.371,757.871,8.331,0.00010999999,0,2.49921
112.308334,2000,0,91.24,0.000002697398,0.000002697398,0.000002697398,0.99999994,0,0,0,0,0,0,0,1,0,0,0,false,false,true,-72.549995,840.19995,17.01,-0.004528931,0.001572583,0.9450647,0.32684764,-274.281,752.92096,8.331,0,0,2.49941
112.316666,2000,0,91.24,0.000002697398,0.000002697398,0.000002697398,0.99999994,0,0,0,0,0,0,0,1,0,0,0,false,false,true,-74.84,846.47,17.01,-0.0045451154,0.0015240299,0.9484181,0.3169859,-277.101,747.8909,8.331,0,0,2.49911
112.325,2000,0,91.24,0.000002697398,0.000002697398,0.000002697398,0.99999994,0,0,0,0,0,0,0,1,0,0,0,false,false,true,-77.15,852.69995,17.01,-0.0045613,0.0014754768,0.9516677,0.30709186,-279.821,742.78094,8.331,0,0,2.49841
112.333336,2000,0,91.24,0.000002697398,0.000002697398,0.000002697398,0.99999994,0,0,0,0,0,0,0,1,0,0,0,false,false,true,-79.479996,858.88995,17.01,-0.0045774844,0.0014269236,0.9548122,0.29717073,-282.441,737.60095,8.331,0,0,2.49731
112.34167,2000,0,91.24,0.000002697398,0.000002697398,0.000002697398,0.99999994,0,0,0,0,0,0,0,1,0,0,0,false,false,true,-81.83,865.04,17.01,-0.004593669,0.0013783704,0.9578534,0.28721735,-284.961,732.36096,8.331,0,0,2.49571
112.35,2000,0,91.24,0.000002697398,0.000002697398,0.000002697398,0.99999994,0,0,0,0,0,0,0,1,0,0,0,false,false,true,-84.2,871.13995,17.01,-0.0046098535,0.0013298173,0.960788,0.2772424,-287.371,727.061,8.331,0,0,2.49361
112.35833,2000,0,91.24,0.000002697398,0.000002697398,0.000002697398,0.99999994,0,0,0,0,0,0,0,1,0,0,0,false,false,true,-86.59,877.19995,17.01,-0.0046260376,0.001281264,0.9636164,0.2672457,-289.671,721.71094,8.331,0,0,2.4911098
112.36667,2000,0,91.24,0.000002697398,0.000002697398,0.000002697398,0.99999994,0,0,0,0,0,0,0,1,0,0,0,false,false,true,-89,883.20996,17.01,-0.004636827,0.0012327109,0.9663389,0.25722757,-291.861,716.311,8.331,0,0,2.48811
112.375,2000,0,91.24,0.000002697398,0.000002697398,0.000002697398,0.99999994,0,0,0,0,0,0,0,1,0,0,0,false,false,true,-91.43,889.18,17.01,-0.004647617,0.0011841578,0.9689543,0.2471932,-293.941,710.871,8.331,0,0,2.4846098
112.38333,2000,0,91.24,0.000002697398,0.000002697398,0.000002697398,0.99999994,0,0,0,0,0,0,0,1,0,0,0,false,false,true,-93.88,895.1,17.01,-0.004658406,0.0011356046,0.9714616,0.23714808,-295.901,705.40094,8.331,0,0,2.48071
112.39167,2000,0,91.24,0.000002697398,0.000002697398,0.000002697398,0.99999994,0,0,0,0,0,0,0,1,0,0,0,false,false,true,-96.35,900.98,17.01,-0.004669196,0.0010870514,0.9738614,0.22709209,-297.751,699.90094,8.331,0,0,2.47631
112.4,2000,0,91.24,0.000002697398,0.000002697398,0.000002697398,0.99999994,0,0,0,0,0,0,0,1,0,0,0,false,false,true,-98.829994,906.81,17.01,-0.004679985,0.0010384981,0.97615284,0.21703076,-299.481,694.381,8.331,0,0,2.47141
112.40833,2000,0,91.24,0.000002697398,0.000002697398,0.000002697398,0.99999994,0,0,0,0,0,0,0,1,0,0,0,false,false,true,-101.329994,912.6,17.01,-0.004690775,0.000989945,0.9783356,0.20696941,-301.091,688.85095,8.331,0,0,2.4660099
112.416664,2000,0,91.24,0.000002697398,0.000002697398,0.000002697398,0.99999994,0,0,0,0,0,0,0,1,0,0,0,false,false,true,-103.84,918.33997,17.01,-0.0047015646,0.0009413919,0.98041016,0.19690812,-302.581,683.311,8.331,0,0,2.46011
112.425,2000,0,91.24,0.000002697398,0.000002697398,0.000002697398,0.99999994,0,0,0,0,0,0,0,1,0,0,0,false,false,true,-106.36,924.02997,17.01,-0.004712355,0.0008928388,0.98237735,0.18684675,-303.951,677.77094,8.331,0,0,2.4537098
112.433334,2000,0,91.24,0.000002697398,0.000002697398,0.000002697398,0.99999994,0,0,0,0,0,0,0,1,0,0,0,false,false,true,-108.89,929.68,17.01,-0.004723144,0.00084428565,0.98423576,0.17679624,-305.201,672.23096,8.331,0,0,2.44681
112.441666,2000,0,91.24,0.000002697398,0.000002697398,0.000002697398,0.99999994,0,0,0,0,0,0,0,1,0,0,0,false,false,true,-111.43,935.27997,17.01,-0.004733934,0.0007957325,0.9859873,0.16675113,-306.331,666.701,8.331,0,0,2.43941
112.45,2000,0,91.24,0.000002697398,0.000002697398,0.000002697398,0.99999994,0,0,0,0,0,0,0,1,0,0,0,false,false,true,-113.979996,940.83997,17.01,-0.0047393283,0.00074717926,0.987631,0.15672211,-307.341,661.191,8.331,0,0,2.43151
112.458336,2000,0,91.24,0.000002697398,0.000002697398,0.000002697398,0.99999994,0,0,0,0,0,0,0,1,0,0,0,false,false,true,-116.54,946.35,17.01,-0.004744723,0.0006986261,0.9891679,0.14670937,-308.241,655.701,8.331,0,0,2.42311
112.46667,2000,0,91.24,0.000002697398,0.000002697398,0.000002697398,0.99999994,0,0,0,0,0,0,0,1,0,0,0,false,false,true,-119.11,951.81,17.01,-0.004750117,0.0006500729,0.990599,0.13671272,-309.021,650.24097,8.331,0,0,2.41411
112.475,2000,0,91.24,0.000002697398,0.000002697398,0.000002697398,0.99999994,0,0,0,0,0,0,0,1,0,0,0,false,false,true,-121.689995,957.23,17.01,-0.0047555133,0.00060151983,0.991924,0.12674315,-309.691,644.811,8.331,0,0,2.40461
112.48333,2000,0,91.24,0.000002697398,0.000002697398,0.000002697398,0.99999994,0,0,0,0,0,0,0,1,0,0,0,false,false,true,-124.27,962.6,17.01,-0.0047609075,0.0005529666,0.9931438,0.11680046,-310.241,639.42096,8.331,0,0,2.39461
112.49167,2000,0,91.24,0.000002697398,0.000002697398,0.000002697398,0.99999994,0,0,0,0,0,0,0,1,0,0,0,false,false,true,-126.86,967.93,17.01,-0.0047663017,0.0005044134,0.9942597,0.10688481,-310.681,634.08093,8.331,0,0,2.3840098
112.5,2000,0,91.24,0.000002697398,0.000002697398,0.000002697398,0.99999994,0,0,0,0,0,0,0,1,0,0,0,false,false,true,-129.45,973.20996,17.01,-0.004771697,0.00045586028,0.99527264,0.09700147,-311.011,628.79095,8.331,0,0,2.37291
112.50833,2000,0,91.24,0.000002697398,0.000002697398,0.000002697398,0.99999994,0,0,0,0,0,0,0,1,0,0,0,false,false,true,-132.04,978.44995,17.01,-0.004777092,0.00040730712,0.9961831,0.08715597,-311.241,623.561,8.331,0,0,2.3612099
112.51667,2000,0,91.24,0.000002697398,0.000002697398,0.000002697398,0.99999994,0,0,0,0,0,0,0,1,0,0,0,false,false,true,-134.62999,983.64996,17.01,-0.0047824867,0.00035875392,0.9969921,0.07735362,-311.371,618.391,8.331,0,0,2.34901
112.525,2000,0,91.24,0.000002697398,0.000002697398,0.000002697398,0.99999994,0,0,0,0,0,0,0,1,0,0,0,false,false,true,-137.22,988.8,17.01,-0.0047878814,0.00031020076,0.9977013,0.06759435,-311.401,613.29095,8.331,0,0,2.33621
112.53333,2000,0,91.24,0.000002697398,0.000002697398,0.000002697398,0.99999994,0,0,0,0,0,0,0,1,0,0,0,false,false,true,-139.81,993.91,17.01,-0.0047932756,0.00026164757,0.99831194,0.057878315,-311.331,608.261,8.331,0,0,2.32281
112.541664,2000,0,91.24,0.000002697398,0.000002697398,0.000002697398,0.99999994,0,0,0,0,0,0,0,1,0,0,0,false,false,true,-142.4,998.98,17.01,-0.0047932765,0.00021309446,0.9988254,0.048216164,-311.171,603.311,8.331,0,0,2.30891
112.55,2000,0,91.24,0.000002697398,0.000002697398,0.000002697398,0.99999994,0,0,0,0,0,0,0,1,0,0,0,false,false,true,-144.98999,1004.00995,17.01,-0.004793276,0.00016454128,0.9992431,0.03860263,-310.931,598.441,8.331,0,0,2.29441
112.558334,2000,0,91.24,0.000002697398,0.000002697398,0.000002697398,0.99999994,0,0,0,0,0,0,0,1,0,0,0,false,false,true,-147.58,1009,17.01,-0.004793276,0.00012138292,0.99956644,0.029048365,-310.601,593.66095,8.331,0,0,2.27931
112.566666,2000,0,91.24,0.000002697398,0.000002697398,0.000002697398,0.99999994,0,0,0,0,0,0,0,1,0,0,0,false,false,true,-150.17,1013.94995,17.01,-0.0047932756,0.00007822453,0.99979717,0.01955352,-310.191,588.97095,8.331,0,0,2.26361
112.575,2000,0,91.24,0.000002697398,0.000002697398,0.000002697398,0.99999994,0,0,0,0,0,0,0,1,0,0,0,false,false,true,-152.75,1018.86,17.01,-0.004793276,0.000035066172,0.99993724,0.010123335,-309.711,584.371,8.331,0,0,2.24731
112.583336,2000,0,91.24,0.000002697398,0.000002697398,0.000002697398,0.99999994,0,0,0,0,0,0,0,1,0,0,0,false,false,true,-155.33,1023.73,17.01,-0.0047932765,-0.000008092195,0.9999882,0.0007579689,-309.161,579.871,8.331,0,0,2.2304099
112.59167,2000,0,91.24,0.000002697398,0.000002697398,0.000002697398,0.99999994,0,0,0,0,0,0,0,1,0,0,0,false,false,true,-157.91,1028.5599,17.01,-0.004793276,-0.000051250565,0.999952,-0.008537306,-308.541,575.47095,8.331,0,0,2.21281
112.6,2000,0,91.24,0.000002697398,0.000002697398,0.000002697398,0.99999994,0,0,0,0,0,0,0,1,0,0,0,false,false,true,-160.48,1033.36,17.01,-0.004793276,-0.00009440893,0.9998308,-0.017757054,-307.861,571.17096,8.331,0,0,2.1946099
112.60833,2000,0,91.24,0.000002697398,0.000002697398,0.000002697398,0.99999994,0,0,0,0,0,0,0,1,0,0,0,false,false,true,-163.05,1038.12,17.01,-0.0047932756,-0.00013756729,0.99962646,-0.026901232,-307.131,566.98096,8.331,0.00010999999,0,2.1758099
112.61667,2000,0,91.24,0.000002697398,0.000002697398,0.000002697398,0.99999994,0,0,0,0,0,0,0,1,0,0,0,false,false,true,-165.61,1042.84,17.01,-0.0047932765,-0.00018072568,0.99934155,-0.035964537,-306.351,562.90094,8.331,0.00010999999,0,2.1563098
112.625,2000,0,91.24,0.000002697398,0.000002697398,0.000002697398,0.99999994,0,0,0,0,0,0,0,1,0,0,0,false,false,true,-168.16,1047.53,17.01,-0.004793276,-0.00022388404,0.998978,-0.04494152,-305.521,558.93097,8.331,0.00010999999,0,2.13611
112.63333,2000,0,91.24,0.000002697398,0.000002697398,0.000002697398,0.99999994,0,0,0,0,0,0,0,1,0,0,0,false,false,true,-170.70999,1052.19,17.01,-0.0047932756,-0.00026704237,0.9985383,-0.053832177,-304.651,555.081,8.331,0.00010999999,0,2.11521
112.64167,2000,0,91.24,0.000002697398,0.000002697398,0.000002697398,0.99999994,0,0,0,0,0,0,0,1,0,0,0,false,false,true,-173.25,1056.82,17.01,-0.0047932765,-0.0003102008,0.9980252,-0.062631145,-303.751,551.34094,8.331,0.00010999999,0,2.09361
112.65,2000,0,91.24,0.000002697398,0.000002697398,0.000002697398,0.99999994,0,0,0,0,0,0,0,1,0,0,0,false,false,true,-175.78,1061.41,17.01,-0.0047878814,-0.00035335915,0.99744093,-0.07133294,-302.801,547.691,8.331,0.00010999999,0,2.0724099
112.65833,2000,0,91.24,0.000002697398,0.000002697398,0.000002697398,0.99999994,0,0,0,0,0,0,0,1,0,0,0,false,false,true,-178.3,1065.97,17.01,-0.004782487,-0.00039651754,0.99678785,-0.07994309,-301.801,544.121,8.331,0.00010999999,0,2.05211
112.666664,2000,0,91.24,0.000002697398,0.000002697398,0.000002697398,0.99999994,0,0,0,0,0,0,0,1,0,0,0,false,false,true,-180.81,1070.5,17.01,-0.004777092,-0.00043967587,0.996068,-0.0884615,-300.751,540.631,8.331,0.00010999999,0,2.03271
112.675,2000,0,91.24,0.000002697398,0.000002697398,0.000002697398,0.99999994,0,0,0,0,0,0,0,1,0,0,0,false,false,true,-183.31999,1075.01,17.01,-0.004771697,-0.00048283426,0.9952831,-0.096893616,-299.661,537.22095,8.331,0.00010999999,0,2.0141098
112.683334,2000,0,91.24,0.000002697398,0.000002697398,0.000002697398,0.99999994,0,0,0,0,0,0,0,1,0,0,0,false,false,true,-185.81999,1079.49,17.01,-0.004766302,-0.0005259926,0.9944347,-0.1052448,-298.531,533.891,8.331,0,0,1.99631
112.691666,2000,0,91.24,0.000002697398,0.000002697398,0.000002697398,0.99999994,0,0,0,0,0,0,0,1,0,0,0,false,false,true,-188.31,1083.94,17.01,-0.0047609075,-0.00056375616,0.9935247,-0.11351503,-297.371,530.65094,8.331,0,0,1.9793099
112.7,2000,0,91.24,0.000002697398,0.000002697398,0.000002697398,0.99999994,0,0,0,0,0,0,0,1,0,0,0,false,false,true,-190.79,1088.36,17.01,-0.004755513,-0.0006015198,0.9925548,-0.12170437,-296.181,527.501,8.331,0,0,1.96301
112.708336,2000,0,91.24,0.000002697398,0.000002697398,0.000002697398,0.99999994,0,0,0,0,0,0,0,1,0,0,0,false,false,true,-193.26,1092.76,17.01,-0.0047501177,-0.00063928333,0.9915262,-0.12981817,-294.971,524.441,8.331,0,0,1.94741
112.71667,2000,0,91.24,0.000002697398,0.000002697398,0.000002697398,0.99999994,0,0,0,0,0,0,0,1,0,0,0,false,false,true,-195.72,1097.13,17.01,-0.0047447234,-0.00067704695,0.99043983,-0.13786183,-293.741,521.47095,8.331,0,0,1.93241
112.725,2000,0,91.24,0.000002697398,0.000002697398,0.000002697398,0.99999994,0,0,0,0,0,0,0,1,0,0,0,false,false,true,-198.17,1101.48,17.01,-0.0047393283,-0.0007148105,0.989298,-0.14582998,-292.481,518.59094,8.331,0,0,1.91841
112.73333,2000,0,91.24,0.000002697398,0.000002697398,0.000002697398,0.99999994,0,0,0,0,0,0,0,1,0,0,0,false,false,true,-200.61,1105.7999,17.01,-0.004733934,-0.0007525741,0.9881007,-0.1537334,-291.161,515.751,8.331,0,0,1.90651
112.74167,2000,0,91.24,0.000002697398,0.000002697398,0.000002697398,0.99999994,0,0,0,0,0,0,0,1,0,0,0,false,false,true,-203.04,1110.1,17.01,-0.004728538,-0.00079033757,0.98684824,-0.16157745,-289.79102,512.951,8.331,0,0,1.8967099
112.75,2000,0,91.24,0.000002697398,0.000002697398,0.000002697398,0.99999994,0,0,0,0,0,0,0,1,0,0,0,false,false,true,-205.45,1114.37,17.01,-0.0047231433,-0.00082810107,0.9855402,-0.16937293,-288.371,510.201,8.331,0,0,1.8889099
112.75833,2000,0,91.24,0.000002697398,0.000002697398,0.000002697398,0.99999994,0,0,0,0,0,0,0,1,0,0,0,false,false,true,-207.84999,1118.62,17.01,-0.0047177486,-0.0008658647,0.98417646,-0.1771253,-286.901,507.501,8.331,0,0,1.8830099
112.76667,2000,0,91.24,0.000002697398,0.000002697398,0.000002697398,0.99999994,0,0,0,0,0,0,0,1,0,0,0,false,false,true,-210.23999,1122.85,17.01,-0.004712355,-0.0009036284,0.9827569,-0.18483993,-285.381,504.861,8.331,0,0,1.87911
112.775,2000,0,91.24,0.000002697398,0.000002697398,0.000002697398,0.99999994,0,0,0,0,0,0,0,1,0,0,0,false,false,true,-212.62,1127.0599,17.01,-0.0047069597,-0.0009413919,0.9812798,-0.1925275,-283.831,502.281,8.331,-0.00010999999,0,1.87701
112.78333,2000,0,91.24,0.000002697398,0.000002697398,0.000002697398,0.99999994,0,0,0,0,0,0,0,1,0,0,0,false,false,true,-214.98999,1131.25,17.01,-0.0047015646,-0.0009791554,0.97974455,-0.20019355,-282.241,499.771,8.331,-0.00021,0,1.87681
112.791664,2000,0,91.24,0.000002697398,0.000002697398,0.000002697398,0.99999994,0,0,0,0,0,0,0,1,0,0,0,false,false,true,-217.34,1135.41,17.01,-0.00469617,-0.001016919,0.9781491,-0.2078488,-280.621,497.32098,8.331,-0.00021,0,1.87841
112.8,2000,0,91.24,0.000002697398,0.000002697398,0.000002697398,0.99999994,0,0,0,0,0,0,0,1,0,0,0,false,false,true,-219.68,1139.5499,17.01,-0.004685381,-0.0010546828,0.9764923,-0.21549869,-278.971,494.941,8.331,-0.00030999997,0,1.88181
112.808334,2000,0,91.24,0.000002697398,0.000002697398,0.000002697398,0.99999994,0,0,0,0,0,0,0,1,0,0,0,false,false,true,-222,1143.6699,17.01,-0.0046745907,-0.0010924462,0.9747726,-0.2231485,-277.261,492.57098,8.331,-0.00030999997,0,1.88561
112.816666,2000,0,91.24,0.000002697398,0.000002697398,0.000002697398,0.99999994,0,0,0,0,0,0,0,1,0,0,0,false,false,true,-224.31,1147.77,17.01,-0.0046638013,-0.0011302098,0.97298974,-0.23079836,-275.501,490.211,8.331,-0.00030999997,0,1.88981
112.825,2000,0,91.24,0.000002697398,0.000002697398,0.000002697398,0.99999994,0,0,0,0,0,0,0,1,0,0,0,false,false,true,-226.61,1151.86,17.01,-0.0046530114,-0.0011679734,0.971142,-0.23845361,-273.681,487.871,8.331,-0.00040999998,-0.00010999999,1.89431
112.833336,2000,0,91.24,0.000002697398,0.000002697398,0.000002697398,0.99999994,0,0,0,0,0,0,0,1,0,0,0,false,false,true,-228.89,1155.9299,17.01,-0.0046422225,-0.0012003422,0.9692303,-0.24610884,-271.811,485.551,8.331,-0.00040999998,-0.00021,1.89921
112.84167,2000,0,91.24,0.000002697398,0.000002697398,0.000002697398,0.99999994,0,0,0,0,0,0,0,1,0,0,0,false,false,true,-231.15999,1159.98,17.01,-0.0046314327,-0.001232711,0.96725285,-0.2537695,-269.901,483.251,8.331,-0.00040999998,-0.00021,1.90441
112.85,2000,0,91.24,0.000002697398,0.000002697398,0.000002697398,0.99999994,0,0,0,0,0,0,0,1,0,0,0,false,false,true,-233.40999,1164.01,17.01,-0.004620643,-0.0012650797,0.965209,-0.2614355,-267.941,480.981,8.331,-0.00030999997,-0.00021,1.91001
112.85833,2000,0,91.24,0.000002697398,0.000002697398,0.000002697398,0.99999994,0,0,0,0,0,0,0,1,0,0,0,false,false,true,-235.64,1168.02,17.01,-0.0046098535,-0.0013028433,0.96309835,-0.26910695,-265.951,478.741,8.331,-0.00021,-0.00021,1.91591
112.86667,2000,0,91.24,0.000002697398,0.000002697398,0.000002697398,0.99999994,0,0,0,0,0,0,0,1,0,0,0,false,false,true,-237.86,1172.01,17.01,-0.0045990637,-0.0013406068,0.96091866,-0.27678916,-263.921,476.531,8.331,-0.00021,-0.00021,1.92211
112.875,2000,0,91.24,0.000002697398,0.000002697398,0.000002697398,0.99999994,0,0,0,0,0,0,0,1,0,0,0,false,false,true,-240.06,1175.98,17.01,-0.0045882743,-0.0013783706,0.9586709,-0.28447682,-261.861,474.361,8.331,-0.00021,-0.00021,1.92861
112.88333,2000,0,91.24,0.000002697398,0.000002697398,0.000002697398,0.99999994,0,0,0,0,0,0,0,1,0,0,0,false,false,true,-242.23999,1179.9299,17.01,-0.0045774844,-0.001416134,0.9563544,-0.29216975,-259.771,472.231,8.331,-0.00021,-0.00021,1.93531
112.89167,2000,0,91.24,0.000002697398,0.000002697398,0.000002697398,0.99999994,0,0,0,0,0,0,0,1,0,0,0,false,false,true,-244.4,1183.87,17.01,-0.0045666946,-0.0014538976,0.95396686,-0.29987356,-257.651,470.151,8.331,-0.00021,-0.00021,1.94231
112.9,2000,0,91.24,0.000002697398,0.000002697398,0.000002697398,0.99999994,0,0,0,0,0,0,0,1,0,0,0,false,false,true,-246.54999,1187.7899,17.01,-0.0045559052,-0.0014916611,0.9515092,-0.30758277,-255.511,468.111,8.331,-0.00021,-0.00021,1.94961
112.90833,2000,0,91.24,0.000002697398,0.000002697398,0.000002697398,0.99999994,0,0,0,0,0,0,0,1,0,0,0,false,false,true,-248.68,1191.69,17.01,-0.0045451154,-0.0015294247,0.94897896,-0.31530276,-253.311,466.07098,8.331,-0.00021,-0.00021,1.95601
112.916664,2000,0,91.24,0.000002697398,0.000002697398,0.000002697398,0.99999994,0,0,0,0,0,0,0,1,0,0,0,false,false,true,-250.79,1195.57,17.01,-0.004534326,-0.0015671883,0.94637716,-0.32302812,-251.051,464.031,8.331,-0.00021,-0.00021,1.9614099
112.925,2000,0,91.24,0.000002697398,0.000002697398,0.000002697398,0.99999994,0,0,0,0,0,0,0,1,0,0,0,false,false,true,-252.87999,1199.44,17.01,-0.004523536,-0.0016049518,0.9437049,-0.3307535,-248.731,461.991,8.331,-0.00021,-0.00021,1.96581
112.933334,2000,0,91.24,0.000002697398,0.000002697398,0.000002697398,0.99999994,0,0,0,0,0,0,0,1,0,0,0,false,false,true,-254.95,1203.2899,17.01,-0.004512747,-0.0016427154,0.94096357,-0.3384735,-246.36101,459.951,8.331,-0.00021,-0.00021,1.9692099
112.941666,2000,0,91.24,0.000002697398,0.000002697398,0.000002697398,0.99999994,0,0,0,0,0,0,0,1,0,0,0,false,false,true,-257,1207.12,17.01,-0.0045019574,-0.001680479,0.93815476,-0.34618267,-243.931,457.921,8.331,-0.00021,-0.00021,1.97171
112.95,2000,0,91.24,0.000002697398,0.000002697398,0.000002697398,0.99999994,0,0,0,0,0,0,0,1,0,0,0,false,false,true,-259.03,1210.94,17.01,-0.0044911676,-0.0017182425,0.93528,-0.3538757,-241.451,455.901,8.331,-0.00030999997,-0.00010999999,1.97321
112.958336,2000,0,91.24,0.000002697398,0.000002697398,0.000002697398,0.99999994,0,0,0,0,0,0,0,1,0,0,0,false,false,true,-261.04,1214.74,17.01,-0.004474983,-0.0017560062,0.9323393,-0.36155248,-238.921,453.901,8.331,-0.00030999997,0,1.97371
112.96667,2000,0,91.24,0.000002697398,0.000002697398,0.000002697398,0.99999994,0,0,0,0,0,0,0,1,0,0,0,false,false,true,-263.03,1218.52,17.01,-0.004458799,-0.0017937698,0.92933434,-0.3692078,-236.351,451.921,8.331,-0.00030999997,0,1.97331
112.975,2000,0,91.24,0.000002697398,0.000002697398,0.000002697398,0.99999994,0,0,0,0,0,0,0,1,0,0,0,false,false,true,-265,1222.2899,17.01,-0.004442614,-0.001831533,0.9262674,-0.376836,-233.741,449.961,8.331,-0.00030999997,0,1.97201
112.98333,2000,0,91.24,0.000002697398,0.000002697398,0.000002697398,0.99999994,0,0,0,0,0,0,0,1,0,0,0,false,false,true,-266.94998,1226.0399,17.01,-0.00442643,-0.0018692969,0.92314076,-0.38443196,-231.091,448.031,8.331,-0.00030999997,0,1.96981
112.99167,2000,0,91.24,0.000002697398,0.000002697398,0.000002697398,0.99999994,0,0,0,0,0,0,0,1,0,0,0,false,false,true,-268.88,1229.77,17.01,-0.0044102455,-0.0019016657,0.91995454,-0.3919955,-228.401,446.131,8.331,-0.00030999997,0,1.96661
113,2000,0,91.24,0.000002697398,0.000002697398,0.000002697398,0.99999994,0,0,0,0,0,0,0,1,0,0,0,false,false,true,-270.78,1233.49,17.01,-0.0043940614,-0.0019340344,0.9167113,-0.39952123,-225.681,444.261,8.331,-0.00030999997,0,1.96261
113.00833,2000,0,91.24,0.000002697398,0.000002697398,0.000002697398,0.99999994,0,0,0,0,0,0,0,1,0,0,0,false,false,true,-272.66,1237.19,17.01,-0.004377877,-0.001966403,0.91341376,-0.40700385,-222.931,442.431,8.331,-0.00021,0,1.9577099
113.01667,2000,0,91.24,0.000002697398,0.000002697398,0.000002697398,0.99999994,0,0,0,0,0,0,0,1,0,0,0,false,false,true,-274.52,1240.88,17.01,-0.0043616924,-0.001998772,0.91006243,-0.4144433,-220.151,440.631,8.331,-0.00010999999,0,1.95191
113.025,2000,0,91.24,0.000002697398,0.000002697398,0.000002697398,0.99999994,0,0,0,0,0,0,0,1,0,0,0,false,false,true,-276.35,1244.5499,17.01,-0.0043455083,-0.0020311407,0.90666276,-0.4218288,-217.351,438.871,8.331,0,0,1.94521
113.03333,2000,0,91.24,0.000002697398,0.000002697398,0.000002697398,0.99999994,0,0,0,0,0,0,0,1,0,0,0,false,false,true,-278.16,1248.21,17.01,-0.0043293242,-0.0020689045,0.90321296,-0.4291658,-214.531,437.151,8.331,0,0,1.9377099
113.041664,2000,0,91.24,0.000002697398,0.000002697398,0.000002697398,0.99999994,0,0,0,0,0,0,0,1,0,0,0,false,false,true,-279.94998,1251.85,17.01,-0.0043131392,-0.002101273,0.8997189,-0.4364434,-211.69101,435.481,8.331,0,0,1.92931
113.05,2000,0,91.24,0.000002697398,0.000002697398,0.000002697398,0.99999994,0,0,0,0,0,0,0,1,0,0,0,false,false,true,-281.71,1255.48,17.01,-0.004296955,-0.0021336419,0.89618146,-0.44366163,-208.841,433.85098,8.331,0,0,1.92011
113.058334,2000,0,91.24,0.000002697398,0.000002697398,0.000002697398,0.99999994,0,0,0,0,0,0,0,1,0,0,0,false,false,true,-283.44998,1259.1,17.01,-0.0042807707,-0.0021660107,0.89260435,-0.45081517,-205.981,432.271,8.331,0,0,1.91001
113.066666,2000,0,91.24,0.000002697398,0.000002697398,0.000002697398,0.99999994,0,0,0,0,0,0,0,1,0,0,0,false,false,true,-285.16998,1262.7,17.01,-0.0042645866,-0.0021983795,0.8889887,-0.457904,-203.121,430.731,8.331,0,0,1.89911
113.075,2000,0,91.24,0.000002697398,0.000002697398,0.000002697398,0.99999994,0,0,0,0,0,0,0,1,0,0,0,false,false,true,-286.86,1266.2899,17.01,-0.0042484016,-0.002230748,0.88533825,-0.4649226,-200.251,429.241,8.331,0,0,1.8874099
113.083336,2000,0,91.24,0.000002697398,0.000002697398,0.000002697398,0.99999994,0,0,0,0,0,0,0,1,0,0,0,false,false,true,-288.53,1269.87,17.01,-0.004232218,-0.002263117,0.88165444,-0.47187114,-197.391,427.801,8.331,0,0.00010999999,1.87491
113.09167,2000,0,91.24,0.000002697398,0.000002697398,0.000002697398,0.99999994,0,0,0,0,0,0,0,1,0,0,0,false,false,true,-290.16998,1273.44,17.01,-0.0042160326,-0.0022954855,0.8779412,-0.4787441,-194.531,426.411,8.331,0,0.00010999999,1.86171
113.1,2000,0,91.24,0.000002697398,0.000002697398,0.000002697398,0.99999994,0,0,0,0,0,0,0,1,0,0,0,false,false,true,-291.79,1276.99,17.01,-0.0041998485,-0.0023278545,0.8742003,-0.4855416,-191.681,425.07098,8.331,0,0.00021,1.84771
