time,ball_loc_x,ball_loc_y,ball_loc_z,ball_rot_x,ball_rot_y,ball_rot_z,ball_rot_w,ball_vel_x,ball_vel_y,ball_vel_z,ball_ang_x,ball_ang_y,ball_ang_z,player0_throttle,player0_steer,player0_pitch,player0_yaw,player0_roll,player0_jump,player0_boost,player0_handbrake,player0_loc_x,player0_loc_y,player0_loc_z,player0_rot_x,player0_rot_y,player0_rot_z,player0_rot_w,player0_vel_x,player0_vel_y,player0_vel_z,player0_ang_x,player0_ang_y,player0_ang_z
116.875,2000,0,91.24,0.000002697398,0.000002697398,0.000002697398,0.99999994,0,0,0,0,0,0,0,0,0,0,0,false,false,false,0,0.14,17.01,-0.00336905,0.0033798397,0.7071014,0.7070959,0,0.011,8.321,-0.00051,0,0
116.88333,2000,0,73,0.000002697398,0.000002697398,0.000002697398,0.99999994,0,0,0,0,0,0,0.8976378,0,0,0,0,false,false,false,0,0,16.94,0.0000026973983,0.0000026973983,0.70710677,0.70710677,0,0,2.041,-0.050809998,0,0
116.89167,2000,0,87.6,0.000002697398,0.000002697398,0.000002697398,0.99999994,0,0,0,0,0,0,0.8976378,0,0,0,0,false,false,false,0,0,16.89,-0.00014835689,0.00015375168,0.7071067,0.7071067,0,11.961,3.8809998,-0.085609995,0,0
116.9,2000,0,90.52,0.000002697398,0.000002697398,0.000002697398,0.99999994,0,0,0,0,0,0,0.8976378,0,0,0,0,false,false,false,0,0.099999994,16.85,-0.00040191234,0.00040730715,0.70710653,0.70710677,0,23.831,5.481,-0.107209995,0,0
116.90833,2000,0,91.1,0.000002697398,0.000002697398,0.000002697398,0.99999994,0,0,0,0,0,0,0.8976378,0,0,0,0,false,false,false,0,0.29999998,16.83,-0.00072020525,0.00072560005,0.7071067,0.707106,0,35.611,6.791,-0.11630999,0,0
116.916664,2000,0,91.22,0.000002697398,0.000002697398,0.000002697398,0.99999994,0,0,0,0,0,0,0.8976378,0,0,0,0,false,false,false,0,0.59999996,16.82,-0.0010654721,0.001070867,0.70710516,0.7071067,0,47.301,7.7409997,-0.114609994,0,0
116.925,2000,0,91.24,0.000002697398,0.000002697398,0.000002697398,0.99999994,0,0,0,0,0,0,0.8976378,0,0,0,0,false,false,false,0,0.98999995,16.82,-0.0014053443,0.0014107391,0.7071067,0.70710397,0,58.900997,8.431,-0.10651,0,0
116.933334,2000,0,91.24,0.000002697398,0.000002697398,0.000002697398,0.99999994,0,0,0,0,0,0,0.8976378,0,0,0,0,false,false,false,0,1.48,16.82,-0.0017182427,0.0017236375,0.707108,0.70710135,0,70.410995,8.9210005,-0.094909996,0,0
116.941666,2000,0,91.24,0.000002697398,0.000002697398,0.000002697398,0.99999994,0,0,0,0,0,0,0.8976378,0,0,0,0,false,false,false,0,2.07,16.83,-0.001998772,0.0020041666,0.70710653,0.7071013,0,81.831,9.281,-0.08200999,0,0
116.95,2000,0,91.24,0.000002697398,0.000002697398,0.000002697398,0.99999994,0,0,0,0,0,0,0.8976378,0,0,0,0,false,false,false,0,2.75,16.84,-0.0022415377,0.0022469326,0.70710504,0.7071013,0,93.160995,9.521,-0.06911,0,0
116.958336,2000,0,91.24,0.000002697398,0.000002697398,0.000002697398,0.99999994,0,0,0,0,0,0,0.8976378,0,0,0,0,false,false,false,0,3.53,16.85,-0.00244654,0.0024519349,0.70710367,0.7071013,0,104.410995,9.681,-0.056909997,0,0
116.96667,2000,0,91.24,0.000002697398,0.000002697398,0.000002697398,0.99999994,0,0,0,0,0,0,0.8976378,0,0,0,0,false,false,false,0,4.4,16.859999,-0.0026137787,0.0026191734,0.7071025,0.7071013,0,115.571,9.771,-0.045909997,0,0
116.975,2000,0,91.24,0.000002697398,0.000002697398,0.000002697398,0.99999994,0,0,0,0,0,0,0.8976378,0,0,0,0,false,false,false,0,5.3599997,16.869999,-0.0027486486,0.0027540433,0.70710146,0.7071013,0,126.65099,9.821,-0.036409996,0,0
116.98333,2000,0,91.24,0.000002697398,0.000002697398,0.000002697398,0.99999994,0,0,0,0,0,0,0.8976378,0,0,0,0,false,false,false,0,6.42,16.88,-0.0028565445,0.0028619394,0.70710063,0.7071013,0,137.641,9.841001,-0.02841,0,0
116.99167,2000,0,91.24,0.000002697398,0.000002697398,0.000002697398,0.99999994,0,0,0,0,0,0,0.8976378,0,0,0,0,false,false,false,0,7.5699997,16.89,-0.0029428613,0.002948256,0.7071013,0.7070999,0,148.55101,9.821,-0.02221,0,0
117,2000,0,91.24,0.000002697398,0.000002697398,0.000002697398,0.99999994,0,0,0,0,0,0,0.8976378,0,0,0,0,false,false,false,0,8.809999,16.9,-0.003007599,0.0030129936,0.7070993,0.7071013,0,159.371,9.761001,-0.01771,0,0
117.00833,2000,0,91.24,0.000002697398,0.000002697398,0.000002697398,0.99999994,0,0,0,0,0,0,0.8976378,0,0,0,0,false,false,false,0,10.139999,16.91,-0.0030615467,0.0030669416,0.7071013,0.7070989,0,170.11101,9.681,-0.0143099995,0,0
117.01667,2000,0,91.24,0.000002697398,0.000002697398,0.000002697398,0.99999994,0,0,0,0,0,0,0.8976378,0,0,0,0,false,false,false,0,11.559999,16.92,-0.0031047051,0.0031101,0.7070985,0.7071013,0,180.771,9.591001,-0.011709999,0,0
117.025,2000,0,91.24,0.000002697398,0.000002697398,0.000002697398,0.99999994,0,0,0,0,0,0,0.8976378,0,0,0,0,false,false,false,0,13.07,16.93,-0.003137074,0.0031424686,0.7070959,0.7071036,0,191.341,9.491,-0.009709999,0,0
117.03333,2000,0,91.24,0.000002697398,0.000002697398,0.000002697398,0.99999994,0,0,0,0,0,0,0.8976378,0,0,0,0,false,false,false,0,14.66,16.94,-0.003164048,0.003169443,0.707096,0.7071034,0,201.83101,9.391,-0.00821,0,0
117.041664,2000,0,91.24,0.000002697398,0.000002697398,0.000002697398,0.99999994,0,0,0,0,0,0,0.8976378,0,0,0,0,false,false,false,0,16.34,16.949999,-0.003185627,0.003191022,0.7070959,0.70710313,0,212.241,9.281,-0.00701,0,0
117.05,2000,0,91.24,0.000002697398,0.000002697398,0.000002697398,0.99999994,0,0,0,0,0,0,0.8976378,0,0,0,0,false,false,false,0,18.109999,16.96,-0.0032072063,0.0032126012,0.7070959,0.70710295,0,222.571,9.1710005,-0.00611,0,0
117.058334,2000,0,91.24,0.000002697398,0.000002697398,0.000002697398,0.99999994,0,0,0,0,0,0,0.8976378,0,0,0,0,false,false,false,0,19.96,16.97,-0.0032233908,0.0032287855,0.7070959,0.70710284,0,232.821,9.061,-0.00531,0,0
117.066666,2000,0,91.24,0.000002697398,0.000002697398,0.000002697398,0.99999994,0,0,0,0,0,0,0.8976378,0,0,0,0,false,false,false,0,21.9,16.98,-0.003239575,0.0032449698,0.7070959,0.70710266,0,242.991,8.951,-0.00461,0,0
117.075,2000,0,91.24,0.000002697398,0.000002697398,0.000002697398,0.99999994,0,0,0,0,0,0,0.8976378,0,0,0,0,false,false,false,0,23.92,16.99,-0.0032557594,0.0032611543,0.7070959,0.70710254,0,253.091,8.841001,-0.00401,0,0
117.083336,2000,0,91.24,0.000002697398,0.000002697398,0.000002697398,0.99999994,0,0,0,0,0,0,0.8976378,0,0,0,0,false,false,false,0,26.029999,17,-0.003266549,0.003271944,0.7070959,0.7071024,0,263.111,8.731,-0.00341,0,0
117.09167,2000,0,91.24,0.000002697398,0.000002697398,0.000002697398,0.99999994,0,0,0,0,0,0,0.8976378,0,0,0,0,false,false,false,0,28.22,17.01,-0.0032773386,0.0032827335,0.7070959,0.7071023,0,273.051,8.621,-0.00301,0,0
117.1,2000,0,91.24,0.000002697398,0.000002697398,0.000002697398,0.99999994,0,0,0,0,0,0,0.8976378,0,0,0,0,false,false,false,0,30.5,17.01,-0.0032881282,0.003293523,0.7070959,0.70710224,0,282.911,8.511001,-0.00261,0,0
117.10833,2000,0,91.24,0.000002697398,0.000002697398,0.000002697398,0.99999994,0,0,0,0,0,0,0.8976378,0,0,0,0,false,false,false,0,32.86,17.01,-0.0032935233,0.003298918,0.707096,0.7071022,0,292.701,8.441,-0.00221,0,0
117.11667,2000,0,91.24,0.000002697398,0.000002697398,0.000002697398,0.99999994,0,0,0,0,0,0,0.8976378,0,0,0,0,false,false,false,0,35.3,17.01,-0.0032989178,0.0033043127,0.7070959,0.7071021,0,302.411,8.391,-0.00201,0,0
117.125,2000,0,91.24,0.000002697398,0.000002697398,0.000002697398,0.99999994,0,0,0,0,0,0,0.8976378,0,0,0,0,false,false,false,0,37.82,17.01,-0.0033043127,0.0033097074,0.7070959,0.70710206,0,312.051,8.361,-0.0018099999,0,0
117.13333,2000,0,91.24,0.000002697398,0.000002697398,0.000002697398,0.99999994,0,0,0,0,0,0,0.8976378,0,0,0,0,false,false,false,0,40.42,17.01,-0.0033097074,0.0033151023,0.7070959,0.707102,0,321.611,8.341001,-0.0016099999,0,0
117.14167,2000,0,91.24,0.000002697398,0.000002697398,0.000002697398,0.99999994,0,0,0,0,0,0,0.8976378,0,0,0,0,false,false,false,0,43.1,17.01,-0.0033151023,0.003320497,0.7070959,0.707102,0,331.101,8.331,-0.0014099999,0,0
117.15,2000,0,91.24,0.000002697398,0.000002697398,0.000002697398,0.99999994,0,0,0,0,0,0,0.8976378,0,0,0,0,false,false,false,0,45.86,17.01,-0.0033204972,0.0033258921,0.707096,0.70710194,0,340.521,8.321,-0.0012099999,0,0
117.15833,2000,0,91.24,0.000002697398,0.000002697398,0.000002697398,0.99999994,0,0,0,0,0,0,0.8976378,0,0,0,0,false,false,false,0,48.7,17.01,-0.003325892,0.0033312866,0.7070959,0.7071019,0,349.861,8.321,-0.0010099999,0,0
117.166664,2000,0,91.24,0.000002697398,0.000002697398,0.000002697398,0.99999994,0,0,0,0,0,0,0.8976378,0,0,0,0,false,false,false,0,51.62,17.01,-0.0033312866,0.0033366815,0.7070959,0.7071018,0,359.131,8.321,-0.00091,0,0
117.175,2000,0,91.24,0.000002697398,0.000002697398,0.000002697398,0.99999994,0,0,0,0,0,0,0.8976378,0,0,0,0,false,false,false,0,54.61,17.01,-0.0033312866,0.0033420762,0.7070959,0.7071018,0,368.331,8.321,-0.00071,0,0
117.183334,2000,0,91.24,0.000002697398,0.000002697398,0.000002697398,0.99999994,0,0,0,0,0,0,0.8976378,0,0,0,0,false,false,false,0,57.68,17.01,-0.0033312866,0.0033420762,0.7070959,0.7071018,0,377.461,8.321,-0.00061,0,0
117.191666,2000,0,91.24,0.000002697398,0.000002697398,0.000002697398,0.99999994,0,0,0,0,0,0,0.8976378,0,0,0,0,false,false,false,0,60.829998,17.01,-0.0033312866,0.0033420762,0.7070959,0.7071018,0,386.521,8.321,-0.00051,0,0
117.2,2000,0,91.24,0.000002697398,0.000002697398,0.000002697398,0.99999994,0,0,0,0,0,0,0.8976378,0,0,0,0,false,false,false,0,64.049995,17.01,-0.0033312866,0.0033420762,0.7070959,0.7071018,0,395.511,8.321,-0.00051,0,0
117.208336,2000,0,91.24,0.000002697398,0.000002697398,0.000002697398,0.99999994,0,0,0,0,0,0,0.8976378,0,0,0,0,false,false,false,0,67.35,17.01,-0.0033312866,0.0033420762,0.7070959,0.7071018,0,404.431,8.321,-0.00051,0,0
117.21667,2000,0,91.24,0.000002697398,0.000002697398,0.000002697398,0.99999994,0,0,0,0,0,0,0.8976378,0,0,0,0,false,false,false,0,70.72,17.01,-0.0033312866,0.0033420762,0.7070959,0.7071018,0,413.281,8.321,-0.00051,0,0
117.225,2000,0,91.24,0.000002697398,0.000002697398,0.000002697398,0.99999994,0,0,0,0,0,0,0.8976378,0,0,0,0,false,false,false,0,74.159996,17.01,-0.0033312866,0.0033420762,0.7070959,0.7071018,0,422.061,8.321,-0.00051,0,0
117.23333,2000,0,91.24,0.000002697398,0.000002697398,0.000002697398,0.99999994,0,0,0,0,0,0,0.8976378,0,0,0,0,false,false,false,0,77.68,17.01,-0.0033312866,0.0033420762,0.7070959,0.7071018,0,430.781,8.321,-0.00051,0,0
117.24167,2000,0,91.24,0.000002697398,0.000002697398,0.000002697398,0.99999994,0,0,0,0,0,0,0.8976378,0,0,0,0,false,false,false,0,81.27,17.01,-0.0033312866,0.0033420762,0.7070959,0.7071018,0,439.431,8.321,-0.00051,0,0
117.25,2000,0,91.24,0.000002697398,0.000002697398,0.000002697398,0.99999994,0,0,0,0,0,0,0.8976378,0,0,0,0,false,false,false,0,84.93,17.01,-0.0033312866,0.0033420762,0.7070959,0.7071018,0,448.011,8.321,-0.00051,0,0
117.25833,2000,0,91.24,0.000002697398,0.000002697398,0.000002697398,0.99999994,0,0,0,0,0,0,0.8976378,0,0,0,0,false,false,false,0,88.659996,17.01,-0.0033312866,0.0033420762,0.7070959,0.7071018,0,456.531,8.321,-0.00051,0,0
117.26667,2000,0,91.24,0.000002697398,0.000002697398,0.000002697398,0.99999994,0,0,0,0,0,0,0.8976378,0,0,0,0,false,false,false,0,92.46,17.01,-0.0033312866,0.0033420762,0.7070959,0.7071018,0,464.981,8.321,-0.00051,0,0
117.275,2000,0,91.24,0.000002697398,0.000002697398,0.000002697398,0.99999994,0,0,0,0,0,0,0.8976378,0,0,0,0,false,false,false,0,96.329994,17.01,-0.0033312866,0.0033420762,0.7070959,0.7071018,0,473.371,8.321,-0.00051,0,0
117.28333,2000,0,91.24,0.000002697398,0.000002697398,0.000002697398,0.99999994,0,0,0,0,0,0,0.8976378,0,0,0,0,false,false,false,0,100.27,17.01,-0.0033312866,0.0033420762,0.7070959,0.7071018,0,481.691,8.321,-0.00051,0,0
117.291664,2000,0,91.24,0.000002697398,0.000002697398,0.000002697398,0.99999994,0,0,0,0,0,0,0.8976378,0,0,0,0,false,false,false,0,104.28,17.01,-0.0033312866,0.0033420762,0.7070959,0.7071018,0,489.951,8.321,-0.00051,0,0
117.3,2000,0,91.24,0.000002697398,0.000002697398,0.000002697398,0.99999994,0,0,0,0,0,0,0.8976378,0,0,0,0,false,false,false,0,108.36,17.01,-0.0033312866,0.0033420762,0.7070959,0.7071018,0,498.141,8.321,-0.00051,0,0
117.308334,2000,0,91.24,0.000002697398,0.000002697398,0.000002697398,0.99999994,0,0,0,0,0,0,0.8976378,0,0,0,0,false,false,false,0,112.509995,17.01,-0.0033312866,0.0033420762,0.7070959,0.7071018,0,506.271,8.321,-0.00051,0,0
117.316666,2000,0,91.24,0.000002697398,0.000002697398,0.000002697398,0.99999994,0,0,0,0,0,0,0.8976378,0,0,0,0,false,false,false,0,116.729996,17.01,-0.0033312866,0.0033420762,0.7070959,0.7071018,0,514.34094,8.321,-0.00061,0,0
117.325,2000,0,91.24,0.000002697398,0.000002697398,0.000002697398,0.99999994,0,0,0,0,0,0,0.8976378,0,0,0,0,false,false,false,0,121.02,17.01,-0.0033312866,0.0033420762,0.7070959,0.7071018,0,522.35095,8.321,-0.00061,0,0
117.333336,2000,0,91.24,0.000002697398,0.000002697398,0.000002697398,0.99999994,0,0,0,0,0,0,0.8976378,0,0,0,0,false,false,false,0,125.369995,17.01,-0.0033312866,0.0033420762,0.7070959,0.7071018,0,530.30096,8.321,-0.00061,0,0
117.34167,2000,0,91.24,0.000002697398,0.000002697398,0.000002697398,0.99999994,0,0,0,0,0,0,0.8976378,0,0,0,0,false,false,false,0,129.79,17.01,-0.0033312866,0.0033420762,0.7070959,0.7071018,0,538.18097,8.321,-0.00061,0,0
117.35,2000,0,91.24,0.000002697398,0.000002697398,0.000002697398,0.99999994,0,0,0,0,0,0,0.8976378,0,0,0,0,false,false,false,0,134.27,17.01,-0.0033312866,0.0033420762,0.7070959,0.7071018,0,546.001,8.321,-0.00061,0,0
117.35833,2000,0,91.24,0.000002697398,0.000002697398,0.000002697398,0.99999994,0,0,0,0,0,0,0.8976378,0,0,0,0,false,false,false,0,138.81999,17.01,-0.0033312866,0.0033420762,0.7070959,0.7071018,0,553.761,8.321,-0.00061,0,0
117.36667,2000,0,91.24,0.000002697398,0.000002697398,0.000002697398,0.99999994,0,0,0,0,0,0,0.8976378,0,0,0,0,false,false,false,0,143.43,17.01,-0.0033312866,0.0033420762,0.7070959,0.7071018,0,561.46094,8.321,-0.00061,0,0
117.375,2000,0,91.24,0.000002697398,0.000002697398,0.000002697398,0.99999994,0,0,0,0,0,0,0.8976378,0,0,0,0,false,false,false,0,148.11,17.01,-0.0033312866,0.0033420762,0.7070959,0.7071018,0,569.10095,8.321,-0.00061,0,0
117.38333,2000,0,91.24,0.000002697398,0.000002697398,0.000002697398,0.99999994,0,0,0,0,0,0,0.8976378,0,0,0,0,false,false,false,0,152.84999,17.01,-0.0033312866,0.0033420762,0.7070959,0.7071018,0,576.691,8.321,-0.00061,0,0
117.39167,2000,0,91.24,0.000002697398,0.000002697398,0.000002697398,0.99999994,0,0,0,0,0,0,0.8976378,0,0,0,0,false,false,false,0,157.66,17.01,-0.0033312866,0.0033420762,0.7070959,0.7071018,0,584.22095,8.321,-0.00061,0,0
117.4,2000,0,91.24,0.000002697398,0.000002697398,0.000002697398,0.99999994,0,0,0,0,0,0,0.8976378,0,0,0,0,false,false,false,0,162.53,17.01,-0.0033312866,0.0033420762,0.7070959,0.7071018,0,591.691,8.321,-0.00061,0,0
117.40833,2000,0,91.24,0.000002697398,0.000002697398,0.000002697398,0.99999994,0,0,0,0,0,0,0.8976378,0,0,0,0,false,false,false,0,167.45999,17.01,-0.0033312866,0.0033420762,0.7070959,0.7071018,0,599.10095,8.321,-0.00061,0,0
117.416664,2000,0,91.24,0.000002697398,0.000002697398,0.000002697398,0.99999994,0,0,0,0,0,0,0.8976378,0,0,0,0,false,false,false,0,172.45,17.01,-0.0033312866,0.0033420762,0.7070959,0.7071018,0,606.46094,8.321,-0.00071,0,0
117.425,2000,0,91.24,0.000002697398,0.000002697398,0.000002697398,0.99999994,0,0,0,0,0,0,0.8976378,0,0,0,0,false,false,false,0,177.5,17.01,-0.0033312866,0.0033420762,0.7070959,0.7071018,0,613.761,8.321,-0.00071,0,0
117.433334,2000,0,91.24,0.000002697398,0.000002697398,0.000002697398,0.99999994,0,0,0,0,0,0,0.8976378,0,0,0,0,false,false,false,0,182.61,17.01,-0.0033312866,0.0033420762,0.7070959,0.7071018,0,621.001,8.321,-0.00071,0,0
117.441666,2000,0,91.24,0.000002697398,0.000002697398,0.000002697398,0.99999994,0,0,0,0,0,0,0.8976378,0,0,0,0,false,false,false,0,187.79,17.01,-0.0033312866,0.0033420762,0.7070959,0.7071018,0,628.191,8.321,-0.00071,0,0
117.45,2000,0,91.24,0.000002697398,0.000002697398,0.000002697398,0.99999994,0,0,0,0,0,0,0.8976378,0,0,0,0,false,false,false,0,193.01999,17.01,-0.0033312866,0.0033420762,0.7070959,0.7071018,0,635.321,8.321,-0.00071,0,0
117.458336,2000,0,91.24,0.000002697398,0.000002697398,0.000002697398,0.99999994,0,0,0,0,0,0,0.8976378,0,0,0,0,false,false,false,0,198.31,17.01,-0.0033312866,0.0033420762,0.7070959,0.7071018,0,642.40094,8.321,-0.00071,0,0
117.46667,2000,0,91.24,0.000002697398,0.000002697398,0.000002697398,0.99999994,0,0,0,0,0,0,0.8976378,0,0,0,0,false,false,false,0,203.65999,17.01,-0.0033312866,0.0033420762,0.7070959,0.7071018,0,649.42096,8.321,-0.00071,0,0
117.475,2000,0,91.24,0.000002697398,0.000002697398,0.000002697398,0.99999994,0,0,0,0,0,0,0.8976378,0,0,0,0,false,false,false,0,209.06999,17.01,-0.0033312866,0.0033420762,0.7070959,0.7071018,0,656.391,8.321,-0.00071,0,0
117.48333,2000,0,91.24,0.000002697398,0.000002697398,0.000002697398,0.99999994,0,0,0,0,0,0,0.8976378,0,0,0,0,false,false,false,0,214.54,17.01,-0.0033312866,0.0033420762,0.7070959,0.7071018,0,663.30096,8.321,-0.00071,0,0
117.49167,2000,0,91.24,0.000002697398,0.000002697398,0.000002697398,0.99999994,0,0,0,0,0,0,0.8976378,0,0,0,0,false,false,false,0,220.06999,17.01,-0.0033312866,0.0033420762,0.7070959,0.7071018,0,670.16095,8.321,-0.00071,0,0
117.5,2000,0,91.24,0.000002697398,0.000002697398,0.000002697398,0.99999994,0,0,0,0,0,0,0.8976378,0,0,0,0,false,false,false,0,225.65,17.01,-0.0033312866,0.0033420762,0.7070959,0.7071018,0,676.97095,8.321,-0.00071,0,0
117.50833,2000,0,91.24,0.000002697398,0.000002697398,0.000002697398,0.99999994,0,0,0,0,0,0,0.8976378,0,0,0,0,false,false,false,0,231.29,17.01,-0.0033312866,0.0033420762,0.7070959,0.7071018,0,683.73096,8.321,-0.00071,0,0
117.51667,2000,0,91.24,0.000002697398,0.000002697398,0.000002697398,0.99999994,0,0,0,0,0,0,0.8976378,0,0,0,0,false,false,false,0,236.98999,17.01,-0.0033312866,0.0033420762,0.7070959,0.7071018,0,690.43097,8.321,-0.00071,0,0
117.525,2000,0,91.24,0.000002697398,0.000002697398,0.000002697398,0.99999994,0,0,0,0,0,0,0.8976378,0,0,0,0,false,false,false,0,242.73999,17.01,-0.0033312866,0.0033420762,0.7070959,0.7071018,0,697.08093,8.321,-0.00071,0,0
117.53333,2000,0,91.24,0.000002697398,0.000002697398,0.000002697398,0.99999994,0,0,0,0,0,0,0.8976378,0,0,0,0,false,false,false,0,248.54999,17.01,-0.0033312866,0.0033420762,0.7070959,0.7071018,0,703.68097,8.321,-0.00071,0,0
117.541664,2000,0,91.24,0.000002697398,0.000002697398,0.000002697398,0.99999994,0,0,0,0,0,0,0.8976378,0,0,0,0,false,false,false,0,254.40999,17.01,-0.0033312866,0.0033420762,0.7070959,0.7071018,0,710.23096,8.321,-0.00081,0,0
117.55,2000,0,91.24,0.000002697398,0.000002697398,0.000002697398,0.99999994,0,0,0,0,0,0,0.8976378,0,0,0,0,false,false,false,0,260.33,17.01,-0.0033312866,0.0033420762,0.7070959,0.7071018,0,716.73096,8.321,-0.00081,0,0
117.558334,2000,0,91.24,0.000002697398,0.000002697398,0.000002697398,0.99999994,0,0,0,0,0,0,0.8976378,0,0,0,0,false,false,false,0,266.3,17.01,-0.0033312866,0.0033420762,0.7070959,0.7071018,0,723.18097,8.321,-0.00081,0,0
117.566666,2000,0,91.24,0.000002697398,0.000002697398,0.000002697398,0.99999994,0,0,0,0,0,0,0.8976378,0,0,0,0,false,false,false,0,272.33,17.01,-0.0033312866,0.0033420762,0.7070959,0.7071018,0,729.58093,8.321,-0.00081,0,0
117.575,2000,0,91.24,0.000002697398,0.000002697398,0.000002697398,0.99999994,0,0,0,0,0,0,0.8976378,0,0,0,0,false,false,false,0,278.41,17.01,-0.0033312866,0.0033420762,0.7070959,0.7071018,0,735.93097,8.321,-0.00081,0,0
117.583336,2000,0,91.24,0.000002697398,0.000002697398,0.000002697398,0.99999994,0,0,0,0,0,0,0.8976378,0,0,0,0,false,false,false,0,284.54,17.01,-0.0033312866,0.0033420762,0.7070959,0.7071018,0,742.23096,8.321,-0.00081,0,0
117.59167,2000,0,91.24,0.000002697398,0.000002697398,0.000002697398,0.99999994,0,0,0,0,0,0,0.8976378,0,0,0,0,false,false,false,0,290.72998,17.01,-0.0033312866,0.0033420762,0.7070959,0.7071018,0,748.48096,8.321,-0.00081,0,0
117.6,2000,0,91.24,0.000002697398,0.000002697398,0.000002697398,0.99999994,0,0,0,0,0,0,0.8976378,0,0,0,0,false,false,false,0,296.97,17.01,-0.0033312866,0.0033420762,0.7070959,0.7071018,0,754.691,8.321,-0.00081,0,0
117.60833,2000,0,91.24,0.000002697398,0.000002697398,0.000002697398,0.99999994,0,0,0,0,0,0,0.8976378,0,0,0,0,false,false,false,0,303.25998,17.01,-0.0033312866,0.0033420762,0.7070959,0.7071018,0,760.85095,8.321,-0.00081,0,0
117.61667,2000,0,91.24,0.000002697398,0.000002697398,0.000002697398,0.99999994,0,0,0,0,0,0,0.8976378,0,0,0,0,false,false,false,0,309.6,17.01,-0.0033312866,0.0033420762,0.7070959,0.7071018,0,766.96094,8.321,-0.00081,0,0
117.625,2000,0,91.24,0.000002697398,0.000002697398,0.000002697398,0.99999994,0,0,0,0,0,0,0.8976378,0,0,0,0,false,false,false,0,315.99,17.01,-0.0033312866,0.0033420762,0.7070959,0.7071018,0,773.02094,8.321,-0.00081,0,0
117.63333,2000,0,91.24,0.000002697398,0.000002697398,0.000002697398,0.99999994,0,0,0,0,0,0,0.8976378,0,0,0,0,false,false,false,0,322.43,17.01,-0.0033312866,0.0033420762,0.7070959,0.7071018,0,779.04095,8.321,-0.00081,0,0
117.64167,2000,0,91.24,0.000002697398,0.000002697398,0.000002697398,0.99999994,0,0,0,0,0,0,0.8976378,0,0,0,0,false,false,false,0,328.91998,17.01,-0.0033312866,0.0033420762,0.7070959,0.7071018,0,785.011,8.321,-0.00081,0,0
117.65,2000,0,91.24,0.000002697398,0.000002697398,0.000002697398,0.99999994,0,0,0,0,0,0,0.8976378,0,0,0,0,false,false,false,0,335.46,17.01,-0.0033312866,0.0033420762,0.7070959,0.7071018,0,790.93097,8.321,-0.00081,0,0
117.65833,2000,0,91.24,0.000002697398,0.000002697398,0.000002697398,0.99999994,0,0,0,0,0,0,0.8976378,0,0,0,0,false,false,false,0,342.05,17.01,-0.0033312866,0.0033420762,0.7070959,0.7071018,0,796.811,8.321,-0.00081,0,0
117.666664,2000,0,91.24,0.000002697398,0.000002697398,0.000002697398,0.99999994,0,0,0,0,0,0,0.8976378,0,0,0,0,false,false,false,0,348.69,17.01,-0.0033312866,0.0033420762,0.7070959,0.7071018,0,802.6409,8.321,-0.00081,0,0
117.675,2000,0,91.24,0.000002697398,0.000002697398,0.000002697398,0.99999994,0,0,0,0,0,0,0.8976378,0,0,0,0,false,false,false,0,355.38,17.01,-0.0033312866,0.0033420762,0.7070959,0.7071018,0,808.43097,8.321,-0.00091,0,0
117.683334,2000,0,91.24,0.000002697398,0.000002697398,0.000002697398,0.99999994,0,0,0,0,0,0,0.8976378,0,0,0,0,false,false,false,0,362.12,17.01,-0.0033312866,0.003347471,0.7070959,0.70710176,0,814.17096,8.321,-0.00091,0,0
117.691666,2000,0,91.24,0.000002697398,0.000002697398,0.000002697398,0.99999994,0,0,0,0,0,0,0.8976378,0,0,0,0,false,false,false,0,368.9,17.01,-0.0033312868,0.003352866,0.707096,0.70710176,0,819.871,8.321,-0.00091,0,0
117.7,2000,0,91.24,0.000002697398,0.000002697398,0.000002697398,0.99999994,0,0,0,0,0,0,0.8976378,0,0,0,0,false,false,false,0,375.72998,17.01,-0.0033312866,0.0033582605,0.7070959,0.7071017,0,825.53094,8.321,-0.00081,-0.00010999999,0
117.708336,2000,0,91.24,0.000002697398,0.000002697398,0.000002697398,0.99999994,0,0,0,0,0,0,0.8976378,0,0,0,0,false,false,false,0,382.61,17.01,-0.0033312866,0.0033582605,0.7070959,0.7071017,0,831.1409,8.321,-0.00071,-0.00021,0
117.71667,2000,0,91.24,0.000002697398,0.000002697398,0.000002697398,0.99999994,0,0,0,0,0,0,0.8976378,0,0,0,0,false,false,false,0,389.53998,17.01,-0.0033312866,0.0033582605,0.7070959,0.7071017,0,836.71094,8.321,-0.00071,-0.00021,0
117.725,2000,0,91.24,0.000002697398,0.000002697398,0.000002697398,0.99999994,0,0,0,0,0,0,0.8976378,0,0,0,0,false,false,false,0,396.50998,17.01,-0.0033312866,0.0033582605,0.7070959,0.7071017,0,842.24097,8.321,-0.00071,-0.00021,0
117.73333,2000,0,91.24,0.000002697398,0.000002697398,0.000002697398,0.99999994,0,0,0,0,0,0,0.8976378,0,0,0,0,false,false,false,0,403.53,17.01,-0.0033312866,0.0033582605,0.7070959,0.7071017,0,847.72095,8.321,-0.00071,-0.00021,0
117.74167,2000,0,91.24,0.000002697398,0.000002697398,0.000002697398,0.99999994,0,0,0,0,0,0,0.8976378,0,0,0,0,false,false,false,0,410.59,17.01,-0.0033312866,0.0033582605,0.7070959,0.7071017,0,853.16095,8.321,-0.00071,-0.00021,0
117.75,2000,0,91.24,0.000002697398,0.000002697398,0.000002697398,0.99999994,0,0,0,0,0,0,0.8976378,0,0,0,0,false,false,false,0,417.69998,17.01,-0.0033312866,0.0033582605,0.7070959,0.7071017,0,858.561,8.321,-0.00071,-0.00021,0
117.75833,2000,0,91.24,0.000002697398,0.000002697398,0.000002697398,0.99999994,0,0,0,0,0,0,0.8976378,0,0,0,0,false,false,false,0,424.84998,17.01,-0.0033312866,0.0033582605,0.7070959,0.7071017,0,863.92096,8.321,-0.00071,-0.00021,0
117.76667,2000,0,91.24,0.000002697398,0.000002697398,0.000002697398,0.99999994,0,0,0,0,0,0,0.8976378,0,0,0,0,false,false,false,0,432.05,17.01,-0.0033312866,0.0033582605,0.7070959,0.7071017,0,869.24097,8.321,-0.00071,-0.00021,0
117.775,2000,0,91.24,0.000002697398,0.000002697398,0.000002697398,0.99999994,0,0,0,0,0,0,0.8976378,0,0,0,0,false,false,false,0,439.28998,17.01,-0.0033312866,0.0033582605,0.7070959,0.7071017,0,874.52094,8.321,-0.00071,-0.00021,0
117.78333,2000,0,91.24,0.000002697398,0.000002697398,0.000002697398,0.99999994,0,0,0,0,0,0,0.8976378,0,0,0,0,false,false,false,0,446.58,17.01,-0.0033312866,0.0033582605,0.7070959,0.7071017,0,879.761,8.321,-0.00071,-0.00021,0
117.791664,2000,0,91.24,0.000002697398,0.000002697398,0.000002697398,0.99999994,0,0,0,0,0,0,0.8976378,0,0,0,0,false,false,false,0,453.91,17.01,-0.0033312866,0.0033582605,0.7070959,0.7071017,0,884.96094,8.321,-0.00071,-0.00021,0
117.8,2000,0,91.24,0.000002697398,0.000002697398,0.000002697398,0.99999994,0,0,0,0,0,0,0.8976378,0,0,0,0,false,false,false,0,461.28,17.01,-0.0033312866,0.0033582605,0.7070959,0.7071017,0,890.121,8.321,-0.00071,-0.00021,0
117.808334,2000,0,91.24,0.000002697398,0.000002697398,0.000002697398,0.99999994,0,0,0,0,0,0,0.8976378,0,0,0,0,false,false,false,0,468.69998,17.01,-0.0033312866,0.0033582605,0.7070959,0.7071017,0,895.24097,8.321,-0.00071,-0.00021,0
117.816666,2000,0,91.24,0.000002697398,0.000002697398,0.000002697398,0.99999994,0,0,0,0,0,0,0.8976378,0,0,0,0,false,false,false,0,476.16,17.01,-0.0033312866,0.0033582605,0.7070959,0.7071017,0,900.321,8.321,-0.00071,-0.00021,0
117.825,2000,0,91.24,0.000002697398,0.000002697398,0.000002697398,0.99999994,0,0,0,0,0,0,1,1,0,0,0,false,false,true,0,483.66,17.01,-0.0033312866,0.0033582605,0.7070959,0.7071017,-13.811,902.8909,8.341001,-0.00071,0.00331,0.38091
117.833336,2000,0,91.24,0.000002697398,0.000002697398,0.000002697398,0.99999994,0,0,0,0,0,0,1,1,0,0,0,false,false,true,-0.12,491.18,17.01,-0.0033312866,0.0033636554,0.70821667,0.70597917,-24.200998,906.05096,8.351,-0.00071,0.00451,0.65881
117.84167,2000,0,91.24,0.000002697398,0.000002697398,0.000002697398,0.99999994,0,0,0,0,0,0,1,1,0,0,0,false,false,true,-0.32,498.72998,17.01,-0.0033312866,0.00336905,0.7101527,0.70403165,-33.791,909.251,8.351,-0.00071,0.00471,0.89801
117.85,2000,0,91.24,0.000002697398,0.000002697398,0.000002697398,0.99999994,0,0,0,0,0,0,1,1,0,0,0,false,false,true,-0.59999996,506.31,17.01,-0.0033312866,0.003374445,0.7127795,0.701372,-42.940998,912.42096,8.351,-0.00071,0.00441,1.10431
117.85833,2000,0,91.24,0.000002697398,0.000002697398,0.000002697398,0.99999994,0,0,0,0,0,0,1,1,0,0,0,false,false,true,-0.96,513.91,17.01,-0.0033366815,0.003374445,0.71599746,0.6980866,-51.891,915.511,8.351,-0.00061,0.00381,1.28321
117.86667,2000,0,91.24,0.000002697398,0.000002697398,0.000002697398,0.99999994,0,0,0,0,0,0,1,1,0,0,0,false,false,true,-1.39,521.54,17.01,-0.003347471,0.00336905,0.7197174,0.6942508,-60.810997,918.47095,8.351,-0.00061,0.00301,1.4392099
117.875,2000,0,91.24,0.000002697398,0.000002697398,0.000002697398,0.99999994,0,0,0,0,0,0,1,1,0,0,0,false,false,true,-1.9,529.19,17.01,-0.0033582605,0.0033582605,0.723866,0.6899242,-69.811,921.261,8.351,-0.00051,0.00221,1.57611
117.88333,2000,0,91.24,0.000002697398,0.000002697398,0.000002697398,0.99999994,0,0,0,0,0,0,1,1,0,0,0,false,false,true,-2.48,536.87,17.01,-0.003374445,0.0033420762,0.7283815,0.6851552,-78.940994,923.84094,8.351,-0.00051,0.00151,1.6970099
117.89167,2000,0,91.24,0.000002697398,0.000002697398,0.000002697398,0.99999994,0,0,0,0,0,0,1,1,0,0,0,false,false,true,-3.1399999,544.57,17.01,-0.0033960242,0.003325892,0.73320866,0.67998695,-88.230995,926.191,8.351,-0.00051,0.00091,1.80461
117.9,2000,0,91.24,0.000002697398,0.000002697398,0.000002697398,0.99999994,0,0,0,0,0,0,1,1,0,0,0,false,false,true,-3.8799999,552.29,17.01,-0.0034176034,0.0033043127,0.7382984,0.6744573,-97.681,928.29095,8.351,-0.00040999998,0.00030999997,1.9010099
117.90833,2000,0,91.24,0.000002697398,0.000002697398,0.000002697398,0.99999994,0,0,0,0,0,0,1,1,0,0,0,false,false,true,-4.69,560.02997,17.01,-0.0034445773,0.0032773386,0.743618,0.6685877,-107.251,930.131,8.351,-0.00040999998,-0.00010999999,1.9879099
117.916664,2000,0,91.24,0.000002697398,0.000002697398,0.000002697398,0.99999994,0,0,0,0,0,0,1,1,0,0,0,false,false,true,-5.58,567.77997,17.01,-0.0034715512,0.0032503647,0.74913055,0.66240525,-116.910995,931.71094,8.351,-0.00030999997,-0.00040999998,2.0666099
117.925,2000,0,91.24,0.000002697398,0.000002697398,0.000002697398,0.99999994,0,0,0,0,0,0,1,1,0,0,0,false,false,true,-6.5499997,575.54,17.01,-0.00350392,0.0032179959,0.7548053,0.6559315,-126.601,933.02094,8.351,-0.00030999997,-0.00071,2.13831
117.933334,2000,0,91.24,0.000002697398,0.000002697398,0.000002697398,0.99999994,0,0,0,0,0,0,1,1,0,0,0,false,false,true,-7.6099997,583.32,17.01,-0.0035362889,0.003185627,0.7606177,0.6491825,-136.261,934.08093,8.351,-0.00021,-0.00091,2.20381
117.941666,2000,0,91.24,0.000002697398,0.000002697398,0.000002697398,0.99999994,0,0,0,0,0,0,1,1,0,0,0,false,false,true,-8.75,591.1,17.01,-0.003568658,0.0031532585,0.766548,0.64216936,-145.821,934.90094,8.351,-0.00010999999,-0.0010099999,2.26371
117.95,2000,0,91.24,0.000002697398,0.000002697398,0.000002697398,0.99999994,0,0,0,0,0,0,1,1,0,0,0,false,false,true,-9.969999,598.89,17.01,-0.0036010265,0.0031154947,0.77257305,0.6349079,-155.201,935.501,8.351,-0.00010999999,-0.00111,2.31861
117.958336,2000,0,91.24,0.000002697398,0.000002697398,0.000002697398,0.99999994,0,0,0,0,0,0,1,1,0,0,0,false,false,true,-11.259999,606.69,17.01,-0.0036333953,0.0030777312,0.77867085,0.62741446,-164.311,935.92096,8.351,-0.00010999999,-0.0012099999,2.3689098
117.96667,2000,0,91.24,0.000002697398,0.000002697398,0.000002697398,0.99999994,0,0,0,0,0,0,1,1,0,0,0,false,false,true,-12.63,614.49,17.01,-0.003665764,0.0030399675,0.7848243,0.6196999,-173.071,936.2009,8.351,0,-0.00131,2.4149098
117.975,2000,0,91.24,0.000002697398,0.000002697398,0.000002697398,0.99999994,0,0,0,0,0,0,1,1,0,0,0,false,false,true,-14.07,622.29,17.01,-0.0036981327,0.003002204,0.7910216,0.61176956,-181.391,936.3909,8.351,0,-0.00131,2.45681
117.98333,2000,0,91.24,0.000002697398,0.000002697398,0.000002697398,0.99999994,0,0,0,0,0,0,1,1,0,0,0,false,false,true,-15.58,630.08997,17.01,-0.0037305017,0.0029590458,0.7972431,0.60363954,-189.171,936.54095,8.351,0,-0.0014099999,2.49471
117.99167,2000,0,91.24,0.000002697398,0.000002697398,0.000002697398,0.99999994,0,0,0,0,0,0,1,1,0,0,0,false,false,true,-17.16,637.89,17.01,-0.0037682652,0.0029158874,0.80347395,0.5953207,-196.311,936.74097,8.341001,0,-0.0014099999,2.52871
118,2000,0,91.24,0.000002697398,0.000002697398,0.000002697398,0.99999994,0,0,0,0,0,0,1,1,0,0,0,false,false,true,-18.8,645.7,17.01,-0.0038060287,0.002872729,0.8097005,0.5868239,-202.711,937.061,8.341001,0,-0.0014099999,2.55881
118.00833,2000,0,91.24,0.000002697398,0.000002697398,0.000002697398,0.99999994,0,0,0,0,0,0,1,1,0,0,0,false,false,true,-20.49,653.51,17.01,-0.0038437922,0.0028295706,0.8159095,0.57815975,-208.261,937.60095,8.341001,0,-0.00131,2.58501
118.01667,2000,0,91.24,0.000002697398,0.000002697398,0.000002697398,0.99999994,0,0,0,0,0,0,1,1,0,0,0,false,false,true,-22.23,661.32,17.01,-0.003876161,0.0027864121,0.8220887,0.5693393,-212.86101,938.46094,8.331,0.00010999999,-0.0012099999,2.60731
118.025,2000,0,91.24,0.000002697398,0.000002697398,0.000002697398,0.99999994,0,0,0,0,0,0,1,1,0,0,0,false,false,true,-24,669.14,17.01,-0.003908529,0.0027432535,0.82822645,0.560373,-217.661,939.16095,8.331,0.00021,-0.0012099999,2.62931
118.03333,2000,0,91.24,0.000002697398,0.000002697398,0.000002697398,0.99999994,0,0,0,0,0,0,1,1,0,0,0,false,false,true,-25.81,676.97,17.01,-0.003940899,0.0026947008,0.8343154,0.5512667,-222.661,939.68097,8.331,0.00021,-0.00111,2.65101
118.041664,2000,0,91.24,0.000002697398,0.000002697398,0.000002697398,0.99999994,0,0,0,0,0,0,1,1,0,0,0,false,false,true,-27.67,684.8,17.01,-0.003973267,0.0026461475,0.840352,0.54201996,-227.851,940.02094,8.331,0.00021,-0.0010099999,2.67241
118.05,2000,0,91.24,0.000002697398,0.000002697398,0.000002697398,0.99999994,0,0,0,0,0,0,1,1,0,0,0,false,false,true,-29.57,692.63,17.01,-0.0040056356,0.0025975942,0.8463361,0.53262746,-233.22101,940.17096,8.331,0.00021,-0.00091,2.69351
118.058334,2000,0,91.24,0.000002697398,0.000002697398,0.000002697398,0.99999994,0,0,0,0,0,0,1,1,0,0,0,false,false,true,-31.51,700.45996,17.01,-0.004038004,0.0025490408,0.8522609,0.52309483,-238.751,940.131,8.331,0.00021,-0.00081,2.7144098
118.066666,2000,0,91.24,0.000002697398,0.000002697398,0.000002697398,0.99999994,0,0,0,0,0,0,1,1,0,0,0,false,false,true,-33.5,708.29,17.01,-0.0040703737,0.002500488,0.8581229,0.51342195,-244.441,939.90094,8.331,0.00021,-0.00071,2.73501
118.075,2000,0,91.24,0.000002697398,0.000002697398,0.000002697398,0.99999994,0,0,0,0,0,0,1,1,0,0,0,false,false,true,-35.54,716.12,17.01,-0.0041027423,0.0024519349,0.8639185,0.5036088,-250.291,939.47095,8.331,0.00021,-0.00061,2.75541
118.083336,2000,0,91.24,0.000002697398,0.000002697398,0.000002697398,0.99999994,0,0,0,0,0,0,1,1,0,0,0,false,false,true,-37.629997,723.95,17.01,-0.004129716,0.0024033815,0.8696444,0.49365538,-256.281,938.84094,8.331,0.00021,-0.00051,2.7755098
118.09167,2000,0,91.24,0.000002697398,0.000002697398,0.000002697398,0.99999994,0,0,0,0,0,0,1,1,0,0,0,false,false,true,-39.77,731.76996,17.01,-0.0041566906,0.0023548286,0.8752942,0.48356715,-262.401,938.001,8.331,0.00021,-0.00051,2.79541
118.1,2000,0,91.24,0.000002697398,0.000002697398,0.000002697398,0.99999994,0,0,0,0,0,0,1,1,0,0,0,false,false,true,-41.96,739.58997,17.01,-0.0041836645,0.0023062753,0.8808676,0.47333848,-268.641,936.96094,8.331,0.00021,-0.00051,2.81511
118.10833,2000,0,91.24,0.000002697398,0.000002697398,0.000002697398,0.99999994,0,0,0,0,0,0,1,1,0,0,0,false,false,true,-44.2,747.39996,17.01,-0.0042106383,0.0022577222,0.8863583,0.46297508,-275.001,935.71094,8.331,0.00021,-0.00051,2.8345098
118.11667,2000,0,91.24,0.000002697398,0.000002697398,0.000002697398,0.99999994,0,0,0,0,0,0,1,1,0,0,0,false,false,true,-46.489998,755.2,17.01,-0.004237612,0.002203774,0.89176327,0.45247668,-281.461,934.251,8.331,0.00021,-0.00051,2.85371
118.125,2000,0,91.24,0.000002697398,0.000002697398,0.000002697398,0.99999994,0,0,0,0,0,0,1,1,0,0,0,false,false,true,-48.84,762.99,17.01,-0.0042645866,0.0021498264,0.89707935,0.4418436,-288.021,932.571,8.331,0.00021,-0.00040999998,2.87271
118.13333,2000,0,91.24,0.000002697398,0.000002697398,0.000002697398,0.99999994,0,0,0,0,0,0,1,1,0,0,0,false,false,true,-51.239998,770.76,17.01,-0.00429156,0.0020958781,0.9023031,0.43107557,-294.661,930.68097,8.331,0.00021,-0.00040999998,2.89151
118.14167,2000,0,91.24,0.000002697398,0.000002697398,0.000002697398,0.99999994,0,0,0,0,0,0,1,1,0,0,0,false,false,true,-53.699997,778.51996,17.01,-0.0043185344,0.0020419306,0.9074316,0.42017263,-301.381,928.571,8.331,0.00021,-0.00030999997,2.9100099
118.15,2000,0,91.24,0.000002697398,0.000002697398,0.000002697398,0.99999994,0,0,0,0,0,0,1,1,0,0,0,false,false,true,-56.21,786.26,17.01,-0.0043455088,0.0019879825,0.91245896,0.40914026,-308.171,926.251,8.331,0.00021,-0.00021,2.92831
118.15833,2000,0,91.24,0.000002697398,0.000002697398,0.000002697398,0.99999994,0,0,0,0,0,0,1,1,0,0,0,false,false,true,-58.78,793.98,17.01,-0.0043724817,0.0019340342,0.9173822,0.3979783,-315.021,923.71094,8.331,0.00021,-0.00021,2.94641
118.166664,2000,0,91.24,0.000002697398,0.000002697398,0.000002697398,0.99999994,0,0,0,0,0,0,1,1,0,0,0,false,false,true,-61.41,801.68,17.01,-0.0043940614,0.0018800865,0.9221986,0.38668692,-321.931,920.9509,8.331,0.00021,-0.00010999999,2.96431
118.175,2000,0,91.24,0.000002697398,0.000002697398,0.000002697398,0.99999994,0,0,0,0,0,0,1,1,0,0,0,false,false,true,-64.09,809.35,17.01,-0.0044156406,0.0018261385,0.92690474,0.37526613,-328.881,917.98096,8.331,0.00021,-0.00010999999,2.98201
118.183334,2000,0,91.24,0.000002697398,0.000002697398,0.000002697398,0.99999994,0,0,0,0,0,0,1,1,0,0,0,false,false,true,-66.83,817,17.01,-0.00443722,0.0017721906,0.93149555,0.3637212,-335.871,914.80096,8.331,0.00021,-0.00010999999,2.99951
118.191666,2000,0,91.24,0.000002697398,0.000002697398,0.000002697398,0.99999994,0,0,0,0,0,0,1,1,0,0,0,false,false,true,-69.63,824.62,17.01,-0.0044587995,0.0017182427,0.9359681,0.35205227,-342.881,911.40094,8.331,0.00021,-0.00010999999,3.01681
118.2,2000,0,91.24,0.000002697398,0.000002697398,0.000002697398,0.99999994,0,0,0,0,0,0,1,1,0,0,0,false,false,true,-72.49,832.20996,17.01,-0.0044803787,0.0016589,0.94031954,0.34025916,-349.911,907.79095,8.331,0.00021,-0.00010999999,3.03391
118.208336,2000,0,91.24,0.000002697398,0.000002697398,0.000002697398,0.99999994,0,0,0,0,0,0,1,1,0,0,0,false,false,true,-75.409996,839.76996,17.01,-0.004501958,0.0015995571,0.9445449,0.32834747,-356.961,903.97095,8.331,0.00021,-0.00010999999,3.0508099
118.21667,2000,0,91.24,0.000002697398,0.000002697398,0.000002697398,0.99999994,0,0,0,0,0,0,1,1,0,0,0,false,false,true,-78.38,847.3,17.01,-0.0045235367,0.0015402144,0.9486415,0.316317,-364.011,899.941,8.331,0.00021,-0.00010999999,3.06751
118.225,2000,0,91.24,0.000002697398,0.000002697398,0.000002697398,0.99999994,0,0,0,0,0,0,1,1,0,0,0,false,false,true,-81.409996,854.8,17.01,-0.004545116,0.0014808717,0.95260644,0.3041679,-371.061,895.71094,8.331,0.00021,0,3.08401
118.23333,2000,0,91.24,0.000002697398,0.000002697398,0.000002697398,0.99999994,0,0,0,0,0,0,1,1,0,0,0,false,false,true,-84.5,862.26,17.01,-0.0045612995,0.0014215286,0.95643675,0.29189998,-378.101,891.28094,8.331,0.00021,0,3.1003098
118.24167,2000,0,91.24,0.000002697398,0.000002697398,0.000002697398,0.99999994,0,0,0,0,0,0,1,1,0,0,0,false,false,true,-87.65,869.69,17.01,-0.004577484,0.0013621859,0.9601281,0.27951893,-385.121,886.65094,8.331,0.00010999999,0,3.11641
118.25,2000,0,91.24,0.000002697398,0.000002697398,0.000002697398,0.99999994,0,0,0,0,0,0,1,1,0,0,0,false,false,true,-90.86,877.07996,17.01,-0.0045936685,0.0013028431,0.9636763,0.26702988,-392.121,881.821,8.331,0.00010999999,0,3.13231
118.25833,2000,0,91.24,0.000002697398,0.000002697398,0.000002697398,0.99999994,0,0,0,0,0,0,1,1,0,0,0,false,false,true,-94.13,884.43,17.01,-0.0046098535,0.0012435006,0.96708,0.2544277,-399.101,876.80096,8.331,0.00010999999,0,3.14801
118.26667,2000,0,91.24,0.000002697398,0.000002697398,0.000002697398,0.99999994,0,0,0,0,0,0,1,1,0,0,0,false,false,true,-97.46,891.74,17.01,-0.0046260376,0.0011841577,0.9703335,0.24172287,-406.041,871.59094,8.331,0.00010999999,0,3.1635098
118.275,2000,0,91.24,0.000002697398,0.000002697398,0.000002697398,0.99999994,0,0,0,0,0,0,1,1,0,0,0,false,false,true,-100.84,899,17.01,-0.004642222,0.001124815,0.97343576,0.22891013,-412.941,866.191,8.331,0.00010999999,0,3.17881
118.28333,2000,0,91.24,0.000002697398,0.000002697398,0.000002697398,0.99999994,0,0,0,0,0,0,1,1,0,0,0,false,false,true,-104.28,906.22,17.01,-0.004658406,0.0010654721,0.97638273,0.215995,-419.801,860.61096,8.331,0.00010999999,0,3.19391
118.291664,2000,0,91.24,0.000002697398,0.000002697398,0.000002697398,0.99999994,0,0,0,0,0,0,1,1,0,0,0,false,false,true,-107.78,913.38995,17.01,-0.0046745907,0.0010007346,0.9791706,0.20298266,-426.611,854.85095,8.331,0.00021,0,3.2088099
118.3,2000,0,91.24,0.000002697398,0.000002697398,0.000002697398,0.99999994,0,0,0,0,0,0,1,1,0,0,0,false,false,true,-111.34,920.51,17.01,-0.0046853805,0.0009359971,0.9817969,0.18987331,-433.371,848.92096,8.331,0.00021,0,3.22351
118.308334,2000,0,91.24,0.000002697398,0.000002697398,0.000002697398,0.99999994,0,0,0,0,0,0,1,1,0,0,0,false,false,true,-114.95,927.57996,17.01,-0.00469617,0.0008712596,0.9842581,0.17667216,-440.07098,842.821,8.331,0.00021,0,3.23801
118.316666,2000,0,91.24,0.000002697398,0.000002697398,0.000002697398,0.99999994,0,0,0,0,0,0,1,1,0,0,0,false,false,true,-118.619995,934.6,17.01,-0.0047069597,0.00080652203,0.9865517,0.1633793,-446.711,836.55096,8.331,0.00021,0,3.25241
118.325,2000,0,91.24,0.000002697398,0.000002697398,0.000002697398,0.99999994,0,0,0,0,0,0,1,1,0,0,0,false,false,true,-122.34,941.57,17.01,-0.0047177486,0.0007417844,0.9886751,0.14999479,-453.291,830.121,8.331,0.00021,0,3.26661
118.333336,2000,0,91.24,0.000002697398,0.000002697398,0.000002697398,0.99999994,0,0,0,0,0,0,1,1,0,0,0,false,false,true,-126.119995,948.49,17.01,-0.0047285384,0.0006770469,0.9906252,0.1365239,-459.801,823.54095,8.331,0.00010999999,0,3.2806098
118.34167,2000,0,91.24,0.000002697398,0.000002697398,0.000002697398,0.99999994,0,0,0,0,0,0,1,1,0,0,0,false,false,true,-129.95,955.35,17.01,-0.0047393283,0.0006123093,0.99239856,0.12297219,-466.241,816.80096,8.331,0.00010999999,0,3.29441
118.35,2000,0,91.24,0.000002697398,0.000002697398,0.000002697398,0.99999994,0,0,0,0,0,0,1,1,0,0,0,false,false,true,-133.84,962.16,17.01,-0.004744723,0.0005475718,0.9939929,0.10933945,-472.611,809.92096,8.331,0.00010999999,0.00010999999,3.3080099
118.35833,2000,0,91.24,0.000002697398,0.000002697398,0.000002697398,0.99999994,0,0,0,0,0,0,1,1,0,0,0,false,false,true,-137.78,968.91,17.01,-0.004750118,0.0004828343,0.9954054,0.0956312,-478.911,802.8909,8.331,0.00010999999,0.00010999999,3.32141
118.36667,2000,0,91.24,0.000002697398,0.000002697398,0.000002697398,0.99999994,0,0,0,0,0,0,1,1,0,0,0,false,false,true,-141.77,975.6,17.01,-0.0047555133,0.00041809672,0.9966334,0.08184749,-485.13098,795.72095,8.331,0.00010999999,0.00010999999,3.33471
118.375,2000,0,91.24,0.000002697398,0.000002697398,0.000002697398,0.99999994,0,0,0,0,0,0,1,1,0,0,0,false,false,true,-145.81,982.23,17.01,-0.0047609075,0.00035335915,0.9976743,0.06799357,-491.281,788.41095,8.331,0.00010999999,0.00010999999,3.34781
118.38333,2000,0,91.24,0.000002697398,0.000002697398,0.000002697398,0.99999994,0,0,0,0,0,0,1,1,0,0,0,false,false,true,-149.9,988.8,17.01,-0.0047663017,0.00028862155,0.9985256,0.054069504,-497.35098,780.97095,8.331,0.00010999999,0.00010999999,3.36071
118.39167,2000,0,91.24,0.000002697398,0.000002697398,0.000002697398,0.99999994,0,0,0,0,0,0,1,1,0,0,0,false,false,true,-154.04,995.31,17.01,-0.004771697,0.00022388404,0.99918497,0.040080804,-503.35098,773.40094,8.331,0.00010999999,0.00010999999,3.37341
118.4,2000,0,91.24,0.000002697398,0.000002697398,0.000002697398,0.99999994,0,0,0,0,0,0,1,1,0,0,0,false,false,true,-158.23,1001.75995,17.01,-0.004771697,0.00015375168,0.99964964,0.026032673,-509.271,765.71094,8.331,0.00010999999,0.00021,3.38601
118.40833,2000,0,91.24,0.000002697398,0.000002697398,0.000002697398,0.99999994,0,0,0,0,0,0,1,1,0,0,0,false,false,true,-162.47,1008.13995,17.01,-0.004771697,0.000083619336,0.99991745,0.011925281,-515.11096,757.8909,8.331,0.00010999999,0.00021,3.3984098
118.416664,2000,0,91.24,0.000002697398,0.000002697398,0.000002697398,0.99999994,0,0,0,0,0,0,1,1,0,0,0,false,false,true,-166.76,1014.45996,17.01,-0.004771697,0.000013486991,0.99998605,-0.002236143,-520.881,749.951,8.331,0.00010999999,0.00021,3.41061
118.425,2000,0,91.24,0.000002697398,0.000002697398,0.000002697398,0.99999994,0,0,0,0,0,0,1,1,0,0,0,false,false,true,-171.09999,1020.70996,17.01,-0.004771697,-0.00005664536,0.9998533,-0.016446078,-526.571,741.8909,8.331,0,0.00021,3.42261
118.433334,2000,0,91.24,0.000002697398,0.000002697398,0.000002697398,0.99999994,0,0,0,0,0,0,1,1,0,0,0,false,false,true,-175.48999,1026.89,17.01,-0.0047716964,-0.00012677768,0.99951696,-0.030704604,-532.191,733.72095,8.331,0,0.00021,3.43451
118.441666,2000,0,91.24,0.000002697398,0.000002697398,0.000002697398,0.99999994,0,0,0,0,0,0,1,1,0,0,0,false,false,true,-179.92,1033,17.01,-0.0047663017,-0.00019691004,0.99897516,-0.045006253,-537.73096,725.43097,8.331,0,0.00021,3.44621
118.45,2000,0,91.24,0.000002697398,0.000002697398,0.000002697398,0.99999994,0,0,0,0,0,0,1,1,0,0,0,false,false,true,-184.4,1039.0499,17.01,-0.0047609075,-0.0002670424,0.99822605,-0.059345666,-543.201,717.03094,8.331,0,0.00021,3.45771
118.458336,2000,0,91.24,0.000002697398,0.000002697398,0.000002697398,0.99999994,0,0,0,0,0,0,1,1,0,0,0,false,false,true,-188.93,1045.03,17.01,-0.0047555133,-0.00033717477,0.99726737,-0.073722884,-548.60095,708.52094,8.331,0,0.00021,3.4690099
118.46667,2000,0,91.24,0.000002697398,0.000002697398,0.000002697398,0.99999994,0,0,0,0,0,0,1,1,0,0,0,false,false,true,-193.5,1050.9299,17.01,-0.004750118,-0.00040730715,0.9960978,-0.08812704,-553.93097,699.90094,8.331,0,0.00021,3.48011
118.475,2000,0,91.24,0.000002697398,0.000002697398,0.000002697398,0.99999994,0,0,0,0,0,0,1,1,0,0,0,false,false,true,-198.12,1056.76,17.01,-0.0047447225,-0.0004774394,0.99471486,-0.10256354,-559.201,691.17096,8.331,-0.00010999999,0.00021,3.49101
118.48333,2000,0,91.24,0.000002697398,0.000002697398,0.000002697398,0.99999994,0,0,0,0,0,0,1,1,0,0,0,false,false,true,-202.78,1062.52,17.01,-0.0047339336,-0.0005475718,0.99311787,-0.11702169,-564.40094,682.33093,8.331,-0.00010999999,0.00021,3.50171
118.49167,2000,0,91.24,0.000002697398,0.000002697398,0.000002697398,0.99999994,0,0,0,0,0,0,1,1,0,0,0,false,false,true,-207.48,1068.21,17.01,-0.0047231433,-0.00061770406,0.9913044,-0.13150133,-569.54095,673.381,8.331,-0.00021,0.00021,3.51221
118.5,2000,0,91.24,0.000002697398,0.000002697398,0.000002697398,0.99999994,0,0,0,0,0,0,1,1,0,0,0,false,false,true,-212.23,1073.82,17.01,-0.004712355,-0.00068783655,0.9892743,-0.14599183,-574.621,664.321,8.331,-0.00021,0.00021,3.52241
118.50833,2000,0,91.24,0.000002697398,0.000002697398,0.000002697398,0.99999994,0,0,0,0,0,0,1,1,0,0,0,false,false,true,-217.01999,1079.36,17.01,-0.004701565,-0.0007579689,0.98702544,-0.16049314,-579.641,655.15094,8.331,-0.00021,0.00021,3.53241
118.51667,2000,0,91.24,0.000002697398,0.000002697398,0.000002697398,0.99999994,0,0,0,0,0,0,1,1,0,0,0,false,false,true,-221.84999,1084.82,17.01,-0.004690775,-0.0008281012,0.9845559,-0.17500517,-584.60095,645.86096,8.331,-0.00030999997,0.00021,3.54211
118.525,2000,0,91.24,0.000002697398,0.000002697398,0.000002697398,0.99999994,0,0,0,0,0,0,1,1,0,0,0,false,false,true,-226.72,1090.2,17.01,-0.004674591,-0.0008982336,0.9818658,-0.18951721,-589.48096,636.441,8.331,-0.00030999997,0.00021,3.55251
118.53333,2000,0,91.24,0.000002697398,0.000002697398,0.000002697398,0.99999994,0,0,0,0,0,0,1,1,0,0,0,false,false,true,-231.62999,1095.5,17.01,-0.004658406,-0.00096836593,0.9789532,-0.20402925,-594.201,626.881,8.331,-0.00040999998,0.00010999999,3.56551
118.541664,2000,0,91.24,0.000002697398,0.000002697398,0.000002697398,0.99999994,0,0,0,0,0,0,1,1,0,0,0,false,false,true,-236.58,1100.72,17.01,-0.004642222,-0.0010384982,0.9758136,-0.21855213,-598.77094,617.18097,8.331,-0.00040999998,0,3.58111
118.55,2000,0,91.24,0.000002697398,0.000002697398,0.000002697398,0.99999994,0,0,0,0,0,0,1,1,0,0,0,false,false,true,-241.56999,1105.86,17.01,-0.0046260376,-0.0011086306,0.9724445,-0.23308575,-603.191,607.34094,8.331,-0.00051,0,3.59921
118.558334,2000,0,91.24,0.000002697398,0.000002697398,0.000002697398,0.99999994,0,0,0,0,0,0,1,1,0,0,0,false,false,true,-246.59999,1110.9199,17.01,-0.004609853,-0.0011733681,0.9688401,-0.24764095,-607.46094,597.371,8.331,-0.00051,0,3.61971
118.566666,2000,0,91.24,0.000002697398,0.000002697398,0.000002697398,0.99999994,0,0,0,0,0,0,1,1,0,0,0,false,false,true,-251.65999,1115.9,17.01,-0.0045936694,-0.0012381058,0.9649955,-0.26222318,-611.58093,587.27094,8.331,-0.00051,0,3.64271
118.575,2000,0,91.24,0.000002697398,0.000002697398,0.000002697398,0.99999994,0,0,0,0,0,0,1,1,0,0,0,false,false,true,-256.75998,1120.7899,17.01,-0.00457209,-0.0013082381,0.9609049,-0.27683774,-615.55096,577.05096,8.331,-0.00051,0,3.66811
118.583336,2000,0,91.24,0.000002697398,0.000002697398,0.000002697398,0.99999994,0,0,0,0,0,0,1,1,0,0,0,false,false,true,-261.88998,1125.6,17.01,-0.0045505106,-0.0013783704,0.956562,-0.29149002,-619.371,566.701,8.331,-0.00051,0,3.6960099
118.59167,2000,0,91.24,0.000002697398,0.000002697398,0.000002697398,0.99999994,0,0,0,0,0,0,1,1,0,0,0,false,false,true,-267.05,1130.32,17.01,-0.004528932,-0.0014485029,0.95195997,-0.30618554,-623.05096,556.23096,8.331,-0.00051,-0.00010999999,3.72631
118.6,2000,0,91.24,0.000002697398,0.000002697398,0.000002697398,0.99999994,0,0,0,0,0,0,1,1,0,0,0,false,false,true,-272.24,1134.96,17.01,-0.004507352,-0.0015186351,0.94709104,-0.32092956,-626.58093,545.631,8.331,-0.00051,-0.00010999999,3.7590098
118.60833,2000,0,91.24,0.000002697398,0.000002697398,0.000002697398,0.99999994,0,0,0,0,0,0,1,1,0,0,0,false,false,true,-277.46,1139.51,17.01,-0.0044803782,-0.0015887675,0.941949,-0.33572212,-629.96094,534.91095,8.331,-0.00051,-0.00010999999,3.7941098
118.61667,2000,0,91.24,0.000002697398,0.000002697398,0.000002697398,0.99999994,0,0,0,0,0,0,1,1,0,0,0,false,false,true,-282.71,1143.97,17.01,-0.0044534034,-0.0016588996,0.9365248,-0.35056865,-633.18097,524.071,8.331,-0.00051,-0.00021,3.8317099
118.625,2000,0,91.24,0.000002697398,0.000002697398,0.000002697398,0.99999994,0,0,0,0,0,0,1,1,0,0,0,false,false,true,-287.99,1148.34,17.01,-0.00442643,-0.0017290321,0.93080914,-0.36547455,-636.131,513.10095,8.331,-0.00051,-0.00030999997,3.87271
118.63333,2000,0,91.24,0.000002697398,0.000002697398,0.000002697398,0.99999994,0,0,0,0,0,0,1,1,0,0,0,false,false,true,-293.29,1152.62,17.01,-0.004399456,-0.0017991646,0.9247912,-0.38044515,-638.821,502.021,8.331,-0.00051,-0.00040999998,3.9170098
118.64167,2000,0,91.24,0.000002697398,0.000002697398,0.000002697398,0.99999994,0,0,0,0,0,0,1,1,0,0,0,false,false,true,-298.61,1156.7999,17.01,-0.004372482,-0.0018692969,0.91845965,-0.39548594,-641.17096,490.801,8.331,-0.00051,-0.00051,3.9635098
118.65,2000,0,91.24,0.000002697398,0.000002697398,0.000002697398,0.99999994,0,0,0,0,0,0,1,1,0,0,0,false,false,true,-303.94998,1160.89,17.01,-0.004340113,-0.0019394292,0.91180456,-0.4105968,-643.121,479.431,8.331,-0.00051,-0.00051,4.0114098
118.65833,2000,0,91.24,0.000002697398,0.000002697398,0.000002697398,0.99999994,0,0,0,0,0,0,1,1,0,0,0,false,false,true,-309.31,1164.89,17.01,-0.0043077446,-0.0020095615,0.9048152,-0.4257778,-644.66095,467.931,8.331,-0.00040999998,-0.00051,4.06061
118.666664,2000,0,91.24,0.000002697398,0.000002697398,0.000002697398,0.99999994,0,0,0,0,0,0,1,1,0,0,0,false,false,true,-314.68,1168.7899,17.01,-0.0042753764,-0.002079694,0.8974829,-0.44102362,-645.80096,456.311,8.331,-0.00040999998,-0.00051,4.1111097
118.675,2000,0,91.24,0.000002697398,0.000002697398,0.000002697398,0.99999994,0,0,0,0,0,0,1,1,0,0,0,false,false,true,-320.06,1172.59,17.01,-0.004237612,-0.002149826,0.88979566,-0.45633402,-646.53094,444.60098,8.331,-0.00030999997,-0.00051,4.16291
118.683334,2000,0,91.24,0.000002697398,0.000002697398,0.000002697398,0.99999994,0,0,0,0,0,0,1,1,0,0,0,false,false,true,-325.44998,1176.2999,17.01,-0.004199849,-0.0022199587,0.88174707,-0.4716985,-646.811,432.951,8.331,-0.00021,-0.00051,4.21481
118.691666,2000,0,91.24,0.000002697398,0.000002697398,0.000002697398,0.99999994,0,0,0,0,0,0,1,1,0,0,0,false,false,true,-330.84,1179.91,17.01,-0.0041620852,-0.0022900908,0.8733268,-0.48711148,-646.631,421.451,8.331,-0.00010999999,-0.00051,4.26611
118.7,2000,0,91.24,0.000002697398,0.000002697398,0.000002697398,0.99999994,0,0,0,0,0,0,1,1,0,0,0,false,false,true,-336.22998,1183.4199,17.01,-0.0041243215,-0.0023602233,0.86453104,-0.50255686,-646.001,410.131,8.331,0,-0.00051,4.31671
118.708336,2000,0,91.24,0.000002697398,0.000002697398,0.000002697398,0.99999994,0,0,0,0,0,0,1,1,0,0,0,false,false,true,-341.61,1186.84,17.01,-0.004081163,-0.0024303556,0.85535294,-0.5180238,-644.951,399.011,8.331,0,-0.00040999998,4.36661
118.71667,2000,0,91.24,0.000002697398,0.000002697398,0.000002697398,0.99999994,0,0,0,0,0,0,1,1,0,0,0,false,false,true,-346.97998,1190.1699,17.01,-0.0040380047,-0.0025058826,0.8457857,-0.5335015,-643.49097,388.101,8.331,0.00010999999,-0.00030999997,4.41591
118.725,2000,0,91.24,0.000002697398,0.000002697398,0.000002697398,0.99999994,0,0,0,0,0,0,1,1,0,0,0,false,false,true,-352.34,1193.4,17.01,-0.0039948467,-0.00258141,0.8358259,-0.5489739,-641.631,377.431,8.331,0.00010999999,-0.00021,4.46451
118.73333,2000,0,91.24,0.000002697398,0.000002697398,0.000002697398,0.99999994,0,0,0,0,0,0,1,1,0,0,0,false,false,true,-357.69,1196.5499,17.01,-0.0039462927,-0.0026569369,0.8254708,-0.5644245,-639.40094,367.011,8.331,0.00010999999,-0.00010999999,4.51231
118.74167,2000,0,91.24,0.000002697398,0.000002697398,0.000002697398,0.99999994,0,0,0,0,0,0,1,1,0,0,0,false,false,true,-363.02,1199.61,17.01,-0.0038977403,-0.002732464,0.8147143,-0.5798429,-636.83093,356.851,8.331,0.00010999999,-0.00010999999,4.55941
118.75,2000,0,91.24,0.000002697398,0.000002697398,0.000002697398,0.99999994,0,0,0,0,0,0,1,1,0,0,0,false,false,true,-368.33,1202.58,17.01,-0.0038437922,-0.0028079913,0.80355394,-0.5952128,-633.941,346.971,8.331,0.00010999999,0,4.6058097
118.75833,2000,0,91.24,0.000002697398,0.000002697398,0.000002697398,0.99999994,0,0,0,0,0,0,1,1,0,0,0,false,false,true,-373.61,1205.47,17.01,-0.0037898442,-0.0028835186,0.7919839,-0.6105233,-630.701,337.381,8.331,0.00021,0,4.6504097
118.76667,2000,0,91.24,0.000002697398,0.000002697398,0.000002697398,0.99999994,0,0,0,0,0,0,1,1,0,0,0,false,false,true,-378.87,1208.28,17.01,-0.0037358964,-0.0029590456,0.7800067,-0.62575287,-627.05096,328.111,8.331,0.00021,0,4.69101
118.775,2000,0,91.24,0.000002697398,0.000002697398,0.000002697398,0.99999994,0,0,0,0,0,0,1,1,0,0,0,false,false,true,-384.1,1211.01,17.01,-0.0036765535,-0.0030345728,0.7676262,-0.6408799,-623.011,319.171,8.331,0.00021,0,4.72761
118.78333,2000,0,91.24,0.000002697398,0.000002697398,0.000002697398,0.99999994,0,0,0,0,0,0,1,1,0,0,0,false,false,true,-389.28998,1213.6699,17.01,-0.003617211,-0.0031047054,0.7548522,-0.6558776,-618.621,310.581,8.331,0.00021,0,4.76011
118.791664,2000,0,91.24,0.000002697398,0.000002697398,0.000002697398,0.99999994,0,0,0,0,0,0,1,1,0,0,0,false,false,true,-394.44998,1216.26,17.01,-0.003557868,-0.0031748374,0.7416964,-0.67071867,-613.91095,302.351,8.331,0.00021,0.00010999999,4.78861
118.8,2000,0,91.24,0.000002697398,0.000002697398,0.000002697398,0.99999994,0,0,0,0,0,0,1,1,0,0,0,false,false,true,-399.56998,1218.78,17.01,-0.0034931307,-0.00324497,0.72816825,-0.6853818,-608.91095,294.491,8.331,0.00021,0.00021,4.8130097
118.808334,2000,0,91.24,0.000002697398,0.000002697398,0.000002697398,0.99999994,0,0,0,0,0,0,1,1,0,0,0,false,false,true,-404.63998,1221.23,17.01,-0.003428393,-0.0033151023,0.71427846,-0.69984525,-603.65094,287.011,8.331,0.00021,0.00030999997,4.83331
118.816666,2000,0,91.24,0.000002697398,0.000002697398,0.000002697398,0.99999994,0,0,0,0,0,0,1,1,0,0,0,false,false,true,-409.66998,1223.62,17.01,0.0033582605,0.0033852346,-0.7000395,0.7140881,-598.17096,279.901,8.331,0.00021,0.00040999998,4.8495097
118.825,2000,0,91.24,0.000002697398,0.000002697398,0.000002697398,0.99999994,0,0,0,0,0,0,1,1,0,0,0,false,false,true,-414.65,1225.95,17.01,0.0032881282,0.003455367,-0.6854681,0.72808695,-592.511,273.171,8.331,0.00021,0.00051,4.86161
118.833336,2000,0,91.24,0.000002697398,0.000002697398,0.000002697398,0.99999994,0,0,0,0,0,0,1,1,0,0,0,false,false,true,-419.59,1228.23,17.01,0.0032179959,0.0035254993,-0.6705784,0.74182314,-586.701,266.821,8.331,0.00021,0.00061,4.86961
118.84167,2000,0,91.24,0.000002697398,0.000002697398,0.000002697398,0.99999994,0,0,0,0,0,0,1,1,0,0,0,false,false,true,-424.47998,1230.45,17.01,0.0031424686,0.003590237,-0.655392,0.75527376,-580.77094,260.841,8.331,0.00010999999,0.00061,4.87351
118.85,2000,0,91.24,0.000002697398,0.000002697398,0.000002697398,0.99999994,0,0,0,0,0,0,1,1,0,0,0,false,false,true,-429.31998,1232.62,17.01,0.0030669416,0.0036549745,-0.63991964,0.7684269,-574.761,255.22101,8.321,0.00010999999,0.00071,4.87321
118.85833,2000,0,91.24,0.000002697398,0.000002697398,0.000002697398,0.99999994,0,0,0,0,0,0,1,1,0,0,0,false,false,true,-434.11,1234.75,17.01,0.0029914142,0.0037197114,-0.6241883,0.7812592,-568.701,249.951,8.321,0.00010999999,0.00071,4.86871
118.86667,2000,0,91.24,0.000002697398,0.000002697398,0.000002697398,0.99999994,0,0,0,0,0,0,1,1,0,0,0,false,false,true,-438.84998,1236.83,17.01,0.0029158874,0.0037844495,-0.6082143,0.7937584,-562.621,245.011,8.321,0.00010999999,0.00081,4.8600097
118.875,2000,0,91.24,0.000002697398,0.000002697398,0.000002697398,0.99999994,0,0,0,0,0,0,1,1,0,0,0,false,false,true,-443.53998,1238.87,17.01,0.0028349655,0.0038437925,-0.59201914,0.8059097,-556.55096,240.381,8.321,0,0.00081,4.8470097
118.88333,2000,0,91.24,0.000002697398,0.000002697398,0.000002697398,0.99999994,0,0,0,0,0,0,1,1,0,0,0,false,false,true,-448.18,1240.87,17.01,0.0027540433,0.003903135,-0.5756242,0.81770027,-550.52094,236.051,8.321,0,0.00081,4.82961
118.89167,2000,0,91.24,0.000002697398,0.000002697398,0.000002697398,0.99999994,0,0,0,0,0,0,1,1,0,0,0,false,false,true,-452.77,1242.84,17.01,0.0026731214,0.0039624777,-0.55905133,0.8291192,-544.561,231.991,8.321,0,0.00091,4.80781
118.9,2000,0,91.24,0.000002697398,0.000002697398,0.000002697398,0.99999994,0,0,0,0,0,0,1,1,0,0,0,false,false,true,-457.31,1244.77,17.01,0.0025921997,0.004016426,-0.5423329,0.84015006,-538.631,228.141,8.321,0,0.00091,4.7814097
118.90833,2000,0,91.24,0.000002697398,0.000002697398,0.000002697398,0.99999994,0,0,0,0,0,0,1,1,0,0,0,false,false,true,-461.8,1246.6699,17.01,0.0025112776,0.0040703737,-0.5254902,0.8507861,-532.751,224.481,8.321,0,0.00091,4.75061
118.916664,2000,0,91.24,0.000002697398,0.000002697398,0.000002697398,0.99999994,0,0,0,0,0,0,1,1,0,0,0,false,false,true,-466.24,1248.5399,17.01,0.0024303556,0.0041243215,-0.50854504,0.861022,-526.941,220.991,8.311,0,0.00091,4.7154098
118.925,2000,0,91.24,0.000002697398,0.000002697398,0.000002697398,0.99999994,0,0,0,0,0,0,1,1,0,0,0,false,false,true,-470.62997,1250.38,17.01,0.0023494337,0.0041728746,-0.49152982,0.8708475,-521.16095,217.631,8.311,-0.00010999999,0.00081,4.67751
118.933334,2000,0,91.24,0.000002697398,0.000002697398,0.000002697398,0.99999994,0,0,0,0,0,0,1,1,0,0,0,false,false,true,-474.97,1252.19,17.01,0.002263117,0.004221428,-0.4744661,0.8802607,-515.371,214.36101,8.311,-0.00021,0.00071,4.63821
118.941666,2000,0,91.24,0.000002697398,0.000002697398,0.000002697398,0.99999994,0,0,0,0,0,0,1,1,0,0,0,false,false,true,-479.25998,1253.98,17.01,0.0021768003,0.004264586,-0.4573645,0.8892664,-509.57098,211.181,8.311,-0.00030999997,0.00061,4.59791
118.95,2000,0,91.24,0.000002697398,0.000002697398,0.000002697398,0.99999994,0,0,0,0,0,0,1,1,0,0,0,false,false,true,-483.50998,1255.74,17.01,0.0020904832,0.004307744,-0.44024667,0.8978639,-503.771,208.101,8.311,-0.00040999998,0.00051,4.55681
118.958336,2000,0,91.24,0.000002697398,0.000002697398,0.000002697398,0.99999994,0,0,0,0,0,0,1,1,0,0,0,false,false,true,-487.71,1257.47,17.01,0.0020041666,0.0043455083,-0.42311817,0.9060618,-497.961,205.11101,8.311,-0.00040999998,0.00040999998,4.51511
118.96667,2000,0,91.24,0.000002697398,0.000002697398,0.000002697398,0.99999994,0,0,0,0,0,0,1,1,0,0,0,false,false,true,-491.86,1259.1799,17.01,0.00191785,0.0043832716,-0.40600038,0.9138603,-492.141,202.211,8.311,-0.00040999998,0.00040999998,4.4731097
118.975,2000,0,91.24,0.000002697398,0.000002697398,0.000002697398,0.99999994,0,0,0,0,0,0,1,1,0,0,0,false,false,true,-495.96,1260.86,17.01,0.0018315334,0.0044210358,-0.38889888,0.921268,-486.301,199.391,8.311,-0.00040999998,0.00030999997,4.43101
118.98333,2000,0,91.24,0.000002697398,0.000002697398,0.000002697398,0.99999994,0,0,0,0,0,0,1,1,0,0,0,false,false,true,-500.00998,1262.52,17.01,0.0017452167,0.0044534043,-0.3718243,0.9282908,-480.451,196.661,8.311,-0.00040999998,0.00021,4.38901
118.99167,2000,0,91.24,0.000002697398,0.000002697398,0.000002697398,0.99999994,0,0,0,0,0,0,1,1,0,0,0,false,false,true,-504.00998,1264.1599,17.01,0.0016642946,0.004485773,-0.3547874,0.9349347,-474.581,194.011,8.311,-0.00040999998,0.00010999999,4.34731
119,2000,0,91.24,0.000002697398,0.000002697398,0.000002697398,0.99999994,0,0,0,0,0,0,1,1,0,0,0,false,false,true,-507.96,1265.78,17.01,0.0015833727,0.004512747,-0.33779377,0.94120795,-468.691,191.44101,8.311,-0.00040999998,0,4.30621
119.00833,2000,0,91.24,0.000002697398,0.000002697398,0.000002697398,0.99999994,0,0,0,0,0,0,1,1,0,0,0,false,false,true,-511.87,1267.38,17.01,0.0015024508,0.004539721,-0.32085404,0.94711655,-462.781,188.951,8.311,-0.00040999998,0,4.26581
