time,ball_loc_x,ball_loc_y,ball_loc_z,ball_rot_x,ball_rot_y,ball_rot_z,ball_rot_w,ball_vel_x,ball_vel_y,ball_vel_z,ball_ang_x,ball_ang_y,ball_ang_z,player0_throttle,player0_steer,player0_pitch,player0_yaw,player0_roll,player0_jump,player0_boost,player0_handbrake,player0_loc_x,player0_loc_y,player0_loc_z,player0_rot_x,player0_rot_y,player0_rot_z,player0_rot_w,player0_vel_x,player0_vel_y,player0_vel_z,player0_ang_x,player0_ang_y,player0_ang_z
188.11667,2000,0,91.24,0.000002697398,0.000002697398,0.000002697398,0.99999994,0,0,0,0,0,0,0,0,0,0,0,false,false,false,0,0.14,17.01,-0.00336905,0.0033798397,0.7071014,0.7070959,0,0.011,8.321,-0.00051,0,0
188.125,2000,0,73,0.000002697398,0.000002697398,0.000002697398,0.99999994,0,0,0,0,0,0,1,0,0,0,0,false,true,false,0,0,16.94,0.0000026973983,0.0000026973983,0.70710677,0.70710677,0,0,2.041,-0.050809998,0,0
188.13333,2000,0,87.6,0.000002697398,0.000002697398,0.000002697398,0.99999994,0,0,0,0,0,0,1,0,0,0,0,false,true,false,0,0.07,16.89,-0.00014835689,0.00015375168,0.7071067,0.7071067,0,21.521,3.8809998,-0.085609995,0,0
188.14166,2000,0,90.52,0.000002697398,0.000002697398,0.000002697398,0.99999994,0,0,0,0,0,0,1,0,0,0,0,false,true,false,0,0.32,16.85,-0.00040191234,0.00040730715,0.70710653,0.70710677,0,42.861,5.481,-0.107209995,0,0
188.15,2000,0,91.1,0.000002697398,0.000002697398,0.000002697398,0.99999994,0,0,0,0,0,0,1,0,0,0,0,false,true,false,0,0.75,16.83,-0.00072020525,0.00072560005,0.7071067,0.707106,0,64.011,6.7809997,-0.11630999,0,0
188.15834,2000,0,91.22,0.000002697398,0.000002697398,0.000002697398,0.99999994,0,0,0,0,0,0,1,0,0,0,0,false,true,false,0,1.35,16.82,-0.0010654721,0.001070867,0.70710516,0.7071067,0,84.980995,7.7209997,-0.114609994,0,0
188.16667,2000,0,91.24,0.000002697398,0.000002697398,0.000002697398,0.99999994,0,0,0,0,0,0,1,0,0,0,0,false,true,false,0,2.1299999,16.82,-0.0014053443,0.0014107391,0.7071067,0.70710397,0,105.770996,8.401,-0.10651,0,0
188.175,2000,0,91.24,0.000002697398,0.000002697398,0.000002697398,0.99999994,0,0,0,0,0,0,1,0,0,0,0,false,true,false,0,3.08,16.82,-0.0017182427,0.0017236375,0.707108,0.70710135,0,126.391,8.8810005,-0.09501,0,0
188.18333,2000,0,91.24,0.000002697398,0.000002697398,0.000002697398,0.99999994,0,0,0,0,0,0,1,0,0,0,0,false,true,false,0,4.2,16.83,-0.001998772,0.0020041666,0.70710653,0.7071013,0,146.83101,9.231,-0.08221,0,0
188.19167,2000,0,91.24,0.000002697398,0.000002697398,0.000002697398,0.99999994,0,0,0,0,0,0,1,0,0,0,0,false,true,false,0,5.49,16.84,-0.0022415377,0.0022469326,0.70710504,0.7071013,0,167.091,9.451,-0.069409996,0,0
188.2,2000,0,91.24,0.000002697398,0.000002697398,0.000002697398,0.99999994,0,0,0,0,0,0,1,0,0,0,0,false,true,false,0,6.95,16.85,-0.00244654,0.0024519349,0.70710367,0.7071013,0,187.181,9.591001,-0.057309996,0,0
188.20833,2000,0,91.24,0.000002697398,0.000002697398,0.000002697398,0.99999994,0,0,0,0,0,0,1,0,0,0,0,false,true,false,0,8.58,16.859999,-0.0026137787,0.0026191734,0.7071025,0.7071013,0,207.101,9.6710005,-0.046409998,0,0
188.21666,2000,0,91.24,0.000002697398,0.000002697398,0.000002697398,0.99999994,0,0,0,0,0,0,1,0,0,0,0,false,true,false,0,10.37,16.869999,-0.0027486486,0.0027540433,0.70710146,0.7071013,0,226.851,9.711,-0.03701,0,0
188.225,2000,0,91.24,0.000002697398,0.000002697398,0.000002697398,0.99999994,0,0,0,0,0,0,1,0,0,0,0,false,true,false,0,12.33,16.88,-0.0028565445,0.0028619394,0.70710063,0.7071013,0,246.431,9.721,-0.02911,0,0
188.23334,2000,0,91.24,0.000002697398,0.000002697398,0.000002697398,0.99999994,0,0,0,0,0,0,1,0,0,0,0,false,true,false,0,14.45,16.89,-0.0029428613,0.002948256,0.7071013,0.7070999,0,265.841,9.701,-0.02261,0,0
188.24167,2000,0,91.24,0.000002697398,0.000002697398,0.000002697398,0.99999994,0,0,0,0,0,0,1,0,0,0,0,false,true,false,0,16.73,16.9,-0.003007599,0.0030129936,0.7070993,0.7071013,0,285.081,9.641,-0.01791,0,0
188.25,2000,0,91.24,0.000002697398,0.000002697398,0.000002697398,0.99999994,0,0,0,0,0,0,1,0,0,0,0,false,true,false,0,19.17,16.91,-0.0030615467,0.0030669416,0.7071013,0.7070989,0,304.161,9.561,-0.014409999,0,0
188.25833,2000,0,91.24,0.000002697398,0.000002697398,0.000002697398,0.99999994,0,0,0,0,0,0,1,0,0,0,0,false,true,false,0,21.77,16.92,-0.0031047051,0.0031101,0.7070985,0.7071013,0,323.081,9.471,-0.011809999,0,0
188.26666,2000,0,91.24,0.000002697398,0.000002697398,0.000002697398,0.99999994,0,0,0,0,0,0,1,0,0,0,0,false,true,false,0,24.529999,16.93,-0.003137074,0.0031424686,0.7070959,0.7071036,0,341.831,9.371,-0.00981,0,0
188.275,2000,0,91.24,0.000002697398,0.000002697398,0.000002697398,0.99999994,0,0,0,0,0,0,1,0,0,0,0,false,true,false,0,27.449999,16.94,-0.003164048,0.003169443,0.707096,0.7071034,0,360.421,9.271,-0.0083099995,0,0
188.28334,2000,0,91.24,0.000002697398,0.000002697398,0.000002697398,0.99999994,0,0,0,0,0,0,1,0,0,0,0,false,true,false,0,30.519999,16.949999,-0.003191022,0.0031964167,0.7070959,0.70710313,0,378.851,9.161,-0.00711,0,0
188.29167,2000,0,91.24,0.000002697398,0.000002697398,0.000002697398,0.99999994,0,0,0,0,0,0,1,0,0,0,0,false,true,false,0,33.75,16.96,-0.0032126014,0.003217996,0.707096,0.70710295,0,397.131,9.051001,-0.00601,0,0
188.3,2000,0,91.24,0.000002697398,0.000002697398,0.000002697398,0.99999994,0,0,0,0,0,0,1,0,0,0,0,false,true,false,0,37.13,16.97,-0.0032287855,0.0032341804,0.7070959,0.7071028,0,415.251,8.941,-0.00521,0,0
188.30833,2000,0,91.24,0.000002697398,0.000002697398,0.000002697398,0.99999994,0,0,0,0,0,0,1,0,0,0,0,false,true,false,0,40.66,16.98,-0.00324497,0.003250365,0.707096,0.70710266,0,433.211,8.831,-0.00451,0,0
188.31667,2000,0,91.24,0.000002697398,0.000002697398,0.000002697398,0.99999994,0,0,0,0,0,0,1,0,0,0,0,false,true,false,0,44.34,16.99,-0.0032557594,0.0032611543,0.7070959,0.70710254,0,451.021,8.721001,-0.00391,0,0
188.325,2000,0,91.24,0.000002697398,0.000002697398,0.000002697398,0.99999994,0,0,0,0,0,0,1,0,0,0,0,false,true,false,0,48.17,16.99,-0.003266549,0.003271944,0.7070959,0.7071024,0,468.681,8.601,-0.00341,0,0
188.33333,2000,0,91.24,0.000002697398,0.000002697398,0.000002697398,0.99999994,0,0,0,0,0,0,1,0,0,0,0,false,true,false,0,52.14,16.99,-0.0032773386,0.0032827335,0.7070959,0.7071023,0,486.191,8.531,-0.00301,0,0
188.34166,2000,0,91.24,0.000002697398,0.000002697398,0.000002697398,0.99999994,0,0,0,0,0,0,1,0,0,0,0,false,true,false,0,56.26,16.99,-0.0032881282,0.003293523,0.7070959,0.70710224,0,503.541,8.481,-0.00271,0,0
188.35,2000,0,91.24,0.000002697398,0.000002697398,0.000002697398,0.99999994,0,0,0,0,0,0,1,0,0,0,0,false,true,false,0,60.53,16.99,-0.0032935233,0.003298918,0.707096,0.7071022,0,520.751,8.451,-0.00241,0,0
188.35834,2000,0,91.24,0.000002697398,0.000002697398,0.000002697398,0.99999994,0,0,0,0,0,0,1,0,0,0,0,false,true,false,0,64.939995,16.99,-0.0032989178,0.0033043127,0.7070959,0.7071021,0,537.811,8.431,-0.00211,0,0
188.36667,2000,0,91.24,0.000002697398,0.000002697398,0.000002697398,0.99999994,0,0,0,0,0,0,1,0,0,0,0,false,true,false,0,69.49,16.99,-0.0033043127,0.0033097074,0.7070959,0.70710206,0,554.72095,8.4210005,-0.0019099999,0,0
188.375,2000,0,91.24,0.000002697398,0.000002697398,0.000002697398,0.99999994,0,0,0,0,0,0,1,0,0,0,0,false,true,false,0,74.18,16.99,-0.0033097074,0.0033151023,0.7070959,0.707102,0,571.49097,8.411,-0.0017099999,0,0
188.38333,2000,0,91.24,0.000002697398,0.000002697398,0.000002697398,0.99999994,0,0,0,0,0,0,1,0,0,0,0,false,true,false,0,79.009995,16.99,-0.0033151023,0.003320497,0.7070959,0.707102,0,588.11096,8.411,-0.00151,0,0
188.39166,2000,0,91.24,0.000002697398,0.000002697398,0.000002697398,0.99999994,0,0,0,0,0,0,1,0,0,0,0,false,true,false,0,83.979996,16.99,-0.0033204972,0.0033258921,0.707096,0.70710194,0,604.59094,8.411,-0.0014099999,0,0
188.4,2000,0,91.24,0.000002697398,0.000002697398,0.000002697398,0.99999994,0,0,0,0,0,0,1,0,0,0,0,false,true,false,0,89.09,16.99,-0.003325892,0.0033312866,0.7070959,0.7071019,0,620.93097,8.411,-0.0012099999,0,0
188.40834,2000,0,91.24,0.000002697398,0.000002697398,0.000002697398,0.99999994,0,0,0,0,0,0,1,0,0,0,0,false,true,false,0,94.329994,16.99,-0.0033312866,0.0033366815,0.7070959,0.7071018,0,637.131,8.411,-0.00111,0,0
188.41667,2000,0,91.24,0.000002697398,0.000002697398,0.000002697398,0.99999994,0,0,0,0,0,0,1,0,0,0,0,false,true,false,0,99.71,16.99,-0.0033366815,0.0033420762,0.7070959,0.70710176,0,653.191,8.411,-0.00091,0,0
188.425,2000,0,91.24,0.000002697398,0.000002697398,0.000002697398,0.99999994,0,0,0,0,0,0,1,0,0,0,0,false,true,false,0,105.22,16.99,-0.0033366818,0.0033474711,0.707096,0.70710176,0,669.11096,8.411,-0.00081,0,0
188.43333,2000,0,91.24,0.000002697398,0.000002697398,0.000002697398,0.99999994,0,0,0,0,0,0,1,0,0,0,0,false,true,false,0,110.86,16.99,-0.0033366818,0.0033474711,0.707096,0.70710176,0,684.90094,8.411,-0.00071,0,0
188.44167,2000,0,91.24,0.000002697398,0.000002697398,0.000002697398,0.99999994,0,0,0,0,0,0,1,0,0,0,0,false,true,false,0,116.64,16.99,-0.0033366818,0.0033474711,0.707096,0.70710176,0,700.55096,8.411,-0.00061,0,0
188.45,2000,0,91.24,0.000002697398,0.000002697398,0.000002697398,0.99999994,0,0,0,0,0,0,1,0,0,0,0,false,true,false,0,122.549995,16.99,-0.0033366818,0.0033474711,0.707096,0.70710176,0,716.071,8.411,-0.00061,0,0
188.45833,2000,0,91.24,0.000002697398,0.000002697398,0.000002697398,0.99999994,0,0,0,0,0,0,1,0,0,0,0,false,true,false,0,128.59,16.99,-0.0033366818,0.0033474711,0.707096,0.70710176,0,731.451,8.411,-0.00061,0,0
188.46666,2000,0,91.24,0.000002697398,0.000002697398,0.000002697398,0.99999994,0,0,0,0,0,0,1,0,0,0,0,false,true,false,0,134.75,16.99,-0.0033366818,0.0033474711,0.707096,0.70710176,0,746.701,8.411,-0.00061,0,0
188.475,2000,0,91.24,0.000002697398,0.000002697398,0.000002697398,0.99999994,0,0,0,0,0,0,1,0,0,0,0,false,true,false,0,141.04,16.99,-0.0033366818,0.0033474711,0.707096,0.70710176,0,761.821,8.411,-0.00061,0,0
188.48334,2000,0,91.24,0.000002697398,0.000002697398,0.000002697398,0.99999994,0,0,0,0,0,0,1,0,0,0,0,false,true,false,0,147.45999,16.99,-0.0033366818,0.0033474711,0.707096,0.70710176,0,776.811,8.411,-0.00061,0,0
188.49167,2000,0,91.24,0.000002697398,0.000002697398,0.000002697398,0.99999994,0,0,0,0,0,0,1,0,0,0,0,false,true,false,0,154,16.99,-0.0033366818,0.0033474711,0.707096,0.70710176,0,791.67096,8.411,-0.00061,0,0
188.5,2000,0,91.24,0.000002697398,0.000002697398,0.000002697398,0.99999994,0,0,0,0,0,0,1,0,0,0,0,false,true,false,0,160.67,16.99,-0.0033366818,0.0033474711,0.707096,0.70710176,0,806.41095,8.411,-0.00061,0,0
188.50833,2000,0,91.24,0.000002697398,0.000002697398,0.000002697398,0.99999994,0,0,0,0,0,0,1,0,0,0,0,false,true,false,0,167.45999,16.99,-0.0033366818,0.0033474711,0.707096,0.70710176,0,821.02094,8.411,-0.00061,0,0
188.51666,2000,0,91.24,0.000002697398,0.000002697398,0.000002697398,0.99999994,0,0,0,0,0,0,1,0,0,0,0,false,true,false,0,174.37,16.99,-0.0033366818,0.0033474711,0.707096,0.70710176,0,835.501,8.411,-0.00061,0,0
188.525,2000,0,91.24,0.000002697398,0.000002697398,0.000002697398,0.99999994,0,0,0,0,0,0,1,0,0,0,0,false,true,false,0,181.4,16.99,-0.0033366818,0.0033474711,0.707096,0.70710176,0,849.86096,8.411,-0.00071,0,0
188.53334,2000,0,91.24,0.000002697398,0.000002697398,0.000002697398,0.99999994,0,0,0,0,0,0,1,0,0,0,0,false,true,false,0,188.55,16.99,-0.0033366818,0.0033474711,0.707096,0.70710176,0,864.10095,8.411,-0.00071,0,0
188.54167,2000,0,91.24,0.000002697398,0.000002697398,0.000002697398,0.99999994,0,0,0,0,0,0,1,0,0,0,0,false,true,false,0,195.81999,16.99,-0.0033366818,0.0033474711,0.707096,0.70710176,0,878.22095,8.411,-0.00071,0,0
188.55,2000,0,91.24,0.000002697398,0.000002697398,0.000002697398,0.99999994,0,0,0,0,0,0,1,0,0,0,0,false,true,false,0,203.20999,16.99,-0.0033366818,0.0033474711,0.707096,0.70710176,0,892.21094,8.411,-0.00071,0,0
188.55833,2000,0,91.24,0.000002697398,0.000002697398,0.000002697398,0.99999994,0,0,0,0,0,0,1,0,0,0,0,false,true,false,0,210.70999,16.99,-0.0033366818,0.0033474711,0.707096,0.70710176,0,906.08093,8.411,-0.00071,0,0
188.56667,2000,0,91.24,0.000002697398,0.000002697398,0.000002697398,0.99999994,0,0,0,0,0,0,1,0,0,0,0,false,true,false,0,218.33,16.99,-0.0033366818,0.0033474711,0.707096,0.70710176,0,919.84094,8.411,-0.00071,0,0
188.575,2000,0,91.24,0.000002697398,0.000002697398,0.000002697398,0.99999994,0,0,0,0,0,0,1,0,0,0,0,false,true,false,0,226.06,16.99,-0.0033366818,0.0033474711,0.707096,0.70710176,0,933.48096,8.411,-0.00081,0,0
188.58333,2000,0,91.24,0.000002697398,0.000002697398,0.000002697398,0.99999994,0,0,0,0,0,0,1,0,0,0,0,false,true,false,0,233.90999,16.99,-0.0033366818,0.0033474711,0.707096,0.70710176,0,947.001,8.411,-0.00081,0,0
188.59166,2000,0,91.24,0.000002697398,0.000002697398,0.000002697398,0.99999994,0,0,0,0,0,0,1,0,0,0,0,false,true,false,0,241.87,16.99,-0.0033366818,0.0033474711,0.707096,0.70710176,0,960.41095,8.411,-0.00081,0,0
188.6,2000,0,91.24,0.000002697398,0.000002697398,0.000002697398,0.99999994,0,0,0,0,0,0,1,0,0,0,0,false,true,false,0,249.93999,16.99,-0.0033366818,0.0033474711,0.707096,0.70710176,0,973.7009,8.411,-0.00081,0,0
188.60834,2000,0,91.24,0.000002697398,0.000002697398,0.000002697398,0.99999994,0,0,0,0,0,0,1,0,0,0,0,false,true,false,0,258.12,16.99,-0.0033366818,0.0033474711,0.707096,0.70710176,0,986.881,8.411,-0.00081,0,0
188.61667,2000,0,91.24,0.000002697398,0.000002697398,0.000002697398,0.99999994,0,0,0,0,0,0,1,0,0,0,0,false,true,false,0,266.41,16.99,-0.0033366818,0.0033474711,0.707096,0.70710176,0,999.941,8.411,-0.00081,0,0
188.625,2000,0,91.24,0.000002697398,0.000002697398,0.000002697398,0.99999994,0,0,0,0,0,0,1,0,0,0,0,false,true,false,0,274.81,16.99,-0.0033366818,0.0033474711,0.707096,0.70710176,0,1012.8909,8.411,-0.00081,0,0
188.63333,2000,0,91.24,0.000002697398,0.000002697398,0.000002697398,0.99999994,0,0,0,0,0,0,1,0,0,0,0,false,true,false,0,283.32,16.99,-0.0033366818,0.0033474711,0.707096,0.70710176,0,1025.731,8.411,-0.00091,0,0
188.64166,2000,0,91.24,0.000002697398,0.000002697398,0.000002697398,0.99999994,0,0,0,0,0,0,1,0,0,0,0,false,true,false,0,291.94,16.99,-0.0033366815,0.0033528658,0.7070959,0.7071017,0,1038.4609,8.411,-0.00091,0,0
188.65,2000,0,91.24,0.000002697398,0.000002697398,0.000002697398,0.99999994,0,0,0,0,0,0,1,0,0,0,0,false,true,false,0,300.66,16.99,-0.0033366815,0.0033582605,0.7070959,0.7071017,0,1051.0809,8.411,-0.00091,0,0
188.65834,2000,0,91.24,0.000002697398,0.000002697398,0.000002697398,0.99999994,0,0,0,0,0,0,1,0,0,0,0,false,true,false,0,309.49,16.99,-0.0033366815,0.0033636554,0.7070959,0.70710164,0,1063.591,8.411,-0.00081,-0.00010999999,0
188.66667,2000,0,91.24,0.000002697398,0.000002697398,0.000002697398,0.99999994,0,0,0,0,0,0,1,0,0,0,0,false,true,false,0,318.41998,16.99,-0.0033366815,0.0033636554,0.7070959,0.70710164,0,1076.001,8.411,-0.00081,-0.00021,0
188.675,2000,0,91.24,0.000002697398,0.000002697398,0.000002697398,0.99999994,0,0,0,0,0,0,1,0,0,0,0,false,true,false,0,327.46,16.99,-0.0033420762,0.0033636554,0.7070959,0.70710164,0,1088.3009,8.411,-0.00081,-0.00021,0
188.68333,2000,0,91.24,0.000002697398,0.000002697398,0.000002697398,0.99999994,0,0,0,0,0,0,1,0,0,0,0,false,true,false,0,336.6,16.99,-0.0033474711,0.0033636556,0.707096,0.70710164,0,1100.491,8.411,-0.00071,-0.00021,0
188.69167,2000,0,91.24,0.000002697398,0.000002697398,0.000002697398,0.99999994,0,0,0,0,0,0,1,0,0,0,0,false,true,false,0,345.84,16.99,-0.0033474711,0.0033636556,0.707096,0.70710164,0,1112.5809,8.411,-0.00061,-0.00021,0
188.7,2000,0,91.24,0.000002697398,0.000002697398,0.000002697398,0.99999994,0,0,0,0,0,0,1,0,0,0,0,false,true,false,0,355.18,16.99,-0.0033474711,0.0033636556,0.707096,0.70710164,0,1124.5709,8.411,-0.00061,-0.00021,0
188.70833,2000,0,91.24,0.000002697398,0.000002697398,0.000002697398,0.99999994,0,0,0,0,0,0,1,0,0,0,0,false,true,false,0,364.62,16.99,-0.0033474711,0.0033636556,0.707096,0.70710164,0,1136.4509,8.411,-0.00061,-0.00021,0
188.71666,2000,0,91.24,0.000002697398,0.000002697398,0.000002697398,0.99999994,0,0,0,0,0,0,1,0,0,0,0,false,true,false,0,374.16,16.99,-0.0033474711,0.0033636556,0.707096,0.70710164,0,1148.231,8.411,-0.00061,-0.00021,0
188.725,2000,0,91.24,0.000002697398,0.000002697398,0.000002697398,0.99999994,0,0,0,0,0,0,1,0,0,0,0,false,true,false,0,383.8,16.99,-0.0033474711,0.0033636556,0.707096,0.70710164,0,1159.911,8.411,-0.00061,-0.00021,0
188.73334,2000,0,91.24,0.000002697398,0.000002697398,0.000002697398,0.99999994,0,0,0,0,0,0,1,0,0,0,0,false,true,false,0,393.53,16.99,-0.0033474711,0.0033636556,0.707096,0.70710164,0,1171.491,8.411,-0.00061,-0.00021,0
188.74167,2000,0,91.24,0.000002697398,0.000002697398,0.000002697398,0.99999994,0,0,0,0,0,0,1,0,0,0,0,false,true,false,0,403.36,16.99,-0.0033474711,0.0033636556,0.707096,0.70710164,0,1182.971,8.411,-0.00061,-0.00021,0
188.75,2000,0,91.24,0.000002697398,0.000002697398,0.000002697398,0.99999994,0,0,0,0,0,0,1,0,0,0,0,false,true,false,0,413.28998,16.99,-0.0033474711,0.0033636556,0.707096,0.70710164,0,1194.351,8.411,-0.00061,-0.00021,0
188.75833,2000,0,91.24,0.000002697398,0.000002697398,0.000002697398,0.99999994,0,0,0,0,0,0,1,0,0,0,0,false,true,false,0,423.31,16.99,-0.0033474711,0.0033636556,0.707096,0.70710164,0,1205.641,8.411,-0.00061,-0.00021,0
188.76666,2000,0,91.24,0.000002697398,0.000002697398,0.000002697398,0.99999994,0,0,0,0,0,0,1,0,0,0,0,false,true,false,0,433.43,16.99,-0.0033474711,0.0033636556,0.707096,0.70710164,0,1216.8309,8.411,-0.00061,-0.00021,0
188.775,2000,0,91.24,0.000002697398,0.000002697398,0.000002697398,0.99999994,0,0,0,0,0,0,1,0,0,0,0,false,true,false,0,443.63998,16.99,-0.0033474711,0.0033636556,0.707096,0.70710164,0,1227.9209,8.411,-0.00071,-0.00021,0
188.78334,2000,0,91.24,0.000002697398,0.000002697398,0.000002697398,0.99999994,0,0,0,0,0,0,1,0,0,0,0,false,true,false,0,453.94,16.99,-0.0033474711,0.0033636556,0.707096,0.70710164,0,1238.9209,8.411,-0.00071,-0.00021,0
188.79167,2000,0,91.24,0.000002697398,0.000002697398,0.000002697398,0.99999994,0,0,0,0,0,0,1,0,0,0,0,false,true,false,0,464.33,16.99,-0.0033474711,0.0033636556,0.707096,0.70710164,0,1249.8209,8.411,-0.00071,-0.00021,0
188.8,2000,0,91.24,0.000002697398,0.000002697398,0.000002697398,0.99999994,0,0,0,0,0,0,1,0,0,0,0,false,true,false,0,474.81,16.99,-0.0033474711,0.0033636556,0.707096,0.70710164,0,1260.631,8.411,-0.00071,-0.00021,0
188.80833,2000,0,91.24,0.000002697398,0.000002697398,0.000002697398,0.99999994,0,0,0,0,0,0,1,0,0,0,0,false,true,false,0,485.37997,16.99,-0.0033474711,0.0033636556,0.707096,0.70710164,0,1271.351,8.411,-0.00071,-0.00021,0
188.81667,2000,0,91.24,0.000002697398,0.000002697398,0.000002697398,0.99999994,0,0,0,0,0,0,1,0,0,0,0,false,true,false,0,496.03998,16.99,-0.0033474711,0.0033636556,0.707096,0.70710164,0,1281.981,8.411,-0.00071,-0.00021,0
188.825,2000,0,91.24,0.000002697398,0.000002697398,0.000002697398,0.99999994,0,0,0,0,0,0,1,0,0,0,0,false,true,false,0,506.78998,16.99,-0.0033474711,0.0033636556,0.707096,0.70710164,0,1292.511,8.411,-0.00071,-0.00021,0
188.83333,2000,0,91.24,0.000002697398,0.000002697398,0.000002697398,0.99999994,0,0,0,0,0,0,1,0,0,0,0,false,true,false,0,517.63,16.99,-0.0033474711,0.0033636556,0.707096,0.70710164,0,1302.9509,8.411,-0.00071,-0.00021,0
188.84166,2000,0,91.24,0.000002697398,0.000002697398,0.000002697398,0.99999994,0,0,0,0,0,0,1,0,0,0,0,false,true,false,0,528.56,16.99,-0.0033474711,0.0033636556,0.707096,0.70710164,0,1313.3009,8.411,-0.00081,-0.00021,0
188.85,2000,0,91.24,0.000002697398,0.000002697398,0.000002697398,0.99999994,0,0,0,0,0,0,1,0,0,0,0,false,true,false,0,539.57,16.99,-0.0033528658,0.0033636554,0.7070959,0.7071016,0,1323.5709,8.411,-0.00081,-0.00021,0
188.85834,2000,0,91.24,0.000002697398,0.000002697398,0.000002697398,0.99999994,0,0,0,0,0,0,1,0,0,0,0,false,true,false,0,550.67,16.99,-0.0033582605,0.0033636554,0.7070959,0.7071016,0,1333.751,8.411,-0.00081,-0.00010999999,0
188.86667,2000,0,91.24,0.000002697398,0.000002697398,0.000002697398,0.99999994,0,0,0,0,0,0,1,0,0,0,0,false,true,false,0,561.85,16.99,-0.0033582605,0.0033636554,0.7070959,0.7071016,0,1343.841,8.411,-0.00071,0,0
188.875,2000,0,91.24,0.000002697398,0.000002697398,0.000002697398,0.99999994,0,0,0,0,0,0,1,0,0,0,0,false,true,false,0,573.12,16.99,-0.0033582605,0.0033636554,0.7070959,0.7071016,0,1353.841,8.411,-0.00071,0,0
188.88333,2000,0,91.24,0.000002697398,0.000002697398,0.000002697398,0.99999994,0,0,0,0,0,0,1,0,0,0,0,false,true,false,0,584.47,16.99,-0.0033582605,0.0033636554,0.7070959,0.7071016,0,1363.761,8.411,-0.00071,0,0
188.89166,2000,0,91.24,0.000002697398,0.000002697398,0.000002697398,0.99999994,0,0,0,0,0,0,1,0,0,0,0,false,true,false,0,595.89996,16.99,-0.0033582605,0.0033636554,0.7070959,0.7071016,0,1373.591,8.411,-0.00071,0,0
188.9,2000,0,91.24,0.000002697398,0.000002697398,0.000002697398,0.99999994,0,0,0,0,0,0,1,0,0,0,0,false,true,false,0,607.42,16.99,-0.0033582605,0.0033636554,0.7070959,0.7071016,0,1383.341,8.411,-0.00071,0,0
188.90834,2000,0,91.24,0.000002697398,0.000002697398,0.000002697398,0.99999994,0,0,0,0,0,0,1,0,0,0,0,false,true,false,0,619.01996,16.99,-0.0033582605,0.0033636554,0.7070959,0.7071016,0,1393.011,8.411,-0.00071,0,0
188.91667,2000,0,91.24,0.000002697398,0.000002697398,0.000002697398,0.99999994,0,0,0,0,0,0,1,0,0,0,0,false,true,false,0,630.7,16.99,-0.0033582605,0.0033636554,0.7070959,0.7071016,0,1402.4409,8.411,-0.00071,0,0
188.925,2000,0,91.24,0.000002697398,0.000002697398,0.000002697398,0.99999994,0,0,0,0,0,0,1,0,0,0,0,false,true,false,0,642.45996,16.99,-0.0033582605,0.0033636554,0.7070959,0.7071016,0,1410.7009,8.411,-0.00081,0,0
188.93333,2000,0,91.24,0.000002697398,0.000002697398,0.000002697398,0.99999994,0,0,0,0,0,0,1,0,0,0,0,false,true,false,0,654.27997,16.99,-0.0033582605,0.0033636554,0.7070959,0.7071016,0,1418.9609,8.411,-0.00091,0,0
188.94167,2000,0,91.24,0.000002697398,0.000002697398,0.000002697398,0.99999994,0,0,0,0,0,0,1,0,0,0,0,false,true,false,0,666.17,16.99,-0.0033582605,0.00336905,0.7070959,0.7071016,0,1427.221,8.411,-0.00091,0,0
188.95,2000,0,91.24,0.000002697398,0.000002697398,0.000002697398,0.99999994,0,0,0,0,0,0,1,0,0,0,0,false,true,false,0,678.13,16.99,-0.0033582605,0.003374445,0.7070959,0.7071015,0,1435.481,8.411,-0.00091,0,0
188.95833,2000,0,91.24,0.000002697398,0.000002697398,0.000002697398,0.99999994,0,0,0,0,0,0,1,0,0,0,0,false,true,false,0,690.16,16.99,-0.0033582605,0.0033798397,0.7070959,0.70710146,0,1443.741,8.411,-0.00081,0,0
188.96666,2000,0,91.24,0.000002697398,0.000002697398,0.000002697398,0.99999994,0,0,0,0,0,0,1,0,0,0,0,false,true,false,0,702.26,16.99,-0.0033582605,0.0033798397,0.7070959,0.70710146,0,1452.001,8.411,-0.00071,-0.00010999999,0
188.975,2000,0,91.24,0.000002697398,0.000002697398,0.000002697398,0.99999994,0,0,0,0,0,0,1,0,0,0,0,false,true,false,0,714.43,16.99,-0.0033582605,0.0033798397,0.7070959,0.70710146,0,1460.261,8.411,-0.00071,-0.00010999999,0
188.98334,2000,0,91.24,0.000002697398,0.000002697398,0.000002697398,0.99999994,0,0,0,0,0,0,1,0,0,0,0,false,true,false,0,726.67,16.99,-0.0033582605,0.0033798397,0.7070959,0.70710146,0,1468.521,8.411,-0.00071,-0.00010999999,0
188.99167,2000,0,91.24,0.000002697398,0.000002697398,0.000002697398,0.99999994,0,0,0,0,0,0,1,0,0,0,0,false,true,false,0,738.98,16.99,-0.0033582605,0.0033798397,0.7070959,0.70710146,0,1476.7809,8.411,-0.00071,-0.00010999999,0
189,2000,0,91.24,0.000002697398,0.000002697398,0.000002697398,0.99999994,0,0,0,0,0,0,1,0,0,0,0,false,true,false,0,751.36,16.99,-0.0033582605,0.0033798397,0.7070959,0.70710146,0,1485.0409,8.411,-0.00071,-0.00010999999,0
189.00833,2000,0,91.24,0.000002697398,0.000002697398,0.000002697398,0.99999994,0,0,0,0,0,0,1,0,0,0,0,false,true,false,0,763.8,16.99,-0.0033582605,0.0033798397,0.7070959,0.70710146,0,1493.3009,8.411,-0.00071,-0.00010999999,0
189.01666,2000,0,91.24,0.000002697398,0.000002697398,0.000002697398,0.99999994,0,0,0,0,0,0,1,0,0,0,0,false,true,false,0,776.31,16.99,-0.0033582605,0.0033798397,0.7070959,0.70710146,0,1501.5609,8.411,-0.00071,-0.00010999999,0
189.025,2000,0,91.24,0.000002697398,0.000002697398,0.000002697398,0.99999994,0,0,0,0,0,0,0,1,0,0,0,false,false,true,0,788.82,16.99,-0.0033582605,0.0033798397,0.7070959,0.70710146,-11.471,1500.2809,8.471001,-0.00071,0.00281,0.31921
189.03334,2000,0,91.24,0.000002697398,0.000002697398,0.000002697398,0.99999994,0,0,0,0,0,0,0,1,0,0,0,false,false,true,-0.099999994,801.32,16.99,-0.0033582605,0.0033852346,0.7080335,0.70616263,-21.081,1499.1609,8.501,-0.00071,0.00401,0.57241
189.04167,2000,0,91.24,0.000002697398,0.000002697398,0.000002697398,0.99999994,0,0,0,0,0,0,0,1,0,0,0,false,false,true,-0.28,813.81,16.99,-0.0033582605,0.0033906293,0.7097136,0.70447403,-30.440998,1498.0409,8.521,-0.00061,0.0043099998,0.79460996
189.05,2000,0,91.24,0.000002697398,0.000002697398,0.000002697398,0.99999994,0,0,0,0,0,0,0,1,0,0,0,false,false,true,-0.53,826.29,16.99,-0.00335826,0.0033960238,0.7120406,0.70212185,-39.940998,1496.871,8.541,-0.00051,0.00411,0.99121
189.05833,2000,0,91.24,0.000002697398,0.000002697398,0.000002697398,0.99999994,0,0,0,0,0,0,0,1,0,0,0,false,false,true,-0.85999995,838.76,16.99,-0.0033636554,0.0033960242,0.71493316,0.6991764,-49.821,1495.611,8.551001,-0.00051,0.00361,1.16671
189.06667,2000,0,91.24,0.000002697398,0.000002697398,0.000002697398,0.99999994,0,0,0,0,0,0,0,1,0,0,0,false,false,true,-1.28,851.22,16.99,-0.00336905,0.0033906293,0.71832496,0.6956912,-60.220997,1494.221,8.561,-0.00040999998,0.00301,1.32461
189.075,2000,0,91.24,0.000002697398,0.000002697398,0.000002697398,0.99999994,0,0,0,0,0,0,0,1,0,0,0,false,false,true,-1.78,863.67,16.99,-0.00337984,0.00337984,0.7221544,0.69171536,-71.190994,1492.6609,8.561,-0.00040999998,0.00241,1.4679099
189.08333,2000,0,91.24,0.000002697398,0.000002697398,0.000002697398,0.99999994,0,0,0,0,0,0,0,1,0,0,0,false,false,true,-2.37,876.11,16.99,-0.0033960242,0.00336905,0.72637093,0.68728614,-82.741,1490.891,8.561,-0.00040999998,0.0018099999,1.59881
189.09166,2000,0,91.24,0.000002697398,0.000002697398,0.000002697398,0.99999994,0,0,0,0,0,0,0,1,0,0,0,false,false,true,-3.06,888.52997,16.99,-0.0034122085,0.0033528658,0.73093444,0.6824308,-94.821,1488.891,8.561,-0.00030999997,0.00131,1.71901
189.1,2000,0,91.24,0.000002697398,0.000002697398,0.000002697398,0.99999994,0,0,0,0,0,0,0,1,0,0,0,false,false,true,-3.85,900.94,16.99,-0.0034337877,0.0033312866,0.7358051,0.6771763,-107.370995,1486.631,8.571,-0.00030999997,0.00081,1.8300099
189.10834,2000,0,91.24,0.000002697398,0.000002697398,0.000002697398,0.99999994,0,0,0,0,0,0,0,1,0,0,0,false,false,true,-4.74,913.32996,16.99,-0.003455367,0.0033097074,0.7409491,0.671544,-120.300995,1484.101,8.571,-0.00021,0.00040999998,1.93281
189.11667,2000,0,91.24,0.000002697398,0.000002697398,0.000002697398,0.99999994,0,0,0,0,0,0,0,1,0,0,0,false,false,true,-5.74,925.69995,16.99,-0.0034823408,0.0032827335,0.7463326,0.66555583,-133.501,1481.2909,8.571,-0.00021,0,2.02831
189.125,2000,0,91.24,0.000002697398,0.000002697398,0.000002697398,0.99999994,0,0,0,0,0,0,0,1,0,0,0,false,false,true,-6.85,938.04,16.99,-0.0035093152,0.0032557596,0.7519328,0.65922236,-146.86101,1478.1909,8.571,-0.00010999999,-0.00021,2.1170099
189.13333,2000,0,91.24,0.000002697398,0.000002697398,0.000002697398,0.99999994,0,0,0,0,0,0,0,1,0,0,0,false,false,true,-8.07,950.36,16.99,-0.0035362889,0.0032233908,0.75771743,0.6525651,-160.251,1474.8209,8.571,-0.00010999999,-0.00040999998,2.19931
189.14166,2000,0,91.24,0.000002697398,0.000002697398,0.000002697398,0.99999994,0,0,0,0,0,0,0,1,0,0,0,false,false,true,-9.41,962.64996,16.99,-0.003568658,0.0031910222,0.7636649,0.6455951,-173.531,1471.2009,8.571,-0.00010999999,-0.00061,2.27561
189.15,2000,0,91.24,0.000002697398,0.000002697398,0.000002697398,0.99999994,0,0,0,0,0,0,0,1,0,0,0,false,false,true,-10.86,974.91,16.99,-0.0036010267,0.0031532585,0.7697538,0.6383229,-186.55101,1467.361,8.571,0,-0.00081,2.34601
189.15834,2000,0,91.24,0.000002697398,0.000002697398,0.000002697398,0.99999994,0,0,0,0,0,0,0,1,0,0,0,false,false,true,-12.41,987.13995,16.99,-0.0036333953,0.0031154947,0.7759549,0.6307701,-199.161,1463.351,8.571,0,-0.00091,2.41051
189.16667,2000,0,91.24,0.000002697398,0.000002697398,0.000002697398,0.99999994,0,0,0,0,0,0,0,1,0,0,0,false,false,true,-14.07,999.32996,16.99,-0.0036657641,0.0030777315,0.7822532,0.6229422,-211.201,1459.231,8.571,0,-0.0010099999,2.46911
189.175,2000,0,91.24,0.000002697398,0.000002697398,0.000002697398,0.99999994,0,0,0,0,0,0,0,1,0,0,0,false,false,true,-15.83,1011.49,16.99,-0.0036981327,0.0030399675,0.78862107,0.6148608,-222.511,1455.0709,8.571,0,-0.00111,2.52181
189.18333,2000,0,91.24,0.000002697398,0.000002697398,0.000002697398,0.99999994,0,0,0,0,0,0,0,1,0,0,0,false,false,true,-17.68,1023.62,16.99,-0.0037358964,0.0029968093,0.795037,0.6065419,-232.931,1450.971,8.571,0,-0.0012099999,2.56841
189.19167,2000,0,91.24,0.000002697398,0.000002697398,0.000002697398,0.99999994,0,0,0,0,0,0,0,1,0,0,0,false,false,true,-19.619999,1035.71,16.99,-0.00377366,0.002953651,0.8014843,0.59799653,-242.281,1447.0309,8.571,0.00010999999,-0.00131,2.60871
189.2,2000,0,91.24,0.000002697398,0.000002697398,0.000002697398,0.99999994,0,0,0,0,0,0,0,1,0,0,0,false,false,true,-21.64,1047.77,16.99,-0.0038114237,0.0029104927,0.8079353,0.58925164,-250.391,1443.381,8.571,0.00021,-0.00131,2.64251
189.20833,2000,0,91.24,0.000002697398,0.000002697398,0.000002697398,0.99999994,0,0,0,0,0,0,0,1,0,0,0,false,false,true,-23.73,1059.7999,16.99,-0.0038491874,0.0028619396,0.814376,0.58031774,-257.081,1440.1709,8.571,0.00030999997,-0.0014099999,2.66951
189.21666,2000,0,91.24,0.000002697398,0.000002697398,0.000002697398,0.99999994,0,0,0,0,0,0,0,1,0,0,0,false,false,true,-25.869999,1071.7999,16.99,-0.0038869507,0.0028133863,0.82078147,0.57122207,-262.181,1437.5709,8.561,0.00040999998,-0.0014099999,2.6895099
189.225,2000,0,91.24,0.000002697398,0.000002697398,0.000002697398,0.99999994,0,0,0,0,0,0,0,1,0,0,0,false,false,true,-28.05,1083.78,16.99,-0.003924714,0.002764833,0.82713264,0.5619861,-267.481,1434.721,8.561,0.00040999998,-0.00131,2.70871
189.23334,2000,0,91.24,0.000002697398,0.000002697398,0.000002697398,0.99999994,0,0,0,0,0,0,0,1,0,0,0,false,false,true,-30.279999,1095.74,16.99,-0.003957083,0.0027162798,0.83342254,0.55261534,-272.971,1431.611,8.561,0.00040999998,-0.0012099999,2.7274098
189.24167,2000,0,91.24,0.000002697398,0.000002697398,0.000002697398,0.99999994,0,0,0,0,0,0,0,1,0,0,0,false,false,true,-32.55,1107.6699,16.99,-0.0039894516,0.0026677267,0.83964795,0.5431097,-278.631,1428.241,8.561,0.00040999998,-0.00111,2.7455099
189.25,2000,0,91.24,0.000002697398,0.000002697398,0.000002697398,0.99999994,0,0,0,0,0,0,0,1,0,0,0,false,false,true,-34.87,1119.57,16.99,-0.00402182,0.0026191734,0.8458058,0.53346914,-284.441,1424.601,8.561,0.00040999998,-0.0010099999,2.76311
189.25833,2000,0,91.24,0.000002697398,0.000002697398,0.000002697398,0.99999994,0,0,0,0,0,0,0,1,0,0,0,false,false,true,-37.239998,1131.44,16.99,-0.004054189,0.0025706203,0.85189295,0.52369374,-290.391,1420.6909,8.561,0.00040999998,-0.00091,2.78021
189.26666,2000,0,91.24,0.000002697398,0.000002697398,0.000002697398,0.99999994,0,0,0,0,0,0,0,1,0,0,0,false,false,true,-39.66,1143.28,16.99,-0.0040865582,0.0025220674,0.8579032,0.5137889,-296.451,1416.501,8.561,0.00040999998,-0.00081,2.79671
189.275,2000,0,91.24,0.000002697398,0.000002697398,0.000002697398,0.99999994,0,0,0,0,0,0,0,1,0,0,0,false,false,true,-42.129997,1155.08,16.99,-0.0041189273,0.0024735143,0.8638334,0.50375456,-302.601,1412.0409,8.561,0.00040999998,-0.00081,2.81271
189.28334,2000,0,91.24,0.000002697398,0.000002697398,0.000002697398,0.99999994,0,0,0,0,0,0,0,1,0,0,0,false,false,true,-44.649998,1166.85,16.99,-0.0041512954,0.002419566,0.86967796,0.49359605,-308.831,1407.3009,8.561,0.00051,-0.00071,2.82811
189.29167,2000,0,91.24,0.000002697398,0.000002697398,0.000002697398,0.99999994,0,0,0,0,0,0,0,1,0,0,0,false,false,true,-47.219997,1178.58,16.99,-0.0041836645,0.002365618,0.87543404,0.48331356,-315.111,1402.281,8.561,0.00051,-0.00061,2.84291
189.3,2000,0,91.24,0.000002697398,0.000002697398,0.000002697398,0.99999994,0,0,0,0,0,0,0,1,0,0,0,false,false,true,-49.85,1190.27,16.99,-0.0042106383,0.00231167,0.8810963,0.4729123,-321.431,1396.981,8.561,0.00051,-0.00051,2.85711
189.30833,2000,0,91.24,0.000002697398,0.000002697398,0.000002697398,0.99999994,0,0,0,0,0,0,0,1,0,0,0,false,false,true,-52.53,1201.9099,16.99,-0.0042376122,0.0022577222,0.8866623,0.46239245,-327.771,1391.401,8.561,0.00040999998,-0.00040999998,2.87071
189.31667,2000,0,91.24,0.000002697398,0.000002697398,0.000002697398,0.99999994,0,0,0,0,0,0,0,1,0,0,0,false,false,true,-55.26,1213.5,16.99,-0.0042645857,0.002203774,0.89212954,0.45175377,-334.111,1385.5509,8.561,0.00040999998,-0.00040999998,2.88371
189.325,2000,0,91.24,0.000002697398,0.000002697398,0.000002697398,0.99999994,0,0,0,0,0,0,0,1,0,0,0,false,false,true,-58.039997,1225.0499,16.99,-0.0042915596,0.002149826,0.8974931,0.44100192,-340.431,1379.4309,8.561,0.00030999997,-0.00040999998,2.89601
189.33333,2000,0,91.24,0.000002697398,0.000002697398,0.000002697398,0.99999994,0,0,0,0,0,0,0,1,0,0,0,false,false,true,-60.879997,1236.5499,16.99,-0.004318534,0.0020958781,0.9027483,0.4301422,-346.711,1373.0409,8.561,0.00030999997,-0.00030999997,2.9077098
189.34166,2000,0,91.24,0.000002697398,0.000002697398,0.000002697398,0.99999994,0,0,0,0,0,0,0,1,0,0,0,false,false,true,-63.77,1247.99,16.99,-0.0043455083,0.0020419303,0.9078929,0.41917455,-352.931,1366.391,8.561,0.00030999997,-0.00030999997,2.91871
189.35,2000,0,91.24,0.000002697398,0.000002697398,0.000002697398,0.99999994,0,0,0,0,0,0,0,1,0,0,0,false,false,true,-66.71,1259.38,16.99,-0.004372482,0.0019879823,0.91292256,0.40810436,-359.081,1359.481,8.561,0.00030999997,-0.00021,2.92901
189.35834,2000,0,91.24,0.000002697398,0.000002697398,0.000002697398,0.99999994,0,0,0,0,0,0,0,1,0,0,0,false,false,true,-69.7,1270.71,16.99,-0.004394061,0.0019340342,0.9178354,0.3969317,-365.141,1352.3309,8.561,0.00030999997,-0.00021,2.9386098
189.36667,2000,0,91.24,0.000002697398,0.000002697398,0.000002697398,0.99999994,0,0,0,0,0,0,0,1,0,0,0,false,false,true,-72.74,1281.98,16.99,-0.0044156406,0.0018800865,0.9226276,0.38566193,-371.091,1344.9409,8.561,0.00030999997,-0.00021,2.9474099
189.375,2000,0,91.24,0.000002697398,0.000002697398,0.000002697398,0.99999994,0,0,0,0,0,0,0,1,0,0,0,false,false,true,-75.83,1293.19,16.99,-0.00443722,0.0018261385,0.927295,0.37430048,-376.921,1337.3209,8.561,0.00030999997,-0.00021,2.95541
189.38333,2000,0,91.24,0.000002697398,0.000002697398,0.000002697398,0.99999994,0,0,0,0,0,0,0,1,0,0,0,false,false,true,-78.97,1304.33,16.99,-0.004458799,0.0017721906,0.9318341,0.36285263,-382.611,1329.481,8.561,0.00030999997,-0.00021,2.96261
189.39166,2000,0,91.24,0.000002697398,0.000002697398,0.000002697398,0.99999994,0,0,0,0,0,0,0,1,0,0,0,false,false,true,-82.159996,1315.4099,16.99,-0.0044803782,0.0017128477,0.9362416,0.35132396,-388.151,1321.4309,8.561,0.00030999997,-0.00021,2.9690099
189.4,2000,0,91.24,0.000002697398,0.000002697398,0.000002697398,0.99999994,0,0,0,0,0,0,0,1,0,0,0,false,false,true,-85.39,1326.4199,16.99,-0.0045019574,0.001653505,0.9405164,0.33971426,-393.531,1313.1809,8.561,0.00030999997,-0.00021,2.97451
189.40834,2000,0,91.24,0.000002697398,0.000002697398,0.000002697398,0.99999994,0,0,0,0,0,0,0,1,0,0,0,false,false,true,-88.67,1337.36,16.99,-0.004523536,0.0015941622,0.9446535,0.32803452,-398.731,1304.751,8.561,0.00030999997,-0.00021,2.97921
189.41667,2000,0,91.24,0.000002697398,0.000002697398,0.000002697398,0.99999994,0,0,0,0,0,0,0,1,0,0,0,false,false,true,-91.99,1348.23,16.99,-0.0045451154,0.0015348195,0.94865215,0.3162846,-403.741,1296.151,8.561,0.00021,-0.00021,2.98291
189.425,2000,0,91.24,0.000002697398,0.000002697398,0.000002697398,0.99999994,0,0,0,0,0,0,0,1,0,0,0,false,false,true,-95.35,1359.03,16.99,-0.004566695,0.0014754769,0.9525098,0.30447,-408.551,1287.391,8.561,0.00021,-0.00021,2.98571
189.43333,2000,0,91.24,0.000002697398,0.000002697398,0.000002697398,0.99999994,0,0,0,0,0,0,0,1,0,0,0,false,false,true,-98.75,1369.76,16.99,-0.004582879,0.001416134,0.9562241,0.29259595,-413.151,1278.491,8.561,0.00021,-0.00010999999,2.98751
189.44167,2000,0,91.24,0.000002697398,0.000002697398,0.000002697398,0.99999994,0,0,0,0,0,0,0,1,0,0,0,false,false,true,-102.189995,1380.4099,16.99,-0.0045990637,0.0013567912,0.95979285,0.28066805,-417.531,1269.4609,8.561,0.00021,-0.00010999999,2.9883099
189.45,2000,0,91.24,0.000002697398,0.000002697398,0.000002697398,0.99999994,0,0,0,0,0,0,0,1,0,0,0,false,false,true,-105.67,1390.99,16.99,-0.0046152477,0.0012974483,0.96321267,0.26869687,-421.681,1260.3209,8.561,0.00010999999,-0.00010999999,2.9881098
189.45833,2000,0,91.24,0.000002697398,0.000002697398,0.000002697398,0.99999994,0,0,0,0,0,0,0,1,0,0,0,false,false,true,-109.18,1401.49,16.99,-0.0046314322,0.0012381057,0.9664838,0.2566827,-425.591,1251.0809,8.561,0.00010999999,-0.00010999999,2.9869099
189.46666,2000,0,91.24,0.000002697398,0.000002697398,0.000002697398,0.99999994,0,0,0,0,0,0,0,1,0,0,0,false,false,true,-112.729996,1411.9199,16.99,-0.0046476168,0.0011787629,0.96960306,0.24463606,-429.261,1241.761,8.561,0.00010999999,-0.00010999999,2.9846098
189.475,2000,0,91.24,0.000002697398,0.000002697398,0.000002697398,0.99999994,0,0,0,0,0,0,0,1,0,0,0,false,false,true,-116.31,1422.27,16.99,-0.0046638018,0.0011194203,0.9725709,0.23255712,-432.691,1232.381,8.561,0.00010999999,-0.00010999999,2.98121
189.48334,2000,0,91.24,0.000002697398,0.000002697398,0.000002697398,0.99999994,0,0,0,0,0,0,0,1,0,0,0,false,false,true,-119.92,1432.5399,16.99,-0.0046799853,0.0010600775,0.97538495,0.2204565,-435.871,1222.9609,8.561,0.00010999999,-0.00010999999,2.97661
189.49167,2000,0,91.24,0.000002697398,0.000002697398,0.000002697398,0.99999994,0,0,0,0,0,0,0,1,0,0,0,false,false,true,-123.549995,1442.73,16.99,-0.004690775,0.0010007346,0.97804356,0.20834509,-438.791,1213.511,8.561,0.00010999999,0,2.9709098
189.5,2000,0,91.24,0.000002697398,0.000002697398,0.000002697398,0.99999994,0,0,0,0,0,0,0,1,0,0,0,false,false,true,-127.21,1452.84,16.99,-0.004701565,0.000941392,0.98054755,0.19622299,-441.461,1204.0509,8.561,0.00010999999,0,2.96401
189.50833,2000,0,91.24,0.000002697398,0.000002697398,0.000002697398,0.99999994,0,0,0,0,0,0,0,1,0,0,0,false,false,true,-130.89,1462.87,16.99,-0.0047123544,0.00088204915,0.9828956,0.18410079,-443.871,1194.601,8.561,0.00010999999,0,2.9558098
189.51666,2000,0,91.24,0.000002697398,0.000002697398,0.000002697398,0.99999994,0,0,0,0,0,0,0,1,0,0,0,false,false,true,-134.59,1472.83,16.99,-0.0047231433,0.0008227063,0.98508793,0.17198406,-446.031,1185.1709,8.561,0.00010999999,0,2.94631
189.525,2000,0,91.24,0.000002697398,0.000002697398,0.000002697398,0.99999994,0,0,0,0,0,0,0,1,0,0,0,false,false,true,-138.31,1482.71,16.99,-0.004733934,0.0007633637,0.9871251,0.15987808,-447.941,1175.7909,8.561,0.00010999999,0,2.93561
189.53334,2000,0,91.24,0.000002697398,0.000002697398,0.000002697398,0.99999994,0,0,0,0,0,0,0,1,0,0,0,false,false,true,-142.04,1492.51,16.99,-0.004744723,0.0007040209,0.9890065,0.14779373,-449.60098,1166.471,8.561,0.00010999999,0,2.9235098
189.54167,2000,0,91.24,0.000002697398,0.000002697398,0.000002697398,0.99999994,0,0,0,0,0,0,0,1,0,0,0,false,false,true,-145.79,1502.23,16.99,-0.004755513,0.00064467813,0.9907333,0.13573627,-451.011,1157.221,8.561,0.00010999999,0,2.91011
189.55,2000,0,91.24,0.000002697398,0.000002697398,0.000002697398,0.99999994,0,0,0,0,0,0,0,1,0,0,0,false,false,true,-149.55,1511.87,16.99,-0.0047609075,0.00058533537,0.9923066,0.12371127,-452.181,1148.0709,8.561,0.00010999999,0,2.89531
189.55833,2000,0,91.24,0.000002697398,0.000002697398,0.000002697398,0.99999994,0,0,0,0,0,0,0,1,0,0,0,false,false,true,-153.31999,1521.44,16.99,-0.004766302,0.0005259926,0.993727,0.111729346,-453.121,1139.031,8.561,0.00010999999,0,2.87901
189.56667,2000,0,91.24,0.000002697398,0.000002697398,0.000002697398,0.99999994,0,0,0,0,0,0,0,1,0,0,0,false,false,true,-157.09999,1530.9299,16.99,-0.0047716973,0.0004666499,0.9949958,0.09980146,-453.831,1130.111,8.561,0.00010999999,0,2.86131
189.575,2000,0,91.24,0.000002697398,0.000002697398,0.000002697398,0.99999994,0,0,0,0,0,0,0,1,0,0,0,false,false,true,-160.87999,1540.35,16.99,-0.0047770925,0.00040730715,0.99611485,0.087932825,-454.32098,1121.3309,8.561,0.00010999999,0,2.84211
189.58333,2000,0,91.24,0.000002697398,0.000002697398,0.000002697398,0.99999994,0,0,0,0,0,0,0,1,0,0,0,false,false,true,-164.67,1549.69,16.99,-0.0047824867,0.00034796435,0.9970864,0.076128915,-454.60098,1112.7109,8.561,0.00010999999,0,2.82131
189.59166,2000,0,91.24,0.000002697398,0.000002697398,0.000002697398,0.99999994,0,0,0,0,0,0,0,1,0,0,0,false,false,true,-168.45999,1558.96,16.99,-0.0047878814,0.00028862158,0.9979125,0.06440063,-454.681,1104.261,8.561,0.00010999999,0,2.79901
189.6,2000,0,91.24,0.000002697398,0.000002697398,0.000002697398,0.99999994,0,0,0,0,0,0,0,1,0,0,0,false,false,true,-172.25,1568.1599,16.99,-0.004793276,0.00023467363,0.9985957,0.05275858,-454.57098,1096.001,8.561,0.00010999999,0,2.77511
189.60834,2000,0,91.24,0.000002697398,0.000002697398,0.000002697398,0.99999994,0,0,0,0,0,0,0,1,0,0,0,false,false,true,-176.04,1577.2899,16.99,-0.004793276,0.00018072566,0.999139,0.04120832,-454.291,1087.9309,8.561,0.00010999999,0,2.74951
189.61667,2000,0,91.24,0.000002697398,0.000002697398,0.000002697398,0.99999994,0,0,0,0,0,0,0,1,0,0,0,false,false,true,-179.83,1586.36,16.99,-0.004793276,0.0001267777,0.9995455,0.029760478,-453.841,1080.0709,8.561,0.00010999999,0,2.72221
189.625,2000,0,91.24,0.000002697398,0.000002697398,0.000002697398,0.99999994,0,0,0,0,0,0,0,1,0,0,0,false,false,true,-183.61,1595.36,16.99,-0.0047932756,0.00007282974,0.9998187,0.018420612,-453.241,1072.4309,8.561,0.00021,0,2.69321
189.63333,2000,0,91.24,0.000002697398,0.000002697398,0.000002697398,0.99999994,0,0,0,0,0,0,0,1,0,0,0,false,false,true,-187.39,1604.2999,16.99,-0.0047932765,0.000018881788,0.99996257,0.007199356,-452.511,1065.031,8.561,0.00021,0,2.66241
189.64166,2000,0,91.24,0.000002697398,0.000002697398,0.000002697398,0.99999994,0,0,0,0,0,0,0,1,0,0,0,false,false,true,-191.15999,1613.1799,16.99,-0.0047932765,-0.000035066176,0.9999809,-0.0038923456,-451.651,1057.871,8.561,0.00030999997,0,2.62971
189.65,2000,0,91.24,0.000002697398,0.000002697398,0.000002697398,0.99999994,0,0,0,0,0,0,0,1,0,0,0,false,false,true,-194.92,1622,16.99,-0.0047932756,-0.00008901413,0.9998781,-0.014849217,-450.691,1050.9609,8.561,0.00030999997,0,2.59511
189.65834,2000,0,91.24,0.000002697398,0.000002697398,0.000002697398,0.99999994,0,0,0,0,0,0,0,1,0,0,0,false,false,true,-198.68,1630.76,16.99,-0.0047932756,-0.00014296208,0.99965906,-0.025660431,-449.631,1044.3109,8.561,0.00030999997,0,2.55861
189.66667,2000,0,91.24,0.000002697398,0.000002697398,0.000002697398,0.99999994,0,0,0,0,0,0,0,1,0,0,0,false,false,true,-202.43,1639.46,16.99,-0.004793276,-0.00019691006,0.9993288,-0.036315195,-448.471,1037.861,8.561,0.00030999997,0,2.52231
189.675,2000,0,91.24,0.000002697398,0.000002697398,0.000002697398,0.99999994,0,0,0,0,0,0,0,1,0,0,0,false,false,true,-206.17,1648.11,16.99,-0.0047932756,-0.000250858,0.99889195,-0.046813507,-447.191,1031.5709,8.561,0.00030999997,0,2.48791
189.68333,2000,0,91.24,0.000002697398,0.000002697398,0.000002697398,0.99999994,0,0,0,0,0,0,0,1,0,0,0,false,false,true,-209.9,1656.71,16.99,-0.004787882,-0.00029941121,0.9983531,-0.05716617,-445.801,1025.4509,8.561,0.00021,0,2.45521
189.69167,2000,0,91.24,0.000002697398,0.000002697398,0.000002697398,0.99999994,0,0,0,0,0,0,0,1,0,0,0,false,false,true,-213.61,1665.26,16.99,-0.0047824867,-0.00034796435,0.9977159,-0.06737856,-444.32098,1019.5109,8.561,0.00021,0,2.42411
189.7,2000,0,91.24,0.000002697398,0.000002697398,0.000002697398,0.99999994,0,0,0,0,0,0,0,1,0,0,0,false,false,true,-217.31,1673.76,16.99,-0.004777092,-0.0003965175,0.9969846,-0.077450685,-442.761,1013.7609,8.561,0.00021,0,2.39451
189.70833,2000,0,91.24,0.000002697398,0.000002697398,0.000002697398,0.99999994,0,0,0,0,0,0,0,1,0,0,0,false,false,true,-221,1682.21,16.99,-0.004771697,-0.00044507068,0.9961623,-0.087393336,-441.061,1008.10095,8.561,0.00010999999,0,2.3689098
189.71666,2000,0,91.24,0.000002697398,0.000002697398,0.000002697398,0.99999994,0,0,0,0,0,0,0,1,0,0,0,false,false,true,-224.68,1690.61,16.99,-0.004766302,-0.00049362384,0.99525106,-0.0972227,-439.211,1002.501,8.561,0,0,2.34831
189.725,2000,0,91.24,0.000002697398,0.000002697398,0.000002697398,0.99999994,0,0,0,0,0,0,0,1,0,0,0,false,false,true,-228.34,1698.96,16.99,-0.0047609075,-0.000542177,0.99425226,-0.106954955,-437.211,996.97095,8.561,0,0,2.33251
189.73334,2000,0,91.24,0.000002697398,0.000002697398,0.000002697398,0.99999994,0,0,0,0,0,0,0,1,0,0,0,false,false,true,-231.98,1707.27,16.99,-0.004755513,-0.00059073017,0.99316597,-0.11661168,-435.081,991.52094,8.561,-0.00010999999,0,2.32141
189.74167,2000,0,91.24,0.000002697398,0.000002697398,0.000002697398,0.99999994,0,0,0,0,0,0,0,1,0,0,0,false,false,true,-235.61,1715.5299,16.99,-0.004750118,-0.0006338886,0.9919914,-0.12621443,-432.82098,986.17096,8.561,-0.00021,-0.00010999999,2.31481
189.75,2000,0,91.24,0.000002697398,0.000002697398,0.000002697398,0.99999994,0,0,0,0,0,0,0,1,0,0,0,false,false,true,-239.22,1723.75,16.99,-0.0047447234,-0.00067704695,0.9907282,-0.13577405,-430.441,980.93097,8.561,-0.00030999997,-0.00010999999,2.31261
189.75833,2000,0,91.24,0.000002697398,0.000002697398,0.000002697398,0.99999994,0,0,0,0,0,0,0,1,0,0,0,false,false,true,-242.81,1731.9199,16.99,-0.0047393288,-0.0007202053,0.9893742,-0.14531209,-427.941,975.821,8.561,-0.00040999998,-0.00010999999,2.31471
189.76666,2000,0,91.24,0.000002697398,0.000002697398,0.000002697398,0.99999994,0,0,0,0,0,0,0,1,0,0,0,false,false,true,-246.37999,1740.0499,16.99,-0.0047339336,-0.00076336367,0.98792714,-0.15484472,-425.341,970.84094,8.561,-0.00040999998,-0.00010999999,2.3210099
189.775,2000,0,91.24,0.000002697398,0.000002697398,0.000002697398,0.99999994,0,0,0,0,0,0,0,1,0,0,0,false,false,true,-249.92,1748.14,16.99,-0.004728538,-0.000806522,0.986383,-0.16439354,-422.651,966.0109,8.561,-0.00051,-0.00010999999,2.33151
189.78334,2000,0,91.24,0.000002697398,0.000002697398,0.000002697398,0.99999994,0,0,0,0,0,0,0,1,0,0,0,false,false,true,-253.43999,1756.19,16.99,-0.004723144,-0.00084968045,0.98473936,-0.17396937,-419.871,961.33093,8.561,-0.00051,-0.00010999999,2.3461099
189.79167,2000,0,91.24,0.000002697398,0.000002697398,0.000002697398,0.99999994,0,0,0,0,0,0,0,1,0,0,0,false,false,true,-256.94,1764.2,16.99,-0.0047123544,-0.00089283875,0.98299146,-0.18358833,-417.011,956.80096,8.561,-0.00051,-0.00010999999,2.36441
189.8,2000,0,91.24,0.000002697398,0.000002697398,0.000002697398,0.99999994,0,0,0,0,0,0,0,1,0,0,0,false,false,true,-260.41998,1772.1699,16.99,-0.004701565,-0.0009359972,0.9811356,-0.1932612,-414.021,952.29095,8.561,-0.00051,-0.00010999999,2.3835099
189.80833,2000,0,91.24,0.000002697398,0.000002697398,0.000002697398,0.99999994,0,0,0,0,0,0,0,1,0,0,0,false,false,true,-263.87,1780.11,16.99,-0.004690775,-0.0009791554,0.9791683,-0.20299345,-410.911,947.821,8.561,-0.00051,-0.00021,2.40341
189.81667,2000,0,91.24,0.000002697398,0.000002697398,0.000002697398,0.99999994,0,0,0,0,0,0,0,1,0,0,0,false,false,true,-267.29,1788.01,16.99,-0.0046799853,-0.0010223138,0.97708607,-0.21279044,-407.691,943.3909,8.561,-0.00051,-0.00021,2.4242098
189.825,2000,0,91.24,0.000002697398,0.000002697398,0.000002697398,0.99999994,0,0,0,0,0,0,0,1,0,0,0,false,false,true,-270.69,1795.87,16.99,-0.004669196,-0.0010654721,0.9748874,-0.22264677,-404.381,939.0109,8.561,-0.00040999998,-0.00030999997,2.44571
189.83333,2000,0,91.24,0.000002697398,0.000002697398,0.000002697398,0.99999994,0,0,0,0,0,0,0,1,0,0,0,false,false,true,-274.06,1803.7,16.99,-0.004658406,-0.0011086306,0.97256833,-0.23256785,-400.981,934.7009,8.561,-0.00030999997,-0.00030999997,2.46781
189.84166,2000,0,91.24,0.000002697398,0.000002697398,0.000002697398,0.99999994,0,0,0,0,0,0,0,1,0,0,0,false,false,true,-277.4,1811.49,16.99,-0.0046476163,-0.0011571837,0.97012603,-0.24255364,-397.501,930.47095,8.561,-0.00030999997,-0.00030999997,2.49061
189.85,2000,0,91.24,0.000002697398,0.000002697398,0.000002697398,0.99999994,0,0,0,0,0,0,0,1,0,0,0,false,false,true,-280.71,1819.24,16.99,-0.0046368274,-0.001205737,0.9675564,-0.2526096,-393.901,926.251,8.561,-0.00030999997,-0.00030999997,2.51241
189.85834,2000,0,91.24,0.000002697398,0.000002697398,0.000002697398,0.99999994,0,0,0,0,0,0,0,1,0,0,0,false,false,true,-283.99,1826.96,16.99,-0.0046260376,-0.0012542901,0.96485883,-0.26272488,-390.151,921.98096,8.561,-0.00021,-0.00030999997,2.53191
189.86667,2000,0,91.24,0.000002697398,0.000002697398,0.000002697398,0.99999994,0,0,0,0,0,0,0,1,0,0,0,false,false,true,-287.24,1834.64,16.99,-0.0046152477,-0.0013028431,0.9620335,-0.2728887,-386.251,917.68097,8.561,-0.00021,-0.00021,2.54911
189.875,2000,0,91.24,0.000002697398,0.000002697398,0.000002697398,0.99999994,0,0,0,0,0,0,0,1,0,0,0,false,false,true,-290.46,1842.2899,16.99,-0.0045990637,-0.0013513964,0.9590812,-0.28309032,-382.211,913.371,8.561,-0.00010999999,-0.00010999999,2.56401
189.88333,2000,0,91.24,0.000002697398,0.000002697398,0.000002697398,0.99999994,0,0,0,0,0,0,0,1,0,0,0,false,false,true,-293.65,1849.8999,16.99,-0.004582879,-0.0013999495,0.9560026,-0.2933189,-378.021,909.05096,8.561,-0.00010999999,-0.00010999999,2.57671
189.89166,2000,0,91.24,0.000002697398,0.000002697398,0.000002697398,0.99999994,0,0,0,0,0,0,0,1,0,0,0,false,false,true,-296.8,1857.48,16.99,-0.0045666946,-0.0014485028,0.9527991,-0.30356362,-373.701,904.74097,8.561,0,-0.00010999999,2.58721
189.9,2000,0,91.24,0.000002697398,0.000002697398,0.000002697398,0.99999994,0,0,0,0,0,0,0,1,0,0,0,false,false,true,-299.91,1865.0199,16.99,-0.0045505106,-0.0014970559,0.94947064,-0.31381917,-369.251,900.4509,8.561,0,-0.00010999999,2.59551
189.90834,2000,0,91.24,0.000002697398,0.000002697398,0.000002697398,0.99999994,0,0,0,0,0,0,0,1,0,0,0,false,false,true,-302.99,1872.5199,16.99,-0.004534326,-0.0015456091,0.94602114,-0.32406932,-364.671,896.191,8.561,0,-0.00010999999,2.6017098
189.91667,2000,0,91.24,0.000002697398,0.000002697398,0.000002697398,0.99999994,0,0,0,0,0,0,0,1,0,0,0,false,false,true,-306.03,1879.99,16.99,-0.0045181415,-0.0015941622,0.9424533,-0.3343033,-359.971,891.98096,8.561,0,-0.00010999999,2.60581
189.925,2000,0,91.24,0.000002697398,0.000002697398,0.000002697398,0.99999994,0,0,0,0,0,0,0,1,0,0,0,false,false,true,-309.03,1887.4199,16.99,-0.0045019574,-0.0016427154,0.93876827,-0.34451568,-355.161,887.821,8.561,0,0,2.60781
189.93333,2000,0,91.24,0.000002697398,0.000002697398,0.000002697398,0.99999994,0,0,0,0,0,0,0,1,0,0,0,false,false,true,-311.99,1894.82,16.99,-0.004485773,-0.0016912686,0.9349694,-0.3546957,-350.251,883.72095,8.561,0,0,2.60781
189.94167,2000,0,91.24,0.000002697398,0.000002697398,0.000002697398,0.99999994,0,0,0,0,0,0,0,1,0,0,0,false,false,true,-314.91,1902.1799,16.99,-0.0044695884,-0.0017398217,0.93106073,-0.36483258,-345.251,879.7009,8.561,0.00010999999,0,2.60581
189.95,2000,0,91.24,0.000002697398,0.000002697398,0.000002697398,0.99999994,0,0,0,0,0,0,0,1,0,0,0,false,false,true,-317.78998,1909.51,16.99,-0.004448009,-0.001788375,0.92704433,-0.37492087,-340.161,875.761,8.561,0.00010999999,0,2.6019099
189.95833,2000,0,91.24,0.000002697398,0.000002697398,0.000002697398,0.99999994,0,0,0,0,0,0,0,1,0,0,0,false,false,true,-320.62,1916.8099,16.99,-0.0044264304,-0.0018369282,0.922925,-0.3849499,-335.001,871.91095,8.561,0.00010999999,0,2.5961099
189.96666,2000,0,91.24,0.000002697398,0.000002697398,0.000002697398,0.99999994,0,0,0,0,0,0,0,1,0,0,0,false,false,true,-323.41,1924.08,16.99,-0.004404851,-0.0018854813,0.9187078,-0.3949087,-329.771,868.16095,8.561,0.00021,0,2.58841
189.975,2000,0,91.24,0.000002697398,0.000002697398,0.000002697398,0.99999994,0,0,0,0,0,0,0,1,0,0,0,false,false,true,-326.16,1931.3099,16.99,-0.0043832716,-0.0019340344,0.91439617,-0.40479195,-324.491,864.52094,8.561,0.00021,0,2.57881
189.98334,2000,0,91.24,0.000002697398,0.000002697398,0.000002697398,0.99999994,0,0,0,0,0,0,0,1,0,0,0,false,false,true,-328.86,1938.51,16.99,-0.0043616924,-0.0019825874,0.90999365,-0.41459438,-319.161,860.99097,8.561,0.00021,0,2.56741
189.99167,2000,0,91.24,0.000002697398,0.000002697398,0.000002697398,0.99999994,0,0,0,0,0,0,0,1,0,0,0,false,false,true,-331.52,1945.6799,16.99,-0.0043401127,-0.0020311405,0.9055065,-0.42430496,-313.801,857.58093,8.561,0.00021,0,2.55421
190,2000,0,91.24,0.000002697398,0.000002697398,0.000002697398,0.99999994,0,0,0,0,0,0,0,1,0,0,0,false,false,true,-334.13,1952.83,16.99,-0.0043185344,-0.002079694,0.9009393,-0.43391865,-308.411,854.29095,8.561,0.00021,0,2.53931
190.00833,2000,0,91.24,0.000002697398,0.000002697398,0.000002697398,0.99999994,0,0,0,0,0,0,0,1,0,0,0,false,false,true,-336.69998,1959.95,16.99,-0.004296955,-0.002128247,0.89629894,-0.44342425,-303.011,851.121,8.561,0.00021,0.00010999999,2.52261
190.01666,2000,0,91.24,0.000002697398,0.000002697398,0.000002697398,0.99999994,0,0,0,0,0,0,0,1,0,0,0,false,false,true,-339.22998,1967.0399,16.99,-0.0042753764,-0.0021768005,0.891588,-0.45282206,-297.611,848.08093,8.561,0.00021,0.00010999999,2.50431
190.025,2000,0,91.24,0.000002697398,0.000002697398,0.000002697398,0.99999994,0,0,0,0,0,0,0,1,0,0,0,false,false,true,-341.71,1974.11,16.99,-0.0042537972,-0.0022199587,0.8868142,-0.46210116,-292.211,845.17096,8.561,0.00021,0.00010999999,2.48431
190.03334,2000,0,91.24,0.000002697398,0.000002697398,0.000002697398,0.99999994,0,0,0,0,0,0,0,1,0,0,0,false,false,true,-344.15,1981.1499,16.99,-0.0042322176,-0.0022631169,0.8819833,-0.4712561,-286.831,842.3909,8.561,0.00021,0.00021,2.46271
190.04167,2000,0,91.24,0.000002697398,0.000002697398,0.000002697398,0.99999994,0,0,0,0,0,0,0,1,0,0,0,false,false,true,-346.53998,1988.1699,16.99,-0.004210638,-0.002306275,0.877101,-0.48028162,-281.481,839.751,8.561,0.00021,0.00030999997,2.4395099
190.05,2000,0,91.24,0.000002697398,0.000002697398,0.000002697398,0.99999994,0,0,0,0,0,0,0,1,0,0,0,false,false,true,-348.88998,1995.1699,16.99,-0.004183665,-0.002349434,0.8721739,-0.48917234,-276.171,837.24097,8.561,0.00021,0.00040999998,2.41471
190.05833,2000,0,91.24,0.000002697398,0.000002697398,0.000002697398,0.99999994,0,0,0,0,0,0,0,1,0,0,0,false,false,true,-351.19,2002.1499,16.99,-0.00415669,-0.002392592,0.86720806,-0.4979227,-270.911,834.86096,8.561,0.00021,0.00040999998,2.38831
190.06667,2000,0,91.24,0.000002697398,0.000002697398,0.000002697398,0.99999994,0,0,0,0,0,0,0,1,0,0,0,false,false,true,-353.44998,2009.11,16.99,-0.004129716,-0.0024357503,0.8622104,-0.5065274,-265.711,832.61096,8.561,0.00021,0.00040999998,2.36041
190.075,2000,0,91.24,0.000002697398,0.000002697398,0.000002697398,0.99999994,0,0,0,0,0,0,0,1,0,0,0,false,false,true,-355.66,2016.0499,16.99,-0.0041027423,-0.0024789087,0.85718805,-0.5149811,-260.581,830.49097,8.561,0.00021,0.00040999998,2.33111
190.08333,2000,0,91.24,0.000002697398,0.000002697398,0.000002697398,0.99999994,0,0,0,0,0,0,0,1,0,0,0,false,false,true,-357.83,2022.97,16.99,-0.0040757684,-0.0025220672,0.85214496,-0.5232837,-255.531,828.501,8.561,0.00021,0.00040999998,2.30031
190.09166,2000,0,91.24,0.000002697398,0.000002697398,0.000002697398,0.99999994,0,0,0,0,0,0,0,1,0,0,0,false,false,true,-359.96,2029.87,16.99,-0.0040487945,-0.0025652256,0.84709203,-0.53142446,-250.561,826.631,8.561,0.00021,0.00030999997,2.26811
190.1,2000,0,91.24,0.000002697398,0.000002697398,0.000002697398,0.99999994,0,0,0,0,0,0,0,1,0,0,0,false,false,true,-362.05,2036.76,16.99,-0.00402182,-0.002602989,0.84203374,-0.53940344,-245.691,824.881,8.551001,0.00021,0.00030999997,2.23451
190.10834,2000,0,91.24,0.000002697398,0.000002697398,0.000002697398,0.99999994,0,0,0,0,0,0,0,1,0,0,0,false,false,true,-364.1,2043.63,16.99,-0.0039948463,-0.0026407526,0.8369747,-0.5472205,-240.921,823.251,8.551001,0.00021,0.00021,2.19961
190.11667,2000,0,91.24,0.000002697398,0.000002697398,0.000002697398,0.99999994,0,0,0,0,0,0,0,1,0,0,0,false,false,true,-366.11,2050.49,16.99,-0.0039678724,-0.0026785163,0.83192295,-0.55487037,-236.261,821.73096,8.551001,0.00021,0.00021,2.16331
190.125,2000,0,91.24,0.000002697398,0.000002697398,0.000002697398,0.99999994,0,0,0,0,0,0,0,1,0,0,0,false,false,true,-368.08,2057.3398,16.99,-0.003940899,-0.00271628,0.826887,-0.56234765,-231.72101,820.321,8.551001,0.00021,0.00021,2.12581
190.13333,2000,0,91.24,0.000002697398,0.000002697398,0.000002697398,0.99999994,0,0,0,0,0,0,0,1,0,0,0,false,false,true,-370.00998,2064.18,16.99,-0.0039139246,-0.0027540433,0.8218719,-0.5696522,-227.301,819.02094,8.551001,0.00021,0.00021,2.08701
190.14166,2000,0,91.24,0.000002697398,0.000002697398,0.000002697398,0.99999994,0,0,0,0,0,0,0,1,0,0,0,false,false,true,-371.9,2071.01,16.99,-0.0038869507,-0.002791807,0.8168863,-0.5767787,-223.001,817.821,8.551001,0.00021,0.00010999999,2.04701
190.15,2000,0,91.24,0.000002697398,0.000002697398,0.000002697398,0.99999994,0,0,0,0,0,0,0,1,0,0,0,false,false,true,-373.75998,2077.8298,16.99,-0.0038653715,-0.0028241756,0.8119356,-0.58372724,-218.841,816.71094,8.551001,0.00021,0,2.00581
190.15834,2000,0,91.24,0.000002697398,0.000002697398,0.000002697398,0.99999994,0,0,0,0,0,0,0,1,0,0,0,false,false,true,-375.58,2084.64,16.99,-0.0038437918,-0.0028565442,0.8070289,-0.5904923,-214.811,815.691,8.551001,0.00021,0,1.9635099
190.16667,2000,0,91.24,0.000002697398,0.000002697398,0.000002697398,0.99999994,0,0,0,0,0,0,0,1,0,0,0,false,false,true,-377.37,2091.44,16.99,-0.0038222133,-0.0028889135,0.80217177,-0.5970741,-210.921,814.751,8.551001,0.00021,0,1.92011
190.175,2000,0,91.24,0.000002697398,0.000002697398,0.000002697398,0.99999994,0,0,0,0,0,0,0,1,0,0,0,false,false,true,-379.13,2098.23,16.99,-0.0038006338,-0.002921282,0.7973695,-0.60347223,-207.181,813.8909,8.551001,0.00021,0.00010999999,1.87561
190.18333,2000,0,91.24,0.000002697398,0.000002697398,0.000002697398,0.99999994,0,0,0,0,0,0,0,1,0,0,0,false,false,true,-380.86,2105.01,16.99,-0.0037790546,-0.002953651,0.7926276,-0.6096871,-203.58101,813.10095,8.551001,0.00010999999,0.00010999999,1.83011
190.19167,2000,0,91.24,0.000002697398,0.000002697398,0.000002697398,0.99999994,0,0,0,0,0,0,0,1,0,0,0,false,false,true,-382.56,2111.79,16.99,-0.0037574756,-0.0029806248,0.7879557,-0.6157131,-200.131,812.371,8.551001,0.00010999999,0.00010999999,1.78361
190.2,2000,0,91.24,0.000002697398,0.000002697398,0.000002697398,0.99999994,0,0,0,0,0,0,0,1,0,0,0,false,false,true,-384.22998,2118.56,16.99,-0.0037358964,-0.003007599,0.78335947,-0.6215503,-196.83101,811.701,8.551001,0.00010999999,0.00021,1.73621
190.20833,2000,0,91.24,0.000002697398,0.000002697398,0.000002697398,0.99999994,0,0,0,0,0,0,0,1,0,0,0,false,false,true,-385.87,2125.32,16.99,-0.0037143172,-0.0030345728,0.7788444,-0.6271987,-193.681,811.09094,8.541,0.00010999999,0.00030999997,1.68791
190.21666,2000,0,91.24,0.000002697398,0.000002697398,0.000002697398,0.99999994,0,0,0,0,0,0,0,1,0,0,0,false,false,true,-387.47998,2132.0798,16.99,-0.003692738,-0.0030615467,0.77441615,-0.63265824,-190.681,810.53094,8.541,0.00010999999,0.00030999997,1.63871
190.225,2000,0,91.24,0.000002697398,0.000002697398,0.000002697398,0.99999994,0,0,0,0,0,0,0,1,0,0,0,false,false,true,-389.06998,2138.8298,16.99,-0.0036711588,-0.0030885208,0.77008015,-0.63792896,-187.83101,810.011,8.541,0.00010999999,0.00030999997,1.58871
190.23334,2000,0,91.24,0.000002697398,0.000002697398,0.000002697398,0.99999994,0,0,0,0,0,0,0,1,0,0,0,false,false,true,-390.63998,2145.5798,16.99,-0.0036495796,-0.0031154947,0.76584196,-0.64301085,-185.131,809.53094,8.541,0,0.00030999997,1.53801
190.24167,2000,0,91.24,0.000002697398,0.000002697398,0.000002697398,0.99999994,0,0,0,0,0,0,0,1,0,0,0,false,false,true,-392.18,2152.3298,16.99,-0.0036280006,-0.0031370742,0.7617068,-0.64790404,-182.58101,809.09094,8.541,0,0.00030999997,1.48671
190.25,2000,0,91.24,0.000002697398,0.000002697398,0.000002697398,0.99999994,0,0,0,0,0,0,0,1,0,0,0,false,false,true,-393.69998,2159.07,16.99,-0.0036064207,-0.003158653,0.7576802,-0.6526082,-180.171,808.68097,8.541,0,0.00030999997,1.4348099
190.25833,2000,0,91.24,0.000002697398,0.000002697398,0.000002697398,0.99999994,0,0,0,0,0,0,0,1,0,0,0,false,false,true,-395.19998,2165.81,16.99,-0.003584842,-0.0031802324,0.7537674,-0.65712374,-177.901,808.30096,8.541,0,0.00030999997,1.38251
190.26666,2000,0,91.24,0.000002697398,0.000002697398,0.000002697398,0.99999994,0,0,0,0,0,0,0,1,0,0,0,false,false,true,-396.68,2172.55,16.99,-0.0035632628,-0.0032018116,0.74996877,-0.66145575,-175.761,807.941,8.541,0,0.00030999997,1.3299099
