time,ball_loc_x,ball_loc_y,ball_loc_z,ball_rot_x,ball_rot_y,ball_rot_z,ball_rot_w,ball_vel_x,ball_vel_y,ball_vel_z,ball_ang_x,ball_ang_y,ball_ang_z,player0_throttle,player0_steer,player0_pitch,player0_yaw,player0_roll,player0_jump,player0_boost,player0_handbrake,player0_loc_x,player0_loc_y,player0_loc_z,player0_rot_x,player0_rot_y,player0_rot_z,player0_rot_w,player0_vel_x,player0_vel_y,player0_vel_z,player0_ang_x,player0_ang_y,player0_ang_z
35.816666,2000,0,73,0.000002697398,0.000002697398,0.000002697398,0.99999994,0,0,0,0,0,0,0,0,0,0,0,false,false,false,0,0,16.94,0.0000026973983,0.0000026973983,0.70710677,0.70710677,0,0,2.041,-0.050809998,0,0
35.825,2000,0,87.6,0.000002697398,0.000002697398,0.000002697398,0.99999994,0,0,0,0,0,0,0.19685039,0,0,0,0,false,false,false,0,0,16.89,-0.00014835689,0.00015375168,0.7071067,0.7071067,0,2.6209998,3.8809998,-0.085609995,0,0
35.833332,2000,0,90.52,0.000002697398,0.000002697398,0.000002697398,0.99999994,0,0,0,0,0,0,0.19685039,0,0,0,0,false,false,false,0,0.02,16.85,-0.00040191234,0.00040730715,0.70710653,0.70710677,0,5.2409997,5.481,-0.107209995,0,0
35.841667,2000,0,91.1,0.000002697398,0.000002697398,0.000002697398,0.99999994,0,0,0,0,0,0,0.19685039,0,0,0,0,false,false,false,0,0.06,16.83,-0.00072020525,0.00072560005,0.7071067,0.707106,0,7.851,6.791,-0.116409995,0,0
35.85,2000,0,91.22,0.000002697398,0.000002697398,0.000002697398,0.99999994,0,0,0,0,0,0,0.19685039,0,0,0,0,false,false,false,0,0.13,16.82,-0.0010654721,0.001070867,0.70710516,0.7071067,0,10.461,7.7409997,-0.11481,0,0
35.858334,2000,0,91.24,0.000002697398,0.000002697398,0.000002697398,0.99999994,0,0,0,0,0,0,0.19685039,0,0,0,0,false,false,false,0,0.22,16.82,-0.0014053443,0.0014107391,0.7071067,0.70710397,0,13.061,8.431,-0.106809996,0,0
35.866665,2000,0,91.24,0.000002697398,0.000002697398,0.000002697398,0.99999994,0,0,0,0,0,0,0.19685039,0,0,0,0,false,false,false,0,0.32999998,16.82,-0.0017182427,0.0017236375,0.707108,0.70710135,0,15.661,8.9210005,-0.09541,0,0
35.875,2000,0,91.24,0.000002697398,0.000002697398,0.000002697398,0.99999994,0,0,0,0,0,0,0.19685039,0,0,0,0,false,false,false,0,0.45999998,16.83,-0.001998772,0.0020041666,0.70710653,0.7071013,0,18.251,9.281,-0.08271,0,0
35.883335,2000,0,91.24,0.000002697398,0.000002697398,0.000002697398,0.99999994,0,0,0,0,0,0,0.19685039,0,0,0,0,false,false,false,0,0.61,16.84,-0.0022415377,0.0022469326,0.70710504,0.7071013,0,20.841,9.521,-0.06991,0,0
35.891666,2000,0,91.24,0.000002697398,0.000002697398,0.000002697398,0.99999994,0,0,0,0,0,0,0.19685039,0,0,0,0,false,false,false,0,0.78,16.85,-0.00244654,0.0024519349,0.70710367,0.7071013,0,23.431,9.6710005,-0.057809997,0,0
35.9,2000,0,91.24,0.000002697398,0.000002697398,0.000002697398,0.99999994,0,0,0,0,0,0,0.19685039,0,0,0,0,false,false,false,0,0.97999996,16.859999,-0.0026191734,0.0026245683,0.7071024,0.7071013,0,26.011,9.761001,-0.04691,0,0
35.908333,2000,0,91.24,0.000002697398,0.000002697398,0.000002697398,0.99999994,0,0,0,0,0,0,0.19685039,0,0,0,0,false,false,false,0,1.1999999,16.869999,-0.0027594382,0.002764833,0.70710135,0.7071013,0,28.591,9.811,-0.03741,0,0
35.916668,2000,0,91.24,0.000002697398,0.000002697398,0.000002697398,0.99999994,0,0,0,0,0,0,0.19685039,0,0,0,0,false,false,false,0,1.4399999,16.88,-0.002867334,0.002872729,0.7071005,0.7071013,0,31.161,9.831,-0.02931,0,0
35.925,2000,0,91.24,0.000002697398,0.000002697398,0.000002697398,0.99999994,0,0,0,0,0,0,0.19685039,0,0,0,0,false,false,false,0,1.6999999,16.89,-0.002953651,0.0029590456,0.7071013,0.7070998,0,33.731,9.811,-0.02301,0,0
35.933334,2000,0,91.24,0.000002697398,0.000002697398,0.000002697398,0.99999994,0,0,0,0,0,0,0.19685039,0,0,0,0,false,false,false,0,1.9799999,16.9,-0.0030237832,0.003029178,0.7070992,0.7071013,0,36.291,9.761001,-0.018410001,0,0
35.941666,2000,0,91.24,0.000002697398,0.000002697398,0.000002697398,0.99999994,0,0,0,0,0,0,0.19685039,0,0,0,0,false,false,false,0,2.28,16.91,-0.0030777312,0.003083126,0.7071013,0.7070988,0,38.850998,9.681,-0.014909999,0,0
35.95,2000,0,91.24,0.000002697398,0.000002697398,0.000002697398,0.99999994,0,0,0,0,0,0,0.19685039,0,0,0,0,false,false,false,0,2.6,16.92,-0.0031208897,0.0031262843,0.70709836,0.7071013,0,41.411,9.591001,-0.012309999,0,0
35.958332,2000,0,91.24,0.000002697398,0.000002697398,0.000002697398,0.99999994,0,0,0,0,0,0,0.19685039,0,0,0,0,false,false,false,0,2.95,16.93,-0.0031586532,0.0031640478,0.7070959,0.70710343,0,43.961,9.491,-0.01031,0,0
35.966667,2000,0,91.24,0.000002697398,0.000002697398,0.000002697398,0.99999994,0,0,0,0,0,0,0.19685039,0,0,0,0,false,false,false,0,3.32,16.94,-0.003191022,0.0031964167,0.7070959,0.70710313,0,46.510998,9.391,-0.008609999,0,0
35.975,2000,0,91.24,0.000002697398,0.000002697398,0.000002697398,0.99999994,0,0,0,0,0,0,0.19685039,0,0,0,0,false,false,false,0,3.7099998,16.949999,-0.0032179959,0.0032233908,0.7070959,0.7071029,0,49.051,9.281,-0.00731,0,0
35.983334,2000,0,91.24,0.000002697398,0.000002697398,0.000002697398,0.99999994,0,0,0,0,0,0,0.19685039,0,0,0,0,false,false,false,0,4.12,16.96,-0.003239575,0.0032449698,0.7070959,0.70710266,0,51.591,9.1710005,-0.00621,0,0
35.991665,2000,0,91.24,0.000002697398,0.000002697398,0.000002697398,0.99999994,0,0,0,0,0,0,0.19685039,0,0,0,0,false,false,false,0,4.5499997,16.97,-0.0032557594,0.0032611543,0.7070959,0.70710254,0,54.121,9.061,-0.00531,0,0
36,2000,0,91.24,0.000002697398,0.000002697398,0.000002697398,0.99999994,0,0,0,0,0,0,0.19685039,0,0,0,0,false,false,false,0,5,16.98,-0.003271944,0.0032773386,0.7070959,0.70710236,0,56.650997,8.951,-0.00461,0,0
36.008335,2000,0,91.24,0.000002697398,0.000002697398,0.000002697398,0.99999994,0,0,0,0,0,0,0.19685039,0,0,0,0,false,false,false,0,5.47,16.99,-0.0032881282,0.003293523,0.7070959,0.70710224,0,59.181,8.841001,-0.00401,0,0
36.016666,2000,0,91.24,0.000002697398,0.000002697398,0.000002697398,0.99999994,0,0,0,0,0,0,0.19685039,0,0,0,0,false,false,false,0,5.96,17,-0.0032989178,0.0033043127,0.7070959,0.7071021,0,61.700996,8.731,-0.00341,0,0
36.025,2000,0,91.24,0.000002697398,0.000002697398,0.000002697398,0.99999994,0,0,0,0,0,0,0.19685039,0,0,0,0,false,false,false,0,6.47,17.01,-0.0033097074,0.0033151023,0.7070959,0.707102,0,64.221,8.621,-0.00291,0,0
36.033333,2000,0,91.24,0.000002697398,0.000002697398,0.000002697398,0.99999994,0,0,0,0,0,0,0.19685039,0,0,0,0,false,false,false,0,7.0099998,17.01,-0.0033204972,0.0033258921,0.707096,0.70710194,0,66.730995,8.511001,-0.00251,0,0
36.041668,2000,0,91.24,0.000002697398,0.000002697398,0.000002697398,0.99999994,0,0,0,0,0,0,0.19685039,0,0,0,0,false,false,false,0,7.5699997,17.01,-0.003325892,0.0033312866,0.7070959,0.7071019,0,69.241,8.441,-0.00211,0,0
36.05,2000,0,91.24,0.000002697398,0.000002697398,0.000002697398,0.99999994,0,0,0,0,0,0,0.19685039,0,0,0,0,false,false,false,0,8.15,17.01,-0.0033312866,0.0033366815,0.7070959,0.7071018,0,71.741,8.391,-0.0019099999,0,0
36.058334,2000,0,91.24,0.000002697398,0.000002697398,0.000002697398,0.99999994,0,0,0,0,0,0,0.19685039,0,0,0,0,false,false,false,0,8.75,17.01,-0.0033366815,0.0033420762,0.7070959,0.70710176,0,74.241,8.361,-0.0017099999,0,0
36.066666,2000,0,91.24,0.000002697398,0.000002697398,0.000002697398,0.99999994,0,0,0,0,0,0,0.19685039,0,0,0,0,false,false,false,0,9.37,17.01,-0.0033420762,0.003347471,0.7070959,0.7071017,0,76.741,8.341001,-0.00151,0,0
36.075,2000,0,91.24,0.000002697398,0.000002697398,0.000002697398,0.99999994,0,0,0,0,0,0,0.19685039,0,0,0,0,false,false,false,0,10.01,17.01,-0.003347471,0.0033528658,0.7070959,0.70710164,0,79.230995,8.331,-0.00131,0,0
36.083332,2000,0,91.24,0.000002697398,0.000002697398,0.000002697398,0.99999994,0,0,0,0,0,0,0.19685039,0,0,0,0,false,false,false,0,10.67,17.01,-0.003352866,0.0033582607,0.707096,0.70710164,0,81.721,8.321,-0.00111,0,0
36.091667,2000,0,91.24,0.000002697398,0.000002697398,0.000002697398,0.99999994,0,0,0,0,0,0,0.19685039,0,0,0,0,false,false,false,0,11.349999,17.01,-0.0033582605,0.0033636554,0.7070959,0.7071016,0,84.201,8.321,-0.00091,0,0
36.1,2000,0,91.24,0.000002697398,0.000002697398,0.000002697398,0.99999994,0,0,0,0,0,0,0.19685039,0,0,0,0,false,false,false,0,12.05,17.01,-0.0033582605,0.00336905,0.7070959,0.7071016,0,86.681,8.321,-0.00071,0,0
36.108334,2000,0,91.24,0.000002697398,0.000002697398,0.000002697398,0.99999994,0,0,0,0,0,0,0.19685039,0,0,0,0,false,false,false,0,12.7699995,17.01,-0.0033582605,0.00336905,0.7070959,0.7071016,0,89.151,8.321,-0.00061,0,0
36.116665,2000,0,91.24,0.000002697398,0.000002697398,0.000002697398,0.99999994,0,0,0,0,0,0,0.19685039,0,0,0,0,false,false,false,0,13.509999,17.01,-0.0033582605,0.00336905,0.7070959,0.7071016,0,91.620995,8.321,-0.00051,0,0
36.125,2000,0,91.24,0.000002697398,0.000002697398,0.000002697398,0.99999994,0,0,0,0,0,0,0.19685039,0,0,0,0,false,false,false,0,14.2699995,17.01,-0.0033582605,0.00336905,0.7070959,0.7071016,0,94.090996,8.321,-0.00051,0,0
36.133335,2000,0,91.24,0.000002697398,0.000002697398,0.000002697398,0.99999994,0,0,0,0,0,0,0.19685039,0,0,0,0,false,false,false,0,15.049999,17.01,-0.0033582605,0.00336905,0.7070959,0.7071016,0,96.550995,8.321,-0.00051,0,0
36.141666,2000,0,91.24,0.000002697398,0.000002697398,0.000002697398,0.99999994,0,0,0,0,0,0,0.19685039,0,0,0,0,false,false,false,0,15.849999,17.01,-0.0033582605,0.00336905,0.7070959,0.7071016,0,99.010994,8.321,-0.00051,0,0
36.15,2000,0,91.24,0.000002697398,0.000002697398,0.000002697398,0.99999994,0,0,0,0,0,0,0.19685039,0,0,0,0,false,false,false,0,16.68,17.01,-0.0033582605,0.00336905,0.7070959,0.7071016,0,101.461,8.321,-0.00051,0,0
36.158333,2000,0,91.24,0.000002697398,0.000002697398,0.000002697398,0.99999994,0,0,0,0,0,0,0.19685039,0,0,0,0,false,false,false,0,17.529999,17.01,-0.0033582605,0.00336905,0.7070959,0.7071016,0,103.910995,8.321,-0.00051,0,0
36.166668,2000,0,91.24,0.000002697398,0.000002697398,0.000002697398,0.99999994,0,0,0,0,0,0,0.19685039,0,0,0,0,false,false,false,0,18.4,17.01,-0.0033582605,0.00336905,0.7070959,0.7071016,0,106.361,8.321,-0.00051,0,0
36.175,2000,0,91.24,0.000002697398,0.000002697398,0.000002697398,0.99999994,0,0,0,0,0,0,0.19685039,0,0,0,0,false,false,false,0,19.289999,17.01,-0.0033582605,0.00336905,0.7070959,0.7071016,0,108.800995,8.321,-0.00051,0,0
36.183334,2000,0,91.24,0.000002697398,0.000002697398,0.000002697398,0.99999994,0,0,0,0,0,0,0.19685039,0,0,0,0,false,false,false,0,20.199999,17.01,-0.0033582605,0.00336905,0.7070959,0.7071016,0,111.241,8.321,-0.00051,0,0
36.191666,2000,0,91.24,0.000002697398,0.000002697398,0.000002697398,0.99999994,0,0,0,0,0,0,0.19685039,0,0,0,0,false,false,false,0,21.13,17.01,-0.0033582605,0.00336905,0.7070959,0.7071016,0,113.671,8.321,-0.00051,0,0
36.2,2000,0,91.24,0.000002697398,0.000002697398,0.000002697398,0.99999994,0,0,0,0,0,0,0.19685039,0,0,0,0,false,false,false,0,22.08,17.01,-0.0033582605,0.00336905,0.7070959,0.7071016,0,116.101,8.321,-0.00051,0,0
36.208332,2000,0,91.24,0.000002697398,0.000002697398,0.000002697398,0.99999994,0,0,0,0,0,0,0.19685039,0,0,0,0,false,false,false,0,23.05,17.01,-0.0033582605,0.00336905,0.7070959,0.7071016,0,118.520996,8.321,-0.00051,0,0
36.216667,2000,0,91.24,0.000002697398,0.000002697398,0.000002697398,0.99999994,0,0,0,0,0,0,0.19685039,0,0,0,0,false,false,false,0,24.039999,17.01,-0.0033582605,0.00336905,0.7070959,0.7071016,0,120.940994,8.321,-0.00051,0,0
36.225,2000,0,91.24,0.000002697398,0.000002697398,0.000002697398,0.99999994,0,0,0,0,0,0,0.19685039,0,0,0,0,false,false,false,0,25.05,17.01,-0.0033582605,0.00336905,0.7070959,0.7071016,0,123.361,8.321,-0.00051,0,0
36.233334,2000,0,91.24,0.000002697398,0.000002697398,0.000002697398,0.99999994,0,0,0,0,0,0,0.19685039,0,0,0,0,false,false,false,0,26.08,17.01,-0.0033582605,0.00336905,0.7070959,0.7071016,0,125.770996,8.321,-0.00051,0,0
36.241665,2000,0,91.24,0.000002697398,0.000002697398,0.000002697398,0.99999994,0,0,0,0,0,0,0.19685039,0,0,0,0,false,false,false,0,27.13,17.01,-0.0033582605,0.00336905,0.7070959,0.7071016,0,128.181,8.321,-0.00051,0,0
36.25,2000,0,91.24,0.000002697398,0.000002697398,0.000002697398,0.99999994,0,0,0,0,0,0,0.19685039,0,0,0,0,false,false,false,0,28.199999,17.01,-0.0033582605,0.00336905,0.7070959,0.7071016,0,130.58101,8.321,-0.00051,0,0
36.258335,2000,0,91.24,0.000002697398,0.000002697398,0.000002697398,0.99999994,0,0,0,0,0,0,0.19685039,0,0,0,0,false,false,false,0,29.289999,17.01,-0.0033582605,0.00336905,0.7070959,0.7071016,0,132.981,8.321,-0.00051,0,0
36.266666,2000,0,91.24,0.000002697398,0.000002697398,0.000002697398,0.99999994,0,0,0,0,0,0,0.19685039,0,0,0,0,false,false,false,0,30.4,17.01,-0.0033582605,0.00336905,0.7070959,0.7071016,0,135.381,8.321,-0.00051,0,0
36.275,2000,0,91.24,0.000002697398,0.000002697398,0.000002697398,0.99999994,0,0,0,0,0,0,0.19685039,0,0,0,0,false,false,false,0,31.529999,17.01,-0.0033582605,0.00336905,0.7070959,0.7071016,0,137.77101,8.321,-0.00051,0,0
36.283333,2000,0,91.24,0.000002697398,0.000002697398,0.000002697398,0.99999994,0,0,0,0,0,0,0.19685039,0,0,0,0,false,false,false,0,32.68,17.01,-0.0033582605,0.00336905,0.7070959,0.7071016,0,140.16101,8.321,-0.00051,0,0
36.291668,2000,0,91.24,0.000002697398,0.000002697398,0.000002697398,0.99999994,0,0,0,0,0,0,0.19685039,0,0,0,0,false,false,false,0,33.85,17.01,-0.0033582605,0.00336905,0.7070959,0.7071016,0,142.541,8.321,-0.00051,0,0
36.3,2000,0,91.24,0.000002697398,0.000002697398,0.000002697398,0.99999994,0,0,0,0,0,0,0.19685039,0,0,0,0,false,false,false,0,35.04,17.01,-0.0033582605,0.00336905,0.7070959,0.7071016,0,144.921,8.321,-0.00051,0,0
36.308334,2000,0,91.24,0.000002697398,0.000002697398,0.000002697398,0.99999994,0,0,0,0,0,0,0.19685039,0,0,0,0,false,false,false,0,36.25,17.01,-0.0033582605,0.00336905,0.7070959,0.7071016,0,147.30101,8.321,-0.00051,0,0
36.316666,2000,0,91.24,0.000002697398,0.000002697398,0.000002697398,0.99999994,0,0,0,0,0,0,0.19685039,0,0,0,0,false,false,false,0,37.48,17.01,-0.0033582605,0.00336905,0.7070959,0.7071016,0,149.671,8.321,-0.00051,0,0
36.325,2000,0,91.24,0.000002697398,0.000002697398,0.000002697398,0.99999994,0,0,0,0,0,0,0.19685039,0,0,0,0,false,false,false,0,38.73,17.01,-0.0033582605,0.00336905,0.7070959,0.7071016,0,152.041,8.321,-0.00051,0,0
36.333332,2000,0,91.24,0.000002697398,0.000002697398,0.000002697398,0.99999994,0,0,0,0,0,0,0.19685039,0,0,0,0,false,false,false,0,40,17.01,-0.0033582605,0.00336905,0.7070959,0.7071016,0,154.401,8.321,-0.00051,0,0
36.341667,2000,0,91.24,0.000002697398,0.000002697398,0.000002697398,0.99999994,0,0,0,0,0,0,0.19685039,0,0,0,0,false,false,false,0,41.29,17.01,-0.0033582605,0.00336905,0.7070959,0.7071016,0,156.761,8.321,-0.00051,0,0
36.35,2000,0,91.24,0.000002697398,0.000002697398,0.000002697398,0.99999994,0,0,0,0,0,0,0.19685039,0,0,0,0,false,false,false,0,42.6,17.01,-0.0033582605,0.00336905,0.7070959,0.7071016,0,159.121,8.321,-0.00051,0,0
36.358334,2000,0,91.24,0.000002697398,0.000002697398,0.000002697398,0.99999994,0,0,0,0,0,0,0.19685039,0,0,0,0,false,false,false,0,43.93,17.01,-0.0033582605,0.00336905,0.7070959,0.7071016,0,161.47101,8.321,-0.00051,0,0
36.366665,2000,0,91.24,0.000002697398,0.000002697398,0.000002697398,0.99999994,0,0,0,0,0,0,0.19685039,0,0,0,0,false,false,false,0,45.28,17.01,-0.0033582605,0.00336905,0.7070959,0.7071016,0,163.821,8.321,-0.00051,0,0
36.375,2000,0,91.24,0.000002697398,0.000002697398,0.000002697398,0.99999994,0,0,0,0,0,0,0.19685039,0,0,0,0,false,false,false,0,46.649998,17.01,-0.0033582605,0.00336905,0.7070959,0.7071016,0,166.16101,8.321,-0.00051,0,0
36.383335,2000,0,91.24,0.000002697398,0.000002697398,0.000002697398,0.99999994,0,0,0,0,0,0,0.19685039,0,0,0,0,false,false,false,0,48.03,17.01,-0.0033582605,0.00336905,0.7070959,0.7071016,0,168.501,8.321,-0.00051,0,0
36.391666,2000,0,91.24,0.000002697398,0.000002697398,0.000002697398,0.99999994,0,0,0,0,0,0,0.19685039,0,0,0,0,false,false,false,0,49.43,17.01,-0.0033582605,0.00336905,0.7070959,0.7071016,0,170.841,8.321,-0.00051,0,0
36.4,2000,0,91.24,0.000002697398,0.000002697398,0.000002697398,0.99999994,0,0,0,0,0,0,0.19685039,0,0,0,0,false,false,false,0,50.85,17.01,-0.0033582605,0.00336905,0.7070959,0.7071016,0,173.171,8.321,-0.00051,0,0
36.408333,2000,0,91.24,0.000002697398,0.000002697398,0.000002697398,0.99999994,0,0,0,0,0,0,0.19685039,0,0,0,0,false,false,false,0,52.289997,17.01,-0.0033582605,0.00336905,0.7070959,0.7071016,0,175.501,8.321,-0.00051,0,0
36.416668,2000,0,91.24,0.000002697398,0.000002697398,0.000002697398,0.99999994,0,0,0,0,0,0,0.19685039,0,0,0,0,false,false,false,0,53.75,17.01,-0.0033582605,0.00336905,0.7070959,0.7071016,0,177.821,8.321,-0.00051,0,0
36.425,2000,0,91.24,0.000002697398,0.000002697398,0.000002697398,0.99999994,0,0,0,0,0,0,0.19685039,0,0,0,0,false,false,false,0,55.23,17.01,-0.0033582605,0.00336905,0.7070959,0.7071016,0,180.141,8.321,-0.00051,0,0
36.433334,2000,0,91.24,0.000002697398,0.000002697398,0.000002697398,0.99999994,0,0,0,0,0,0,0.19685039,0,0,0,0,false,false,false,0,56.73,17.01,-0.0033582605,0.00336905,0.7070959,0.7071016,0,182.461,8.321,-0.00051,0,0
36.441666,2000,0,91.24,0.000002697398,0.000002697398,0.000002697398,0.99999994,0,0,0,0,0,0,0.19685039,0,0,0,0,false,false,false,0,58.25,17.01,-0.0033582605,0.00336905,0.7070959,0.7071016,0,184.771,8.321,-0.00051,0,0
36.45,2000,0,91.24,0.000002697398,0.000002697398,0.000002697398,0.99999994,0,0,0,0,0,0,0.19685039,0,0,0,0,false,false,false,0,59.789997,17.01,-0.0033582605,0.00336905,0.7070959,0.7071016,0,187.08101,8.321,-0.00051,0,0
36.458332,2000,0,91.24,0.000002697398,0.000002697398,0.000002697398,0.99999994,0,0,0,0,0,0,0.19685039,0,0,0,0,false,false,false,0,61.35,17.01,-0.0033582605,0.00336905,0.7070959,0.7071016,0,189.391,8.321,-0.00051,0,0
36.466667,2000,0,91.24,0.000002697398,0.000002697398,0.000002697398,0.99999994,0,0,0,0,0,0,0.19685039,0,0,0,0,false,false,false,0,62.93,17.01,-0.0033582605,0.00336905,0.7070959,0.7071016,0,191.69101,8.321,-0.00051,0,0
36.475,2000,0,91.24,0.000002697398,0.000002697398,0.000002697398,0.99999994,0,0,0,0,0,0,0.19685039,0,0,0,0,false,false,false,0,64.53,17.01,-0.0033582605,0.00336905,0.7070959,0.7071016,0,193.991,8.321,-0.00051,0,0
36.483334,2000,0,91.24,0.000002697398,0.000002697398,0.000002697398,0.99999994,0,0,0,0,0,0,0.19685039,0,0,0,0,false,false,false,0,66.15,17.01,-0.0033582605,0.00336905,0.7070959,0.7071016,0,196.281,8.321,-0.00051,0,0
36.491665,2000,0,91.24,0.000002697398,0.000002697398,0.000002697398,0.99999994,0,0,0,0,0,0,0.19685039,0,0,0,0,false,false,false,0,67.79,17.01,-0.0033582605,0.00336905,0.7070959,0.7071016,0,198.571,8.321,-0.00051,0,0
36.5,2000,0,91.24,0.000002697398,0.000002697398,0.000002697398,0.99999994,0,0,0,0,0,0,0.19685039,0,0,0,0,false,false,false,0,69.439995,17.01,-0.0033582605,0.00336905,0.7070959,0.7071016,0,200.86101,8.321,-0.00051,0,0
36.508335,2000,0,91.24,0.000002697398,0.000002697398,0.000002697398,0.99999994,0,0,0,0,0,0,1,1,0,0,0,false,false,true,0,71.11,17.01,-0.0033582605,0.00336905,0.7070959,0.7071016,-8.571,208.751,8.341001,-0.00010999999,0.00211,0.23031
36.516666,2000,0,91.24,0.000002697398,0.000002697398,0.000002697398,0.99999994,0,0,0,0,0,0,1,1,0,0,0,false,false,true,-0.07,72.85,17.01,-0.0033582605,0.003374445,0.70777524,0.70642155,-14.731,217.541,8.351,0,0.00281,0.39711002
36.525,2000,0,91.24,0.000002697398,0.000002697398,0.000002697398,0.99999994,0,0,0,0,0,0,1,1,0,0,0,false,false,true,-0.19,74.659996,17.01,-0.003352866,0.00337984,0.7089417,0.705251,-20.310999,226.311,8.351,0.00010999999,0.00301,0.54651
36.533333,2000,0,91.24,0.000002697398,0.000002697398,0.000002697398,0.99999994,0,0,0,0,0,0,1,1,0,0,0,false,false,true,-0.35999998,76.549995,17.01,-0.003352866,0.00337984,0.71054804,0.70363253,-25.411,235.031,8.351,0.00010999999,0.00281,0.67941
36.541668,2000,0,91.24,0.000002697398,0.000002697398,0.000002697398,0.99999994,0,0,0,0,0,0,1,1,0,0,0,false,false,true,-0.57,78.509995,17.01,-0.003352866,0.00337984,0.7125351,0.7016203,-30.110998,243.661,8.351,0.00010999999,0.00241,0.79721
36.55,2000,0,91.24,0.000002697398,0.000002697398,0.000002697398,0.99999994,0,0,0,0,0,0,1,1,0,0,0,false,false,true,-0.82,80.54,17.01,-0.0033582605,0.003374445,0.7148594,0.6992519,-34.501,252.161,8.341001,0.00010999999,0.00201,0.90151
36.558334,2000,0,91.24,0.000002697398,0.000002697398,0.000002697398,0.99999994,0,0,0,0,0,0,1,1,0,0,0,false,false,true,-1.11,82.64,17.01,-0.0033636554,0.00336905,0.71748275,0.6965599,-38.650997,260.501,8.341001,0.00010999999,0.00151,0.99391
36.566666,2000,0,91.24,0.000002697398,0.000002697398,0.000002697398,0.99999994,0,0,0,0,0,0,1,1,0,0,0,false,false,true,-1.43,84.81,17.01,-0.003374445,0.0033582605,0.72036195,0.6935819,-42.621,268.661,8.331,0.00010999999,0.0010099999,1.07591
36.575,2000,0,91.24,0.000002697398,0.000002697398,0.000002697398,0.99999994,0,0,0,0,0,0,1,1,0,0,0,false,false,true,-1.79,87.049995,17.01,-0.0033852346,0.003347471,0.72346455,0.690345,-46.461,276.611,8.331,0.00010999999,0.00061,1.1489099
36.583332,2000,0,91.24,0.000002697398,0.000002697398,0.000002697398,0.99999994,0,0,0,0,0,0,1,1,0,0,0,false,false,true,-2.18,89.36,17.01,-0.003401419,0.0033312866,0.72675884,0.6868761,-50.201,284.341,8.331,0,0.00021,1.21411
36.591667,2000,0,91.24,0.000002697398,0.000002697398,0.000002697398,0.99999994,0,0,0,0,0,0,1,1,0,0,0,false,false,true,-2.6,91.729996,17.01,-0.0034176034,0.0033151023,0.73022366,0.6831915,-53.880997,291.851,8.331,0,0,1.27291
36.6,2000,0,91.24,0.000002697398,0.000002697398,0.000002697398,0.99999994,0,0,0,0,0,0,1,1,0,0,0,false,false,true,-3.05,94.159996,17.01,-0.0034337877,0.0032989178,0.73383844,0.6793072,-57.521,299.121,8.331,0,-0.00021,1.32601
36.608334,2000,0,91.24,0.000002697398,0.000002697398,0.000002697398,0.99999994,0,0,0,0,0,0,1,1,0,0,0,false,false,true,-3.53,96.65,17.01,-0.0034499723,0.0032773386,0.737583,0.67523956,-61.141,306.141,8.331,0,-0.00040999998,1.37431
36.616665,2000,0,91.24,0.000002697398,0.000002697398,0.000002697398,0.99999994,0,0,0,0,0,0,1,1,0,0,0,false,false,true,-4.04,99.2,17.01,-0.0034715512,0.0032557594,0.74143785,0.67100453,-64.730995,312.901,8.331,0,-0.00051,1.41861
36.625,2000,0,91.24,0.000002697398,0.000002697398,0.000002697398,0.99999994,0,0,0,0,0,0,1,1,0,0,0,false,false,true,-4.58,101.81,17.01,-0.0034931304,0.0032341804,0.74539334,0.6666078,-68.311,319.411,8.331,0,-0.00061,1.45941
36.633335,2000,0,91.24,0.000002697398,0.000002697398,0.000002697398,0.99999994,0,0,0,0,0,0,1,1,0,0,0,false,false,true,-5.15,104.47,17.01,-0.0035147099,0.0032126014,0.7494309,0.66206545,-71.870995,325.671,8.321,0,-0.00071,1.49721
36.641666,2000,0,91.24,0.000002697398,0.000002697398,0.000002697398,0.99999994,0,0,0,0,0,0,1,1,0,0,0,false,false,true,-5.75,107.18,17.01,-0.0035362889,0.003191022,0.7535464,0.6573773,-75.401,331.691,8.321,0,-0.00071,1.53241
36.65,2000,0,91.24,0.000002697398,0.000002697398,0.000002697398,0.99999994,0,0,0,0,0,0,1,1,0,0,0,false,false,true,-6.3799996,109.939995,17.01,-0.003557868,0.0031640478,0.75772685,0.65255433,-78.891,337.471,8.321,0,-0.00081,1.56541
36.658333,2000,0,91.24,0.000002697398,0.000002697398,0.000002697398,0.99999994,0,0,0,0,0,0,1,1,0,0,0,false,false,true,-7.04,112.75,17.01,-0.0035794473,0.003137074,0.7619685,0.6475965,-82.321,343.031,8.321,0,-0.00081,1.5965099
36.666668,2000,0,91.24,0.000002697398,0.000002697398,0.000002697398,0.99999994,0,0,0,0,0,0,1,1,0,0,0,false,false,true,-7.73,115.61,17.01,-0.0036010265,0.0031101,0.76625854,0.6425146,-85.681,348.371,8.321,0,-0.00081,1.62601
36.675,2000,0,91.24,0.000002697398,0.000002697398,0.000002697398,0.99999994,0,0,0,0,0,0,1,1,0,0,0,false,false,true,-8.44,118.509995,17.01,-0.0036226057,0.003083126,0.77059394,0.6373086,-88.940994,353.501,8.321,0,-0.00081,1.65411
36.683334,2000,0,91.24,0.000002697398,0.000002697398,0.000002697398,0.99999994,0,0,0,0,0,0,1,1,0,0,0,false,false,true,-9.179999,121.46,17.01,-0.0036441851,0.0030561523,0.7749668,0.631984,-92.071,358.451,8.321,0,-0.00081,1.68101
36.691666,2000,0,91.24,0.000002697398,0.000002697398,0.000002697398,0.99999994,0,0,0,0,0,0,1,1,0,0,0,false,false,true,-9.95,124.45,17.01,-0.003665764,0.003029178,0.7793743,0.6265405,-95.041,363.231,8.321,0,-0.00081,1.70691
36.7,2000,0,91.24,0.000002697398,0.000002697398,0.000002697398,0.99999994,0,0,0,0,0,0,1,1,0,0,0,false,false,true,-10.74,127.479996,17.01,-0.003687343,0.003002204,0.7838088,0.62098384,-97.821,367.861,8.321,-0.00010999999,-0.00081,1.73191
36.708332,2000,0,91.24,0.000002697398,0.000002697398,0.000002697398,0.99999994,0,0,0,0,0,0,1,1,0,0,0,false,false,true,-11.559999,130.55,17.01,-0.0037143172,0.00297523,0.78826773,0.6153139,-100.730995,372.441,8.321,-0.00010999999,-0.00081,1.75681
36.716667,2000,0,91.24,0.000002697398,0.000002697398,0.000002697398,0.99999994,0,0,0,0,0,0,1,1,0,0,0,false,false,true,-12.4,133.65,17.01,-0.0037412911,0.002948256,0.7927522,0.60952526,-103.770996,376.951,8.321,-0.00010999999,-0.00071,1.78161
36.725,2000,0,91.24,0.000002697398,0.000002697398,0.000002697398,0.99999994,0,0,0,0,0,0,1,1,0,0,0,false,false,true,-13.259999,136.79,17.01,-0.0037682652,0.002921282,0.7972553,0.60362333,-106.940994,381.401,8.321,0,-0.00061,1.8063099
36.733334,2000,0,91.24,0.000002697398,0.000002697398,0.000002697398,0.99999994,0,0,0,0,0,0,1,1,0,0,0,false,false,true,-14.15,139.97,17.01,-0.0037898442,0.0028889133,0.8017741,0.5976081,-110.230995,385.781,8.321,0,-0.00051,1.83101
36.741665,2000,0,91.24,0.000002697398,0.000002697398,0.000002697398,0.99999994,0,0,0,0,0,0,1,1,0,0,0,false,false,true,-15.07,143.18,17.01,-0.0038114234,0.0028565445,0.8063097,0.59147424,-113.65099,390.091,8.321,0,-0.00051,1.85561
36.75,2000,0,91.24,0.000002697398,0.000002697398,0.000002697398,0.99999994,0,0,0,0,0,0,1,1,0,0,0,false,false,true,-16.02,146.43,17.01,-0.0038330022,0.0028241754,0.8108593,0.5852215,-117.201,394.32098,8.321,0,-0.00051,1.88011
36.758335,2000,0,91.24,0.000002697398,0.000002697398,0.000002697398,0.99999994,0,0,0,0,0,0,1,1,0,0,0,false,false,true,-17,149.72,17.01,-0.0038545814,0.0027918068,0.8154198,0.57885027,-120.881,398.471,8.321,0,-0.00040999998,1.90451
36.766666,2000,0,91.24,0.000002697398,0.000002697398,0.000002697398,0.99999994,0,0,0,0,0,0,1,1,0,0,0,false,false,true,-18.01,153.04,17.01,-0.0038761613,0.0027594385,0.8199883,0.57236046,-124.690994,402.531,8.321,0,-0.00040999998,1.92881
36.775,2000,0,91.24,0.000002697398,0.000002697398,0.000002697398,0.99999994,0,0,0,0,0,0,1,1,0,0,0,false,false,true,-19.05,156.39,17.01,-0.0038977405,0.0027270697,0.82456183,0.5657518,-128.621,406.501,8.321,0,-0.00040999998,1.95301
36.783333,2000,0,91.24,0.000002697398,0.000002697398,0.000002697398,0.99999994,0,0,0,0,0,0,1,1,0,0,0,false,false,true,-20.119999,159.78,17.01,-0.0039193192,0.0026947006,0.8291375,0.55902433,-132.681,410.381,8.321,0,-0.00040999998,1.9771099
36.791668,2000,0,91.24,0.000002697398,0.000002697398,0.000002697398,0.99999994,0,0,0,0,0,0,1,1,0,0,0,false,false,true,-21.23,163.2,17.01,-0.003940899,0.002662332,0.833716,0.552173,-136.86101,414.161,8.321,-0.00010999999,-0.00040999998,2.00111
36.8,2000,0,91.24,0.000002697398,0.000002697398,0.000002697398,0.99999994,0,0,0,0,0,0,1,1,0,0,0,false,false,true,-22.369999,166.65,17.01,-0.003962478,0.0026299632,0.8382906,0.545203,-141.16101,417.841,8.321,-0.00010999999,-0.00040999998,2.0250099
36.808334,2000,0,91.24,0.000002697398,0.000002697398,0.000002697398,0.99999994,0,0,0,0,0,0,1,1,0,0,0,false,false,true,-23.55,170.12999,17.01,-0.0039840564,0.0025975942,0.8428619,0.5381086,-145.591,421.411,8.321,-0.00010999999,-0.00040999998,2.04881
36.816666,2000,0,91.24,0.000002697398,0.000002697398,0.000002697398,0.99999994,0,0,0,0,0,0,1,1,0,0,0,false,false,true,-24.76,173.64,17.01,-0.004005636,0.0025652256,0.8474237,0.53089577,-150.141,424.871,8.321,-0.00010999999,-0.00040999998,2.07251
36.825,2000,0,91.24,0.000002697398,0.000002697398,0.000002697398,0.99999994,0,0,0,0,0,0,1,1,0,0,0,false,false,true,-26.01,177.18,17.01,-0.0040272153,0.0025274619,0.85197616,0.52355886,-154.80101,428.221,8.321,-0.00010999999,-0.00040999998,2.0961099
36.833332,2000,0,91.24,0.000002697398,0.000002697398,0.000002697398,0.99999994,0,0,0,0,0,0,1,1,0,0,0,false,false,true,-27.3,180.75,17.01,-0.0040487945,0.0024896984,0.85651636,0.5160978,-159.58101,431.451,8.321,-0.00010999999,-0.00040999998,2.11961
36.841667,2000,0,91.24,0.000002697398,0.000002697398,0.000002697398,0.99999994,0,0,0,0,0,0,1,1,0,0,0,false,false,true,-28.63,184.34999,17.01,-0.0040703737,0.0024519349,0.8610413,0.5085127,-164.481,434.551,8.321,-0.00010999999,-0.00040999998,2.14301
36.85,2000,0,91.24,0.000002697398,0.000002697398,0.000002697398,0.99999994,0,0,0,0,0,0,1,1,0,0,0,false,false,true,-30,187.97,17.01,-0.0040919525,0.0024141711,0.86554784,0.50080353,-169.491,437.531,8.321,-0.00010999999,-0.00040999998,2.16631
36.858334,2000,0,91.24,0.000002697398,0.000002697398,0.000002697398,0.99999994,0,0,0,0,0,0,1,1,0,0,0,false,false,true,-31.41,191.62,17.01,-0.0041135317,0.0023764076,0.87003314,0.49297023,-174.61101,440.381,8.321,-0.00010999999,-0.00040999998,2.1895099
36.866665,2000,0,91.24,0.000002697398,0.000002697398,0.000002697398,0.99999994,0,0,0,0,0,0,1,1,0,0,0,false,false,true,-32.87,195.29,17.01,-0.004135111,0.0023386441,0.874494,0.48501292,-179.841,443.091,8.321,-0.00010999999,-0.00040999998,2.21261
36.875,2000,0,91.24,0.000002697398,0.000002697398,0.000002697398,0.99999994,0,0,0,0,0,0,1,1,0,0,0,false,false,true,-34.37,198.98,17.01,-0.00415669,0.0023008804,0.8789275,0.4769315,-185.181,445.671,8.321,-0.00010999999,-0.00040999998,2.23561
36.883335,2000,0,91.24,0.000002697398,0.000002697398,0.000002697398,0.99999994,0,0,0,0,0,0,1,1,0,0,0,false,false,true,-35.91,202.69,17.01,-0.0041782698,0.002263117,0.8833308,0.46872598,-190.621,448.10098,8.321,-0.00010999999,-0.00040999998,2.2585099
36.891666,2000,0,91.24,0.000002697398,0.000002697398,0.000002697398,0.99999994,0,0,0,0,0,0,1,1,0,0,0,false,false,true,-37.5,206.42,17.01,-0.004199849,0.0022253536,0.8877035,0.460391,-196.161,450.391,8.321,-0.00010999999,-0.00040999998,2.2813098
36.9,2000,0,91.24,0.000002697398,0.000002697398,0.000002697398,0.99999994,0,0,0,0,0,0,1,1,0,0,0,false,false,true,-39.129997,210.17,17.01,-0.0042214277,0.0021875896,0.8920397,0.45193186,-201.80101,452.531,8.321,-0.00010999999,-0.00040999998,2.30401
36.908333,2000,0,91.24,0.000002697398,0.000002697398,0.000002697398,0.99999994,0,0,0,0,0,0,1,1,0,0,0,false,false,true,-40.809998,213.94,17.01,-0.0042430065,0.0021444312,0.89633644,0.44334868,-207.531,454.521,8.321,-0.00010999999,-0.00040999998,2.3266098
36.916668,2000,0,91.24,0.000002697398,0.000002697398,0.000002697398,0.99999994,0,0,0,0,0,0,1,1,0,0,0,false,false,true,-42.54,217.73,17.01,-0.004264586,0.002101273,0.9005935,0.43463615,-213.351,456.35098,8.321,-0.00010999999,-0.00040999998,2.34911
36.925,2000,0,91.24,0.000002697398,0.000002697398,0.000002697398,0.99999994,0,0,0,0,0,0,1,1,0,0,0,false,false,true,-44.32,221.53,17.01,-0.0042861653,0.0020581146,0.90480506,0.42579937,-219.261,458.021,8.321,-0.00010999999,-0.00040999998,2.37151
36.933334,2000,0,91.24,0.000002697398,0.000002697398,0.000002697398,0.99999994,0,0,0,0,0,0,1,1,0,0,0,false,false,true,-46.149998,225.34999,17.01,-0.0043077446,0.0020149562,0.90896803,0.41683862,-225.261,459.531,8.321,-0.00010999999,-0.00040999998,2.39381
36.941666,2000,0,91.24,0.000002697398,0.000002697398,0.000002697398,0.99999994,0,0,0,0,0,0,1,1,0,0,0,false,false,true,-48.03,229.18,17.01,-0.004329324,0.0019717978,0.9130795,0.4077537,-231.341,460.871,8.321,-0.00010999999,-0.00030999997,2.41601
36.95,2000,0,91.24,0.000002697398,0.000002697398,0.000002697398,0.99999994,0,0,0,0,0,0,1,1,0,0,0,false,false,true,-49.96,233.01999,17.01,-0.004350903,0.0019286396,0.9171388,0.3985394,-237.501,462.041,8.321,-0.00010999999,-0.00030999997,2.4381099
36.958332,2000,0,91.24,0.000002697398,0.000002697398,0.000002697398,0.99999994,0,0,0,0,0,0,1,1,0,0,0,false,false,true,-51.94,236.87,17.01,-0.004372482,0.0018854813,0.9211405,0.389201,-243.731,463.041,8.321,-0.00010999999,-0.00030999997,2.46011
36.966667,2000,0,91.24,0.000002697398,0.000002697398,0.000002697398,0.99999994,0,0,0,0,0,0,1,1,0,0,0,false,false,true,-53.969997,240.73,17.01,-0.0043940614,0.0018423229,0.92508155,0.37973842,-250.031,463.861,8.321,0,-0.00021,2.48201
36.975,2000,0,91.24,0.000002697398,0.000002697398,0.000002697398,0.99999994,0,0,0,0,0,0,1,1,0,0,0,false,false,true,-56.05,244.59999,17.01,-0.0044156406,0.0017991646,0.92895895,0.37015188,-256.401,464.511,8.321,0,-0.00021,2.50381
36.983334,2000,0,91.24,0.000002697398,0.000002697398,0.000002697398,0.99999994,0,0,0,0,0,0,1,1,0,0,0,false,false,true,-58.19,248.47,17.01,-0.00443722,0.0017506114,0.9327697,0.36044115,-262.831,464.971,8.321,0,-0.00010999999,2.5255098
36.991665,2000,0,91.24,0.000002697398,0.000002697398,0.000002697398,0.99999994,0,0,0,0,0,0,1,1,0,0,0,false,false,true,-60.379997,252.34,17.01,-0.0044534043,0.0017020582,0.9365107,0.35060647,-269.311,465.251,8.321,0,-0.00010999999,2.5471098
37,2000,0,91.24,0.000002697398,0.000002697398,0.000002697398,0.99999994,0,0,0,0,0,0,1,1,0,0,0,false,false,true,-62.62,256.22,17.01,-0.0044695884,0.001653505,0.94017893,0.34064758,-275.851,465.35098,8.321,0,-0.00010999999,2.56861
37.008335,2000,0,91.24,0.000002697398,0.000002697398,0.000002697398,0.99999994,0,0,0,0,0,0,1,1,0,0,0,false,false,true,-64.92,260.1,17.01,-0.004485773,0.0016049518,0.94377124,0.3305647,-282.431,465.261,8.321,0,-0.00010999999,2.59001
37.016666,2000,0,91.24,0.000002697398,0.000002697398,0.000002697398,0.99999994,0,0,0,0,0,0,1,1,0,0,0,false,false,true,-67.27,263.97998,17.01,-0.0045019574,0.0015563987,0.9472828,0.32036304,-289.061,464.981,8.321,0,-0.00010999999,2.61131
37.025,2000,0,91.24,0.000002697398,0.000002697398,0.000002697398,0.99999994,0,0,0,0,0,0,1,1,0,0,0,false,false,true,-69.68,267.85,17.01,-0.0045181415,0.0015078455,0.9507124,0.3100374,-295.731,464.511,8.321,0,-0.00010999999,2.63251
37.033333,2000,0,91.24,0.000002697398,0.000002697398,0.000002697398,0.99999994,0,0,0,0,0,0,1,1,0,0,0,false,false,true,-72.14,271.72,17.01,-0.004534326,0.0014592924,0.95405513,0.2995931,-302.431,463.841,8.321,0,-0.00010999999,2.65361
37.041668,2000,0,91.24,0.000002697398,0.000002697398,0.000002697398,0.99999994,0,0,0,0,0,0,1,1,0,0,0,false,false,true,-74.659996,275.59,17.01,-0.00455051,0.001410739,0.95730966,0.28902456,-309.161,462.981,8.321,0,-0.00010999999,2.67461
37.05,2000,0,91.24,0.000002697398,0.000002697398,0.000002697398,0.99999994,0,0,0,0,0,0,1,1,0,0,0,false,false,true,-77.24,279.44998,17.01,-0.0045666946,0.001362186,0.96047145,0.2783375,-315.911,461.921,8.321,0,-0.00010999999,2.69551
37.058334,2000,0,91.24,0.000002697398,0.000002697398,0.000002697398,0.99999994,0,0,0,0,0,0,1,1,0,0,0,false,false,true,-79.869995,283.3,17.01,-0.004582879,0.001308238,0.9635372,0.26753163,-322.681,460.661,8.321,0,-0.00010999999,2.71631
37.066666,2000,0,91.24,0.000002697398,0.000002697398,0.000002697398,0.99999994,0,0,0,0,0,0,1,1,0,0,0,false,false,true,-82.56,287.13998,17.01,-0.0045990637,0.0012542901,0.966504,0.25660717,-329.461,459.201,8.321,0,-0.00010999999,2.73701
37.075,2000,0,91.24,0.000002697398,0.000002697398,0.000002697398,0.99999994,0,0,0,0,0,0,1,1,0,0,0,false,false,true,-85.31,290.97,17.01,-0.004615248,0.0012003421,0.9693672,0.24556935,-336.251,457.541,8.321,0,-0.00010999999,2.7576098
37.083332,2000,0,91.24,0.000002697398,0.000002697398,0.000002697398,0.99999994,0,0,0,0,0,0,1,1,0,0,0,false,false,true,-88.11,294.78,17.01,-0.0046314322,0.0011463942,0.97212535,0.23441291,-343.041,455.681,8.321,0,0,2.77811
37.091667,2000,0,91.24,0.000002697398,0.000002697398,0.000002697398,0.99999994,0,0,0,0,0,0,1,1,0,0,0,false,false,true,-90.97,298.58,17.01,-0.0046422225,0.0010924463,0.974774,0.22314312,-349.831,453.621,8.321,0,0,2.7985098
37.1,2000,0,91.24,0.000002697398,0.000002697398,0.000002697398,0.99999994,0,0,0,0,0,0,1,1,0,0,0,false,false,true,-93.89,302.36,17.01,-0.0046530114,0.0010384982,0.97731,0.21176007,-356.611,451.35098,8.321,0,0,2.81881
37.108334,2000,0,91.24,0.000002697398,0.000002697398,0.000002697398,0.99999994,0,0,0,0,0,0,1,1,0,0,0,false,false,true,-96.86,306.12,17.01,-0.0046638013,0.0009845502,0.9797293,0.20026907,-363.381,448.881,8.321,0,0,2.83911
37.116665,2000,0,91.24,0.000002697398,0.000002697398,0.000002697398,0.99999994,0,0,0,0,0,0,1,1,0,0,0,false,false,true,-99.89,309.86,17.01,-0.004674591,0.0009306024,0.9820299,0.18866488,-370.131,446.211,8.321,0,0,2.85931
37.125,2000,0,91.24,0.000002697398,0.000002697398,0.000002697398,0.99999994,0,0,0,0,0,0,1,1,0,0,0,false,false,true,-102.97,313.58,17.01,-0.0046853805,0.00087665435,0.98420775,0.17695269,-376.851,443.331,8.321,0,0,2.87941
37.133335,2000,0,91.24,0.000002697398,0.000002697398,0.000002697398,0.99999994,0,0,0,0,0,0,1,1,0,0,0,false,false,true,-106.11,317.27,17.01,-0.00469617,0.00082270644,0.9862598,0.1651326,-383.541,440.251,8.321,0,0,2.89941
37.141666,2000,0,91.24,0.000002697398,0.000002697398,0.000002697398,0.99999994,0,0,0,0,0,0,1,1,0,0,0,false,false,true,-109.31,320.94,17.01,-0.0047069597,0.00076336367,0.9881829,0.15320471,-390.201,436.971,8.321,0,0,2.9193099
37.15,2000,0,91.24,0.000002697398,0.000002697398,0.000002697398,0.99999994,0,0,0,0,0,0,1,1,0,0,0,false,false,true,-112.56,324.58,17.01,-0.0047177486,0.00070402084,0.9899731,0.14117421,-396.82098,433.481,8.321,0,0,2.93911
37.158333,2000,0,91.24,0.000002697398,0.000002697398,0.000002697398,0.99999994,0,0,0,0,0,0,1,1,0,0,0,false,false,true,-115.869995,328.19,17.01,-0.0047285384,0.00064467813,0.9916277,0.12904133,-403.391,429.791,8.321,0,0,2.95891
37.166668,2000,0,91.24,0.000002697398,0.000002697398,0.000002697398,0.99999994,0,0,0,0,0,0,1,1,0,0,0,false,false,true,-119.229996,331.77,17.01,-0.0047339336,0.00058533537,0.99314326,0.11680585,-409.911,425.901,8.321,0,0,2.97861
37.175,2000,0,91.24,0.000002697398,0.000002697398,0.000002697398,0.99999994,0,0,0,0,0,0,1,1,0,0,0,false,false,true,-122.649994,335.32,17.01,-0.0047393283,0.0005259926,0.9945162,0.104473345,-416.371,421.811,8.321,0,0,2.99821
37.183334,2000,0,91.24,0.000002697398,0.000002697398,0.000002697398,0.99999994,0,0,0,0,0,0,1,1,0,0,0,false,false,true,-126.119995,338.84,17.01,-0.004744723,0.00046664986,0.9957435,0.09204365,-422.771,417.521,8.321,0,0,3.01771
37.191666,2000,0,91.24,0.000002697398,0.000002697398,0.000002697398,0.99999994,0,0,0,0,0,0,1,1,0,0,0,false,false,true,-129.64,342.32,17.01,-0.004750118,0.00040730715,0.9968221,0.07951694,-429.10098,413.041,8.321,0,0,3.0371099
37.2,2000,0,91.24,0.000002697398,0.000002697398,0.000002697398,0.99999994,0,0,0,0,0,0,1,1,0,0,0,false,false,true,-133.22,345.75998,17.01,-0.0047555133,0.00034796438,0.9977484,0.06689843,-435.361,408.361,8.321,0,0,3.05651
37.208332,2000,0,91.24,0.000002697398,0.000002697398,0.000002697398,0.99999994,0,0,0,0,0,0,1,1,0,0,0,false,false,true,-136.84999,349.16,17.01,-0.0047609075,0.00028862158,0.9985193,0.0541882,-441.541,403.491,8.321,0,0,3.07581
37.216667,2000,0,91.24,0.000002697398,0.000002697398,0.000002697398,0.99999994,0,0,0,0,0,0,1,1,0,0,0,false,false,true,-140.53,352.52,17.01,-0.004766302,0.00022927884,0.99913174,0.041386347,-447.631,398.421,8.321,0,0,3.09501
37.225,2000,0,91.24,0.000002697398,0.000002697398,0.000002697398,0.99999994,0,0,0,0,0,0,1,1,0,0,0,false,false,true,-144.26,355.84,17.01,-0.0047663017,0.00016993606,0.99958235,0.02849809,-453.631,393.161,8.321,0,0,3.11421
37.233334,2000,0,91.24,0.000002697398,0.000002697398,0.000002697398,0.99999994,0,0,0,0,0,0,1,1,0,0,0,false,false,true,-148.04,359.12,17.01,-0.004766302,0.00011059332,0.9998681,0.015523611,-459.541,387.721,8.321,0,0,3.1333098
37.241665,2000,0,91.24,0.000002697398,0.000002697398,0.000002697398,0.99999994,0,0,0,0,0,0,1,1,0,0,0,false,false,true,-151.87,362.35,17.01,-0.0047663026,0.00004585577,0.9999856,0.0024681194,-465.35098,382.091,8.321,0,0,3.15231
37.25,2000,0,91.24,0.000002697398,0.000002697398,0.000002697398,0.99999994,0,0,0,0,0,0,1,1,0,0,0,false,false,true,-155.75,365.53,17.01,-0.004766302,-0.000018881787,0.9999317,-0.010668252,-471.061,376.281,8.321,0,0,3.17131
37.258335,2000,0,91.24,0.000002697398,0.000002697398,0.000002697398,0.99999994,0,0,0,0,0,0,1,1,0,0,0,false,false,true,-159.68,368.66998,17.01,-0.0047663026,-0.00008361934,0.99970347,-0.02388015,-476.661,370.291,8.321,0,0,3.1902099
37.266666,2000,0,91.24,0.000002697398,0.000002697398,0.000002697398,0.99999994,0,0,0,0,0,0,1,1,0,0,0,false,false,true,-163.65,371.75998,17.01,-0.004766302,-0.00014835689,0.9992976,-0.03716757,-482.151,364.121,8.321,0,0,3.20911
37.275,2000,0,91.24,0.000002697398,0.000002697398,0.000002697398,0.99999994,0,0,0,0,0,0,1,1,0,0,0,false,false,true,-167.67,374.78998,17.01,-0.004766302,-0.00021309445,0.99871135,-0.050525174,-487.521,357.771,8.321,0,0,3.22791
37.283333,2000,0,91.24,0.000002697398,0.000002697398,0.000002697398,0.99999994,0,0,0,0,0,0,1,1,0,0,0,false,false,true,-171.73,377.77,17.01,-0.004760907,-0.00027783198,0.9979414,-0.063952856,-492.771,351.251,8.321,0,0,3.24661
37.291668,2000,0,91.24,0.000002697398,0.000002697398,0.000002697398,0.99999994,0,0,0,0,0,0,1,1,0,0,0,false,false,true,-175.84,380.69998,17.01,-0.0047555133,-0.00034256958,0.9969852,-0.0774453,-497.891,344.561,8.321,0,0,3.26531
37.3,2000,0,91.24,0.000002697398,0.000002697398,0.000002697398,0.99999994,0,0,0,0,0,0,1,1,0,0,0,false,false,true,-179.98999,383.56998,17.01,-0.004750118,-0.00040730715,0.99583924,-0.091002464,-502.88098,337.701,8.321,0,0,3.28391
37.308334,2000,0,91.24,0.000002697398,0.000002697398,0.000002697398,0.99999994,0,0,0,0,0,0,1,1,0,0,0,false,false,true,-184.18,386.38,17.01,-0.0047447234,-0.0004720447,0.99450094,-0.104618974,-507.741,330.681,8.321,0,0,3.30251
37.316666,2000,0,91.24,0.000002697398,0.000002697398,0.000002697398,0.99999994,0,0,0,0,0,0,1,1,0,0,0,false,false,true,-188.40999,389.13998,17.01,-0.0047393283,-0.0005367822,0.992967,-0.11829486,-512.46094,323.501,8.321,0,0,3.3210099
37.325,2000,0,91.24,0.000002697398,0.000002697398,0.000002697398,0.99999994,0,0,0,0,0,0,1,1,0,0,0,false,false,true,-192.68,391.84,17.01,-0.0047339336,-0.0006015198,0.9912349,-0.13202465,-517.03094,316.161,8.321,0,0,3.33951
37.333332,2000,0,91.24,0.000002697398,0.000002697398,0.000002697398,0.99999994,0,0,0,0,0,0,1,1,0,0,0,false,false,true,-196.98999,394.47,17.01,-0.0047231438,-0.0006662573,0.9893021,-0.145803,-521.46094,308.671,8.321,0,0,3.3580098
37.341667,2000,0,91.24,0.000002697398,0.000002697398,0.000002697398,0.99999994,0,0,0,0,0,0,1,1,0,0,0,false,false,true,-201.34,397.03998,17.01,-0.0047123544,-0.00073099486,0.98716533,-0.15962991,-525.74097,301.031,8.321,0,0,3.37641
37.35,2000,0,91.24,0.000002697398,0.000002697398,0.000002697398,0.99999994,0,0,0,0,0,0,1,1,0,0,0,false,false,true,-205.72,399.55,17.01,-0.0047015646,-0.0007957324,0.9848223,-0.17350002,-529.86096,293.241,8.321,0,0,3.39481
37.358334,2000,0,91.24,0.000002697398,0.000002697398,0.000002697398,0.99999994,0,0,0,0,0,0,1,1,0,0,0,false,false,true,-210.14,401.99,17.01,-0.004690775,-0.00086047,0.9822695,-0.18741323,-533.831,285.311,8.321,0,0,3.41311
37.366665,2000,0,91.24,0.000002697398,0.000002697398,0.000002697398,0.99999994,0,0,0,0,0,0,1,1,0,0,0,false,false,true,-214.59,404.37,17.01,-0.0046799853,-0.00092520757,0.97950476,-0.20136422,-537.641,277.241,8.321,0,0,3.4314098
37.375,2000,0,91.24,0.000002697398,0.000002697398,0.000002697398,0.99999994,0,0,0,0,0,0,1,1,0,0,0,false,false,true,-219.06999,406.68,17.01,-0.0046638013,-0.000989945,0.9765258,-0.21534757,-541.28094,269.031,8.321,0,0.00010999999,3.44971
37.383335,2000,0,91.24,0.000002697398,0.000002697398,0.000002697398,0.99999994,0,0,0,0,0,0,1,1,0,0,0,false,false,true,-223.58,408.91998,17.01,-0.004647617,-0.0010546828,0.9733292,-0.22936335,-544.751,260.691,8.321,0,0.00010999999,3.4679098
37.391666,2000,0,91.24,0.000002697398,0.000002697398,0.000002697398,0.99999994,0,0,0,0,0,0,1,1,0,0,0,false,false,true,-228.12,411.09,17.01,-0.0046314322,-0.0011194202,0.9699141,-0.24340065,-548.05096,252.22101,8.321,0,0.00010999999,3.48611
37.4,2000,0,91.24,0.000002697398,0.000002697398,0.000002697398,0.99999994,0,0,0,0,0,0,1,1,0,0,0,false,false,true,-232.68999,413.19,17.01,-0.0046152477,-0.0011841576,0.96627575,-0.2574649,-551.18097,243.621,8.321,0,0.00010999999,3.50431
37.408333,2000,0,91.24,0.000002697398,0.000002697398,0.000002697398,0.99999994,0,0,0,0,0,0,1,1,0,0,0,false,false,true,-237.28,415.22,17.01,-0.0045990637,-0.0012488953,0.9624138,-0.2715454,-554.131,234.891,8.321,0,0.00010999999,3.52241
37.416668,2000,0,91.24,0.000002697398,0.000002697398,0.000002697398,0.99999994,0,0,0,0,0,0,1,1,0,0,0,false,false,true,-241.9,417.18,17.01,-0.004577485,-0.0013190277,0.9583245,-0.2856421,-556.90094,226.041,8.321,0,0.00010999999,3.54051
37.425,2000,0,91.24,0.000002697398,0.000002697398,0.000002697398,0.99999994,0,0,0,0,0,0,1,1,0,0,0,false,false,true,-246.54,419.06,17.01,-0.004555905,-0.0013891598,0.9540059,-0.29974946,-559.49097,217.08101,8.321,0,0.00010999999,3.55861
37.433334,2000,0,91.24,0.000002697398,0.000002697398,0.000002697398,0.99999994,0,0,0,0,0,0,1,1,0,0,0,false,false,true,-251.2,420.87,17.01,-0.004534326,-0.0014592924,0.94945645,-0.31386232,-561.90094,208.001,8.321,0,0.00010999999,3.57671
37.441666,2000,0,91.24,0.000002697398,0.000002697398,0.000002697398,0.99999994,0,0,0,0,0,0,1,1,0,0,0,false,false,true,-255.87999,422.59998,17.01,-0.004512747,-0.0015294247,0.94467425,-0.32797518,-564.121,198.811,8.321,0,0.00010999999,3.5947099
37.45,2000,0,91.24,0.000002697398,0.000002697398,0.000002697398,0.99999994,0,0,0,0,0,0,1,1,0,0,0,false,false,true,-260.58,424.25998,17.01,-0.0044911676,-0.001599557,0.9396558,-0.342088,-566.15094,189.521,8.321,0,0.00010999999,3.61271
37.458332,2000,0,91.24,0.000002697398,0.000002697398,0.000002697398,0.99999994,0,0,0,0,0,0,1,1,0,0,0,false,false,true,-265.3,425.84,17.01,-0.0044641937,-0.0016696894,0.93439925,-0.35619545,-567.98096,180.121,8.321,0,0.00010999999,3.63071
37.466667,2000,0,91.24,0.000002697398,0.000002697398,0.000002697398,0.99999994,0,0,0,0,0,0,1,1,0,0,0,false,false,true,-270.03,427.34,17.01,-0.00443722,-0.0017398217,0.92890304,-0.37029216,-569.621,170.621,8.321,-0.00010999999,0.00010999999,3.6486099
37.475,2000,0,91.24,0.000002697398,0.000002697398,0.000002697398,0.99999994,0,0,0,0,0,0,1,1,0,0,0,false,false,true,-274.78,428.75998,17.01,-0.0044102455,-0.0018045594,0.9231657,-0.3843726,-571.061,161.021,8.321,-0.00021,0,3.6665099
37.483334,2000,0,91.24,0.000002697398,0.000002697398,0.000002697398,0.99999994,0,0,0,0,0,0,1,1,0,0,0,false,false,true,-279.54,430.09998,17.01,-0.0043832716,-0.0018692969,0.91718566,-0.39843148,-572.30096,151.33101,8.321,-0.00021,0,3.68431
37.491665,2000,0,91.24,0.000002697398,0.000002697398,0.000002697398,0.99999994,0,0,0,0,0,0,1,1,0,0,0,false,false,true,-284.31,431.36,17.01,-0.0043562977,-0.0019340344,0.9109616,-0.41246343,-573.331,141.541,8.321,-0.00021,0,3.7021098
37.5,2000,0,91.24,0.000002697398,0.000002697398,0.000002697398,0.99999994,0,0,0,0,0,0,1,1,0,0,0,false,false,true,-289.09,432.53998,17.01,-0.004323929,-0.001998772,0.9044899,-0.42646834,-574.16095,131.66101,8.321,-0.00021,0,3.71981
37.508335,2000,0,91.24,0.000002697398,0.000002697398,0.000002697398,0.99999994,0,0,0,0,0,0,1,1,0,0,0,false,false,true,-293.87,433.63998,17.01,-0.00429156,-0.0020635095,0.89777154,-0.44043553,-574.78094,121.701,8.321,-0.00021,0,3.73751
37.516666,2000,0,91.24,0.000002697398,0.000002697398,0.000002697398,0.99999994,0,0,0,0,0,0,1,1,0,0,0,false,false,true,-298.66,434.65,17.01,-0.0042591915,-0.002128247,0.89080286,-0.45436496,-575.18097,111.65099,8.321,-0.00021,0,3.75511
37.525,2000,0,91.24,0.000002697398,0.000002697398,0.000002697398,0.99999994,0,0,0,0,0,0,1,1,0,0,0,false,false,true,-303.44998,435.58,17.01,-0.0042268224,-0.0021929846,0.88358533,-0.4682458,-575.371,101.520996,8.321,-0.00021,0,3.77261
37.533333,2000,0,91.24,0.000002697398,0.000002697398,0.000002697398,0.99999994,0,0,0,0,0,0,1,1,0,0,0,false,false,true,-308.24,436.43,17.01,-0.0041890587,-0.002257722,0.87611514,-0.48207808,-575.34094,91.311,8.321,-0.00021,0,3.79001
37.541668,2000,0,91.24,0.000002697398,0.000002697398,0.000002697398,0.99999994,0,0,0,0,0,0,1,1,0,0,0,false,false,true,-313.03,437.19,17.01,-0.004151295,-0.0023224594,0.8683944,-0.49585104,-575.05096,81.050995,8.321,-0.00021,0,3.80831
37.55,2000,0,91.24,0.000002697398,0.000002697398,0.000002697398,0.99999994,0,0,0,0,0,0,1,1,0,0,0,false,false,true,-317.82,437.87,17.01,-0.0041135317,-0.0023871972,0.86041594,-0.50957006,-574.48096,70.770996,8.321,-0.00010999999,0,3.82811
37.558334,2000,0,91.24,0.000002697398,0.000002697398,0.000002697398,0.99999994,0,0,0,0,0,0,1,1,0,0,0,false,false,true,-322.61,438.46,17.01,-0.004075769,-0.002451935,0.8521783,-0.52322984,-573.641,60.470997,8.321,-0.00010999999,0,3.84931
37.566666,2000,0,91.24,0.000002697398,0.000002697398,0.000002697398,0.99999994,0,0,0,0,0,0,1,1,0,0,0,false,false,true,-327.38998,438.96,17.01,-0.0040380047,-0.0025166722,0.84367687,-0.53683007,-572.52094,50.161,8.321,-0.00010999999,0,3.8719099
37.575,2000,0,91.24,0.000002697398,0.000002697398,0.000002697398,0.99999994,0,0,0,0,0,0,1,1,0,0,0,false,false,true,-332.16,439.38,17.01,-0.0039948467,-0.00258141,0.8349065,-0.55037117,-571.121,39.850998,8.321,-0.00010999999,0,3.89591
37.583332,2000,0,91.24,0.000002697398,0.000002697398,0.000002697398,0.99999994,0,0,0,0,0,0,1,1,0,0,0,false,false,true,-336.91998,439.71,17.01,-0.0039516874,-0.0026461473,0.8258616,-0.56385267,-569.451,29.540998,8.321,-0.00010999999,0,3.92131
37.591667,2000,0,91.24,0.000002697398,0.000002697398,0.000002697398,0.99999994,0,0,0,0,0,0,1,1,0,0,0,false,false,true,-341.66998,439.96,17.01,-0.003908529,-0.0027108847,0.81653965,-0.57726955,-567.501,19.241,8.321,-0.00010999999,0,3.9481099
37.6,2000,0,91.24,0.000002697398,0.000002697398,0.000002697398,0.99999994,0,0,0,0,0,0,1,1,0,0,0,false,false,true,-346.4,440.12,17.01,-0.0038653715,-0.0027756225,0.80693436,-0.5906218,-565.27094,8.961,8.321,-0.00010999999,0,3.97631
37.608334,2000,0,91.24,0.000002697398,0.000002697398,0.000002697398,0.99999994,0,0,0,0,0,0,1,1,0,0,0,false,false,true,-351.11,440.19,17.01,-0.0038168184,-0.0028403602,0.7970388,-0.60390925,-562.761,-1.291,8.321,-0.00010999999,0,4.00581
37.616665,2000,0,91.24,0.000002697398,0.000002697398,0.000002697398,0.99999994,0,0,0,0,0,0,1,1,0,0,0,false,false,true,-355.8,440.18,17.01,-0.0037682652,-0.0029050978,0.7868494,-0.6171266,-559.98096,-11.511,8.321,-0.00010999999,0,4.03671
37.625,2000,0,91.24,0.000002697398,0.000002697398,0.000002697398,0.99999994,0,0,0,0,0,0,1,1,0,0,0,false,false,true,-360.47,440.08,17.01,-0.003719712,-0.0029698352,0.7763583,-0.6302737,-556.92096,-21.700998,8.321,-0.00010999999,0,4.06901
37.633335,2000,0,91.24,0.000002697398,0.000002697398,0.000002697398,0.99999994,0,0,0,0,0,0,1,1,0,0,0,false,false,true,-365.11,439.9,17.01,-0.0036711588,-0.0030345728,0.76556116,-0.64334536,-553.581,-31.841,8.321,-0.00010999999,0,4.10261
37.641666,2000,0,91.24,0.000002697398,0.000002697398,0.000002697398,0.99999994,0,0,0,0,0,0,1,1,0,0,0,false,false,true,-369.72,439.63,17.01,-0.003617211,-0.0030939158,0.75445354,-0.6563361,-549.97095,-41.931,8.321,-0.00010999999,0,4.13761
37.65,2000,0,91.24,0.000002697398,0.000002697398,0.000002697398,0.99999994,0,0,0,0,0,0,1,1,0,0,0,false,false,true,-374.3,439.28,17.01,-0.0035632628,-0.0031532582,0.74302566,-0.6692459,-546.081,-51.970997,8.321,-0.00010999999,0,4.17391
37.658333,2000,0,91.24,0.000002697398,0.000002697398,0.000002697398,0.99999994,0,0,0,0,0,0,1,1,0,0,0,false,false,true,-378.85,438.84998,17.01,-0.003509315,-0.0032126012,0.73127687,-0.682064,-541.831,-61.920998,8.321,0,0,4.21071
37.666668,2000,0,91.24,0.000002697398,0.000002697398,0.000002697398,0.99999994,0,0,0,0,0,0,1,1,0,0,0,false,false,true,-383.37,438.33,17.01,-0.0034499725,-0.0032719441,0.7191965,-0.6947904,-537.23096,-71.761,8.321,0,0,4.2480097
37.675,2000,0,91.24,0.000002697398,0.000002697398,0.000002697398,0.99999994,0,0,0,0,0,0,1,1,0,0,0,false,false,true,-387.85,437.72998,17.01,0.0033906293,0.0033312866,-0.7067884,0.7074089,-532.27094,-81.480995,8.321,0,0,4.28581
37.683334,2000,0,91.24,0.000002697398,0.000002697398,0.000002697398,0.99999994,0,0,0,0,0,0,1,1,0,0,0,false,false,true,-392.28998,437.05,17.01,0.0033312866,0.0033906293,-0.69404584,0.71991503,-526.96094,-91.071,8.321,0,0,4.32411
37.691666,2000,0,91.24,0.000002697398,0.000002697398,0.000002697398,0.99999994,0,0,0,0,0,0,1,1,0,0,0,false,false,true,-396.68,436.28998,17.01,0.003271944,0.0034499723,-0.68096346,0.73230183,-521.30096,-100.520996,8.321,0,0,4.36291
37.7,2000,0,91.24,0.000002697398,0.000002697398,0.000002697398,0.99999994,0,0,0,0,0,0,1,1,0,0,0,false,false,true,-401.02,435.44998,17.01,0.0032072065,0.0035093152,-0.66754115,0.7445577,-515.30096,-109.811,8.321,0,0,4.4022098
37.708332,2000,0,91.24,0.000002697398,0.000002697398,0.000002697398,0.99999994,0,0,0,0,0,0,1,1,0,0,0,false,false,true,-405.31,434.53,17.01,0.0031424686,0.0035686577,-0.65377355,0.7566752,-508.961,-118.931,8.321,0,0,4.44201
37.716667,2000,0,91.24,0.000002697398,0.000002697398,0.000002697398,0.99999994,0,0,0,0,0,0,1,1,0,0,0,false,false,true,-409.55,433.53998,17.01,0.0030777312,0.0036280004,-0.6396553,0.7686471,-502.281,-127.870995,8.321,0,0,4.48241
37.725,2000,0,91.24,0.000002697398,0.000002697398,0.000002697398,0.99999994,0,0,0,0,0,0,1,1,0,0,0,false,false,true,-413.74,432.47,17.01,0.003007599,0.003687343,-0.62518644,0.78046083,-495.271,-136.61101,8.321,0,0,4.5233097
37.733334,2000,0,91.24,0.000002697398,0.000002697398,0.000002697398,0.99999994,0,0,0,0,0,0,1,1,0,0,0,false,false,true,-417.87,431.33,17.01,0.0029374666,0.0037412914,-0.6103669,0.79210454,-487.931,-145.141,8.321,0,0,4.56481
37.741665,2000,0,91.24,0.000002697398,0.000002697398,0.000002697398,0.99999994,0,0,0,0,0,0,1,1,0,0,0,false,false,true,-421.94,430.12,17.01,0.002867334,0.0037952391,-0.59519124,0.8035699,-480.301,-153.41101,8.321,0,0.00010999999,4.6065097
37.75,2000,0,91.24,0.000002697398,0.000002697398,0.000002697398,0.99999994,0,0,0,0,0,0,1,1,0,0,0,false,false,true,-425.94,428.84,17.01,0.002791807,0.0038491872,-0.5796595,0.8148448,-472.421,-161.341,8.321,0,0.00021,4.64781
37.758335,2000,0,91.24,0.000002697398,0.000002697398,0.000002697398,0.99999994,0,0,0,0,0,0,1,1,0,0,0,false,false,true,-429.88,427.5,17.01,0.0027162798,0.003903135,-0.5637718,0.8259168,-464.311,-168.931,8.321,0,0.00030999997,4.6887097
37.766666,2000,0,91.24,0.000002697398,0.000002697398,0.000002697398,0.99999994,0,0,0,0,0,0,1,1,0,0,0,false,false,true,-433.75,426.09,17.01,0.0026407528,0.0039570834,-0.5475281,0.83677375,-455.991,-176.151,8.321,0,0.00030999997,4.72901
37.775,2000,0,91.24,0.000002697398,0.000002697398,0.000002697398,0.99999994,0,0,0,0,0,0,1,1,0,0,0,false,false,true,-437.55,424.62,17.01,0.0025598307,0.004011031,-0.53093356,0.8474,-447.491,-182.961,8.321,0,0.00030999997,4.76861
37.783333,2000,0,91.24,0.000002697398,0.000002697398,0.000002697398,0.99999994,0,0,0,0,0,0,1,1,0,0,0,false,false,true,-441.28,423.09998,17.01,0.0024789087,0.004059584,-0.5139938,0.85778064,-438.82098,-189.351,8.321,0,0.00030999997,4.80741
37.791668,2000,0,91.24,0.000002697398,0.000002697398,0.000002697398,0.99999994,0,0,0,0,0,0,1,1,0,0,0,false,false,true,-444.94,421.52,17.01,0.0023979868,0.004108137,-0.49670887,0.8679041,-430.011,-195.33101,8.321,0,0.00040999998,4.84541
37.8,2000,0,91.24,0.000002697398,0.000002697398,0.000002697398,0.99999994,0,0,0,0,0,0,1,1,0,0,0,false,false,true,-448.52,419.88998,17.01,0.0023116702,0.0041566906,-0.47908407,0.8777561,-421.07098,-200.891,8.321,0,0.00040999998,4.8825097
37.808334,2000,0,91.24,0.000002697398,0.000002697398,0.000002697398,0.99999994,0,0,0,0,0,0,1,1,0,0,0,false,false,true,-452.03,418.22,17.01,0.0022253534,0.004205243,-0.46113005,0.88731974,-412.031,-206.031,8.321,0,0.00040999998,4.91861
37.816666,2000,0,91.24,0.000002697398,0.000002697398,0.000002697398,0.99999994,0,0,0,0,0,0,1,1,0,0,0,false,false,true,-455.46,416.5,17.01,0.0021390368,0.0042537972,-0.44284704,0.8965845,-402.921,-210.751,8.321,0,0.00040999998,4.95371
37.825,2000,0,91.24,0.000002697398,0.000002697398,0.000002697398,0.99999994,0,0,0,0,0,0,1,1,0,0,0,false,false,true,-458.81998,414.74,17.01,0.0020527202,0.0042969557,-0.42424572,0.90553457,-393.751,-215.061,8.321,-0.00010999999,0.00040999998,4.9878097
37.833332,2000,0,91.24,0.000002697398,0.000002697398,0.000002697398,0.99999994,0,0,0,0,0,0,1,1,0,0,0,false,false,true,-462.09998,412.94998,17.01,0.0019610086,0.0043401136,-0.40533686,0.91415495,-384.551,-218.961,8.321,-0.00010999999,0.00051,5.02071
37.841667,2000,0,91.24,0.000002697398,0.000002697398,0.000002697398,0.99999994,0,0,0,0,0,0,1,1,0,0,0,false,false,true,-465.3,411.13,17.01,0.0018692969,0.0043832716,-0.38612592,0.9224337,-375.331,-222.461,8.321,-0.00010999999,0.00051,5.0524096
37.85,2000,0,91.24,0.000002697398,0.000002697398,0.000002697398,0.99999994,0,0,0,0,0,0,1,1,0,0,0,false,false,true,-468.43,409.28,17.01,0.0017775854,0.0044210353,-0.36662364,0.93035704,-366.121,-225.571,8.321,-0.00021,0.00051,5.08281
37.858334,2000,0,91.24,0.000002697398,0.000002697398,0.000002697398,0.99999994,0,0,0,0,0,0,1,1,0,0,0,false,false,true,-471.47998,407.4,17.01,0.0016804792,0.0044587995,-0.34684086,0.93791187,-356.941,-228.301,8.321,-0.00021,0.00061,5.1118097
37.866665,2000,0,91.24,0.000002697398,0.000002697398,0.000002697398,0.99999994,0,0,0,0,0,0,1,1,0,0,0,false,false,true,-474.44998,405.5,17.01,0.0015833727,0.0044965623,-0.32678834,0.94508547,-347.811,-230.661,8.321,-0.00021,0.00061,5.1392097
37.875,2000,0,91.24,0.000002697398,0.000002697398,0.000002697398,0.99999994,0,0,0,0,0,0,1,1,0,0,0,false,false,true,-477.34998,403.58,17.01,0.0014862664,0.0045289313,-0.30647683,0.95186615,-338.751,-232.661,8.321,-0.00030999997,0.00061,5.16491
37.883335,2000,0,91.24,0.000002697398,0.000002697398,0.000002697398,0.99999994,0,0,0,0,0,0,1,1,0,0,0,false,false,true,-480.16998,401.63998,17.01,0.0013891599,0.0045613,-0.2859226,0.9582408,-329.771,-234.311,8.321,-0.00030999997,0.00071,5.18881
37.891666,2000,0,91.24,0.000002697398,0.000002697398,0.000002697398,0.99999994,0,0,0,0,0,0,1,1,0,0,0,false,false,true,-482.91998,399.69,17.01,0.0012866588,0.004593669,-0.26514176,0.9641976,-320.901,-235.631,8.321,-0.00040999998,0.00081,5.21071
37.9,2000,0,91.24,0.000002697398,0.000002697398,0.000002697398,0.99999994,0,0,0,0,0,0,1,1,0,0,0,false,false,true,-485.59,397.72998,17.01,0.0011841577,0.0046260376,-0.24414513,0.96972686,-312.061,-236.651,8.321,-0.00040999998,0.00081,5.2301097
37.908333,2000,0,91.24,0.000002697398,0.000002697398,0.000002697398,0.99999994,0,0,0,0,0,0,1,1,0,0,0,false,false,true,-488.19,395.75998,17.01,0.0010816564,0.004653011,-0.22295426,0.97481704,-303.271,-237.36101,8.321,-0.00040999998,0.00071,5.24681
37.916668,2000,0,91.24,0.000002697398,0.000002697398,0.000002697398,0.99999994,0,0,0,0,0,0,1,1,0,0,0,false,false,true,-490.72,393.78,17.01,0.0009791554,0.0046799853,-0.2015908,0.9794581,-294.561,-237.72101,8.321,-0.00040999998,0.00061,5.25931
37.925,2000,0,91.24,0.000002697398,0.000002697398,0.000002697398,0.99999994,0,0,0,0,0,0,1,1,0,0,0,false,false,true,-493.16998,391.8,17.01,0.0008766544,0.004701565,-0.18008168,0.98364,-285.961,-237.741,8.321,-0.00040999998,0.00051,5.26741
37.933334,2000,0,91.24,0.000002697398,0.000002697398,0.000002697398,0.99999994,0,0,0,0,0,0,1,1,0,0,0,false,false,true,-495.55,389.81998,17.01,0.0007687584,0.0047231433,-0.15845382,0.98735464,-277.511,-237.441,8.321,-0.00040999998,0.00051,5.27071
37.941666,2000,0,91.24,0.000002697398,0.000002697398,0.000002697398,0.99999994,0,0,0,0,0,0,1,1,0,0,0,false,false,true,-497.86,387.84,17.01,0.0006608625,0.004739328,-0.13673429,0.99059606,-269.241,-236.851,8.321,-0.00040999998,0.00040999998,5.26851
37.95,2000,0,91.24,0.000002697398,0.000002697398,0.000002697398,0.99999994,0,0,0,0,0,0,1,1,0,0,0,false,false,true,-500.09998,385.87,17.01,0.00055296655,0.0047555123,-0.11495542,0.99335897,-261.151,-235.991,8.311,-0.00040999998,0.00040999998,5.26091
37.958332,2000,0,91.24,0.000002697398,0.000002697398,0.000002697398,0.99999994,0,0,0,0,0,0,1,1,0,0,0,false,false,true,-502.28,383.9,17.01,0.00044507062,0.0047663017,-0.093154974,0.99564,-252.931,-234.811,8.311,-0.00040999998,0.00030999997,5.25591
37.966667,2000,0,91.24,0.000002697398,0.000002697398,0.000002697398,0.99999994,0,0,0,0,0,0,1,1,0,0,0,false,false,true,-504.38998,381.94,17.01,0.00033717474,0.004777092,-0.071327545,0.9974414,-244.671,-233.311,8.311,-0.00040999998,0.00021,5.2519097
