time,ball_loc_x,ball_loc_y,ball_loc_z,ball_rot_x,ball_rot_y,ball_rot_z,ball_rot_w,ball_vel_x,ball_vel_y,ball_vel_z,ball_ang_x,ball_ang_y,ball_ang_z,player0_throttle,player0_steer,player0_pitch,player0_yaw,player0_roll,player0_jump,player0_boost,player0_handbrake,player0_loc_x,player0_loc_y,player0_loc_z,player0_rot_x,player0_rot_y,player0_rot_z,player0_rot_w,player0_vel_x,player0_vel_y,player0_vel_z,player0_ang_x,player0_ang_y,player0_ang_z
99.166664,2000,0,91.24,0.000002697398,0.000002697398,0.000002697398,0.99999994,0,0,0,0,0,0,0,0,0,0,0,false,false,false,0,0.14,17.01,-0.00336905,0.0033798397,0.7071014,0.7070959,0,0.011,8.321,-0.00051,0,0
99.175,2000,0,73,0.000002697398,0.000002697398,0.000002697398,0.99999994,0,0,0,0,0,0,0.8031496,0,0,0,0,false,false,false,0,0,16.94,0.0000026973983,0.0000026973983,0.70710677,0.70710677,0,0,2.041,-0.050809998,0,0
99.183334,2000,0,87.6,0.000002697398,0.000002697398,0.000002697398,0.99999994,0,0,0,0,0,0,0.8031496,0,0,0,0,false,false,false,0,0,16.89,-0.00014835689,0.00015375168,0.7071067,0.7071067,0,10.701,3.8809998,-0.085609995,0,0
99.191666,2000,0,90.52,0.000002697398,0.000002697398,0.000002697398,0.99999994,0,0,0,0,0,0,0.8031496,0,0,0,0,false,false,false,0,0.089999996,16.85,-0.00040191234,0.00040730715,0.70710653,0.70710677,0,21.331,5.481,-0.107209995,0,0
99.2,2000,0,91.1,0.000002697398,0.000002697398,0.000002697398,0.99999994,0,0,0,0,0,0,0.8031496,0,0,0,0,false,false,false,0,0.26999998,16.83,-0.00072020525,0.00072560005,0.7071067,0.707106,0,31.890999,6.791,-0.11630999,0,0
99.208336,2000,0,91.22,0.000002697398,0.000002697398,0.000002697398,0.99999994,0,0,0,0,0,0,0.8031496,0,0,0,0,false,false,false,0,0.53999996,16.82,-0.0010654721,0.001070867,0.70710516,0.7071067,0,42.380997,7.7409997,-0.114609994,0,0
99.21667,2000,0,91.24,0.000002697398,0.000002697398,0.000002697398,0.99999994,0,0,0,0,0,0,0.8031496,0,0,0,0,false,false,false,0,0.89,16.82,-0.0014053443,0.0014107391,0.7071067,0.70710397,0,52.790997,8.431,-0.10651,0,0
99.225,2000,0,91.24,0.000002697398,0.000002697398,0.000002697398,0.99999994,0,0,0,0,0,0,0.8031496,0,0,0,0,false,false,false,0,1.3299999,16.82,-0.0017182427,0.0017236375,0.707108,0.70710135,0,63.130997,8.9210005,-0.09501,0,0
99.23333,2000,0,91.24,0.000002697398,0.000002697398,0.000002697398,0.99999994,0,0,0,0,0,0,0.8031496,0,0,0,0,false,false,false,0,1.86,16.83,-0.001998772,0.0020041666,0.70710653,0.7071013,0,73.401,9.281,-0.082109995,0,0
99.24167,2000,0,91.24,0.000002697398,0.000002697398,0.000002697398,0.99999994,0,0,0,0,0,0,0.8031496,0,0,0,0,false,false,false,0,2.47,16.84,-0.0022415377,0.0022469326,0.70710504,0.7071013,0,83.601,9.521,-0.06921,0,0
99.25,2000,0,91.24,0.000002697398,0.000002697398,0.000002697398,0.99999994,0,0,0,0,0,0,0.8031496,0,0,0,0,false,false,false,0,3.1699998,16.85,-0.00244654,0.0024519349,0.70710367,0.7071013,0,93.730995,9.6710005,-0.05701,0,0
99.25833,2000,0,91.24,0.000002697398,0.000002697398,0.000002697398,0.99999994,0,0,0,0,0,0,0.8031496,0,0,0,0,false,false,false,0,3.9499998,16.859999,-0.0026137787,0.0026191734,0.7071025,0.7071013,0,103.791,9.771,-0.046109997,0,0
99.26667,2000,0,91.24,0.000002697398,0.000002697398,0.000002697398,0.99999994,0,0,0,0,0,0,0.8031496,0,0,0,0,false,false,false,0,4.81,16.869999,-0.0027486486,0.0027540433,0.70710146,0.7071013,0,113.781,9.821,-0.036609996,0,0
99.275,2000,0,91.24,0.000002697398,0.000002697398,0.000002697398,0.99999994,0,0,0,0,0,0,0.8031496,0,0,0,0,false,false,false,0,5.7599998,16.88,-0.0028565445,0.0028619394,0.70710063,0.7071013,0,123.701,9.841001,-0.02851,0,0
99.28333,2000,0,91.24,0.000002697398,0.000002697398,0.000002697398,0.99999994,0,0,0,0,0,0,0.8031496,0,0,0,0,false,false,false,0,6.79,16.89,-0.0029428613,0.002948256,0.7071013,0.7070999,0,133.55101,9.821,-0.02231,0,0
99.291664,2000,0,91.24,0.000002697398,0.000002697398,0.000002697398,0.99999994,0,0,0,0,0,0,0.8031496,0,0,0,0,false,false,false,0,7.8999996,16.9,-0.003007599,0.0030129936,0.7070993,0.7071013,0,143.341,9.761001,-0.01781,0,0
99.3,2000,0,91.24,0.000002697398,0.000002697398,0.000002697398,0.99999994,0,0,0,0,0,0,0.8031496,0,0,0,0,false,false,false,0,9.09,16.91,-0.0030615467,0.0030669416,0.7071013,0.7070989,0,153.061,9.681,-0.014409999,0,0
99.308334,2000,0,91.24,0.000002697398,0.000002697398,0.000002697398,0.99999994,0,0,0,0,0,0,0.8031496,0,0,0,0,false,false,false,0,10.37,16.92,-0.0031047051,0.0031101,0.7070985,0.7071013,0,162.711,9.591001,-0.011809999,0,0
99.316666,2000,0,91.24,0.000002697398,0.000002697398,0.000002697398,0.99999994,0,0,0,0,0,0,0.8031496,0,0,0,0,false,false,false,0,11.73,16.93,-0.003137074,0.0031424686,0.7070959,0.7071036,0,172.291,9.491,-0.00981,0,0
99.325,2000,0,91.24,0.000002697398,0.000002697398,0.000002697398,0.99999994,0,0,0,0,0,0,0.8031496,0,0,0,0,false,false,false,0,13.17,16.94,-0.003164048,0.003169443,0.707096,0.7071034,0,181.811,9.391,-0.0083099995,0,0
99.333336,2000,0,91.24,0.000002697398,0.000002697398,0.000002697398,0.99999994,0,0,0,0,0,0,0.8031496,0,0,0,0,false,false,false,0,14.69,16.949999,-0.003191022,0.0031964167,0.7070959,0.70710313,0,191.261,9.281,-0.00711,0,0
99.34167,2000,0,91.24,0.000002697398,0.000002697398,0.000002697398,0.99999994,0,0,0,0,0,0,0.8031496,0,0,0,0,false,false,false,0,16.279999,16.96,-0.0032126014,0.003217996,0.707096,0.70710295,0,200.651,9.1710005,-0.00611,0,0
99.35,2000,0,91.24,0.000002697398,0.000002697398,0.000002697398,0.99999994,0,0,0,0,0,0,0.8031496,0,0,0,0,false,false,false,0,17.949999,16.97,-0.0032287855,0.0032341804,0.7070959,0.7071028,0,209.97101,9.061,-0.00521,0,0
99.35833,2000,0,91.24,0.000002697398,0.000002697398,0.000002697398,0.99999994,0,0,0,0,0,0,0.8031496,0,0,0,0,false,false,false,0,19.699999,16.98,-0.00324497,0.003250365,0.707096,0.70710266,0,219.231,8.951,-0.00451,0,0
99.36667,2000,0,91.24,0.000002697398,0.000002697398,0.000002697398,0.99999994,0,0,0,0,0,0,0.8031496,0,0,0,0,false,false,false,0,21.529999,16.99,-0.0032557594,0.0032611543,0.7070959,0.70710254,0,228.431,8.841001,-0.00391,0,0
99.375,2000,0,91.24,0.000002697398,0.000002697398,0.000002697398,0.99999994,0,0,0,0,0,0,0.8031496,0,0,0,0,false,false,false,0,23.43,17,-0.003266549,0.003271944,0.7070959,0.7071024,0,237.561,8.731,-0.00341,0,0
99.38333,2000,0,91.24,0.000002697398,0.000002697398,0.000002697398,0.99999994,0,0,0,0,0,0,0.8031496,0,0,0,0,false,false,false,0,25.41,17.01,-0.0032773386,0.0032827335,0.7070959,0.7071023,0,246.631,8.621,-0.00301,0,0
99.39167,2000,0,91.24,0.000002697398,0.000002697398,0.000002697398,0.99999994,0,0,0,0,0,0,0.8031496,0,0,0,0,false,false,false,0,27.47,17.01,-0.0032881282,0.003293523,0.7070959,0.70710224,0,255.641,8.511001,-0.00261,0,0
99.4,2000,0,91.24,0.000002697398,0.000002697398,0.000002697398,0.99999994,0,0,0,0,0,0,0.8031496,0,0,0,0,false,false,false,0,29.599998,17.01,-0.0032935233,0.003298918,0.707096,0.7071022,0,264.581,8.441,-0.0023100001,0,0
99.40833,2000,0,91.24,0.000002697398,0.000002697398,0.000002697398,0.99999994,0,0,0,0,0,0,0.8031496,0,0,0,0,false,false,false,0,31.8,17.01,-0.0032989178,0.0033043127,0.7070959,0.7071021,0,273.461,8.391,-0.00211,0,0
99.416664,2000,0,91.24,0.000002697398,0.000002697398,0.000002697398,0.99999994,0,0,0,0,0,0,0.8031496,0,0,0,0,false,false,false,0,34.079998,17.01,-0.0033043127,0.0033097074,0.7070959,0.70710206,0,282.281,8.361,-0.0019099999,0,0
99.425,2000,0,91.24,0.000002697398,0.000002697398,0.000002697398,0.99999994,0,0,0,0,0,0,0.8031496,0,0,0,0,false,false,false,0,36.43,17.01,-0.0033097074,0.0033151023,0.7070959,0.707102,0,291.04102,8.341001,-0.0017099999,0,0
99.433334,2000,0,91.24,0.000002697398,0.000002697398,0.000002697398,0.99999994,0,0,0,0,0,0,0.8031496,0,0,0,0,false,false,false,0,38.86,17.01,-0.0033151023,0.003320497,0.7070959,0.707102,0,299.741,8.331,-0.00151,0,0
99.441666,2000,0,91.24,0.000002697398,0.000002697398,0.000002697398,0.99999994,0,0,0,0,0,0,0.8031496,0,0,0,0,false,false,false,0,41.36,17.01,-0.0033204972,0.0033258921,0.707096,0.70710194,0,308.381,8.321,-0.00131,0,0
99.45,2000,0,91.24,0.000002697398,0.000002697398,0.000002697398,0.99999994,0,0,0,0,0,0,0.8031496,0,0,0,0,false,false,false,0,43.93,17.01,-0.003325892,0.0033312866,0.7070959,0.7071019,0,316.961,8.321,-0.00111,0,0
99.458336,2000,0,91.24,0.000002697398,0.000002697398,0.000002697398,0.99999994,0,0,0,0,0,0,0.8031496,0,0,0,0,false,false,false,0,46.57,17.01,-0.0033312866,0.0033366815,0.7070959,0.7071018,0,325.481,8.321,-0.0010099999,0,0
99.46667,2000,0,91.24,0.000002697398,0.000002697398,0.000002697398,0.99999994,0,0,0,0,0,0,0.8031496,0,0,0,0,false,false,false,0,49.28,17.01,-0.0033366815,0.0033420762,0.7070959,0.70710176,0,333.941,8.321,-0.00081,0,0
99.475,2000,0,91.24,0.000002697398,0.000002697398,0.000002697398,0.99999994,0,0,0,0,0,0,0.8031496,0,0,0,0,false,false,false,0,52.059998,17.01,-0.0033366815,0.0033420762,0.7070959,0.70710176,0,342.351,8.321,-0.00061,0,0
99.48333,2000,0,91.24,0.000002697398,0.000002697398,0.000002697398,0.99999994,0,0,0,0,0,0,0.8031496,0,0,0,0,false,false,false,0,54.91,17.01,-0.0033366815,0.0033420762,0.7070959,0.70710176,0,350.701,8.321,-0.00051,0,0
99.49167,2000,0,91.24,0.000002697398,0.000002697398,0.000002697398,0.99999994,0,0,0,0,0,0,0.8031496,0,0,0,0,false,false,false,0,57.829998,17.01,-0.0033366815,0.0033420762,0.7070959,0.70710176,0,358.991,8.321,-0.00051,0,0
99.5,2000,0,91.24,0.000002697398,0.000002697398,0.000002697398,0.99999994,0,0,0,0,0,0,0.8031496,0,0,0,0,false,false,false,0,60.82,17.01,-0.0033366815,0.0033420762,0.7070959,0.70710176,0,367.221,8.321,-0.00051,0,0
99.50833,2000,0,91.24,0.000002697398,0.000002697398,0.000002697398,0.99999994,0,0,0,0,0,0,0.8031496,0,0,0,0,false,false,false,0,63.879997,17.01,-0.0033366815,0.0033420762,0.7070959,0.70710176,0,375.401,8.321,-0.00051,0,0
99.51667,2000,0,91.24,0.000002697398,0.000002697398,0.000002697398,0.99999994,0,0,0,0,0,0,0.8031496,0,0,0,0,false,false,false,0,67.01,17.01,-0.0033366815,0.0033420762,0.7070959,0.70710176,0,383.521,8.321,-0.00051,0,0
99.525,2000,0,91.24,0.000002697398,0.000002697398,0.000002697398,0.99999994,0,0,0,0,0,0,0.8031496,0,0,0,0,false,false,false,0,70.21,17.01,-0.0033366815,0.0033420762,0.7070959,0.70710176,0,391.581,8.321,-0.00051,0,0
99.53333,2000,0,91.24,0.000002697398,0.000002697398,0.000002697398,0.99999994,0,0,0,0,0,0,0.8031496,0,0,0,0,false,false,false,0,73.47,17.01,-0.0033366815,0.0033420762,0.7070959,0.70710176,0,399.591,8.321,-0.00051,0,0
99.541664,2000,0,91.24,0.000002697398,0.000002697398,0.000002697398,0.99999994,0,0,0,0,0,0,0.8031496,0,0,0,0,false,false,false,0,76.799995,17.01,-0.0033366815,0.0033420762,0.7070959,0.70710176,0,407.541,8.321,-0.00051,0,0
99.55,2000,0,91.24,0.000002697398,0.000002697398,0.000002697398,0.99999994,0,0,0,0,0,0,0.8031496,0,0,0,0,false,false,false,0,80.2,17.01,-0.0033366815,0.0033420762,0.7070959,0.70710176,0,415.441,8.321,-0.00051,0,0
99.558334,2000,0,91.24,0.000002697398,0.000002697398,0.000002697398,0.99999994,0,0,0,0,0,0,0.8031496,0,0,0,0,false,false,false,0,83.659996,17.01,-0.0033366815,0.0033420762,0.7070959,0.70710176,0,423.281,8.321,-0.00051,0,0
99.566666,2000,0,91.24,0.000002697398,0.000002697398,0.000002697398,0.99999994,0,0,0,0,0,0,0.8031496,0,0,0,0,false,false,false,0,87.189995,17.01,-0.0033366815,0.0033420762,0.7070959,0.70710176,0,431.07098,8.321,-0.00051,0,0
99.575,2000,0,91.24,0.000002697398,0.000002697398,0.000002697398,0.99999994,0,0,0,0,0,0,0.8031496,0,0,0,0,false,false,false,0,90.78,17.01,-0.0033366815,0.0033420762,0.7070959,0.70710176,0,438.811,8.321,-0.00051,0,0
99.583336,2000,0,91.24,0.000002697398,0.000002697398,0.000002697398,0.99999994,0,0,0,0,0,0,0.8031496,0,0,0,0,false,false,false,0,94.439995,17.01,-0.0033366815,0.0033420762,0.7070959,0.70710176,0,446.491,8.321,-0.00051,0,0
99.59167,2000,0,91.24,0.000002697398,0.000002697398,0.000002697398,0.99999994,0,0,0,0,0,0,0.8031496,0,0,0,0,false,false,false,0,98.159996,17.01,-0.0033366815,0.0033420762,0.7070959,0.70710176,0,454.121,8.321,-0.00051,0,0
99.6,2000,0,91.24,0.000002697398,0.000002697398,0.000002697398,0.99999994,0,0,0,0,0,0,0.8031496,0,0,0,0,false,false,false,0,101.939995,17.01,-0.0033366815,0.0033420762,0.7070959,0.70710176,0,461.701,8.321,-0.00051,0,0
99.60833,2000,0,91.24,0.000002697398,0.000002697398,0.000002697398,0.99999994,0,0,0,0,0,0,0.8031496,0,0,0,0,false,false,false,0,105.79,17.01,-0.0033366815,0.0033420762,0.7070959,0.70710176,0,469.231,8.321,-0.00051,0,0
99.61667,2000,0,91.24,0.000002697398,0.000002697398,0.000002697398,0.99999994,0,0,0,0,0,0,0.8031496,0,0,0,0,false,false,false,0,109.7,17.01,-0.0033366815,0.0033420762,0.7070959,0.70710176,0,476.701,8.321,-0.00051,0,0
99.625,2000,0,91.24,0.000002697398,0.000002697398,0.000002697398,0.99999994,0,0,0,0,0,0,0.8031496,0,0,0,0,false,false,false,0,113.67,17.01,-0.0033366815,0.0033420762,0.7070959,0.70710176,0,484.121,8.321,-0.00061,0,0
99.63333,2000,0,91.24,0.000002697398,0.000002697398,0.000002697398,0.99999994,0,0,0,0,0,0,0.8031496,0,0,0,0,false,false,false,0,117.7,17.01,-0.0033366815,0.0033420762,0.7070959,0.70710176,0,491.491,8.321,-0.00061,0,0
99.64167,2000,0,91.24,0.000002697398,0.000002697398,0.000002697398,0.99999994,0,0,0,0,0,0,0.8031496,0,0,0,0,false,false,false,0,121.799995,17.01,-0.0033366815,0.0033420762,0.7070959,0.70710176,0,498.811,8.321,-0.00061,0,0
99.65,2000,0,91.24,0.000002697398,0.000002697398,0.000002697398,0.99999994,0,0,0,0,0,0,0.8031496,0,0,0,0,false,false,false,0,125.96,17.01,-0.0033366815,0.0033420762,0.7070959,0.70710176,0,506.081,8.321,-0.00061,0,0
99.65833,2000,0,91.24,0.000002697398,0.000002697398,0.000002697398,0.99999994,0,0,0,0,0,0,0.8031496,0,0,0,0,false,false,false,0,130.18,17.01,-0.0033366815,0.0033420762,0.7070959,0.70710176,0,513.30096,8.321,-0.00061,0,0
99.666664,2000,0,91.24,0.000002697398,0.000002697398,0.000002697398,0.99999994,0,0,0,0,0,0,0.8031496,0,0,0,0,false,false,false,0,134.45999,17.01,-0.0033366815,0.0033420762,0.7070959,0.70710176,0,520.47095,8.321,-0.00061,0,0
99.675,2000,0,91.24,0.000002697398,0.000002697398,0.000002697398,0.99999994,0,0,0,0,0,0,0.8031496,0,0,0,0,false,false,false,0,138.8,17.01,-0.0033366815,0.0033420762,0.7070959,0.70710176,0,527.59094,8.321,-0.00061,0,0
99.683334,2000,0,91.24,0.000002697398,0.000002697398,0.000002697398,0.99999994,0,0,0,0,0,0,0.8031496,0,0,0,0,false,false,false,0,143.2,17.01,-0.0033366815,0.0033420762,0.7070959,0.70710176,0,534.66095,8.321,-0.00061,0,0
99.691666,2000,0,91.24,0.000002697398,0.000002697398,0.000002697398,0.99999994,0,0,0,0,0,0,0.8031496,0,0,0,0,false,false,false,0,147.66,17.01,-0.0033366815,0.0033420762,0.7070959,0.70710176,0,541.68097,8.321,-0.00061,0,0
99.7,2000,0,91.24,0.000002697398,0.000002697398,0.000002697398,0.99999994,0,0,0,0,0,0,0.8031496,0,0,0,0,false,false,false,0,152.17,17.01,-0.0033366815,0.0033420762,0.7070959,0.70710176,0,548.66095,8.321,-0.00061,0,0
99.708336,2000,0,91.24,0.000002697398,0.000002697398,0.000002697398,0.99999994,0,0,0,0,0,0,0.8031496,0,0,0,0,false,false,false,0,156.73999,17.01,-0.0033366815,0.0033420762,0.7070959,0.70710176,0,555.59094,8.321,-0.00061,0,0
99.71667,2000,0,91.24,0.000002697398,0.000002697398,0.000002697398,0.99999994,0,0,0,0,0,0,0.8031496,0,0,0,0,false,false,false,0,161.37,17.01,-0.0033366815,0.0033420762,0.7070959,0.70710176,0,562.47095,8.321,-0.00061,0,0
99.725,2000,0,91.24,0.000002697398,0.000002697398,0.000002697398,0.99999994,0,0,0,0,0,0,0.8031496,0,0,0,0,false,false,false,0,166.06,17.01,-0.0033366815,0.0033420762,0.7070959,0.70710176,0,569.30096,8.321,-0.00061,0,0
99.73333,2000,0,91.24,0.000002697398,0.000002697398,0.000002697398,0.99999994,0,0,0,0,0,0,0.8031496,0,0,0,0,false,false,false,0,170.8,17.01,-0.0033366815,0.0033420762,0.7070959,0.70710176,0,576.09094,8.321,-0.00061,0,0
99.74167,2000,0,91.24,0.000002697398,0.000002697398,0.000002697398,0.99999994,0,0,0,0,0,0,0.8031496,0,0,0,0,false,false,false,0,175.59999,17.01,-0.0033366815,0.0033420762,0.7070959,0.70710176,0,582.831,8.321,-0.00061,0,0
99.75,2000,0,91.24,0.000002697398,0.000002697398,0.000002697398,0.99999994,0,0,0,0,0,0,0.8031496,0,0,0,0,false,false,false,0,180.45999,17.01,-0.0033366815,0.0033420762,0.7070959,0.70710176,0,589.52094,8.321,-0.00071,0,0
99.75833,2000,0,91.24,0.000002697398,0.000002697398,0.000002697398,0.99999994,0,0,0,0,0,0,0.8031496,0,0,0,0,false,false,false,0,185.37,17.01,-0.0033366815,0.0033420762,0.7070959,0.70710176,0,596.17096,8.321,-0.00071,0,0
99.76667,2000,0,91.24,0.000002697398,0.000002697398,0.000002697398,0.99999994,0,0,0,0,0,0,0.8031496,0,0,0,0,false,false,false,0,190.34,17.01,-0.0033366815,0.0033420762,0.7070959,0.70710176,0,602.77094,8.321,-0.00071,0,0
99.775,2000,0,91.24,0.000002697398,0.000002697398,0.000002697398,0.99999994,0,0,0,0,0,0,0.8031496,0,0,0,0,false,false,false,0,195.36,17.01,-0.0033366815,0.0033420762,0.7070959,0.70710176,0,609.33093,8.321,-0.00071,0,0
99.78333,2000,0,91.24,0.000002697398,0.000002697398,0.000002697398,0.99999994,0,0,0,0,0,0,0.8031496,0,0,0,0,false,false,false,0,200.44,17.01,-0.0033366815,0.0033420762,0.7070959,0.70710176,0,615.84094,8.321,-0.00071,0,0
99.791664,2000,0,91.24,0.000002697398,0.000002697398,0.000002697398,0.99999994,0,0,0,0,0,0,0.8031496,0,0,0,0,false,false,false,0,205.56999,17.01,-0.0033366815,0.0033420762,0.7070959,0.70710176,0,622.311,8.321,-0.00071,0,0
99.8,2000,0,91.24,0.000002697398,0.000002697398,0.000002697398,0.99999994,0,0,0,0,0,0,0.8031496,0,0,0,0,false,false,false,0,210.76,17.01,-0.0033366815,0.0033420762,0.7070959,0.70710176,0,628.73096,8.321,-0.00071,0,0
99.808334,2000,0,91.24,0.000002697398,0.000002697398,0.000002697398,0.99999994,0,0,0,0,0,0,0.8031496,0,0,0,0,false,false,false,0,216,17.01,-0.0033366815,0.0033420762,0.7070959,0.70710176,0,635.11096,8.321,-0.00071,0,0
99.816666,2000,0,91.24,0.000002697398,0.000002697398,0.000002697398,0.99999994,0,0,0,0,0,0,0.8031496,0,0,0,0,false,false,false,0,221.29,17.01,-0.0033366815,0.0033420762,0.7070959,0.70710176,0,641.441,8.321,-0.00071,0,0
99.825,2000,0,91.24,0.000002697398,0.000002697398,0.000002697398,0.99999994,0,0,0,0,0,0,0.8031496,0,0,0,0,false,false,false,0,226.64,17.01,-0.0033366815,0.0033420762,0.7070959,0.70710176,0,647.73096,8.321,-0.00071,0,0
99.833336,2000,0,91.24,0.000002697398,0.000002697398,0.000002697398,0.99999994,0,0,0,0,0,0,0.8031496,0,0,0,0,false,false,false,0,232.04,17.01,-0.0033366815,0.0033420762,0.7070959,0.70710176,0,653.98096,8.321,-0.00071,0,0
99.84167,2000,0,91.24,0.000002697398,0.000002697398,0.000002697398,0.99999994,0,0,0,0,0,0,0.8031496,0,0,0,0,false,false,false,0,237.48999,17.01,-0.0033366815,0.0033420762,0.7070959,0.70710176,0,660.18097,8.321,-0.00071,0,0
99.85,2000,0,91.24,0.000002697398,0.000002697398,0.000002697398,0.99999994,0,0,0,0,0,0,0.8031496,0,0,0,0,false,false,false,0,242.98999,17.01,-0.0033366815,0.0033420762,0.7070959,0.70710176,0,666.34094,8.321,-0.00071,0,0
99.85833,2000,0,91.24,0.000002697398,0.000002697398,0.000002697398,0.99999994,0,0,0,0,0,0,0.8031496,0,0,0,0,false,false,false,0,248.54,17.01,-0.0033366815,0.0033420762,0.7070959,0.70710176,0,672.46094,8.321,-0.00071,0,0
99.86667,2000,0,91.24,0.000002697398,0.000002697398,0.000002697398,0.99999994,0,0,0,0,0,0,0.8031496,0,0,0,0,false,false,false,0,254.14,17.01,-0.0033366815,0.0033420762,0.7070959,0.70710176,0,678.54095,8.321,-0.00071,0,0
99.875,2000,0,91.24,0.000002697398,0.000002697398,0.000002697398,0.99999994,0,0,0,0,0,0,0.8031496,0,0,0,0,false,false,false,0,259.79,17.01,-0.0033366815,0.0033420762,0.7070959,0.70710176,0,684.571,8.321,-0.00071,0,0
99.88333,2000,0,91.24,0.000002697398,0.000002697398,0.000002697398,0.99999994,0,0,0,0,0,0,0.8031496,0,0,0,0,false,false,false,0,265.49,17.01,-0.0033366815,0.0033420762,0.7070959,0.70710176,0,690.561,8.321,-0.00071,0,0
99.89167,2000,0,91.24,0.000002697398,0.000002697398,0.000002697398,0.99999994,0,0,0,0,0,0,0.8031496,0,0,0,0,false,false,false,0,271.24,17.01,-0.0033366815,0.0033420762,0.7070959,0.70710176,0,696.511,8.321,-0.00071,0,0
99.9,2000,0,91.24,0.000002697398,0.000002697398,0.000002697398,0.99999994,0,0,0,0,0,0,0.8031496,0,0,0,0,false,false,false,0,277.04,17.01,-0.0033366815,0.0033420762,0.7070959,0.70710176,0,702.42096,8.321,-0.00081,0,0
99.90833,2000,0,91.24,0.000002697398,0.000002697398,0.000002697398,0.99999994,0,0,0,0,0,0,0.8031496,0,0,0,0,false,false,false,0,282.88998,17.01,-0.0033366815,0.0033420762,0.7070959,0.70710176,0,708.29095,8.321,-0.00081,0,0
99.916664,2000,0,91.24,0.000002697398,0.000002697398,0.000002697398,0.99999994,0,0,0,0,0,0,0.8031496,0,0,0,0,false,false,false,0,288.79,17.01,-0.0033366815,0.0033420762,0.7070959,0.70710176,0,714.121,8.321,-0.00081,0,0
99.925,2000,0,91.24,0.000002697398,0.000002697398,0.000002697398,0.99999994,0,0,0,0,0,0,0.8031496,0,0,0,0,false,false,false,0,294.74,17.01,-0.0033366815,0.0033420762,0.7070959,0.70710176,0,719.91095,8.321,-0.00081,0,0
99.933334,2000,0,91.24,0.000002697398,0.000002697398,0.000002697398,0.99999994,0,0,0,0,0,0,0.8031496,0,0,0,0,false,false,false,0,300.74,17.01,-0.0033366815,0.0033420762,0.7070959,0.70710176,0,725.66095,8.321,-0.00081,0,0
99.941666,2000,0,91.24,0.000002697398,0.000002697398,0.000002697398,0.99999994,0,0,0,0,0,0,0.8031496,0,0,0,0,false,false,false,0,306.78998,17.01,-0.0033366815,0.0033420762,0.7070959,0.70710176,0,731.371,8.321,-0.00081,0,0
99.95,2000,0,91.24,0.000002697398,0.000002697398,0.000002697398,0.99999994,0,0,0,0,0,0,0.8031496,0,0,0,0,false,false,false,0,312.88,17.01,-0.0033366815,0.0033420762,0.7070959,0.70710176,0,737.04095,8.321,-0.00081,0,0
99.958336,2000,0,91.24,0.000002697398,0.000002697398,0.000002697398,0.99999994,0,0,0,0,0,0,0.8031496,0,0,0,0,false,false,false,0,319.02,17.01,-0.0033366815,0.0033420762,0.7070959,0.70710176,0,742.67096,8.321,-0.00081,0,0
99.96667,2000,0,91.24,0.000002697398,0.000002697398,0.000002697398,0.99999994,0,0,0,0,0,0,0.8031496,0,0,0,0,false,false,false,0,325.21,17.01,-0.0033366815,0.0033420762,0.7070959,0.70710176,0,748.261,8.321,-0.00081,0,0
99.975,2000,0,91.24,0.000002697398,0.000002697398,0.000002697398,0.99999994,0,0,0,0,0,0,0.8031496,0,0,0,0,false,false,false,0,331.44998,17.01,-0.0033366815,0.0033420762,0.7070959,0.70710176,0,753.811,8.321,-0.00081,0,0
99.98333,2000,0,91.24,0.000002697398,0.000002697398,0.000002697398,0.99999994,0,0,0,0,0,0,0.8031496,0,0,0,0,false,false,false,0,337.72998,17.01,-0.0033366815,0.0033420762,0.7070959,0.70710176,0,759.33093,8.321,-0.00081,0,0
99.99167,2000,0,91.24,0.000002697398,0.000002697398,0.000002697398,0.99999994,0,0,0,0,0,0,0.8031496,0,0,0,0,false,false,false,0,344.06,17.01,-0.0033366815,0.0033420762,0.7070959,0.70710176,0,764.811,8.321,-0.00081,0,0
100,2000,0,91.24,0.000002697398,0.000002697398,0.000002697398,0.99999994,0,0,0,0,0,0,0.8031496,0,0,0,0,false,false,false,0,350.43,17.01,-0.0033366815,0.0033420762,0.7070959,0.70710176,0,770.251,8.321,-0.00081,0,0
100.00833,2000,0,91.24,0.000002697398,0.000002697398,0.000002697398,0.99999994,0,0,0,0,0,0,0.8031496,0,0,0,0,false,false,false,0,356.85,17.01,-0.0033366815,0.0033420762,0.7070959,0.70710176,0,775.65094,8.321,-0.00081,0,0
100.01667,2000,0,91.24,0.000002697398,0.000002697398,0.000002697398,0.99999994,0,0,0,0,0,0,0.8031496,0,0,0,0,false,false,false,0,363.31,17.01,-0.0033366815,0.0033420762,0.7070959,0.70710176,0,781.02094,8.321,-0.00081,0,0
100.025,2000,0,91.24,0.000002697398,0.000002697398,0.000002697398,0.99999994,0,0,0,0,0,0,0.8031496,0,0,0,0,false,false,false,0,369.81998,17.01,-0.0033366815,0.0033420762,0.7070959,0.70710176,0,786.35095,8.321,-0.00081,0,0
100.03333,2000,0,91.24,0.000002697398,0.000002697398,0.000002697398,0.99999994,0,0,0,0,0,0,0.8031496,0,0,0,0,false,false,false,0,376.37,17.01,-0.0033366815,0.0033420762,0.7070959,0.70710176,0,791.6409,8.321,-0.00081,0,0
100.041664,2000,0,91.24,0.000002697398,0.000002697398,0.000002697398,0.99999994,0,0,0,0,0,0,0.8031496,0,0,0,0,false,false,false,0,382.97,17.01,-0.0033366815,0.0033420762,0.7070959,0.70710176,0,796.90094,8.321,-0.00081,0,0
100.05,2000,0,91.24,0.000002697398,0.000002697398,0.000002697398,0.99999994,0,0,0,0,0,0,0.8031496,0,0,0,0,false,false,false,0,389.61,17.01,-0.0033366815,0.0033420762,0.7070959,0.70710176,0,802.121,8.321,-0.00081,0,0
100.058334,2000,0,91.24,0.000002697398,0.000002697398,0.000002697398,0.99999994,0,0,0,0,0,0,0,1,0,0,0,false,false,true,0,396.28998,17.01,-0.0033366815,0.0033420762,0.7070959,0.70710176,-13.241,798.8909,8.351,-0.0012099999,0.00341,0.36391
100.066666,2000,0,91.24,0.000002697398,0.000002697398,0.000002697398,0.99999994,0,0,0,0,0,0,0,1,0,0,0,false,false,true,-0.11,402.94998,17.01,-0.0033366818,0.003352866,0.70816827,0.7060278,-22.870998,796.501,8.361,-0.0014099999,0.00441,0.62201
100.075,2000,0,91.24,0.000002697398,0.000002697398,0.000002697398,0.99999994,0,0,0,0,0,0,0,1,0,0,0,false,false,true,-0.29999998,409.59,17.01,-0.0033366815,0.0033636554,0.70999753,0.7041881,-31.630999,794.321,8.361,-0.0014099999,0.00461,0.84331
100.083336,2000,0,91.24,0.000002697398,0.000002697398,0.000002697398,0.99999994,0,0,0,0,0,0,0,1,0,0,0,false,false,true,-0.56,416.21,17.01,-0.0033366815,0.00336905,0.7124662,0.7016903,-39.821,792.28094,8.361,-0.00131,0.0043099998,1.03321
100.09167,2000,0,91.24,0.000002697398,0.000002697398,0.000002697398,0.99999994,0,0,0,0,0,0,0,1,0,0,0,false,false,true,-0.89,422.81,17.01,-0.0033420757,0.0033690496,0.71548164,0.69861525,-47.650997,790.34094,8.361,-0.0012099999,0.00361,1.19671
100.1,2000,0,91.24,0.000002697398,0.000002697398,0.000002697398,0.99999994,0,0,0,0,0,0,0,1,0,0,0,false,false,true,-1.29,429.4,17.01,-0.003352866,0.0033690503,0.71895677,0.6950385,-55.271,788.451,8.361,-0.00111,0.00291,1.3378099
100.10833,2000,0,91.24,0.000002697398,0.000002697398,0.000002697398,0.99999994,0,0,0,0,0,0,0,1,0,0,0,false,false,true,-1.75,435.97,17.01,-0.0033636554,0.0033636554,0.72282046,0.69101936,-62.771,786.58093,8.361,-0.0010099999,0.00211,1.4600099
100.11667,2000,0,91.24,0.000002697398,0.000002697398,0.000002697398,0.99999994,0,0,0,0,0,0,0,1,0,0,0,false,false,true,-2.27,442.52,17.01,-0.0033798397,0.0033528658,0.7270085,0.6866118,-70.211,784.701,8.361,-0.00091,0.00131,1.56641
100.125,2000,0,91.24,0.000002697398,0.000002697398,0.000002697398,0.99999994,0,0,0,0,0,0,0,1,0,0,0,false,false,true,-2.86,449.06,17.01,-0.003401419,0.0033366815,0.731473,0.6818536,-77.611,782.79095,8.361,-0.00081,0.00061,1.65941
100.13333,2000,0,91.24,0.000002697398,0.000002697398,0.000002697398,0.99999994,0,0,0,0,0,0,0,1,0,0,0,false,false,true,-3.51,455.58,17.01,-0.0034229984,0.0033151025,0.7361725,0.6767771,-84.980995,780.83093,8.361,-0.00071,0.00010999999,1.74101
100.14167,2000,0,91.24,0.000002697398,0.000002697398,0.000002697398,0.99999994,0,0,0,0,0,0,0,1,0,0,0,false,false,true,-4.22,462.09,17.01,-0.0034499723,0.003293523,0.7410616,0.67142,-92.300995,778.811,8.361,-0.00061,-0.00030999997,1.81291
100.15,2000,0,91.24,0.000002697398,0.000002697398,0.000002697398,0.99999994,0,0,0,0,0,0,0,1,0,0,0,false,false,true,-4.99,468.58,17.01,-0.0034769461,0.003266549,0.74611133,0.66580397,-99.550995,776.72095,8.351,-0.00051,-0.00061,1.87641
100.15833,2000,0,91.24,0.000002697398,0.000002697398,0.000002697398,0.99999994,0,0,0,0,0,0,0,1,0,0,0,false,false,true,-5.8199997,475.05,17.01,-0.00350392,0.003239575,0.7512937,0.6599506,-106.690994,774.571,8.351,-0.00040999998,-0.00081,1.9326099
100.166664,2000,0,91.24,0.000002697398,0.000002697398,0.000002697398,0.99999994,0,0,0,0,0,0,0,1,0,0,0,false,false,true,-6.71,481.5,17.01,-0.0035308942,0.0032126012,0.75658184,0.6538815,-113.681,772.36096,8.351,-0.00030999997,-0.0010099999,1.98241
100.175,2000,0,91.24,0.000002697398,0.000002697398,0.000002697398,0.99999994,0,0,0,0,0,0,0,1,0,0,0,false,false,true,-7.66,487.94,17.01,-0.0035632628,0.0031802324,0.7619592,0.64760727,-120.480995,770.11096,8.351,-0.00030999997,-0.0012099999,2.02661
100.183334,2000,0,91.24,0.000002697398,0.000002697398,0.000002697398,0.99999994,0,0,0,0,0,0,0,1,0,0,0,false,false,true,-8.66,494.36,17.01,-0.0035956316,0.0031478636,0.76740086,0.6411497,-127.041,767.821,8.351,-0.00021,-0.00131,2.06571
100.191666,2000,0,91.24,0.000002697398,0.000002697398,0.000002697398,0.99999994,0,0,0,0,0,0,0,1,0,0,0,false,false,true,-9.719999,500.75998,17.01,-0.0036280004,0.0031154947,0.772892,0.63451946,-133.30101,765.53094,8.351,-0.00010999999,-0.0014099999,2.10021
100.2,2000,0,91.24,0.000002697398,0.000002697398,0.000002697398,0.99999994,0,0,0,0,0,0,0,1,0,0,0,false,false,true,-10.83,507.13998,17.01,-0.0036603692,0.0030777312,0.77841413,0.62773275,-139.211,763.251,8.351,0,-0.0014099999,2.1305099
100.208336,2000,0,91.24,0.000002697398,0.000002697398,0.000002697398,0.99999994,0,0,0,0,0,0,0,1,0,0,0,false,false,true,-11.99,513.5,17.01,-0.0036927382,0.0030399677,0.78395396,0.6208005,-144.701,761.02094,8.341001,0,-0.0014099999,2.15681
100.21667,2000,0,91.24,0.000002697398,0.000002697398,0.000002697398,0.99999994,0,0,0,0,0,0,0,1,0,0,0,false,false,true,-13.2,519.83997,17.01,-0.0037251068,0.003002204,0.78950304,0.61372787,-149.711,758.8909,8.341001,0,-0.0014099999,2.1793098
100.225,2000,0,91.24,0.000002697398,0.000002697398,0.000002697398,0.99999994,0,0,0,0,0,0,0,1,0,0,0,false,false,true,-14.45,526.16,17.01,-0.0037574756,0.0029644405,0.7950453,0.6065311,-154.171,756.8909,8.341001,0,-0.0014099999,2.19831
100.23333,2000,0,91.24,0.000002697398,0.000002697398,0.000002697398,0.99999994,0,0,0,0,0,0,0,1,0,0,0,false,false,true,-15.73,532.47,17.01,-0.0037898442,0.0029266768,0.8005691,0.59922117,-158.021,755.08093,8.341001,0,-0.00131,2.21381
100.24167,2000,0,91.24,0.000002697398,0.000002697398,0.000002697398,0.99999994,0,0,0,0,0,0,0,1,0,0,0,false,false,true,-17.05,538.76,17.01,-0.003822213,0.0028889133,0.8060641,0.5918087,-161.181,753.52094,8.331,0,-0.0012099999,2.22591
100.25,2000,0,91.24,0.000002697398,0.000002697398,0.000002697398,0.99999994,0,0,0,0,0,0,0,1,0,0,0,false,false,true,-18.39,545.04,17.01,-0.0038545814,0.0028511495,0.8115164,0.58430976,-163.58101,752.28094,8.331,0.00010999999,-0.0012099999,2.23471
100.25833,2000,0,91.24,0.000002697398,0.000002697398,0.000002697398,0.99999994,0,0,0,0,0,0,0,1,0,0,0,false,false,true,-19.75,551.31,17.01,-0.0038869507,0.0028133863,0.8169206,0.57673013,-166.08101,750.93097,8.331,0.00021,-0.00111,2.24311
100.26667,2000,0,91.24,0.000002697398,0.000002697398,0.000002697398,0.99999994,0,0,0,0,0,0,0,1,0,0,0,false,false,true,-21.13,557.57,17.01,-0.0039139246,0.0027756225,0.8222753,0.56906956,-168.671,749.47095,8.331,0.00021,-0.0010099999,2.2513099
100.275,2000,0,91.24,0.000002697398,0.000002697398,0.000002697398,0.99999994,0,0,0,0,0,0,0,1,0,0,0,false,false,true,-22.539999,563.82,17.01,-0.003940899,0.0027378593,0.82757586,0.56133336,-171.351,747.91095,8.331,0.00021,-0.00091,2.2592099
100.28333,2000,0,91.24,0.000002697398,0.000002697398,0.000002697398,0.99999994,0,0,0,0,0,0,0,1,0,0,0,false,false,true,-23.97,570.05,17.01,-0.0039678724,0.0027000955,0.83282447,0.55351627,-174.11101,746.23096,8.331,0.00021,-0.00081,2.2669098
100.291664,2000,0,91.24,0.000002697398,0.000002697398,0.000002697398,0.99999994,0,0,0,0,0,0,0,1,0,0,0,false,false,true,-25.42,576.26996,17.01,-0.0039948463,0.0026623318,0.83801645,0.54562366,-176.94101,744.441,8.331,0.00030999997,-0.00081,2.2743099
100.3,2000,0,91.24,0.000002697398,0.000002697398,0.000002697398,0.99999994,0,0,0,0,0,0,0,1,0,0,0,false,false,true,-26.89,582.47,17.01,-0.00402182,0.0026191734,0.8431509,0.5376555,-179.83101,742.54095,8.331,0.00030999997,-0.00081,2.28141
100.308334,2000,0,91.24,0.000002697398,0.000002697398,0.000002697398,0.99999994,0,0,0,0,0,0,0,1,0,0,0,false,false,true,-28.39,588.66,17.01,-0.0040487945,0.0025760152,0.8482231,0.52961725,-182.781,740.52094,8.331,0.00030999997,-0.00071,2.28821
100.316666,2000,0,91.24,0.000002697398,0.000002697398,0.000002697398,0.99999994,0,0,0,0,0,0,0,1,0,0,0,false,false,true,-29.91,594.83,17.01,-0.004075769,0.002532857,0.8532356,0.5215035,-185.781,738.3909,8.331,0.00030999997,-0.00061,2.29481
100.325,2000,0,91.24,0.000002697398,0.000002697398,0.000002697398,0.99999994,0,0,0,0,0,0,0,1,0,0,0,false,false,true,-31.46,600.98,17.01,-0.0041027428,0.0024896986,0.8581841,0.51331955,-188.821,736.1409,8.331,0.00030999997,-0.00051,2.30111
100.333336,2000,0,91.24,0.000002697398,0.000002697398,0.000002697398,0.99999994,0,0,0,0,0,0,0,1,0,0,0,false,false,true,-33.03,607.11,17.01,-0.004129716,0.00244654,0.8630676,0.50506544,-191.891,733.78094,8.331,0.00021,-0.00040999998,2.30711
100.34167,2000,0,91.24,0.000002697398,0.000002697398,0.000002697398,0.99999994,0,0,0,0,0,0,0,1,0,0,0,false,false,true,-34.63,613.22,17.01,-0.00415669,0.0024033815,0.86788225,0.4967466,-194.991,731.30096,8.331,0.00021,-0.00030999997,2.31281
100.35,2000,0,91.24,0.000002697398,0.000002697398,0.000002697398,0.99999994,0,0,0,0,0,0,0,1,0,0,0,false,false,true,-36.25,619.31,17.01,-0.0041782693,0.0023602233,0.8726303,0.4883577,-198.121,728.71094,8.331,0.00021,-0.00021,2.31831
100.35833,2000,0,91.24,0.000002697398,0.000002697398,0.000002697398,0.99999994,0,0,0,0,0,0,0,1,0,0,0,false,false,true,-37.899998,625.38,17.01,-0.0041998485,0.002317065,0.8773078,0.47990406,-201.261,726.001,8.331,0.00010999999,-0.00021,2.32351
100.36667,2000,0,91.24,0.000002697398,0.000002697398,0.000002697398,0.99999994,0,0,0,0,0,0,0,1,0,0,0,false,false,true,-39.579998,631.43,17.01,-0.0042214277,0.0022739065,0.88191414,0.47138557,-204.411,723.18097,8.331,0.00010999999,-0.00021,2.32841
100.375,2000,0,91.24,0.000002697398,0.000002697398,0.000002697398,0.99999994,0,0,0,0,0,0,0,1,0,0,0,false,false,true,-41.28,637.45996,17.01,-0.004243007,0.002230748,0.8864456,0.46280783,-207.561,720.24097,8.331,0,-0.00021,2.33301
100.38333,2000,0,91.24,0.000002697398,0.000002697398,0.000002697398,0.99999994,0,0,0,0,0,0,0,1,0,0,0,false,false,true,-43.01,643.45996,17.01,-0.004264586,0.0021875896,0.8909017,0.45417076,-210.711,717.191,8.331,0,-0.00021,2.3373098
100.39167,2000,0,91.24,0.000002697398,0.000002697398,0.000002697398,0.99999994,0,0,0,0,0,0,0,1,0,0,0,false,false,true,-44.77,649.44,17.01,-0.0042861653,0.0021444315,0.89528185,0.44547427,-213.851,714.03094,8.331,0,-0.00021,2.34131
100.4,2000,0,91.24,0.000002697398,0.000002697398,0.000002697398,0.99999994,0,0,0,0,0,0,0,1,0,0,0,false,false,true,-46.55,655.39,17.01,-0.0043077446,0.002101273,0.89958537,0.43671852,-216.981,710.761,8.331,0,-0.00010999999,2.34501
100.40833,2000,0,91.24,0.000002697398,0.000002697398,0.000002697398,0.99999994,0,0,0,0,0,0,0,1,0,0,0,false,false,true,-48.36,661.31,17.01,-0.0043293233,0.0020581144,0.9038091,0.4279087,-220.091,707.391,8.331,0,-0.00010999999,2.34841
100.416664,2000,0,91.24,0.000002697398,0.000002697398,0.000002697398,0.99999994,0,0,0,0,0,0,0,1,0,0,0,false,false,true,-50.19,667.2,17.01,-0.0043509034,0.0020149564,0.9079527,0.41904512,-223.171,703.91095,8.331,0,-0.00010999999,2.35141
100.425,2000,0,91.24,0.000002697398,0.000002697398,0.000002697398,0.99999994,0,0,0,0,0,0,0,1,0,0,0,false,false,true,-52.05,673.07,17.01,-0.0043724817,0.0019717976,0.91201544,0.41012746,-226.22101,700.33093,8.331,0,-0.00010999999,2.35411
100.433334,2000,0,91.24,0.000002697398,0.000002697398,0.000002697398,0.99999994,0,0,0,0,0,0,0,1,0,0,0,false,false,true,-53.94,678.91,17.01,-0.0043940614,0.0019286396,0.9159948,0.40116125,-229.231,696.65094,8.331,0,0,2.35651
100.441666,2000,0,91.24,0.000002697398,0.000002697398,0.000002697398,0.99999994,0,0,0,0,0,0,0,1,0,0,0,false,false,true,-55.85,684.72,17.01,-0.004410245,0.0018854811,0.9198901,0.39214653,-232.201,692.871,8.331,0,0,2.35861
100.45,2000,0,91.24,0.000002697398,0.000002697398,0.000002697398,0.99999994,0,0,0,0,0,0,0,1,0,0,0,false,false,true,-57.789997,690.49,17.01,-0.00442643,0.0018423229,0.9236991,0.3830886,-235.131,689.001,8.331,0,0,2.3603098
100.458336,2000,0,91.24,0.000002697398,0.000002697398,0.000002697398,0.99999994,0,0,0,0,0,0,0,1,0,0,0,false,false,true,-59.75,696.23,17.01,-0.0044426145,0.0017991646,0.9274213,0.3739876,-238.011,685.04095,8.331,0,0,2.36171
100.46667,2000,0,91.24,0.000002697398,0.000002697398,0.000002697398,0.99999994,0,0,0,0,0,0,0,1,0,0,0,false,false,true,-61.73,701.94,17.01,-0.0044587995,0.0017560063,0.9310565,0.36484343,-240.83101,680.99097,8.331,0,0,2.36281
100.475,2000,0,91.24,0.000002697398,0.000002697398,0.000002697398,0.99999994,0,0,0,0,0,0,0,1,0,0,0,false,false,true,-63.739998,707.61,17.01,-0.004474983,0.0017128477,0.93460256,0.35566136,-243.591,676.86096,8.331,0,0,2.36351
100.48333,2000,0,91.24,0.000002697398,0.000002697398,0.000002697398,0.99999994,0,0,0,0,0,0,0,1,0,0,0,false,false,true,-65.77,713.25,17.01,-0.004491168,0.0016696895,0.9380593,0.3464417,-246.291,672.65094,8.331,0,0,2.36391
100.49167,2000,0,91.24,0.000002697398,0.000002697398,0.000002697398,0.99999994,0,0,0,0,0,0,0,1,0,0,0,false,false,true,-67.82,718.86,17.01,-0.0045073526,0.0016265311,0.9414265,0.33718413,-248.921,668.36096,8.331,0,-0.00010999999,2.36391
100.5,2000,0,91.24,0.000002697398,0.000002697398,0.000002697398,0.99999994,0,0,0,0,0,0,0,1,0,0,0,false,false,true,-69.89,724.43,17.01,-0.004523536,0.0015833727,0.9447022,0.32789427,-251.481,664.001,8.331,0,-0.00010999999,2.36361
100.50833,2000,0,91.24,0.000002697398,0.000002697398,0.000002697398,0.99999994,0,0,0,0,0,0,0,1,0,0,0,false,false,true,-71.99,729.95996,17.01,-0.0045397207,0.0015402143,0.9478847,0.31857738,-253.961,659.571,8.331,0,-0.00010999999,2.36291
100.51667,2000,0,91.24,0.000002697398,0.000002697398,0.000002697398,0.99999994,0,0,0,0,0,0,0,1,0,0,0,false,false,true,-74.11,735.45996,17.01,-0.0045559052,0.0014970559,0.9509757,0.30922818,-256.361,655.08093,8.331,0,-0.00010999999,2.3619099
100.525,2000,0,91.24,0.000002697398,0.000002697398,0.000002697398,0.99999994,0,0,0,0,0,0,0,1,0,0,0,false,false,true,-76.25,740.92,17.01,-0.0045720898,0.0014538976,0.9539736,0.29985204,-258.681,650.53094,8.331,0.00010999999,-0.00010999999,2.3605099
100.53333,2000,0,91.24,0.000002697398,0.000002697398,0.000002697398,0.99999994,0,0,0,0,0,0,0,1,0,0,0,false,false,true,-78.409996,746.33997,17.01,-0.0045882734,0.001410739,0.9568767,0.29045418,-260.921,645.93097,8.331,0.00010999999,-0.00010999999,2.35881
100.541664,2000,0,91.24,0.000002697398,0.000002697398,0.000002697398,0.99999994,0,0,0,0,0,0,0,1,0,0,0,false,false,true,-80.58,751.72,17.01,-0.004604459,0.001367581,0.9596855,0.28103492,-263.071,641.27094,8.331,0.00021,-0.00010999999,2.35671
100.55,2000,0,91.24,0.000002697398,0.000002697398,0.000002697398,0.99999994,0,0,0,0,0,0,0,1,0,0,0,false,false,true,-82.77,757.06,17.01,-0.0046152477,0.0013190275,0.9623983,0.2715993,-265.131,636.571,8.331,0.00030999997,-0.00010999999,2.35421
100.558334,2000,0,91.24,0.000002697398,0.000002697398,0.000002697398,0.99999994,0,0,0,0,0,0,0,1,0,0,0,false,false,true,-84.979996,762.36,17.01,-0.0046260376,0.0012704745,0.96501577,0.26214764,-267.101,631.83093,8.331,0.00030999997,-0.00010999999,2.35131
100.566666,2000,0,91.24,0.000002697398,0.000002697398,0.000002697398,0.99999994,0,0,0,0,0,0,0,1,0,0,0,false,false,true,-87.21,767.63,17.01,-0.0046368274,0.0012219214,0.96753806,0.2526797,-268.971,627.05096,8.331,0.00030999997,-0.00010999999,2.34811
100.575,2000,0,91.24,0.000002697398,0.000002697398,0.000002697398,0.99999994,0,0,0,0,0,0,0,1,0,0,0,false,false,true,-89.45,772.86,17.01,-0.0046476168,0.0011733681,0.969964,0.24320103,-270.751,622.24097,8.331,0.00021,-0.00010999999,2.3445098
100.583336,2000,0,91.24,0.000002697398,0.000002697398,0.000002697398,0.99999994,0,0,0,0,0,0,0,1,0,0,0,false,false,true,-91.71,778.05,17.01,-0.0046584066,0.0011248151,0.97229415,0.2337116,-272.431,617.40094,8.331,0.00021,-0.00010999999,2.34051
100.59167,2000,0,91.24,0.000002697398,0.000002697398,0.000002697398,0.99999994,0,0,0,0,0,0,0,1,0,0,0,false,false,true,-93.979996,783.2,17.01,-0.004669196,0.0010762617,0.9745275,0.22421667,-274.021,612.54095,8.331,0.00010999999,-0.00010999999,2.3361099
100.6,2000,0,91.24,0.000002697398,0.000002697398,0.000002697398,0.99999994,0,0,0,0,0,0,0,1,0,0,0,false,false,true,-96.259995,788.3,17.01,-0.004679985,0.0010277085,0.97666335,0.2147218,-275.511,607.67096,8.331,0,-0.00010999999,2.33131
100.60833,2000,0,91.24,0.000002697398,0.000002697398,0.000002697398,0.99999994,0,0,0,0,0,0,0,1,0,0,0,false,false,true,-98.56,793.36,17.01,-0.0046907747,0.0009845501,0.97870255,0.20522688,-276.901,602.78094,8.331,0,-0.00010999999,2.32611
100.61667,2000,0,91.24,0.000002697398,0.000002697398,0.000002697398,0.99999994,0,0,0,0,0,0,0,1,0,0,0,false,false,true,-100.869995,798.38,17.01,-0.0047015646,0.0009413919,0.9806456,0.19573206,-278.191,597.891,8.331,0,-0.00010999999,2.32061
100.625,2000,0,91.24,0.000002697398,0.000002697398,0.000002697398,0.99999994,0,0,0,0,0,0,0,1,0,0,0,false,false,true,-103.189995,803.36,17.01,-0.0047123544,0.00089823356,0.982492,0.18624252,-279.381,592.99097,8.331,0,-0.00010999999,2.31471
100.63333,2000,0,91.24,0.000002697398,0.000002697398,0.000002697398,0.99999994,0,0,0,0,0,0,0,1,0,0,0,false,false,true,-105.52,808.3,17.01,-0.0047231438,0.0008550752,0.9842425,0.17675847,-280.471,588.10095,8.331,0,0,2.30841
100.64167,2000,0,91.24,0.000002697398,0.000002697398,0.000002697398,0.99999994,0,0,0,0,0,0,0,1,0,0,0,false,false,true,-107.86,813.2,17.01,-0.0047285384,0.00081191683,0.9858968,0.1672852,-281.461,583.21094,8.331,0.00010999999,0,2.30171
100.65,2000,0,91.24,0.000002697398,0.000002697398,0.000002697398,0.99999994,0,0,0,0,0,0,0,1,0,0,0,false,false,true,-110.21,818.06,17.01,-0.004733934,0.00076875853,0.9874558,0.15782267,-282.361,578.34094,8.331,0.00021,0,2.29461
100.65833,2000,0,91.24,0.000002697398,0.000002697398,0.000002697398,0.99999994,0,0,0,0,0,0,0,1,0,0,0,false,false,true,-112.56,822.88,17.01,-0.0047393283,0.00072020525,0.98891926,0.14837636,-283.161,573.48096,8.331,0.00021,0,2.2871099
100.666664,2000,0,91.24,0.000002697398,0.000002697398,0.000002697398,0.99999994,0,0,0,0,0,0,0,1,0,0,0,false,false,true,-114.92,827.66,17.01,-0.0047447234,0.00067165215,0.9902883,0.13894619,-283.861,568.641,8.331,0.00021,0,2.2792099
100.675,2000,0,91.24,0.000002697398,0.000002697398,0.000002697398,0.99999994,0,0,0,0,0,0,0,1,0,0,0,false,false,true,-117.29,832.39996,17.01,-0.004750118,0.000623099,0.9915629,0.12953766,-284.471,563.831,8.331,0.00021,0,2.27081
100.683334,2000,0,91.24,0.000002697398,0.000002697398,0.000002697398,0.99999994,0,0,0,0,0,0,0,1,0,0,0,false,false,true,-119.659996,837.1,17.01,-0.0047555133,0.0005799406,0.9927441,0.12015063,-284.981,559.05096,8.331,0.00021,-0.00010999999,2.2620099
100.691666,2000,0,91.24,0.000002697398,0.000002697398,0.000002697398,0.99999994,0,0,0,0,0,0,0,1,0,0,0,false,false,true,-122.03,841.76,17.01,-0.0047609075,0.0005367822,0.9938322,0.110790655,-285.401,554.30096,8.331,0.00021,-0.00010999999,2.25281
100.7,2000,0,91.24,0.000002697398,0.000002697398,0.000002697398,0.99999994,0,0,0,0,0,0,0,1,0,0,0,false,false,true,-124.409996,846.38,17.01,-0.004766302,0.00049362384,0.9948283,0.101457655,-285.731,549.59094,8.331,0.00021,-0.00010999999,2.2432098
100.708336,2000,0,91.24,0.000002697398,0.000002697398,0.000002697398,0.99999994,0,0,0,0,0,0,0,1,0,0,0,false,false,true,-126.79,850.95996,17.01,-0.0047716973,0.0004504655,0.99573296,0.09215695,-285.971,544.93097,8.331,0.00021,-0.00010999999,2.2332098
100.71667,2000,0,91.24,0.000002697398,0.000002697398,0.000002697398,0.99999994,0,0,0,0,0,0,0,1,0,0,0,false,false,true,-129.17,855.5,17.01,-0.004777092,0.00040730712,0.9965472,0.08288868,-286.121,540.311,8.331,0.00021,-0.00010999999,2.22281
100.725,2000,0,91.24,0.000002697398,0.000002697398,0.000002697398,0.99999994,0,0,0,0,0,0,0,1,0,0,0,false,false,true,-131.55,860,17.01,-0.0047824867,0.00036414873,0.99727196,0.0736581,-286.191,535.74097,8.331,0.00030999997,-0.00010999999,2.21191
100.73333,2000,0,91.24,0.000002697398,0.000002697398,0.000002697398,0.99999994,0,0,0,0,0,0,0,1,0,0,0,false,false,true,-133.93,864.45996,17.01,-0.004787882,0.0003209904,0.9979084,0.064465374,-286.181,531.23096,8.331,0.00030999997,-0.00010999999,2.20061
100.74167,2000,0,91.24,0.000002697398,0.000002697398,0.000002697398,0.99999994,0,0,0,0,0,0,0,1,0,0,0,false,false,true,-136.31,868.88995,17.01,-0.004793276,0.000277832,0.9984576,0.055310402,-286.091,526.78094,8.331,0.00040999998,0,2.18891
100.75,2000,0,91.24,0.000002697398,0.000002697398,0.000002697398,0.99999994,0,0,0,0,0,0,0,1,0,0,0,false,false,true,-138.69,873.27997,17.01,-0.004793276,0.00023467363,0.99892044,0.0462039,-285.921,522.391,8.331,0.00040999998,0,2.17671
100.75833,2000,0,91.24,0.000002697398,0.000002697398,0.000002697398,0.99999994,0,0,0,0,0,0,0,1,0,0,0,false,false,true,-141.06999,877.63,17.01,-0.0047932765,0.00019151528,0.9992985,0.037140645,-285.681,518.071,8.331,0.00040999998,0,2.16411
100.76667,2000,0,91.24,0.000002697398,0.000002697398,0.000002697398,0.99999994,0,0,0,0,0,0,0,1,0,0,0,false,false,true,-143.45,881.94995,17.01,-0.004793276,0.00014835689,0.99959284,0.028125854,-285.371,513.811,8.331,0.00040999998,0,2.15111
100.775,2000,0,91.24,0.000002697398,0.000002697398,0.000002697398,0.99999994,0,0,0,0,0,0,0,1,0,0,0,false,false,true,-145.83,886.23,17.01,-0.0047932756,0.00010519851,0.9998047,0.019165095,-284.991,509.63098,8.331,0.00040999998,0,2.13761
100.78333,2000,0,91.24,0.000002697398,0.000002697398,0.000002697398,0.99999994,0,0,0,0,0,0,0,1,0,0,0,false,false,true,-148.2,890.48,17.01,-0.0047932756,0.00006204015,0.99993575,0.010258203,-284.551,505.521,8.331,0.00040999998,0,2.12371
100.791664,2000,0,91.24,0.000002697398,0.000002697398,0.000002697398,0.99999994,0,0,0,0,0,0,0,1,0,0,0,false,false,true,-150.56999,894.69,17.01,-0.004793276,0.000018881787,0.9999875,0.0014107391,-284.051,501.491,8.331,0.00040999998,0,2.10931
100.8,2000,0,91.24,0.000002697398,0.000002697398,0.000002697398,0.99999994,0,0,0,0,0,0,0,1,0,0,0,false,false,true,-152.94,898.87,17.01,-0.004793276,-0.000024276582,0.99996126,-0.007377426,-283.491,497.541,8.331,0.00040999998,0,2.09441
100.808334,2000,0,91.24,0.000002697398,0.000002697398,0.000002697398,0.99999994,0,0,0,0,0,0,0,1,0,0,0,false,false,true,-155.3,903.01996,17.01,-0.0047932756,-0.00006743494,0.99985874,-0.016100809,-282.881,493.671,8.331,0.00040999998,0,2.07911
100.816666,2000,0,91.24,0.000002697398,0.000002697398,0.000002697398,0.99999994,0,0,0,0,0,0,0,1,0,0,0,false,false,true,-157.66,907.13,17.01,-0.004793276,-0.00011059332,0.9996819,-0.024759501,-282.221,489.88098,8.331,0.00040999998,0,2.06331
100.825,2000,0,91.24,0.000002697398,0.000002697398,0.000002697398,0.99999994,0,0,0,0,0,0,0,1,0,0,0,false,false,true,-160.01,911.20996,17.01,-0.004793276,-0.00015375168,0.9994321,-0.03335345,-281.521,486.181,8.331,0.00040999998,0,2.04701
100.833336,2000,0,91.24,0.000002697398,0.000002697398,0.000002697398,0.99999994,0,0,0,0,0,0,0,1,0,0,0,false,false,true,-162.36,915.26,17.01,-0.0047932765,-0.00019691007,0.99911124,-0.041877277,-280.771,482.57098,8.331,0.00040999998,0,2.03021
100.84167,2000,0,91.24,0.000002697398,0.000002697398,0.000002697398,0.99999994,0,0,0,0,0,0,0,1,0,0,0,false,false,true,-164.7,919.27997,17.01,-0.004793276,-0.00024006843,0.9987213,-0.050325565,-279.991,479.051,8.331,0.00040999998,0,2.01291
100.85,2000,0,91.24,0.000002697398,0.000002697398,0.000002697398,0.99999994,0,0,0,0,0,0,0,1,0,0,0,false,false,true,-167.03,923.26996,17.01,-0.0047932756,-0.00028322675,0.9982641,-0.05869828,-279.171,475.621,8.331,0.00040999998,0,1.9951099
100.85833,2000,0,91.24,0.000002697398,0.000002697398,0.000002697398,0.99999994,0,0,0,0,0,0,0,1,0,0,0,false,false,true,-169.36,927.23,17.01,-0.004793276,-0.00032638517,0.99774164,-0.066995524,-278.321,472.291,8.331,0.00040999998,0,1.97671
100.86667,2000,0,91.24,0.000002697398,0.000002697398,0.000002697398,0.99999994,0,0,0,0,0,0,0,1,0,0,0,false,false,true,-171.68,931.17,17.01,-0.0047878814,-0.00036954353,0.99715596,-0.075211845,-277.451,469.051,8.331,0.00030999997,0,1.9578099
100.875,2000,0,91.24,0.000002697398,0.000002697398,0.000002697398,0.99999994,0,0,0,0,0,0,0,1,0,0,0,false,false,true,-173.98999,935.07996,17.01,-0.004782487,-0.00040730715,0.99650943,-0.08334185,-276.54102,465.891,8.331,0.00021,0,1.9392099
100.88333,2000,0,91.24,0.000002697398,0.000002697398,0.000002697398,0.99999994,0,0,0,0,0,0,0,1,0,0,0,false,false,true,-176.29,938.95996,17.01,-0.0047770925,-0.0004450707,0.99580353,-0.091390885,-275.591,462.791,8.331,0.00021,0,1.92141
100.89167,2000,0,91.24,0.000002697398,0.000002697398,0.000002697398,0.99999994,0,0,0,0,0,0,0,1,0,0,0,false,false,true,-178.59,942.82,17.01,-0.0047716964,-0.0004828342,0.99503994,-0.09935903,-274.601,459.751,8.331,0.00021,0,1.90431
100.9,2000,0,91.24,0.000002697398,0.000002697398,0.000002697398,0.99999994,0,0,0,0,0,0,0,1,0,0,0,false,false,true,-180.87999,946.64996,17.01,-0.0047663026,-0.00052059785,0.9942203,-0.107251674,-273.581,456.781,8.331,0.00021,0,1.88791
100.90833,2000,0,91.24,0.000002697398,0.000002697398,0.000002697398,0.99999994,0,0,0,0,0,0,0,1,0,0,0,false,false,true,-183.15999,950.45996,17.01,-0.0047609075,-0.00055836135,0.9933459,-0.115068726,-272.531,453.881,8.331,0.00021,0,1.87211
100.916664,2000,0,91.24,0.000002697398,0.000002697398,0.000002697398,0.99999994,0,0,0,0,0,0,0,1,0,0,0,false,false,true,-185.43,954.24,17.01,-0.0047555133,-0.000596125,0.99241793,-0.122815706,-271.451,451.051,8.331,0.00021,0,1.85701
100.925,2000,0,91.24,0.000002697398,0.000002697398,0.000002697398,0.99999994,0,0,0,0,0,0,0,1,0,0,0,false,false,true,-187.69,958,17.01,-0.004750118,-0.0006338886,0.9914377,-0.13049254,-270.351,448.291,8.331,0.00021,0,1.84251
100.933334,2000,0,91.24,0.000002697398,0.000002697398,0.000002697398,0.99999994,0,0,0,0,0,0,0,1,0,0,0,false,false,true,-189.94,961.74,17.01,-0.0047447234,-0.00067165215,0.99040675,-0.13809921,-269.231,445.60098,8.331,0.00021,0,1.82861
100.941666,2000,0,91.24,0.000002697398,0.000002697398,0.000002697398,0.99999994,0,0,0,0,0,0,0,1,0,0,0,false,false,true,-192.18,965.44995,17.01,-0.0047393283,-0.0007094157,0.9893258,-0.14564116,-268.091,442.991,8.331,0.00010999999,0,1.81521
100.95,2000,0,91.24,0.000002697398,0.000002697398,0.000002697398,0.99999994,0,0,0,0,0,0,0,1,0,0,0,false,false,true,-194.40999,969.13995,17.01,-0.0047339336,-0.00074717926,0.9881962,-0.15311839,-266.941,440.461,8.331,0.00010999999,0,1.80241
100.958336,2000,0,91.24,0.000002697398,0.000002697398,0.000002697398,0.99999994,0,0,0,0,0,0,0,1,0,0,0,false,false,true,-196.62999,972.81,17.01,-0.004728539,-0.0007849429,0.9870183,-0.16053629,-265.781,438.001,8.331,0,0,1.79011
100.96667,2000,0,91.24,0.000002697398,0.000002697398,0.000002697398,0.99999994,0,0,0,0,0,0,0,1,0,0,0,false,false,true,-198.84,976.45996,17.01,-0.0047231433,-0.0008227063,0.9857931,-0.16789477,-264.591,435.60098,8.331,0,0,1.7789099
100.975,2000,0,91.24,0.000002697398,0.000002697398,0.000002697398,0.99999994,0,0,0,0,0,0,0,1,0,0,0,false,false,true,-201.04,980.08997,17.01,-0.0047177486,-0.0008550751,0.98452115,-0.17519936,-263.361,433.241,8.331,0,0,1.76941
100.98333,2000,0,91.24,0.000002697398,0.000002697398,0.000002697398,0.99999994,0,0,0,0,0,0,0,1,0,0,0,false,false,true,-203.23,983.69995,17.01,-0.004712354,-0.00088744384,0.9832023,-0.1824554,-262.091,430.921,8.331,0,0,1.76151
100.99167,2000,0,91.24,0.000002697398,0.000002697398,0.000002697398,0.99999994,0,0,0,0,0,0,0,1,0,0,0,false,false,true,-205.40999,987.29,17.01,-0.00470696,-0.0009198128,0.9818365,-0.18966827,-260.781,428.641,8.331,0,0,1.7552099
101,2000,0,91.24,0.000002697398,0.000002697398,0.000002697398,0.99999994,0,0,0,0,0,0,0,1,0,0,0,false,false,true,-207.58,990.86,17.01,-0.0047015646,-0.0009521815,0.98042315,-0.19684339,-259.441,426.411,8.331,0,0,1.75041
101.00833,2000,0,91.24,0.000002697398,0.000002697398,0.000002697398,0.99999994,0,0,0,0,0,0,0,1,0,0,0,false,false,true,-209.73999,994.41,17.01,-0.00469617,-0.0009845502,0.97896194,-0.2039861,-258.071,424.231,8.331,0,0,1.74721
101.01667,2000,0,91.24,0.000002697398,0.000002697398,0.000002697398,0.99999994,0,0,0,0,0,0,0,1,0,0,0,false,false,true,-211.89,997.94995,17.01,-0.0046907747,-0.0010169189,0.97745097,-0.21110724,-256.671,422.10098,8.331,0,0,1.74551
101.025,2000,0,91.24,0.000002697398,0.000002697398,0.000002697398,0.99999994,0,0,0,0,0,0,0,1,0,0,0,false,false,true,-214.03,1001.47,17.01,-0.00468538,-0.0010492877,0.9758894,-0.21821223,-255.241,420.021,8.331,0,0,1.7452099
101.03333,2000,0,91.24,0.000002697398,0.000002697398,0.000002697398,0.99999994,0,0,0,0,0,0,0,1,0,0,0,false,false,true,-216.15999,1004.97,17.01,-0.0046799853,-0.0010816565,0.9742773,-0.22530101,-253.791,418.001,8.331,0,0,1.74641
101.041664,2000,0,91.24,0.000002697398,0.000002697398,0.000002697398,0.99999994,0,0,0,0,0,0,0,1,0,0,0,false,false,true,-218.26999,1008.44995,17.01,-0.0046745907,-0.0011140254,0.9726121,-0.23238443,-252.301,415.991,8.331,0,0,1.7481099
101.05,2000,0,91.24,0.000002697398,0.000002697398,0.000002697398,0.99999994,0,0,0,0,0,0,0,1,0,0,0,false,false,true,-220.37,1011.92,17.01,-0.0046638013,-0.0011463942,0.9708937,-0.23946245,-250.771,413.991,8.331,0,0,1.7501099
101.058334,2000,0,91.24,0.000002697398,0.000002697398,0.000002697398,0.99999994,0,0,0,0,0,0,0,1,0,0,0,false,false,true,-222.45999,1015.37,17.01,-0.0046530114,-0.0011787629,0.96912193,-0.24653502,-249.191,412.001,8.331,0,0,1.7524099
101.066666,2000,0,91.24,0.000002697398,0.000002697398,0.000002697398,0.99999994,0,0,0,0,0,0,0,1,0,0,0,false,false,true,-224.54,1018.8,17.01,-0.0046422225,-0.0012111318,0.96729666,-0.25360227,-247.571,410.031,8.331,0,0,1.75501
101.075,2000,0,91.24,0.000002697398,0.000002697398,0.000002697398,0.99999994,0,0,0,0,0,0,0,1,0,0,0,false,false,true,-226.59999,1022.22,17.01,-0.0046314322,-0.0012435005,0.96541613,-0.26066947,-245.921,408.081,8.331,0,0,1.75791
101.083336,2000,0,91.24,0.000002697398,0.000002697398,0.000002697398,0.99999994,0,0,0,0,0,0,0,1,0,0,0,false,false,true,-228.65,1025.62,17.01,-0.0046206424,-0.0012758691,0.96348155,-0.26773122,-244.231,406.151,8.331,0,0,1.76111
101.09167,2000,0,91.24,0.000002697398,0.000002697398,0.000002697398,0.99999994,0,0,0,0,0,0,0,1,0,0,0,false,false,true,-230.69,1029,17.01,-0.0046098535,-0.0013082381,0.9614914,-0.27479312,-242.511,404.241,8.331,0,0,1.7646099
101.1,2000,0,91.24,0.000002697398,0.000002697398,0.000002697398,0.99999994,0,0,0,0,0,0,0,1,0,0,0,false,false,true,-232.70999,1032.37,17.01,-0.0045990637,-0.0013406068,0.959445,-0.2818549,-240.761,402.351,8.331,0,0,1.76831
101.10833,2000,0,91.24,0.000002697398,0.000002697398,0.000002697398,0.99999994,0,0,0,0,0,0,0,1,0,0,0,false,false,true,-234.72,1035.72,17.01,-0.0045882743,-0.0013729758,0.9573422,-0.28891674,-238.981,400.491,8.331,0,0,1.77231
101.11667,2000,0,91.24,0.000002697398,0.000002697398,0.000002697398,0.99999994,0,0,0,0,0,0,0,1,0,0,0,false,false,true,-236.70999,1039.0599,17.01,-0.004577484,-0.0014053442,0.95518243,-0.2959785,-237.171,398.661,8.331,0,0,1.77651
101.125,2000,0,91.24,0.000002697398,0.000002697398,0.000002697398,0.99999994,0,0,0,0,0,0,0,1,0,0,0,false,false,true,-238.68999,1042.38,17.01,-0.0045666946,-0.0014377132,0.9529656,-0.30304033,-235.341,396.871,8.331,0.00010999999,0,1.78091
101.13333,2000,0,91.24,0.000002697398,0.000002697398,0.000002697398,0.99999994,0,0,0,0,0,0,0,1,0,0,0,false,false,true,-240.65,1045.69,17.01,-0.0045559052,-0.001470082,0.95069116,-0.31010213,-233.491,395.111,8.331,0.00010999999,0,1.78551
101.14167,2000,0,91.24,0.000002697398,0.000002697398,0.000002697398,0.99999994,0,0,0,0,0,0,0,1,0,0,0,false,false,true,-242.59999,1048.98,17.01,-0.004545116,-0.0015024508,0.9483586,-0.317164,-231.621,393.391,8.331,0.00010999999,0,1.7904099
101.15,2000,0,91.24,0.000002697398,0.000002697398,0.000002697398,0.99999994,0,0,0,0,0,0,0,1,0,0,0,false,false,true,-244.53,1052.26,17.01,-0.0045343265,-0.0015348196,0.94596577,-0.32423118,-229.741,391.711,8.331,0.00021,0,1.7955099
101.15833,2000,0,91.24,0.000002697398,0.000002697398,0.000002697398,0.99999994,0,0,0,0,0,0,0,1,0,0,0,false,false,true,-246.43999,1055.52,17.01,-0.0045235357,-0.0015671882,0.94351375,-0.33129835,-227.821,390.031,8.331,0.00021,0,1.80011
101.166664,2000,0,91.24,0.000002697398,0.000002697398,0.000002697398,0.99999994,0,0,0,0,0,0,0,1,0,0,0,false,false,true,-248.34,1058.77,17.01,-0.004512747,-0.001599557,0.9410025,-0.3383656,-225.851,388.351,8.331,0.00021,0,1.80391
101.175,2000,0,91.24,0.000002697398,0.000002697398,0.000002697398,0.99999994,0,0,0,0,0,0,0,1,0,0,0,false,false,true,-250.22,1062.01,17.01,-0.004501958,-0.0016319259,0.93843323,-0.34542742,-223.841,386.681,8.331,0.00030999997,0,1.8069099
101.183334,2000,0,91.24,0.000002697398,0.000002697398,0.000002697398,0.99999994,0,0,0,0,0,0,0,1,0,0,0,false,false,true,-252.09,1065.23,17.01,-0.004491167,-0.0016642944,0.9358055,-0.3524838,-221.781,385.011,8.331,0.00030999997,0,1.8091099
101.191666,2000,0,91.24,0.000002697398,0.000002697398,0.000002697398,0.99999994,0,0,0,0,0,0,0,1,0,0,0,false,false,true,-253.93999,1068.44,17.01,-0.0044803782,-0.0016966634,0.9331214,-0.35952944,-219.681,383.351,8.331,0.00030999997,0,1.8105099
101.2,2000,0,91.24,0.000002697398,0.000002697398,0.000002697398,0.99999994,0,0,0,0,0,0,0,1,0,0,0,false,false,true,-255.76999,1071.63,17.01,-0.004469589,-0.0017290323,0.9303825,-0.36655894,-217.541,381.701,8.331,0.00030999997,0.00010999999,1.8112099
101.208336,2000,0,91.24,0.000002697398,0.000002697398,0.000002697398,0.99999994,0,0,0,0,0,0,0,1,0,0,0,false,false,true,-257.58,1074.8099,17.01,-0.004458799,-0.001761401,0.92758864,-0.37357217,-215.371,380.061,8.331,0.00040999998,0.00021,1.81111
101.21667,2000,0,91.24,0.000002697398,0.000002697398,0.000002697398,0.99999994,0,0,0,0,0,0,0,1,0,0,0,false,false,true,-259.37,1077.98,17.01,-0.0044426145,-0.0017991646,0.92474216,-0.38056383,-213.161,378.441,8.331,0.00040999998,0.00030999997,1.81021
101.225,2000,0,91.24,0.000002697398,0.000002697398,0.000002697398,0.99999994,0,0,0,0,0,0,0,1,0,0,0,false,false,true,-261.15,1081.13,17.01,-0.0044264304,-0.0018369282,0.9218452,-0.3875286,-210.921,376.841,8.331,0.00040999998,0.00030999997,1.80861
101.23333,2000,0,91.24,0.000002697398,0.000002697398,0.000002697398,0.99999994,0,0,0,0,0,0,0,1,0,0,0,false,false,true,-262.91,1084.27,17.01,-0.0044102455,-0.0018746917,0.91889787,-0.3944663,-208.651,375.261,8.331,0.00040999998,0.00030999997,1.8063099
101.24167,2000,0,91.24,0.000002697398,0.000002697398,0.000002697398,0.99999994,0,0,0,0,0,0,0,1,0,0,0,false,false,true,-264.65,1087.4,17.01,-0.0043940614,-0.0019124552,0.9159027,-0.40137166,-206.351,373.701,8.331,0.00040999998,0.00021,1.80321
101.25,2000,0,91.24,0.000002697398,0.000002697398,0.000002697398,0.99999994,0,0,0,0,0,0,0,1,0,0,0,false,false,true,-266.37,1090.51,17.01,-0.0043778764,-0.0019448238,0.91286224,-0.40823925,-204.021,372.171,8.331,0.00030999997,0.00021,1.79941
101.25833,2000,0,91.24,0.000002697398,0.000002697398,0.000002697398,0.99999994,0,0,0,0,0,0,0,1,0,0,0,false,false,true,-268.07,1093.61,17.01,-0.004361693,-0.001977193,0.9097748,-0.41507456,-201.671,370.661,8.331,0.00030999997,0.00010999999,1.79491
101.26667,2000,0,91.24,0.000002697398,0.000002697398,0.000002697398,0.99999994,0,0,0,0,0,0,0,1,0,0,0,false,false,true,-269.75,1096.7,17.01,-0.0043455088,-0.0020095618,0.90664524,-0.4218666,-199.30101,369.181,8.331,0.00030999997,0.00010999999,1.7897099
101.275,2000,0,91.24,0.000002697398,0.000002697398,0.000002697398,0.99999994,0,0,0,0,0,0,0,1,0,0,0,false,false,true,-271.41,1099.78,17.01,-0.004329324,-0.0020419303,0.9034743,-0.4286155,-196.911,367.731,8.331,0.00030999997,0.00010999999,1.78381
101.28333,2000,0,91.24,0.000002697398,0.000002697398,0.000002697398,0.99999994,0,0,0,0,0,0,0,1,0,0,0,false,false,true,-273.05,1102.84,17.01,-0.004313139,-0.0020742987,0.9002623,-0.4353212,-194.511,366.311,8.331,0.00030999997,0.00010999999,1.77721
101.291664,2000,0,91.24,0.000002697398,0.000002697398,0.000002697398,0.99999994,0,0,0,0,0,0,0,1,0,0,0,false,false,true,-274.66998,1105.89,17.01,-0.004296955,-0.0021066677,0.8970155,-0.44197306,-192.091,364.931,8.331,0.00030999997,0.00010999999,1.76991
101.3,2000,0,91.24,0.000002697398,0.000002697398,0.000002697398,0.99999994,0,0,0,0,0,0,0,1,0,0,0,false,false,true,-276.27,1108.9299,17.01,-0.0042807707,-0.0021390365,0.89373165,-0.4485763,-189.661,363.581,8.331,0.00030999997,0.00010999999,1.76191
101.308334,2000,0,91.24,0.000002697398,0.000002697398,0.000002697398,0.99999994,0,0,0,0,0,0,0,1,0,0,0,false,false,true,-277.85,1111.96,17.01,-0.004264586,-0.0021714054,0.8904143,-0.4551256,-187.231,362.271,8.331,0.00030999997,0.00010999999,1.75321
101.316666,2000,0,91.24,0.000002697398,0.000002697398,0.000002697398,0.99999994,0,0,0,0,0,0,0,1,0,0,0,false,false,true,-279.41,1114.98,17.01,-0.0042484016,-0.0022037742,0.8870671,-0.4616156,-184.791,360.991,8.331,0.00030999997,0.00010999999,1.74391
