time,ball_loc_x,ball_loc_y,ball_loc_z,ball_rot_x,ball_rot_y,ball_rot_z,ball_rot_w,ball_vel_x,ball_vel_y,ball_vel_z,ball_ang_x,ball_ang_y,ball_ang_z,player0_throttle,player0_steer,player0_pitch,player0_yaw,player0_roll,player0_jump,player0_boost,player0_handbrake,player0_loc_x,player0_loc_y,player0_loc_z,player0_rot_x,player0_rot_y,player0_rot_z,player0_rot_w,player0_vel_x,player0_vel_y,player0_vel_z,player0_ang_x,player0_ang_y,player0_ang_z
70.13333,2000,0,73,0.000002697398,0.000002697398,0.000002697398,0.99999994,0,0,0,0,0,0,0,0,0,0,0,false,false,false,0,0,16.94,0.0000026973983,0.0000026973983,0.70710677,0.70710677,0,0,2.041,-0.050809998,0,0
70.14167,2000,0,87.6,0.000002697398,0.000002697398,0.000002697398,0.99999994,0,0,0,0,0,0,0.503937,0,0,0,0,false,false,false,0,0,16.89,-0.00014835689,0.00015375168,0.7071067,0.7071067,0,6.711,3.8809998,-0.085609995,0,0
70.15,2000,0,90.52,0.000002697398,0.000002697398,0.000002697398,0.99999994,0,0,0,0,0,0,0.503937,0,0,0,0,false,false,false,0,0.06,16.85,-0.00040191234,0.00040730715,0.70710653,0.70710677,0,13.401,5.481,-0.107209995,0,0
70.15833,2000,0,91.1,0.000002697398,0.000002697398,0.000002697398,0.99999994,0,0,0,0,0,0,0.503937,0,0,0,0,false,false,false,0,0.17,16.83,-0.00072020525,0.00072560005,0.7071067,0.707106,0,20.060999,6.791,-0.11630999,0,0
70.166664,2000,0,91.22,0.000002697398,0.000002697398,0.000002697398,0.99999994,0,0,0,0,0,0,0.503937,0,0,0,0,false,false,false,0,0.34,16.82,-0.0010654721,0.001070867,0.70710516,0.7071067,0,26.690998,7.7409997,-0.114709996,0,0
70.175,2000,0,91.24,0.000002697398,0.000002697398,0.000002697398,0.99999994,0,0,0,0,0,0,0.503937,0,0,0,0,false,false,false,0,0.56,16.82,-0.0014053443,0.0014107391,0.7071067,0.70710397,0,33.291,8.431,-0.10660999,0,0
70.183334,2000,0,91.24,0.000002697398,0.000002697398,0.000002697398,0.99999994,0,0,0,0,0,0,0.503937,0,0,0,0,false,false,false,0,0.84,16.82,-0.0017182427,0.0017236375,0.707108,0.70710135,0,39.861,8.9210005,-0.09520999,0,0
70.191666,2000,0,91.24,0.000002697398,0.000002697398,0.000002697398,0.99999994,0,0,0,0,0,0,0.503937,0,0,0,0,false,false,false,0,1.17,16.83,-0.001998772,0.0020041666,0.70710653,0.7071013,0,46.400997,9.281,-0.08241,0,0
70.2,2000,0,91.24,0.000002697398,0.000002697398,0.000002697398,0.99999994,0,0,0,0,0,0,0.503937,0,0,0,0,false,false,false,0,1.56,16.84,-0.0022415377,0.0022469326,0.70710504,0.7071013,0,52.911,9.521,-0.06951,0,0
70.208336,2000,0,91.24,0.000002697398,0.000002697398,0.000002697398,0.99999994,0,0,0,0,0,0,0.503937,0,0,0,0,false,false,false,0,2,16.85,-0.00244654,0.0024519349,0.70710367,0.7071013,0,59.400997,9.6710005,-0.057409998,0,0
70.21667,2000,0,91.24,0.000002697398,0.000002697398,0.000002697398,0.99999994,0,0,0,0,0,0,0.503937,0,0,0,0,false,false,false,0,2.5,16.859999,-0.0026137787,0.0026191734,0.7071025,0.7071013,0,65.861,9.771,-0.046509996,0,0
70.225,2000,0,91.24,0.000002697398,0.000002697398,0.000002697398,0.99999994,0,0,0,0,0,0,0.503937,0,0,0,0,false,false,false,0,3.05,16.869999,-0.0027486486,0.0027540433,0.70710146,0.7071013,0,72.291,9.821,-0.03701,0,0
70.23333,2000,0,91.24,0.000002697398,0.000002697398,0.000002697398,0.99999994,0,0,0,0,0,0,0.503937,0,0,0,0,false,false,false,0,3.6499999,16.88,-0.0028565445,0.0028619394,0.70710063,0.7071013,0,78.690994,9.841001,-0.02901,0,0
70.24167,2000,0,91.24,0.000002697398,0.000002697398,0.000002697398,0.99999994,0,0,0,0,0,0,0.503937,0,0,0,0,false,false,false,0,4.31,16.89,-0.0029428613,0.002948256,0.7071013,0.7070999,0,85.071,9.821,-0.022809999,0,0
70.25,2000,0,91.24,0.000002697398,0.000002697398,0.000002697398,0.99999994,0,0,0,0,0,0,0.503937,0,0,0,0,false,false,false,0,5.02,16.9,-0.003007599,0.0030129936,0.7070993,0.7071013,0,91.421,9.761001,-0.01821,0,0
70.25833,2000,0,91.24,0.000002697398,0.000002697398,0.000002697398,0.99999994,0,0,0,0,0,0,0.503937,0,0,0,0,false,false,false,0,5.7799997,16.91,-0.0030615467,0.0030669416,0.7071013,0.7070989,0,97.741,9.681,-0.01481,0,0
70.26667,2000,0,91.24,0.000002697398,0.000002697398,0.000002697398,0.99999994,0,0,0,0,0,0,0.503937,0,0,0,0,false,false,false,0,6.5899997,16.92,-0.0031047051,0.0031101,0.7070985,0.7071013,0,104.031,9.591001,-0.012209999,0,0
70.275,2000,0,91.24,0.000002697398,0.000002697398,0.000002697398,0.99999994,0,0,0,0,0,0,0.503937,0,0,0,0,false,false,false,0,7.46,16.93,-0.0031424686,0.0031478636,0.7070959,0.70710355,0,110.300995,9.491,-0.010209999,0,0
70.28333,2000,0,91.24,0.000002697398,0.000002697398,0.000002697398,0.99999994,0,0,0,0,0,0,0.503937,0,0,0,0,false,false,false,0,8.38,16.94,-0.0031748374,0.0031802324,0.7070959,0.70710325,0,116.541,9.391,-0.008609999,0,0
70.291664,2000,0,91.24,0.000002697398,0.000002697398,0.000002697398,0.99999994,0,0,0,0,0,0,0.503937,0,0,0,0,false,false,false,0,9.349999,16.949999,-0.0032018116,0.0032072063,0.7070959,0.707103,0,122.751,9.281,-0.00731,0,0
70.3,2000,0,91.24,0.000002697398,0.000002697398,0.000002697398,0.99999994,0,0,0,0,0,0,0.503937,0,0,0,0,false,false,false,0,10.37,16.96,-0.0032233908,0.0032287855,0.7070959,0.70710284,0,128.94101,9.1710005,-0.00621,0,0
70.308334,2000,0,91.24,0.000002697398,0.000002697398,0.000002697398,0.99999994,0,0,0,0,0,0,0.503937,0,0,0,0,false,false,false,0,11.44,16.97,-0.003239575,0.0032449698,0.7070959,0.70710266,0,135.101,9.061,-0.00531,0,0
70.316666,2000,0,91.24,0.000002697398,0.000002697398,0.000002697398,0.99999994,0,0,0,0,0,0,0.503937,0,0,0,0,false,false,false,0,12.57,16.98,-0.0032557594,0.0032611543,0.7070959,0.70710254,0,141.231,8.951,-0.00461,0,0
70.325,2000,0,91.24,0.000002697398,0.000002697398,0.000002697398,0.99999994,0,0,0,0,0,0,0.503937,0,0,0,0,false,false,false,0,13.75,16.99,-0.003271944,0.0032773386,0.7070959,0.70710236,0,147.341,8.841001,-0.00401,0,0
70.333336,2000,0,91.24,0.000002697398,0.000002697398,0.000002697398,0.99999994,0,0,0,0,0,0,0.503937,0,0,0,0,false,false,false,0,14.98,17,-0.0032827335,0.0032881282,0.7070959,0.7071023,0,153.421,8.731,-0.00341,0,0
70.34167,2000,0,91.24,0.000002697398,0.000002697398,0.000002697398,0.99999994,0,0,0,0,0,0,0.503937,0,0,0,0,false,false,false,0,16.26,17.01,-0.0032935233,0.003298918,0.707096,0.7071022,0,159.47101,8.621,-0.00301,0,0
70.35,2000,0,91.24,0.000002697398,0.000002697398,0.000002697398,0.99999994,0,0,0,0,0,0,0.503937,0,0,0,0,false,false,false,0,17.59,17.01,-0.0033043127,0.0033097074,0.7070959,0.70710206,0,165.501,8.511001,-0.00261,0,0
70.35833,2000,0,91.24,0.000002697398,0.000002697398,0.000002697398,0.99999994,0,0,0,0,0,0,0.503937,0,0,0,0,false,false,false,0,18.97,17.01,-0.0033097074,0.0033151023,0.7070959,0.707102,0,171.501,8.441,-0.00221,0,0
70.36667,2000,0,91.24,0.000002697398,0.000002697398,0.000002697398,0.99999994,0,0,0,0,0,0,0.503937,0,0,0,0,false,false,false,0,20.4,17.01,-0.0033151023,0.003320497,0.7070959,0.707102,0,177.47101,8.391,-0.0019099999,0,0
70.375,2000,0,91.24,0.000002697398,0.000002697398,0.000002697398,0.99999994,0,0,0,0,0,0,0.503937,0,0,0,0,false,false,false,0,21.88,17.01,-0.0033204972,0.0033258921,0.707096,0.70710194,0,183.421,8.361,-0.0017099999,0,0
70.38333,2000,0,91.24,0.000002697398,0.000002697398,0.000002697398,0.99999994,0,0,0,0,0,0,0.503937,0,0,0,0,false,false,false,0,23.41,17.01,-0.003325892,0.0033312866,0.7070959,0.7071019,0,189.341,8.341001,-0.00151,0,0
70.39167,2000,0,91.24,0.000002697398,0.000002697398,0.000002697398,0.99999994,0,0,0,0,0,0,0.503937,0,0,0,0,false,false,false,0,24.99,17.01,-0.0033312866,0.0033366815,0.7070959,0.7071018,0,195.241,8.331,-0.00131,0,0
70.4,2000,0,91.24,0.000002697398,0.000002697398,0.000002697398,0.99999994,0,0,0,0,0,0,0.503937,0,0,0,0,false,false,false,0,26.619999,17.01,-0.0033366815,0.0033420762,0.7070959,0.70710176,0,201.11101,8.321,-0.00111,0,0
70.40833,2000,0,91.24,0.000002697398,0.000002697398,0.000002697398,0.99999994,0,0,0,0,0,0,0.503937,0,0,0,0,false,false,false,0,28.3,17.01,-0.0033420762,0.003347471,0.7070959,0.7071017,0,206.961,8.321,-0.0010099999,0,0
70.416664,2000,0,91.24,0.000002697398,0.000002697398,0.000002697398,0.99999994,0,0,0,0,0,0,0.503937,0,0,0,0,false,false,false,0,30.019999,17.01,-0.003347471,0.0033528658,0.7070959,0.70710164,0,212.781,8.321,-0.00081,0,0
70.425,2000,0,91.24,0.000002697398,0.000002697398,0.000002697398,0.99999994,0,0,0,0,0,0,0.503937,0,0,0,0,false,false,false,0,31.789999,17.01,-0.003347471,0.0033528658,0.7070959,0.70710164,0,218.58101,8.321,-0.00061,0,0
70.433334,2000,0,91.24,0.000002697398,0.000002697398,0.000002697398,0.99999994,0,0,0,0,0,0,0.503937,0,0,0,0,false,false,false,0,33.61,17.01,-0.003347471,0.0033528658,0.7070959,0.70710164,0,224.351,8.321,-0.00051,0,0
70.441666,2000,0,91.24,0.000002697398,0.000002697398,0.000002697398,0.99999994,0,0,0,0,0,0,0.503937,0,0,0,0,false,false,false,0,35.48,17.01,-0.003347471,0.0033528658,0.7070959,0.70710164,0,230.101,8.321,-0.00051,0,0
70.45,2000,0,91.24,0.000002697398,0.000002697398,0.000002697398,0.99999994,0,0,0,0,0,0,0.503937,0,0,0,0,false,false,false,0,37.399998,17.01,-0.003347471,0.0033528658,0.7070959,0.70710164,0,235.821,8.321,-0.00051,0,0
70.458336,2000,0,91.24,0.000002697398,0.000002697398,0.000002697398,0.99999994,0,0,0,0,0,0,0.503937,0,0,0,0,false,false,false,0,39.37,17.01,-0.003347471,0.0033528658,0.7070959,0.70710164,0,241.521,8.321,-0.00051,0,0
70.46667,2000,0,91.24,0.000002697398,0.000002697398,0.000002697398,0.99999994,0,0,0,0,0,0,0.503937,0,0,0,0,false,false,false,0,41.379997,17.01,-0.003347471,0.0033528658,0.7070959,0.70710164,0,247.191,8.321,-0.00051,0,0
70.475,2000,0,91.24,0.000002697398,0.000002697398,0.000002697398,0.99999994,0,0,0,0,0,0,0.503937,0,0,0,0,false,false,false,0,43.44,17.01,-0.003347471,0.0033528658,0.7070959,0.70710164,0,252.841,8.321,-0.00051,0,0
70.48333,2000,0,91.24,0.000002697398,0.000002697398,0.000002697398,0.99999994,0,0,0,0,0,0,0.503937,0,0,0,0,false,false,false,0,45.55,17.01,-0.003347471,0.0033528658,0.7070959,0.70710164,0,258.461,8.321,-0.00051,0,0
70.49167,2000,0,91.24,0.000002697398,0.000002697398,0.000002697398,0.99999994,0,0,0,0,0,0,0.503937,0,0,0,0,false,false,false,0,47.7,17.01,-0.003347471,0.0033528658,0.7070959,0.70710164,0,264.061,8.321,-0.00051,0,0
70.5,2000,0,91.24,0.000002697398,0.000002697398,0.000002697398,0.99999994,0,0,0,0,0,0,0.503937,0,0,0,0,false,false,false,0,49.899998,17.01,-0.003347471,0.0033528658,0.7070959,0.70710164,0,269.631,8.321,-0.00051,0,0
70.50833,2000,0,91.24,0.000002697398,0.000002697398,0.000002697398,0.99999994,0,0,0,0,0,0,0.503937,0,0,0,0,false,false,false,0,52.149998,17.01,-0.003347471,0.0033528658,0.7070959,0.70710164,0,275.181,8.321,-0.00051,0,0
70.51667,2000,0,91.24,0.000002697398,0.000002697398,0.000002697398,0.99999994,0,0,0,0,0,0,0.503937,0,0,0,0,false,false,false,0,54.44,17.01,-0.003347471,0.0033528658,0.7070959,0.70710164,0,280.711,8.321,-0.00051,0,0
70.525,2000,0,91.24,0.000002697398,0.000002697398,0.000002697398,0.99999994,0,0,0,0,0,0,0.503937,0,0,0,0,false,false,false,0,56.78,17.01,-0.003347471,0.0033528658,0.7070959,0.70710164,0,286.211,8.321,-0.00051,0,0
70.53333,2000,0,91.24,0.000002697398,0.000002697398,0.000002697398,0.99999994,0,0,0,0,0,0,0.503937,0,0,0,0,false,false,false,0,59.17,17.01,-0.003347471,0.0033528658,0.7070959,0.70710164,0,291.691,8.321,-0.00051,0,0
70.541664,2000,0,91.24,0.000002697398,0.000002697398,0.000002697398,0.99999994,0,0,0,0,0,0,0.503937,0,0,0,0,false,false,false,0,61.6,17.01,-0.003347471,0.0033528658,0.7070959,0.70710164,0,297.151,8.321,-0.00051,0,0
70.55,2000,0,91.24,0.000002697398,0.000002697398,0.000002697398,0.99999994,0,0,0,0,0,0,0.503937,0,0,0,0,false,false,false,0,64.08,17.01,-0.003347471,0.0033528658,0.7070959,0.70710164,0,302.581,8.321,-0.00051,0,0
70.558334,2000,0,91.24,0.000002697398,0.000002697398,0.000002697398,0.99999994,0,0,0,0,0,0,0.503937,0,0,0,0,false,false,false,0,66.6,17.01,-0.003347471,0.0033528658,0.7070959,0.70710164,0,307.991,8.321,-0.00051,0,0
70.566666,2000,0,91.24,0.000002697398,0.000002697398,0.000002697398,0.99999994,0,0,0,0,0,0,0.503937,0,0,0,0,false,false,false,0,69.17,17.01,-0.003347471,0.0033528658,0.7070959,0.70710164,0,313.371,8.321,-0.00051,0,0
70.575,2000,0,91.24,0.000002697398,0.000002697398,0.000002697398,0.99999994,0,0,0,0,0,0,0.503937,0,0,0,0,false,false,false,0,71.78,17.01,-0.003347471,0.0033528658,0.7070959,0.70710164,0,318.731,8.321,-0.00051,0,0
70.583336,2000,0,91.24,0.000002697398,0.000002697398,0.000002697398,0.99999994,0,0,0,0,0,0,0.503937,0,0,0,0,false,false,false,0,74.439995,17.01,-0.003347471,0.0033528658,0.7070959,0.70710164,0,324.071,8.321,-0.00051,0,0
70.59167,2000,0,91.24,0.000002697398,0.000002697398,0.000002697398,0.99999994,0,0,0,0,0,0,0.503937,0,0,0,0,false,false,false,0,77.14,17.01,-0.003347471,0.0033528658,0.7070959,0.70710164,0,329.391,8.321,-0.00051,0,0
70.6,2000,0,91.24,0.000002697398,0.000002697398,0.000002697398,0.99999994,0,0,0,0,0,0,0.503937,0,0,0,0,false,false,false,0,79.88,17.01,-0.003347471,0.0033528658,0.7070959,0.70710164,0,334.681,8.321,-0.00051,0,0
70.60833,2000,0,91.24,0.000002697398,0.000002697398,0.000002697398,0.99999994,0,0,0,0,0,0,0.503937,0,0,0,0,false,false,false,0,82.67,17.01,-0.003347471,0.0033528658,0.7070959,0.70710164,0,339.951,8.321,-0.00051,0,0
70.61667,2000,0,91.24,0.000002697398,0.000002697398,0.000002697398,0.99999994,0,0,0,0,0,0,0.503937,0,0,0,0,false,false,false,0,85.5,17.01,-0.003347471,0.0033528658,0.7070959,0.70710164,0,345.201,8.321,-0.00051,0,0
70.625,2000,0,91.24,0.000002697398,0.000002697398,0.000002697398,0.99999994,0,0,0,0,0,0,0.503937,0,0,0,0,false,false,false,0,88.38,17.01,-0.003347471,0.0033528658,0.7070959,0.70710164,0,350.421,8.321,-0.00051,0,0
70.63333,2000,0,91.24,0.000002697398,0.000002697398,0.000002697398,0.99999994,0,0,0,0,0,0,0.503937,0,0,0,0,false,false,false,0,91.299995,17.01,-0.003347471,0.0033528658,0.7070959,0.70710164,0,355.621,8.321,-0.00051,0,0
70.64167,2000,0,91.24,0.000002697398,0.000002697398,0.000002697398,0.99999994,0,0,0,0,0,0,0.503937,0,0,0,0,false,false,false,0,94.259995,17.01,-0.003347471,0.0033528658,0.7070959,0.70710164,0,360.801,8.321,-0.00051,0,0
70.65,2000,0,91.24,0.000002697398,0.000002697398,0.000002697398,0.99999994,0,0,0,0,0,0,0.503937,0,0,0,0,false,false,false,0,97.27,17.01,-0.003347471,0.0033528658,0.7070959,0.70710164,0,365.961,8.321,-0.00051,0,0
70.65833,2000,0,91.24,0.000002697398,0.000002697398,0.000002697398,0.99999994,0,0,0,0,0,0,0.503937,0,0,0,0,false,false,false,0,100.32,17.01,-0.003347471,0.0033528658,0.7070959,0.70710164,0,371.091,8.321,-0.00051,0,0
70.666664,2000,0,91.24,0.000002697398,0.000002697398,0.000002697398,0.99999994,0,0,0,0,0,0,0.503937,0,0,0,0,false,false,false,0,103.409996,17.01,-0.003347471,0.0033528658,0.7070959,0.70710164,0,376.201,8.321,-0.00051,0,0
70.675,2000,0,91.24,0.000002697398,0.000002697398,0.000002697398,0.99999994,0,0,0,0,0,0,0.503937,0,0,0,0,false,false,false,0,106.549995,17.01,-0.003347471,0.0033528658,0.7070959,0.70710164,0,381.291,8.321,-0.00051,0,0
70.683334,2000,0,91.24,0.000002697398,0.000002697398,0.000002697398,0.99999994,0,0,0,0,0,0,0.503937,0,0,0,0,false,false,false,0,109.729996,17.01,-0.003347471,0.0033528658,0.7070959,0.70710164,0,386.361,8.321,-0.00051,0,0
70.691666,2000,0,91.24,0.000002697398,0.000002697398,0.000002697398,0.99999994,0,0,0,0,0,0,0.503937,0,0,0,0,false,false,false,0,112.95,17.01,-0.003347471,0.0033528658,0.7070959,0.70710164,0,391.411,8.321,-0.00051,0,0
70.7,2000,0,91.24,0.000002697398,0.000002697398,0.000002697398,0.99999994,0,0,0,0,0,0,0.503937,0,0,0,0,false,false,false,0,116.21,17.01,-0.003347471,0.0033528658,0.7070959,0.70710164,0,396.431,8.321,-0.00051,0,0
70.708336,2000,0,91.24,0.000002697398,0.000002697398,0.000002697398,0.99999994,0,0,0,0,0,0,0.503937,0,0,0,0,false,false,false,0,119.509995,17.01,-0.003347471,0.0033528658,0.7070959,0.70710164,0,401.431,8.321,-0.00051,0,0
70.71667,2000,0,91.24,0.000002697398,0.000002697398,0.000002697398,0.99999994,0,0,0,0,0,0,0.503937,0,0,0,0,false,false,false,0,122.86,17.01,-0.003347471,0.0033528658,0.7070959,0.70710164,0,406.411,8.321,-0.00051,0,0
70.725,2000,0,91.24,0.000002697398,0.000002697398,0.000002697398,0.99999994,0,0,0,0,0,0,0.503937,0,0,0,0,false,false,false,0,126.25,17.01,-0.003347471,0.0033528658,0.7070959,0.70710164,0,411.371,8.321,-0.00051,0,0
70.73333,2000,0,91.24,0.000002697398,0.000002697398,0.000002697398,0.99999994,0,0,0,0,0,0,0.503937,0,0,0,0,false,false,false,0,129.68,17.01,-0.003347471,0.0033528658,0.7070959,0.70710164,0,416.311,8.321,-0.00051,0,0
70.74167,2000,0,91.24,0.000002697398,0.000002697398,0.000002697398,0.99999994,0,0,0,0,0,0,0.503937,0,0,0,0,false,false,false,0,133.15,17.01,-0.003347471,0.0033528658,0.7070959,0.70710164,0,421.231,8.321,-0.00051,0,0
70.75,2000,0,91.24,0.000002697398,0.000002697398,0.000002697398,0.99999994,0,0,0,0,0,0,0.503937,0,0,0,0,false,false,false,0,136.66,17.01,-0.003347471,0.0033528658,0.7070959,0.70710164,0,426.131,8.321,-0.00051,0,0
70.75833,2000,0,91.24,0.000002697398,0.000002697398,0.000002697398,0.99999994,0,0,0,0,0,0,0.503937,0,0,0,0,false,false,false,0,140.20999,17.01,-0.003347471,0.0033528658,0.7070959,0.70710164,0,431.001,8.321,-0.00051,0,0
70.76667,2000,0,91.24,0.000002697398,0.000002697398,0.000002697398,0.99999994,0,0,0,0,0,0,0.503937,0,0,0,0,false,false,false,0,143.8,17.01,-0.003347471,0.0033528658,0.7070959,0.70710164,0,435.85098,8.321,-0.00051,0,0
70.775,2000,0,91.24,0.000002697398,0.000002697398,0.000002697398,0.99999994,0,0,0,0,0,0,0.503937,0,0,0,0,false,false,false,0,147.43,17.01,-0.003347471,0.0033528658,0.7070959,0.70710164,0,440.681,8.321,-0.00061,0,0
70.78333,2000,0,91.24,0.000002697398,0.000002697398,0.000002697398,0.99999994,0,0,0,0,0,0,0.503937,0,0,0,0,false,false,false,0,151.09999,17.01,-0.003347471,0.0033528658,0.7070959,0.70710164,0,445.491,8.321,-0.00061,0,0
70.791664,2000,0,91.24,0.000002697398,0.000002697398,0.000002697398,0.99999994,0,0,0,0,0,0,0.503937,0,0,0,0,false,false,false,0,154.81,17.01,-0.003347471,0.0033528658,0.7070959,0.70710164,0,450.281,8.321,-0.00061,0,0
70.8,2000,0,91.24,0.000002697398,0.000002697398,0.000002697398,0.99999994,0,0,0,0,0,0,0.503937,0,0,0,0,false,false,false,0,158.56,17.01,-0.003347471,0.0033528658,0.7070959,0.70710164,0,455.051,8.321,-0.00061,0,0
70.808334,2000,0,91.24,0.000002697398,0.000002697398,0.000002697398,0.99999994,0,0,0,0,0,0,0.503937,0,0,0,0,false,false,false,0,162.34999,17.01,-0.003347471,0.0033528658,0.7070959,0.70710164,0,459.801,8.321,-0.00061,0,0
70.816666,2000,0,91.24,0.000002697398,0.000002697398,0.000002697398,0.99999994,0,0,0,0,0,0,0.503937,0,0,0,0,false,false,false,0,166.18,17.01,-0.003347471,0.0033528658,0.7070959,0.70710164,0,464.531,8.321,-0.00061,0,0
70.825,2000,0,91.24,0.000002697398,0.000002697398,0.000002697398,0.99999994,0,0,0,0,0,0,0.503937,0,0,0,0,false,false,false,0,170.05,17.01,-0.003347471,0.0033528658,0.7070959,0.70710164,0,469.241,8.321,-0.00061,0,0
70.833336,2000,0,91.24,0.000002697398,0.000002697398,0.000002697398,0.99999994,0,0,0,0,0,0,0.503937,0,0,0,0,false,false,false,0,173.95999,17.01,-0.003347471,0.0033528658,0.7070959,0.70710164,0,473.931,8.321,-0.00061,0,0
70.84167,2000,0,91.24,0.000002697398,0.000002697398,0.000002697398,0.99999994,0,0,0,0,0,0,0.503937,0,0,0,0,false,false,false,0,177.90999,17.01,-0.003347471,0.0033528658,0.7070959,0.70710164,0,478.60098,8.321,-0.00061,0,0
70.85,2000,0,91.24,0.000002697398,0.000002697398,0.000002697398,0.99999994,0,0,0,0,0,0,0.503937,0,0,0,0,false,false,false,0,181.9,17.01,-0.003347471,0.0033528658,0.7070959,0.70710164,0,483.251,8.321,-0.00061,0,0
70.85833,2000,0,91.24,0.000002697398,0.000002697398,0.000002697398,0.99999994,0,0,0,0,0,0,0.503937,0,0,0,0,false,false,false,0,185.93,17.01,-0.003347471,0.0033528658,0.7070959,0.70710164,0,487.88098,8.321,-0.00061,0,0
70.86667,2000,0,91.24,0.000002697398,0.000002697398,0.000002697398,0.99999994,0,0,0,0,0,0,0.503937,0,0,0,0,false,false,false,0,190,17.01,-0.003347471,0.0033528658,0.7070959,0.70710164,0,492.491,8.321,-0.00061,0,0
70.875,2000,0,91.24,0.000002697398,0.000002697398,0.000002697398,0.99999994,0,0,0,0,0,0,0.503937,0,0,0,0,false,false,false,0,194.09999,17.01,-0.003347471,0.0033528658,0.7070959,0.70710164,0,497.081,8.321,-0.00061,0,0
70.88333,2000,0,91.24,0.000002697398,0.000002697398,0.000002697398,0.99999994,0,0,0,0,0,0,0.503937,0,0,0,0,false,false,false,0,198.23999,17.01,-0.003347471,0.0033528658,0.7070959,0.70710164,0,501.651,8.321,-0.00061,0,0
70.89167,2000,0,91.24,0.000002697398,0.000002697398,0.000002697398,0.99999994,0,0,0,0,0,0,1,1,0,0,0,false,false,true,0,202.42,17.01,-0.003347471,0.0033528658,0.7070959,0.70710164,-12.451,506.611,8.351,-0.00040999998,0.00311,0.33911002
70.9,2000,0,91.24,0.000002697398,0.000002697398,0.000002697398,0.99999994,0,0,0,0,0,0,1,1,0,0,0,false,false,true,-0.099999994,206.64,17.01,-0.0033420757,0.00335826,0.70809287,0.7061032,-21.290998,512.55096,8.361,-0.00030999997,0.00411,0.57731
70.90833,2000,0,91.24,0.000002697398,0.000002697398,0.000002697398,0.99999994,0,0,0,0,0,0,1,1,0,0,0,false,false,true,-0.28,210.90999,17.01,-0.0033366815,0.0033636554,0.70978874,0.7043985,-29.280998,518.571,8.361,-0.00030999997,0.0043099998,0.78441
70.916664,2000,0,91.24,0.000002697398,0.000002697398,0.000002697398,0.99999994,0,0,0,0,0,0,1,1,0,0,0,false,false,true,-0.52,215.23,17.01,-0.0033366815,0.0033636554,0.71208876,0.70207334,-36.650997,524.60095,8.361,-0.00030999997,0.00401,0.96421
70.925,2000,0,91.24,0.000002697398,0.000002697398,0.000002697398,0.99999994,0,0,0,0,0,0,1,1,0,0,0,false,false,true,-0.83,219.59999,17.01,-0.0033366815,0.0033636554,0.71490175,0.69920874,-43.591,530.581,8.361,-0.00030999997,0.00341,1.12031
70.933334,2000,0,91.24,0.000002697398,0.000002697398,0.000002697398,0.99999994,0,0,0,0,0,0,1,1,0,0,0,false,false,true,-1.1899999,224.01999,17.01,-0.0033420762,0.0033582605,0.718158,0.69586384,-50.240997,536.47095,8.361,-0.00030999997,0.00271,1.25621
70.941666,2000,0,91.24,0.000002697398,0.000002697398,0.000002697398,0.99999994,0,0,0,0,0,0,1,1,0,0,0,false,false,true,-1.61,228.48999,17.01,-0.0033528658,0.003347471,0.72179276,0.6920929,-56.700996,542.23096,8.351,-0.00040999998,0.00201,1.37491
70.95,2000,0,91.24,0.000002697398,0.000002697398,0.000002697398,0.99999994,0,0,0,0,0,0,1,1,0,0,0,false,false,true,-2.08,233.01,17.01,-0.00336905,0.0033366815,0.7257479,0.6879443,-63.051,547.831,8.351,-0.00040999998,0.0014099999,1.47911
70.958336,2000,0,91.24,0.000002697398,0.000002697398,0.000002697398,0.99999994,0,0,0,0,0,0,1,1,0,0,0,false,false,true,-2.61,237.58,17.01,-0.0033852346,0.003320497,0.72997636,0.6834558,-69.351,553.24097,8.351,-0.00040999998,0.00081,1.57101
70.96667,2000,0,91.24,0.000002697398,0.000002697398,0.000002697398,0.99999994,0,0,0,0,0,0,1,1,0,0,0,false,false,true,-3.1899998,242.18999,17.01,-0.0034068138,0.0033043127,0.7344322,0.6786653,-75.631,558.441,8.351,-0.00040999998,0.00030999997,1.6525099
70.975,2000,0,91.24,0.000002697398,0.000002697398,0.000002697398,0.99999994,0,0,0,0,0,0,1,1,0,0,0,false,false,true,-3.82,246.84,17.01,-0.003428393,0.0032827335,0.73908615,0.67359406,-81.901,563.42096,8.341001,-0.00030999997,0,1.72521
70.98333,2000,0,91.24,0.000002697398,0.000002697398,0.000002697398,0.99999994,0,0,0,0,0,0,1,1,0,0,0,false,false,true,-4.5,251.54,17.01,-0.003455367,0.0032611543,0.74390894,0.66826403,-88.171,568.18097,8.341001,-0.00030999997,-0.00030999997,1.7905099
70.99167,2000,0,91.24,0.000002697398,0.000002697398,0.000002697398,0.99999994,0,0,0,0,0,0,1,1,0,0,0,false,false,true,-5.23,256.27,17.01,-0.0034823408,0.0032341804,0.7488728,0.6626966,-94.421,572.701,8.341001,-0.00021,-0.00061,1.8494099
71,2000,0,91.24,0.000002697398,0.000002697398,0.000002697398,0.99999994,0,0,0,0,0,0,1,1,0,0,0,false,false,true,-6.02,261.04,17.01,-0.0035093152,0.0032072065,0.75395566,0.65690804,-100.651,576.99097,8.341001,-0.00010999999,-0.00081,1.90291
71.00833,2000,0,91.24,0.000002697398,0.000002697398,0.000002697398,0.99999994,0,0,0,0,0,0,1,1,0,0,0,false,false,true,-6.8599997,265.85,17.01,-0.003536289,0.0031748377,0.7591409,0.65090895,-106.821,581.061,8.341001,-0.00010999999,-0.00091,1.95171
71.01667,2000,0,91.24,0.000002697398,0.000002697398,0.000002697398,0.99999994,0,0,0,0,0,0,1,1,0,0,0,false,false,true,-7.75,270.69,17.01,-0.0035632628,0.0031424686,0.76440763,0.6447156,-112.910995,584.91095,8.341001,-0.00010999999,-0.0010099999,1.99641
71.025,2000,0,91.24,0.000002697398,0.000002697398,0.000002697398,0.99999994,0,0,0,0,0,0,1,1,0,0,0,false,false,true,-8.69,275.56,17.01,-0.0035902364,0.0031100998,0.76974505,0.63833356,-118.881,588.561,8.341001,-0.00010999999,-0.00111,2.03751
71.03333,2000,0,91.24,0.000002697398,0.000002697398,0.000002697398,0.99999994,0,0,0,0,0,0,1,1,0,0,0,false,false,true,-9.679999,280.46,17.01,-0.0036226057,0.0030777312,0.7751383,0.63177353,-124.690994,592.02094,8.341001,-0.00010999999,-0.0012099999,2.07541
71.041664,2000,0,91.24,0.000002697398,0.000002697398,0.000002697398,0.99999994,0,0,0,0,0,0,1,1,0,0,0,false,false,true,-10.719999,285.38998,17.01,-0.0036549745,0.0030453624,0.7805732,0.62504613,-130.30101,595.321,8.341001,-0.00010999999,-0.0012099999,2.1105099
71.05,2000,0,91.24,0.000002697398,0.000002697398,0.000002697398,0.99999994,0,0,0,0,0,0,1,1,0,0,0,false,false,true,-11.809999,290.35,17.01,-0.003687343,0.0030129936,0.7860402,0.61815697,-135.651,598.49097,8.331,0,-0.0012099999,2.14301
71.058334,2000,0,91.24,0.000002697398,0.000002697398,0.000002697398,0.99999994,0,0,0,0,0,0,1,1,0,0,0,false,false,true,-12.94,295.34,17.01,-0.003719712,0.00297523,0.7915302,0.61111134,-140.69101,601.571,8.331,0,-0.0012099999,2.17311
71.066666,2000,0,91.24,0.000002697398,0.000002697398,0.000002697398,0.99999994,0,0,0,0,0,0,1,1,0,0,0,false,false,true,-14.11,300.35,17.01,-0.0037520807,0.0029374664,0.79703057,0.60392004,-145.36101,604.60095,8.331,0,-0.00111,2.2009099
71.075,2000,0,91.24,0.000002697398,0.000002697398,0.000002697398,0.99999994,0,0,0,0,0,0,1,1,0,0,0,false,false,true,-15.32,305.38998,17.01,-0.0037844495,0.0028997029,0.8025371,0.59658307,-149.601,607.621,8.331,0,-0.0010099999,2.22661
71.083336,2000,0,91.24,0.000002697398,0.000002697398,0.000002697398,0.99999994,0,0,0,0,0,0,1,1,0,0,0,false,false,true,-16.57,310.44998,17.01,-0.003816818,0.0028619391,0.8080377,0.58911127,-153.341,610.691,8.331,0,-0.00091,2.25031
71.09167,2000,0,91.24,0.000002697398,0.000002697398,0.000002697398,0.99999994,0,0,0,0,0,0,1,1,0,0,0,false,false,true,-17.85,315.53998,17.01,-0.0038491874,0.0028241759,0.8135252,0.58151,-157.251,613.65094,8.331,0,-0.00081,2.27381
71.1,2000,0,91.24,0.000002697398,0.000002697398,0.000002697398,0.99999994,0,0,0,0,0,0,1,1,0,0,0,false,false,true,-19.16,320.65,17.01,-0.0038761613,0.0027864124,0.8189998,0.57377386,-161.341,616.501,8.331,0.00010999999,-0.00071,2.2971098
71.10833,2000,0,91.24,0.000002697398,0.000002697398,0.000002697398,0.99999994,0,0,0,0,0,0,1,1,0,0,0,false,false,true,-20.5,325.78998,17.01,-0.0039031352,0.0027486489,0.82445437,0.56590825,-165.591,619.23096,8.331,0.00010999999,-0.00061,2.3203099
71.11667,2000,0,91.24,0.000002697398,0.000002697398,0.000002697398,0.99999994,0,0,0,0,0,0,1,1,0,0,0,false,false,true,-21.88,330.94998,17.01,-0.0039301086,0.002710885,0.8298856,0.557913,-170.001,621.83093,8.331,0.00010999999,-0.00061,2.3433099
71.125,2000,0,91.24,0.000002697398,0.000002697398,0.000002697398,0.99999994,0,0,0,0,0,0,1,1,0,0,0,false,false,true,-23.3,336.13,17.01,-0.003957083,0.0026731214,0.8352937,0.54978305,-174.571,624.30096,8.331,0.00010999999,-0.00061,2.36621
71.13333,2000,0,91.24,0.000002697398,0.000002697398,0.000002697398,0.99999994,0,0,0,0,0,0,1,1,0,0,0,false,false,true,-24.75,341.33,17.01,-0.003984057,0.002629963,0.8406719,0.54152364,-179.30101,626.641,8.331,0.00010999999,-0.00051,2.38891
71.14167,2000,0,91.24,0.000002697398,0.000002697398,0.000002697398,0.99999994,0,0,0,0,0,0,1,1,0,0,0,false,false,true,-26.24,346.55,17.01,-0.004011031,0.0025868048,0.8460203,0.5331292,-184.181,628.83093,8.331,0.00010999999,-0.00051,2.41151
71.15,2000,0,91.24,0.000002697398,0.000002697398,0.000002697398,0.99999994,0,0,0,0,0,0,1,1,0,0,0,false,false,true,-27.769999,351.78998,17.01,-0.004038005,0.0025436466,0.85133535,0.52460015,-189.201,630.881,8.331,0.00010999999,-0.00040999998,2.43391
71.15833,2000,0,91.24,0.000002697398,0.000002697398,0.000002697398,0.99999994,0,0,0,0,0,0,1,1,0,0,0,false,false,true,-29.349998,357.05,17.01,-0.0040649786,0.002500488,0.85661054,0.5159413,-194.36101,632.78094,8.331,0.00010999999,-0.00040999998,2.45621
71.166664,2000,0,91.24,0.000002697398,0.000002697398,0.000002697398,0.99999994,0,0,0,0,0,0,1,1,0,0,0,false,false,true,-30.97,362.31998,17.01,-0.004091953,0.0024573298,0.86184585,0.50714785,-199.661,634.52094,8.331,0.00010999999,-0.00030999997,2.4783099
71.175,2000,0,91.24,0.000002697398,0.000002697398,0.000002697398,0.99999994,0,0,0,0,0,0,1,1,0,0,0,false,false,true,-32.63,367.61,17.01,-0.0041189273,0.0024141714,0.8670378,0.4982195,-205.091,636.10095,8.331,0.00010999999,-0.00030999997,2.50031
71.183334,2000,0,91.24,0.000002697398,0.000002697398,0.000002697398,0.99999994,0,0,0,0,0,0,1,1,0,0,0,false,false,true,-34.34,372.91,17.01,-0.0041459003,0.0023710127,0.87218,0.48916146,-210.651,637.52094,8.331,0.00010999999,-0.00021,2.52211
71.191666,2000,0,91.24,0.000002697398,0.000002697398,0.000002697398,0.99999994,0,0,0,0,0,0,1,1,0,0,0,false,false,true,-36.1,378.22,17.01,-0.0041728746,0.0023278545,0.8772725,0.4799688,-216.33101,638.77094,8.331,0.00010999999,-0.00021,2.54381
71.2,2000,0,91.24,0.000002697398,0.000002697398,0.000002697398,0.99999994,0,0,0,0,0,0,1,1,0,0,0,false,false,true,-37.899998,383.53998,17.01,-0.0041998485,0.002284696,0.8823117,0.47064108,-222.131,639.85095,8.331,0.00010999999,-0.00010999999,2.56531
71.208336,2000,0,91.24,0.000002697398,0.000002697398,0.000002697398,0.99999994,0,0,0,0,0,0,1,1,0,0,0,false,false,true,-39.75,388.87,17.01,-0.0042268224,0.0022415377,0.88729155,0.46118402,-228.041,640.761,8.331,0.00010999999,-0.00010999999,2.58671
71.21667,2000,0,91.24,0.000002697398,0.000002697398,0.000002697398,0.99999994,0,0,0,0,0,0,1,1,0,0,0,false,false,true,-41.649998,394.21,17.01,-0.004248402,0.0021929848,0.89221174,0.451592,-234.061,641.49097,8.331,0.00021,0,2.60791
71.225,2000,0,91.24,0.000002697398,0.000002697398,0.000002697398,0.99999994,0,0,0,0,0,0,1,1,0,0,0,false,false,true,-43.6,399.56,17.01,-0.0042699813,0.0021444317,0.89706606,0.4418706,-240.181,642.04095,8.331,0.00021,0,2.62901
71.23333,2000,0,91.24,0.000002697398,0.000002697398,0.000002697398,0.99999994,0,0,0,0,0,0,1,1,0,0,0,false,false,true,-45.6,404.91,17.01,-0.0042915605,0.0020958784,0.9018515,0.43201968,-246.391,642.41095,8.331,0.00021,0,2.6500099
71.24167,2000,0,91.24,0.000002697398,0.000002697398,0.000002697398,0.99999994,0,0,0,0,0,0,1,1,0,0,0,false,false,true,-47.649998,410.25998,17.01,-0.0043131392,0.002047325,0.90656745,0.42203382,-252.691,642.59094,8.331,0.00010999999,0,2.67081
71.25,2000,0,91.24,0.000002697398,0.000002697398,0.000002697398,0.99999994,0,0,0,0,0,0,1,1,0,0,0,false,false,true,-49.76,415.61,17.01,-0.004334719,0.0019987721,0.91120815,0.41191858,-259.081,642.58093,8.331,0.00010999999,0,2.69151
71.25833,2000,0,91.24,0.000002697398,0.000002697398,0.000002697398,0.99999994,0,0,0,0,0,0,1,1,0,0,0,false,false,true,-51.92,420.96,17.01,-0.004356298,0.0019502189,0.91577035,0.4016738,-265.551,642.381,8.331,0.00010999999,0,2.71211
71.26667,2000,0,91.24,0.000002697398,0.000002697398,0.000002697398,0.99999994,0,0,0,0,0,0,1,1,0,0,0,false,false,true,-54.129997,426.31,17.01,-0.004377877,0.0019016657,0.9202509,0.39129958,-272.091,641.98096,8.331,0.00010999999,0,2.7325099
71.275,2000,0,91.24,0.000002697398,0.000002697398,0.000002697398,0.99999994,0,0,0,0,0,0,1,1,0,0,0,false,false,true,-56.399998,431.66,17.01,-0.0043994565,0.0018531126,0.9246468,0.38079584,-278.701,641.391,8.331,0.00010999999,0,2.75281
71.28333,2000,0,91.24,0.000002697398,0.000002697398,0.000002697398,0.99999994,0,0,0,0,0,0,1,1,0,0,0,false,false,true,-58.719997,437,17.01,-0.0044210353,0.0018045594,0.9289546,0.37016267,-285.371,640.60095,8.331,0.00010999999,0,2.77301
71.291664,2000,0,91.24,0.000002697398,0.000002697398,0.000002697398,0.99999994,0,0,0,0,0,0,1,1,0,0,0,false,false,true,-61.1,442.34,17.01,-0.004442614,0.0017506111,0.9331692,0.35940534,-292.091,639.61096,8.331,0.00010999999,0,2.79301
71.3,2000,0,91.24,0.000002697398,0.000002697398,0.000002697398,0.99999994,0,0,0,0,0,0,1,1,0,0,0,false,false,true,-63.53,447.66998,17.01,-0.0044641932,0.0016966632,0.9372875,0.34852403,-298.861,638.42096,8.331,0.00010999999,0,2.8129098
71.308334,2000,0,91.24,0.000002697398,0.000002697398,0.000002697398,0.99999994,0,0,0,0,0,0,1,1,0,0,0,false,false,true,-66.02,452.99,17.01,-0.004485773,0.0016427154,0.9413086,0.33751318,-305.671,637.02094,8.331,0.00010999999,0,2.83271
71.316666,2000,0,91.24,0.000002697398,0.000002697398,0.000002697398,0.99999994,0,0,0,0,0,0,1,1,0,0,0,false,false,true,-68.57,458.3,17.01,-0.004507352,0.0015887675,0.9452271,0.32637835,-312.521,635.42096,8.331,0.00010999999,0,2.8524098
71.325,2000,0,91.24,0.000002697398,0.000002697398,0.000002697398,0.99999994,0,0,0,0,0,0,1,1,0,0,0,false,false,true,-71.17,463.59998,17.01,-0.0045235367,0.0015348196,0.94904,0.31511933,-319.401,633.61096,8.331,0.00010999999,0,2.8719099
71.333336,2000,0,91.24,0.000002697398,0.000002697398,0.000002697398,0.99999994,0,0,0,0,0,0,1,1,0,0,0,false,false,true,-73.83,468.87997,17.01,-0.004539721,0.0014808717,0.9527424,0.30374172,-326.301,631.60095,8.331,0.00010999999,0,2.89131
71.34167,2000,0,91.24,0.000002697398,0.000002697398,0.000002697398,0.99999994,0,0,0,0,0,0,1,1,0,0,0,false,false,true,-76.549995,474.13998,17.01,-0.004555905,0.0014269234,0.956333,0.29223987,-333.221,629.381,8.331,0.00010999999,0,2.91061
71.35,2000,0,91.24,0.000002697398,0.000002697398,0.000002697398,0.99999994,0,0,0,0,0,0,1,1,0,0,0,false,false,true,-79.33,479.37997,17.01,-0.0045720898,0.0013729756,0.95980716,0.2806195,-340.151,626.96094,8.331,0.00010999999,0,2.92981
71.35833,2000,0,91.24,0.000002697398,0.000002697398,0.000002697398,0.99999994,0,0,0,0,0,0,1,1,0,0,0,false,false,true,-82.159996,484.59998,17.01,-0.004588274,0.0013190276,0.9631617,0.26888034,-347.091,624.33093,8.331,0.00010999999,0,2.94891
71.36667,2000,0,91.24,0.000002697398,0.000002697398,0.000002697398,0.99999994,0,0,0,0,0,0,1,1,0,0,0,false,false,true,-85.049995,489.8,17.01,-0.0046044583,0.0012596849,0.9663921,0.25702798,-354.031,621.501,8.331,0.00010999999,0,2.96791
71.375,2000,0,91.24,0.000002697398,0.000002697398,0.000002697398,0.99999994,0,0,0,0,0,0,1,1,0,0,0,false,false,true,-88,494.97998,17.01,-0.004620643,0.0012003421,0.9694969,0.24505685,-360.961,618.46094,8.331,0.00010999999,0,2.9867098
71.38333,2000,0,91.24,0.000002697398,0.000002697398,0.000002697398,0.99999994,0,0,0,0,0,0,1,1,0,0,0,false,false,true,-91.009995,500.12997,17.01,-0.004636827,0.0011409994,0.97247154,0.2329725,-367.881,615.22095,8.331,0.00010999999,0,3.00541
71.39167,2000,0,91.24,0.000002697398,0.000002697398,0.000002697398,0.99999994,0,0,0,0,0,0,1,1,0,0,0,false,false,true,-94.079994,505.25998,17.01,-0.0046530114,0.0010816565,0.97531307,0.22077478,-374.791,611.77094,8.331,0.00010999999,0,3.02401
71.4,2000,0,91.24,0.000002697398,0.000002697398,0.000002697398,0.99999994,0,0,0,0,0,0,1,1,0,0,0,false,false,true,-97.2,510.36,17.01,-0.0046638018,0.001022314,0.9780173,0.20846918,-381.671,608.121,8.331,0.00010999999,0,3.04251
71.40833,2000,0,91.24,0.000002697398,0.000002697398,0.000002697398,0.99999994,0,0,0,0,0,0,1,1,0,0,0,false,false,true,-100.38,515.43,17.01,-0.004674591,0.0009629712,0.9805811,0.19605576,-388.521,604.27094,8.331,0.00010999999,0,3.06091
71.416664,2000,0,91.24,0.000002697398,0.000002697398,0.000002697398,0.99999994,0,0,0,0,0,0,1,1,0,0,0,false,false,true,-103.619995,520.47,17.01,-0.0046853805,0.00090362836,0.98300165,0.18353434,-395.341,600.22095,8.331,0.00010999999,0,3.07921
71.425,2000,0,91.24,0.000002697398,0.000002697398,0.000002697398,0.99999994,0,0,0,0,0,0,1,1,0,0,0,false,false,true,-106.909996,525.47,17.01,-0.0046961703,0.00084428565,0.9852759,0.17090513,-402.121,595.97095,8.331,0.00010999999,0,3.09741
71.433334,2000,0,91.24,0.000002697398,0.000002697398,0.000002697398,0.99999994,0,0,0,0,0,0,1,1,0,0,0,false,false,true,-110.259995,530.44,17.01,-0.0047069597,0.0007849428,0.98739976,0.15817331,-408.861,591.53094,8.331,0.00010999999,0,3.11551
71.441666,2000,0,91.24,0.000002697398,0.000002697398,0.000002697398,0.99999994,0,0,0,0,0,0,1,1,0,0,0,false,false,true,-113.67,535.37,17.01,-0.0047177486,0.0007256,0.98936945,0.14534447,-415.551,586.891,8.331,0.00010999999,0,3.1335099
71.45,2000,0,91.24,0.000002697398,0.000002697398,0.000002697398,0.99999994,0,0,0,0,0,0,1,1,0,0,0,false,false,true,-117.13,540.26,17.01,-0.004728539,0.0006608626,0.9911831,0.13241309,-422.181,582.061,8.331,0.00010999999,0,3.1514099
71.458336,2000,0,91.24,0.000002697398,0.000002697398,0.000002697398,0.99999994,0,0,0,0,0,0,1,1,0,0,0,false,false,true,-120.649994,545.11,17.01,-0.0047393283,0.00059612497,0.99283653,0.119384564,-428.751,577.04095,8.331,0.00010999999,0,3.16921
71.46667,2000,0,91.24,0.000002697398,0.000002697398,0.000002697398,0.99999994,0,0,0,0,0,0,1,1,0,0,0,false,false,true,-124.21999,549.92,17.01,-0.0047447234,0.00053138746,0.9943264,0.10626443,-435.261,571.831,8.331,0,0.00010999999,3.18691
71.475,2000,0,91.24,0.000002697398,0.000002697398,0.000002697398,0.99999994,0,0,0,0,0,0,1,1,0,0,0,false,false,true,-127.85,554.69,17.01,-0.0047501177,0.00046664986,0.9956497,0.09305248,-441.701,566.43097,8.331,0,0.00010999999,3.20451
71.48333,2000,0,91.24,0.000002697398,0.000002697398,0.000002697398,0.99999994,0,0,0,0,0,0,1,1,0,0,0,false,false,true,-131.53,559.41,17.01,-0.004755513,0.00040191232,0.9968035,0.079748906,-448.07098,560.85095,8.331,0,0.00010999999,3.22211
71.49167,2000,0,91.24,0.000002697398,0.000002697398,0.000002697398,0.99999994,0,0,0,0,0,0,1,1,0,0,0,false,false,true,-135.26,564.08,17.01,-0.004760908,0.00033717477,0.9977844,0.066358946,-454.361,555.081,8.331,0,0.00010999999,3.23961
71.5,2000,0,91.24,0.000002697398,0.000002697398,0.000002697398,0.99999994,0,0,0,0,0,0,1,1,0,0,0,false,false,true,-139.05,568.70996,17.01,-0.004766302,0.0002724372,0.9985893,0.052882656,-460.57098,549.141,8.331,0,0.00010999999,3.25701
71.50833,2000,0,91.24,0.000002697398,0.000002697398,0.000002697398,0.99999994,0,0,0,0,0,0,1,1,0,0,0,false,false,true,-142.89,573.29,17.01,-0.0047716973,0.00020769966,0.999215,0.03932554,-466.691,543.02094,8.331,0,0.00010999999,3.2743099
71.51667,2000,0,91.24,0.000002697398,0.000002697398,0.000002697398,0.99999994,0,0,0,0,0,0,1,1,0,0,0,false,false,true,-146.78,577.82,17.01,-0.004771697,0.00014296209,0.9996586,0.025687406,-472.721,536.72095,8.331,0,0.00010999999,3.2915099
71.525,2000,0,91.24,0.000002697398,0.000002697398,0.000002697398,0.99999994,0,0,0,0,0,0,1,1,0,0,0,false,false,true,-150.72,582.29,17.01,-0.0047716973,0.00007822455,0.9999169,0.0119738355,-478.661,530.251,8.331,0,0.00010999999,3.3087099
71.53333,2000,0,91.24,0.000002697398,0.000002697398,0.000002697398,0.99999994,0,0,0,0,0,0,1,1,0,0,0,false,false,true,-154.70999,586.70996,17.01,-0.0047716973,0.0000134869915,0.99998695,-0.0018099542,-484.501,523.61096,8.331,0,0.00010999999,3.32581
71.541664,2000,0,91.24,0.000002697398,0.000002697398,0.000002697398,0.99999994,0,0,0,0,0,0,1,1,0,0,0,false,false,true,-158.75,591.07,17.01,-0.0047716973,-0.00005125057,0.99986583,-0.015669229,-490.241,516.811,8.331,0,0.00010999999,3.34281
71.55,2000,0,91.24,0.000002697398,0.000002697398,0.000002697398,0.99999994,0,0,0,0,0,0,1,1,0,0,0,false,false,true,-162.84,595.38,17.01,-0.004771697,-0.00011598812,0.9995506,-0.029593281,-495.88098,509.841,8.331,0,0.00010999999,3.35971
71.558334,2000,0,91.24,0.000002697398,0.000002697398,0.000002697398,0.99999994,0,0,0,0,0,0,1,1,0,0,0,false,false,true,-166.97,599.63,17.01,-0.004771697,-0.00018072566,0.99903834,-0.04358203,-501.411,502.711,8.331,0,0.00010999999,3.37661
71.566666,2000,0,91.24,0.000002697398,0.000002697398,0.000002697398,0.99999994,0,0,0,0,0,0,1,1,0,0,0,false,false,true,-171.15,603.82,17.01,-0.004766302,-0.00024546322,0.99832624,-0.057635516,-506.841,495.431,8.331,0,0.00021,3.39341
71.575,2000,0,91.24,0.000002697398,0.000002697398,0.000002697398,0.99999994,0,0,0,0,0,0,1,1,0,0,0,false,false,true,-175.37,607.95,17.01,-0.004760908,-0.0003102008,0.9974117,-0.07174295,-512.15094,487.991,8.331,0,0.00021,3.41011
71.583336,2000,0,91.24,0.000002697398,0.000002697398,0.000002697398,0.99999994,0,0,0,0,0,0,1,1,0,0,0,false,false,true,-179.64,612.01996,17.01,-0.0047555123,-0.0003803331,0.99629134,-0.08590976,-517.35095,480.401,8.331,0,0.00021,3.42681
71.59167,2000,0,91.24,0.000002697398,0.000002697398,0.000002697398,0.99999994,0,0,0,0,0,0,1,1,0,0,0,false,false,true,-183.95,616.01996,17.01,-0.0047501177,-0.00045046548,0.99496335,-0.1001251,-522.43097,472.661,8.331,0,0.00021,3.44341
71.6,2000,0,91.24,0.000002697398,0.000002697398,0.000002697398,0.99999994,0,0,0,0,0,0,1,1,0,0,0,false,false,true,-188.3,619.95996,17.01,-0.0047447234,-0.00052059785,0.99342453,-0.11438899,-527.391,464.771,8.331,0,0.00021,3.4600098
71.60833,2000,0,91.24,0.000002697398,0.000002697398,0.000002697398,0.99999994,0,0,0,0,0,0,1,1,0,0,0,false,false,true,-192.69,623.82996,17.01,-0.004733934,-0.0005907302,0.9916726,-0.12869607,-532.23096,456.731,8.331,0,0.00021,3.4765098
71.61667,2000,0,91.24,0.000002697398,0.000002697398,0.000002697398,0.99999994,0,0,0,0,0,0,1,1,0,0,0,false,false,true,-197.12999,627.64,17.01,-0.0047231433,-0.0006608625,0.9897044,-0.14304624,-536.951,448.551,8.331,0,0.00021,3.49291
71.625,2000,0,91.24,0.000002697398,0.000002697398,0.000002697398,0.99999994,0,0,0,0,0,0,1,1,0,0,0,false,false,true,-201.59999,631.38,17.01,-0.0047123544,-0.00073099486,0.9875179,-0.15743423,-541.54095,440.221,8.331,0,0.00021,3.50931
71.63333,2000,0,91.24,0.000002697398,0.000002697398,0.000002697398,0.99999994,0,0,0,0,0,0,1,1,0,0,0,false,false,true,-206.11,635.05,17.01,-0.004701565,-0.0008011273,0.98511076,-0.17185462,-546.011,431.751,8.331,-0.00010999999,0.00021,3.52561
71.64167,2000,0,91.24,0.000002697398,0.000002697398,0.000002697398,0.99999994,0,0,0,0,0,0,1,1,0,0,0,false,false,true,-210.65999,638.64996,17.01,-0.004690775,-0.0008712596,0.9824799,-0.1863073,-550.35095,423.141,8.331,-0.00021,0.00021,3.54191
71.65,2000,0,91.24,0.000002697398,0.000002697398,0.000002697398,0.99999994,0,0,0,0,0,0,1,1,0,0,0,false,false,true,-215.25,642.18,17.01,-0.004674591,-0.000941392,0.9796233,-0.200787,-554.561,414.391,8.331,-0.00021,0.00021,3.55811
71.65833,2000,0,91.24,0.000002697398,0.000002697398,0.000002697398,0.99999994,0,0,0,0,0,0,1,1,0,0,0,false,false,true,-219.87,645.63,17.01,-0.004658406,-0.0010115242,0.97653884,-0.21528824,-558.631,405.511,8.331,-0.00021,0.00010999999,3.57421
71.666664,2000,0,91.24,0.000002697398,0.000002697398,0.000002697398,0.99999994,0,0,0,0,0,0,1,1,0,0,0,false,false,true,-224.53,649.01,17.01,-0.0046422225,-0.0010816567,0.9732248,-0.22980572,-562.571,396.491,8.331,-0.00030999997,0.00010999999,3.5903099
71.675,2000,0,91.24,0.000002697398,0.000002697398,0.000002697398,0.99999994,0,0,0,0,0,0,1,1,0,0,0,false,false,true,-229.22,652.31,17.01,-0.004626038,-0.0011517891,0.96967804,-0.24433935,-566.371,387.341,8.331,-0.00030999997,0.00010999999,3.60631
71.683334,2000,0,91.24,0.000002697398,0.000002697398,0.000002697398,0.99999994,0,0,0,0,0,0,1,1,0,0,0,false,false,true,-233.93999,655.54,17.01,-0.004609853,-0.0012219213,0.9658966,-0.25888374,-570.03094,378.051,8.331,-0.00040999998,0.00010999999,3.62221
71.691666,2000,0,91.24,0.000002697398,0.000002697398,0.000002697398,0.99999994,0,0,0,0,0,0,1,1,0,0,0,false,false,true,-238.68999,658.69,17.01,-0.004588274,-0.0012920536,0.961879,-0.2734336,-573.55096,368.631,8.331,-0.00040999998,0.00010999999,3.63801
71.7,2000,0,91.24,0.000002697398,0.000002697398,0.000002697398,0.99999994,0,0,0,0,0,0,1,1,0,0,0,false,false,true,-243.47,661.76,17.01,-0.0045666946,-0.001362186,0.9576235,-0.2879834,-576.93097,359.081,8.331,-0.00040999998,0,3.65371
71.708336,2000,0,91.24,0.000002697398,0.000002697398,0.000002697398,0.99999994,0,0,0,0,0,0,1,1,0,0,0,false,false,true,-248.28,664.75,17.01,-0.0045451154,-0.0014323184,0.9531286,-0.30252782,-580.16095,349.401,8.331,-0.00051,0,3.6693099
71.71667,2000,0,91.24,0.000002697398,0.000002697398,0.000002697398,0.99999994,0,0,0,0,0,0,1,1,0,0,0,false,false,true,-253.11,667.66,17.01,-0.0045235367,-0.001497056,0.948393,-0.3170615,-583.24097,339.581,8.331,-0.00051,0,3.68481
71.725,2000,0,91.24,0.000002697398,0.000002697398,0.000002697398,0.99999994,0,0,0,0,0,0,1,1,0,0,0,false,false,true,-257.97,670.49,17.01,-0.0045019574,-0.0015617935,0.9434135,-0.3315843,-586.141,329.641,8.331,-0.00051,0,3.70111
71.73333,2000,0,91.24,0.000002697398,0.000002697398,0.000002697398,0.99999994,0,0,0,0,0,0,1,1,0,0,0,false,false,true,-262.85,673.24,17.01,-0.0044749836,-0.0016265311,0.93818885,-0.346091,-588.811,319.591,8.331,-0.00051,0,3.7193098
71.74167,2000,0,91.24,0.000002697398,0.000002697398,0.000002697398,0.99999994,0,0,0,0,0,0,1,1,0,0,0,false,false,true,-267.75998,675.89996,17.01,-0.004448009,-0.0016912686,0.93271345,-0.36058682,-591.251,309.431,8.331,-0.00040999998,0,3.73931
71.75,2000,0,91.24,0.000002697398,0.000002697398,0.000002697398,0.99999994,0,0,0,0,0,0,1,1,0,0,0,false,false,true,-272.69,678.48,17.01,-0.0044210353,-0.001761401,0.9269834,-0.37507194,-593.46094,299.171,8.331,-0.00030999997,0,3.7611098
71.75833,2000,0,91.24,0.000002697398,0.000002697398,0.000002697398,0.99999994,0,0,0,0,0,0,1,1,0,0,0,false,false,true,-277.63998,680.97,17.01,-0.0043940614,-0.0018315333,0.92099226,-0.38955164,-595.43097,288.821,8.331,-0.00030999997,0,3.78461
71.76667,2000,0,91.24,0.000002697398,0.000002697398,0.000002697398,0.99999994,0,0,0,0,0,0,1,1,0,0,0,false,false,true,-282.6,683.38,17.01,-0.004361692,-0.0019016655,0.914735,-0.40402585,-597.17096,278.371,8.331,-0.00030999997,0,3.8099098
71.775,2000,0,91.24,0.000002697398,0.000002697398,0.000002697398,0.99999994,0,0,0,0,0,0,1,1,0,0,0,false,false,true,-287.58,685.7,17.01,-0.0043293233,-0.0019717976,0.9082066,-0.41849476,-598.67096,267.841,8.331,-0.00030999997,0,3.83691
71.78333,2000,0,91.24,0.000002697398,0.000002697398,0.000002697398,0.99999994,0,0,0,0,0,0,1,1,0,0,0,false,false,true,-292.57,687.93,17.01,-0.004296955,-0.0020419303,0.90140134,-0.4329583,-599.941,257.231,8.331,-0.00030999997,-0.00010999999,3.86571
71.791664,2000,0,91.24,0.000002697398,0.000002697398,0.000002697398,0.99999994,0,0,0,0,0,0,1,1,0,0,0,false,false,true,-297.57,690.07,17.01,-0.004264586,-0.0021120626,0.89431036,-0.4474218,-600.97095,246.541,8.331,-0.00030999997,-0.00010999999,3.89621
71.8,2000,0,91.24,0.000002697398,0.000002697398,0.000002697398,0.99999994,0,0,0,0,0,0,1,1,0,0,0,false,false,true,-302.58,692.12,17.01,-0.004232218,-0.0021821952,0.88692963,-0.46187997,-601.761,235.781,8.331,-0.00030999997,-0.00021,3.9284098
71.808334,2000,0,91.24,0.000002697398,0.000002697398,0.000002697398,0.99999994,0,0,0,0,0,0,1,1,0,0,0,false,false,true,-307.59,694.07996,17.01,-0.004194454,-0.0022469326,0.8792522,-0.47633263,-602.311,224.951,8.331,-0.00030999997,-0.00021,3.9623098
71.816666,2000,0,91.24,0.000002697398,0.000002697398,0.000002697398,0.99999994,0,0,0,0,0,0,1,1,0,0,0,false,false,true,-312.61,695.95,17.01,-0.00415669,-0.00231167,0.87126744,-0.49078536,-602.61096,214.051,8.331,-0.00030999997,-0.00021,3.99801
71.825,2000,0,91.24,0.000002697398,0.000002697398,0.000002697398,0.99999994,0,0,0,0,0,0,1,1,0,0,0,false,false,true,-317.63,697.73,17.01,-0.004118927,-0.0023764076,0.86296993,-0.5052327,-602.67096,203.091,8.331,-0.00021,-0.00021,4.03541
71.833336,2000,0,91.24,0.000002697398,0.000002697398,0.000002697398,0.99999994,0,0,0,0,0,0,1,1,0,0,0,false,false,true,-322.65,699.42,17.01,-0.004081163,-0.00244654,0.85435426,-0.5196692,-602.48096,192.071,8.331,-0.00021,-0.00021,4.07451
71.84167,2000,0,91.24,0.000002697398,0.000002697398,0.000002697398,0.99999994,0,0,0,0,0,0,1,1,0,0,0,false,false,true,-327.66998,701.01996,17.01,-0.004038005,-0.0025166725,0.84540766,-0.53410035,-601.96094,180.991,8.331,-0.00021,-0.00021,4.11451
71.85,2000,0,91.24,0.000002697398,0.000002697398,0.000002697398,0.99999994,0,0,0,0,0,0,1,1,0,0,0,false,false,true,-332.69,702.52997,17.01,-0.0039948463,-0.0025868048,0.8361269,-0.54851526,-601.08093,169.86101,8.331,-0.00021,-0.00021,4.15511
71.85833,2000,0,91.24,0.000002697398,0.000002697398,0.000002697398,0.99999994,0,0,0,0,0,0,1,1,0,0,0,false,false,true,-337.69998,703.95,17.01,-0.003951688,-0.002656937,0.8265053,-0.56290865,-599.84094,158.701,8.331,-0.00021,-0.00021,4.1964097
71.86667,2000,0,91.24,0.000002697398,0.000002697398,0.000002697398,0.99999994,0,0,0,0,0,0,1,1,0,0,0,false,false,true,-342.69998,705.26996,17.01,-0.0039031352,-0.0027270697,0.81653583,-0.5772751,-598.23096,147.511,8.331,-0.00021,-0.00010999999,4.23831
71.875,2000,0,91.24,0.000002697398,0.000002697398,0.000002697398,0.99999994,0,0,0,0,0,0,1,1,0,0,0,false,false,true,-347.69,706.5,17.01,-0.0038545819,-0.0027972017,0.80621475,-0.5916037,-596.261,136.30101,8.331,-0.00021,-0.00010999999,4.28091
71.88333,2000,0,91.24,0.000002697398,0.000002697398,0.000002697398,0.99999994,0,0,0,0,0,0,1,1,0,0,0,false,false,true,-352.66,707.64,17.01,-0.0038060287,-0.0028619394,0.79553473,-0.60588914,-593.881,125.131,8.331,-0.00021,-0.00010999999,4.32431
71.89167,2000,0,91.24,0.000002697398,0.000002697398,0.000002697398,0.99999994,0,0,0,0,0,0,1,1,0,0,0,false,false,true,-357.61,708.68,17.01,-0.003752081,-0.002926677,0.78448766,-0.6201261,-591.081,114.031,8.331,-0.00021,-0.00010999999,4.36841
71.9,2000,0,91.24,0.000002697398,0.000002697398,0.000002697398,0.99999994,0,0,0,0,0,0,1,1,0,0,0,false,false,true,-362.53998,709.63,17.01,-0.0036981327,-0.0029914144,0.77306926,-0.6343036,-587.86096,103.020996,8.331,-0.00010999999,-0.00010999999,4.41321
71.90833,2000,0,91.24,0.000002697398,0.000002697398,0.000002697398,0.99999994,0,0,0,0,0,0,1,1,0,0,0,false,false,true,-367.44,710.49,17.01,-0.003644185,-0.003056152,0.7612754,-0.6484111,-584.24097,92.221,8.331,0,0,4.45781
71.916664,2000,0,91.24,0.000002697398,0.000002697398,0.000002697398,0.99999994,0,0,0,0,0,0,1,1,0,0,0,false,false,true,-372.31,711.26,17.01,-0.0035848415,-0.0031208894,0.7491019,-0.66243756,-580.24097,81.701,8.331,0,0,4.50171
71.925,2000,0,91.24,0.000002697398,0.000002697398,0.000002697398,0.99999994,0,0,0,0,0,0,1,1,0,0,0,false,false,true,-377.15,711.94,17.01,-0.0035254993,-0.003185627,0.7365444,-0.6763724,-575.881,71.461,8.331,0,0,4.54491
71.933334,2000,0,91.24,0.000002697398,0.000002697398,0.000002697398,0.99999994,0,0,0,0,0,0,1,1,0,0,0,false,false,true,-381.94998,712.54,17.01,-0.0034661565,-0.0032503647,0.7236036,-0.6901993,-571.18097,61.521,8.331,0.00010999999,0,4.58741
71.941666,2000,0,91.24,0.000002697398,0.000002697398,0.000002697398,0.99999994,0,0,0,0,0,0,1,1,0,0,0,false,false,true,-386.71,713.05,17.01,-0.003401419,-0.0033151023,0.71028095,-0.7039022,-566.16095,51.900997,8.331,0.00010999999,0.00010999999,4.62921
71.95,2000,0,91.24,0.000002697398,0.000002697398,0.000002697398,0.99999994,0,0,0,0,0,0,1,1,0,0,0,false,false,true,-391.43,713.48,17.01,0.0033366815,0.0033798397,-0.69657063,0.7174724,-560.831,42.600998,8.331,0.00021,0.00010999999,4.67021
71.958336,2000,0,91.24,0.000002697398,0.000002697398,0.000002697398,0.99999994,0,0,0,0,0,0,1,1,0,0,0,false,false,true,-396.1,713.83997,17.01,0.0032719441,0.0034445776,-0.68247944,0.7308893,-555.22095,33.631,8.331,0.00021,0.00021,4.71041
71.96667,2000,0,91.24,0.000002697398,0.000002697398,0.000002697398,0.99999994,0,0,0,0,0,0,1,1,0,0,0,false,false,true,-400.72998,714.12,17.01,0.0032018116,0.003509315,-0.66800505,0.74414146,-549.35095,25.001,8.331,0.00021,0.00030999997,4.74971
71.975,2000,0,91.24,0.000002697398,0.000002697398,0.000002697398,0.99999994,0,0,0,0,0,0,1,1,0,0,0,false,false,true,-405.31,714.32996,17.01,0.0031316795,0.0035740526,-0.6531478,0.7572155,-543.24097,16.720999,8.331,0.00021,0.00030999997,4.78811
71.98333,2000,0,91.24,0.000002697398,0.000002697398,0.000002697398,0.99999994,0,0,0,0,0,0,1,1,0,0,0,false,false,true,-409.84,714.47,17.01,0.0030615467,0.00363879,-0.6379128,0.7700938,-536.92096,8.791,8.331,0.00021,0.00040999998,4.82551
71.99167,2000,0,91.24,0.000002697398,0.000002697398,0.000002697398,0.99999994,0,0,0,0,0,0,1,1,0,0,0,false,false,true,-414.31,714.54,17.01,0.00298602,0.0037035279,-0.6223002,0.7827642,-530.41095,1.211,8.331,0.00021,0.00040999998,4.86191
72,2000,0,91.24,0.000002697398,0.000002697398,0.000002697398,0.99999994,0,0,0,0,0,0,1,1,0,0,0,false,false,true,-418.72998,714.55,17.01,0.0029104925,0.0037628703,-0.6063154,0.79520994,-523.73096,-6.0109997,8.331,0.00021,0.00040999998,4.89731
72.00833,2000,0,91.24,0.000002697398,0.000002697398,0.000002697398,0.99999994,0,0,0,0,0,0,1,1,0,0,0,false,false,true,-423.09,714.5,17.01,0.0028349652,0.003822213,-0.5899637,0.80741566,-516.90094,-12.871,8.331,0.00021,0.00051,4.93161
72.01667,2000,0,91.24,0.000002697398,0.000002697398,0.000002697398,0.99999994,0,0,0,0,0,0,1,1,0,0,0,false,false,true,-427.4,714.38995,17.01,0.0027540433,0.0038815557,-0.57325053,0.8193662,-509.941,-19.380999,8.321,0.00021,0.00061,4.9647098
72.025,2000,0,91.24,0.000002697398,0.000002697398,0.000002697398,0.99999994,0,0,0,0,0,0,1,1,0,0,0,false,false,true,-431.65,714.23,17.01,0.0026731214,0.0039408985,-0.5561813,0.83104724,-502.861,-25.530998,8.321,0.00021,0.00061,4.99581
72.03333,2000,0,91.24,0.000002697398,0.000002697398,0.000002697398,0.99999994,0,0,0,0,0,0,1,1,0,0,0,false,false,true,-435.84,714.01996,17.01,0.0025921997,0.0040002414,-0.5387615,0.84244484,-495.641,-31.270998,8.321,0.00021,0.00061,5.02341
72.041664,2000,0,91.24,0.000002697398,0.000002697398,0.000002697398,0.99999994,0,0,0,0,0,0,1,1,0,0,0,false,false,true,-439.97,713.76,17.01,0.0025058826,0.004054189,-0.5210125,0.85353565,-488.311,-36.600998,8.321,0.00010999999,0.00061,5.04741
72.05,2000,0,91.24,0.000002697398,0.000002697398,0.000002697398,0.99999994,0,0,0,0,0,0,1,1,0,0,0,false,false,true,-444.03998,713.45996,17.01,0.002419566,0.004108137,-0.50294524,0.8643051,-480.901,-41.531,8.321,0,0.00071,5.06781
72.058334,2000,0,91.24,0.000002697398,0.000002697398,0.000002697398,0.99999994,0,0,0,0,0,0,1,1,0,0,0,false,false,true,-448.05,713.11,17.01,0.0023332492,0.0041620852,-0.48458132,0.87473315,-473.441,-46.071,8.321,0,0.00081,5.0844097
72.066666,2000,0,91.24,0.000002697398,0.000002697398,0.000002697398,0.99999994,0,0,0,0,0,0,1,1,0,0,0,false,false,true,-452,712.73,17.01,0.0022415377,0.004216033,-0.46594223,0.8848022,-465.951,-50.220997,8.321,0,0.00081,5.09711
72.075,2000,0,91.24,0.000002697398,0.000002697398,0.000002697398,0.99999994,0,0,0,0,0,0,1,1,0,0,0,false,false,true,-455.88,712.31,17.01,0.0021498264,0.0042645866,-0.4470496,0.8944964,-458.471,-54.001,8.321,0,0.00081,5.1058097
72.083336,2000,0,91.24,0.000002697398,0.000002697398,0.000002697398,0.99999994,0,0,0,0,0,0,1,1,0,0,0,false,false,true,-459.69998,711.86,17.01,0.0020581146,0.0043131392,-0.42791954,0.9038041,-451.021,-57.431,8.321,0,0.00081,5.11031
72.09167,2000,0,91.24,0.000002697398,0.000002697398,0.000002697398,0.99999994,0,0,0,0,0,0,1,1,0,0,0,false,false,true,-463.46,711.38,17.01,0.001966403,0.0043616924,-0.40857914,0.9127103,-443.541,-60.560997,8.321,-0.00010999999,0.00081,5.1104097
72.1,2000,0,91.24,0.000002697398,0.000002697398,0.000002697398,0.99999994,0,0,0,0,0,0,1,1,0,0,0,false,false,true,-467.16,710.88,17.01,0.001869297,0.0044048512,-0.3890553,0.92120194,-436.061,-63.400997,8.321,-0.00021,0.00071,5.10611
72.10833,2000,0,91.24,0.000002697398,0.000002697398,0.000002697398,0.99999994,0,0,0,0,0,0,1,1,0,0,0,false,false,true,-470.78998,710.35,17.01,0.0017721906,0.004448009,-0.36936963,0.92927015,-428.60098,-65.961,8.321,-0.00021,0.00061,5.0974097
72.11667,2000,0,91.24,0.000002697398,0.000002697398,0.000002697398,0.99999994,0,0,0,0,0,0,1,1,0,0,0,false,false,true,-474.36,709.8,17.01,0.0016750843,0.0044857734,-0.34954908,0.9369058,-421.181,-68.251,8.321,-0.00021,0.00051,5.08411
72.125,2000,0,91.24,0.000002697398,0.000002697398,0.000002697398,0.99999994,0,0,0,0,0,0,1,1,0,0,0,false,false,true,-477.87,709.23,17.01,0.0015779779,0.004523536,-0.329626,0.94409937,-413.85098,-70.281,8.311,-0.00021,0.00051,5.06571
72.13333,2000,0,91.24,0.000002697398,0.000002697398,0.000002697398,0.99999994,0,0,0,0,0,0,1,1,0,0,0,false,false,true,-481.31998,708.64,17.01,0.0014808716,0.0045559052,-0.3096274,0.95084584,-406.431,-72.111,8.311,-0.00030999997,0.00040999998,5.04671
72.14167,2000,0,91.24,0.000002697398,0.000002697398,0.000002697398,0.99999994,0,0,0,0,0,0,1,1,0,0,0,false,false,true,-484.71,708.04,17.01,0.0013837651,0.004588274,-0.28956407,0.9571466,-398.931,-73.730995,8.311,-0.00030999997,0.00030999997,5.02741
72.15,2000,0,91.24,0.000002697398,0.000002697398,0.000002697398,0.99999994,0,0,0,0,0,0,1,1,0,0,0,false,false,true,-488.03,707.43,17.01,0.0012866588,0.004615248,-0.26945218,0.9630018,-391.351,-75.141,8.311,-0.00040999998,0.00021,5.00791
72.15833,2000,0,91.24,0.000002697398,0.000002697398,0.000002697398,0.99999994,0,0,0,0,0,0,1,1,0,0,0,false,false,true,-491.28998,706.8,17.01,0.0011895526,0.0046422225,-0.24930261,0.9684138,-383.721,-76.331,8.311,-0.00051,0.00010999999,4.98831
72.166664,2000,0,91.24,0.000002697398,0.000002697398,0.000002697398,0.99999994,0,0,0,0,0,0,1,1,0,0,0,false,false,true,-494.49,706.16,17.01,0.0010924463,0.0046638018,-0.2291206,0.9733862,-376.041,-77.300995,8.311,-0.00051,0,4.96861
72.175,2000,0,91.24,0.000002697398,0.000002697398,0.000002697398,0.99999994,0,0,0,0,0,0,1,1,0,0,0,false,false,true,-497.62,705.51996,17.01,0.0009953397,0.00468538,-0.20892234,0.97792035,-368.311,-78.041,8.311,-0.00051,0,4.94901
72.183334,2000,0,91.24,0.000002697398,0.000002697398,0.000002697398,0.99999994,0,0,0,0,0,0,1,1,0,0,0,false,false,true,-500.69,704.87,17.01,0.0008982336,0.00470696,-0.1887134,0.9820205,-360.551,-78.550995,8.311,-0.00061,0,4.92971
72.191666,2000,0,91.24,0.000002697398,0.000002697398,0.000002697398,0.99999994,0,0,0,0,0,0,1,1,0,0,0,false,false,true,-503.69,704.22,17.01,0.00080112723,0.0047231438,-0.16850439,0.9856892,-352.761,-78.831,8.311,-0.00061,0,4.91081
72.2,2000,0,91.24,0.000002697398,0.000002697398,0.000002697398,0.99999994,0,0,0,0,0,0,1,1,0,0,0,false,false,true,-506.62997,703.56,17.01,0.0007040209,0.0047393283,-0.1483008,0.98893064,-344.951,-78.881,8.311,-0.00061,0,4.89241
72.208336,2000,0,91.24,0.000002697398,0.000002697398,0.000002697398,0.99999994,0,0,0,0,0,0,1,1,0,0,0,false,false,true,-509.5,702.89996,17.01,0.0006069146,0.0047501177,-0.12811342,0.9917479,-337.121,-78.690994,8.311,-0.00061,-0.00010999999,4.87471
72.21667,2000,0,91.24,0.000002697398,0.000002697398,0.000002697398,0.99999994,0,0,0,0,0,0,1,1,0,0,0,false,false,true,-512.31,702.24,17.01,0.0005098082,0.0047609075,-0.1079422,0.9941456,-329.281,-78.270996,8.311,-0.00061,-0.00021,4.8579097
72.225,2000,0,91.24,0.000002697398,0.000002697398,0.000002697398,0.99999994,0,0,0,0,0,0,1,1,0,0,0,false,false,true,-515.05,701.58997,17.01,0.0004127019,0.004771697,-0.08779795,0.9961267,-321.431,-77.601,8.311,-0.00061,-0.00021,4.8421097
72.23333,2000,0,91.24,0.000002697398,0.000002697398,0.000002697398,0.99999994,0,0,0,0,0,0,1,1,0,0,0,false,false,true,-517.73,700.94,17.01,0.0003155956,0.0047770925,-0.067686066,0.99769515,-313.571,-76.690994,8.311,-0.00061,-0.00030999997,4.82751
72.24167,2000,0,91.24,0.000002697398,0.000002697398,0.000002697398,0.99999994,0,0,0,0,0,0,1,1,0,0,0,false,false,true,-520.33997,700.3,17.01,0.00021848927,0.004782487,-0.04760655,0.99885464,-305.711,-75.531,8.311,-0.00061,-0.00040999998,4.81431
72.25,2000,0,91.24,0.000002697398,0.000002697398,0.000002697398,0.99999994,0,0,0,0,0,0,1,1,0,0,0,false,false,true,-522.89,699.67,17.01,0.00012138292,0.0047824867,-0.0275594,0.99960864,-297.851,-74.120995,8.311,-0.00051,-0.00040999998,4.80271
72.25833,2000,0,91.24,0.000002697398,0.000002697398,0.000002697398,0.99999994,0,0,0,0,0,0,1,1,0,0,0,false,false,true,-525.37,699.05,17.01,0.000024276582,0.0047824867,-0.0075500594,0.99996,-290.001,-72.451,8.311,-0.00040999998,-0.00040999998,4.79281
72.26667,2000,0,91.24,0.000002697398,0.000002697398,0.000002697398,0.99999994,0,0,0,0,0,0,1,1,0,0,0,false,false,true,-527.79,698.45,17.01,-0.00007282975,0.004782487,0.012421603,0.99991137,-282.171,-70.511,8.311,-0.00030999997,-0.00051,4.7849097
72.275,2000,0,91.24,0.000002697398,0.000002697398,0.000002697398,0.99999994,0,0,0,0,0,0,1,1,0,0,0,false,false,true,-530.14,697.86,17.01,-0.00016993607,0.004777092,0.032355372,0.9994649,-274.361,-68.300995,8.311,-0.00021,-0.00051,4.77911
