time,ball_loc_x,ball_loc_y,ball_loc_z,ball_rot_x,ball_rot_y,ball_rot_z,ball_rot_w,ball_vel_x,ball_vel_y,ball_vel_z,ball_ang_x,ball_ang_y,ball_ang_z,player0_throttle,player0_steer,player0_pitch,player0_yaw,player0_roll,player0_jump,player0_boost,player0_handbrake,player0_loc_x,player0_loc_y,player0_loc_z,player0_rot_x,player0_rot_y,player0_rot_z,player0_rot_w,player0_vel_x,player0_vel_y,player0_vel_z,player0_ang_x,player0_ang_y,player0_ang_z
153.68333,2000,0,91.24,0.000002697398,0.000002697398,0.000002697398,0.99999994,0,0,0,0,0,0,0,0,0,0,0,false,false,false,0,0.14,17.01,-0.00336905,0.0033798397,0.7071014,0.7070959,0,0,8.321,-0.00051,0,0
153.69167,2000,0,73,0.000002697398,0.000002697398,0.000002697398,0.99999994,0,0,0,0,0,0,1,0,0,0,0,false,false,false,0,0,16.94,0.0000026973983,0.0000026973983,0.70710677,0.70710677,0,13.331,2.041,-0.050809998,0,0
153.7,2000,0,87.6,0.000002697398,0.000002697398,0.000002697398,0.99999994,0,0,0,0,0,0,1,0,0,0,0,false,false,false,0,0.11,16.89,-0.00014835689,0.00015375168,0.7071067,0.7071067,0,26.550999,3.8809998,-0.085609995,0,0
153.70833,2000,0,90.52,0.000002697398,0.000002697398,0.000002697398,0.99999994,0,0,0,0,0,0,1,0,0,0,0,false,false,false,0,0.32999998,16.85,-0.00040191234,0.00040730715,0.70710653,0.70710677,0,39.650997,5.481,-0.107209995,0,0
153.71666,2000,0,91.1,0.000002697398,0.000002697398,0.000002697398,0.99999994,0,0,0,0,0,0,1,0,0,0,0,false,false,false,0,0.65999997,16.83,-0.00072020525,0.00072560005,0.7071067,0.707106,0,52.641,6.791,-0.11621,0,0
153.725,2000,0,91.22,0.000002697398,0.000002697398,0.000002697398,0.99999994,0,0,0,0,0,0,1,0,0,0,0,false,false,false,0,1.1,16.82,-0.0010600775,0.0010654721,0.70710516,0.7071067,0,65.520996,7.7409997,-0.11450999,0,0
153.73334,2000,0,91.24,0.000002697398,0.000002697398,0.000002697398,0.99999994,0,0,0,0,0,0,1,0,0,0,0,false,false,false,0,1.65,16.82,-0.0013999495,0.0014053443,0.7071067,0.70710397,0,78.291,8.431,-0.10641,0,0
153.74167,2000,0,91.24,0.000002697398,0.000002697398,0.000002697398,0.99999994,0,0,0,0,0,0,1,0,0,0,0,false,false,false,0,2.3,16.82,-0.0017128479,0.0017182427,0.707108,0.70710135,0,90.951,8.9210005,-0.094909996,0,0
153.75,2000,0,91.24,0.000002697398,0.000002697398,0.000002697398,0.99999994,0,0,0,0,0,0,1,0,0,0,0,false,false,false,0,3.06,16.83,-0.001993377,0.001998772,0.70710653,0.7071013,0,103.501,9.281,-0.082109995,0,0
153.75833,2000,0,91.24,0.000002697398,0.000002697398,0.000002697398,0.99999994,0,0,0,0,0,0,1,0,0,0,0,false,false,false,0,3.9199998,16.84,-0.002236143,0.0022415377,0.7071051,0.7071013,0,115.940994,9.521,-0.06921,0,0
153.76666,2000,0,91.24,0.000002697398,0.000002697398,0.000002697398,0.99999994,0,0,0,0,0,0,1,0,0,0,0,false,false,false,0,4.89,16.85,-0.0024411452,0.00244654,0.7071037,0.7071013,0,128.281,9.6710005,-0.05701,0,0
153.775,2000,0,91.24,0.000002697398,0.000002697398,0.000002697398,0.99999994,0,0,0,0,0,0,1,0,0,0,0,false,false,false,0,5.96,16.859999,-0.002608384,0.002613779,0.70710254,0.70710135,0,140.511,9.771,-0.04601,0,0
153.78334,2000,0,91.24,0.000002697398,0.000002697398,0.000002697398,0.99999994,0,0,0,0,0,0,1,0,0,0,0,false,false,false,0,7.1299996,16.869999,-0.0027432537,0.0027486486,0.7071015,0.7071013,0,152.641,9.821,-0.03651,0,0
153.79167,2000,0,91.24,0.000002697398,0.000002697398,0.000002697398,0.99999994,0,0,0,0,0,0,1,0,0,0,0,false,false,false,0,8.4,16.88,-0.0028511498,0.0028565445,0.70710063,0.7071013,0,164.66101,9.841001,-0.02841,0,0
153.8,2000,0,91.24,0.000002697398,0.000002697398,0.000002697398,0.99999994,0,0,0,0,0,0,1,0,0,0,0,false,false,false,0,9.7699995,16.89,-0.0029374664,0.0029428613,0.7071013,0.7070999,0,176.58101,9.821,-0.02221,0,0
153.80833,2000,0,91.24,0.000002697398,0.000002697398,0.000002697398,0.99999994,0,0,0,0,0,0,1,0,0,0,0,false,false,false,0,11.24,16.9,-0.003002204,0.003007599,0.7070994,0.7071013,0,188.401,9.761001,-0.01771,0,0
153.81667,2000,0,91.24,0.000002697398,0.000002697398,0.000002697398,0.99999994,0,0,0,0,0,0,1,0,0,0,0,false,false,false,0,12.809999,16.91,-0.003056152,0.0030615467,0.7071013,0.7070989,0,200.11101,9.681,-0.014409999,0,0
153.825,2000,0,91.24,0.000002697398,0.000002697398,0.000002697398,0.99999994,0,0,0,0,0,0,1,0,0,0,0,false,false,false,0,14.48,16.92,-0.0030993104,0.0031047051,0.70709854,0.7071013,0,211.72101,9.591001,-0.011809999,0,0
153.83333,2000,0,91.24,0.000002697398,0.000002697398,0.000002697398,0.99999994,0,0,0,0,0,0,1,0,0,0,0,false,false,false,0,16.24,16.93,-0.0031316795,0.0031370742,0.707096,0.70710367,0,223.231,9.491,-0.00981,0,0
153.84166,2000,0,91.24,0.000002697398,0.000002697398,0.000002697398,0.99999994,0,0,0,0,0,0,1,0,0,0,0,false,false,false,0,18.1,16.94,-0.0031586532,0.0031640478,0.7070959,0.70710343,0,234.651,9.391,-0.0083099995,0,0
153.85,2000,0,91.24,0.000002697398,0.000002697398,0.000002697398,0.99999994,0,0,0,0,0,0,1,0,0,0,0,false,false,false,0,20.06,16.949999,-0.003185627,0.003191022,0.7070959,0.70710313,0,245.97101,9.281,-0.00711,0,0
153.85834,2000,0,91.24,0.000002697398,0.000002697398,0.000002697398,0.99999994,0,0,0,0,0,0,1,0,0,0,0,false,false,false,0,22.109999,16.96,-0.0032072063,0.0032126012,0.7070959,0.70710295,0,257.191,9.1710005,-0.00611,0,0
153.86667,2000,0,91.24,0.000002697398,0.000002697398,0.000002697398,0.99999994,0,0,0,0,0,0,1,0,0,0,0,false,false,false,0,24.25,16.97,-0.0032233908,0.0032287855,0.7070959,0.70710284,0,268.321,9.061,-0.00521,0,0
153.875,2000,0,91.24,0.000002697398,0.000002697398,0.000002697398,0.99999994,0,0,0,0,0,0,1,0,0,0,0,false,false,false,0,26.49,16.98,-0.003239575,0.0032449698,0.7070959,0.70710266,0,279.351,8.951,-0.00451,0,0
153.88333,2000,0,91.24,0.000002697398,0.000002697398,0.000002697398,0.99999994,0,0,0,0,0,0,1,0,0,0,0,false,false,false,0,28.82,16.99,-0.0032503647,0.0032557594,0.7070959,0.7071026,0,290.29102,8.841001,-0.00391,0,0
153.89166,2000,0,91.24,0.000002697398,0.000002697398,0.000002697398,0.99999994,0,0,0,0,0,0,1,0,0,0,0,false,false,false,0,31.24,17,-0.0032611543,0.003266549,0.7070959,0.7071025,0,301.131,8.731,-0.00341,0,0
153.9,2000,0,91.24,0.000002697398,0.000002697398,0.000002697398,0.99999994,0,0,0,0,0,0,1,0,0,0,0,false,false,false,0,33.75,17.01,-0.003271944,0.0032773386,0.7070959,0.70710236,0,311.881,8.621,-0.00301,0,0
153.90834,2000,0,91.24,0.000002697398,0.000002697398,0.000002697398,0.99999994,0,0,0,0,0,0,1,0,0,0,0,false,false,false,0,36.35,17.01,-0.0032827335,0.0032881282,0.7070959,0.7071023,0,322.541,8.511001,-0.00261,0,0
153.91667,2000,0,91.24,0.000002697398,0.000002697398,0.000002697398,0.99999994,0,0,0,0,0,0,1,0,0,0,0,false,false,false,0,39.04,17.01,-0.0032881282,0.003293523,0.7070959,0.70710224,0,333.101,8.441,-0.0023100001,0,0
153.925,2000,0,91.24,0.000002697398,0.000002697398,0.000002697398,0.99999994,0,0,0,0,0,0,1,0,0,0,0,false,false,false,0,41.82,17.01,-0.0032935233,0.003298918,0.707096,0.7071022,0,343.571,8.391,-0.00201,0,0
153.93333,2000,0,91.24,0.000002697398,0.000002697398,0.000002697398,0.99999994,0,0,0,0,0,0,1,0,0,0,0,false,false,false,0,44.68,17.01,-0.0032989178,0.0033043127,0.7070959,0.7071021,0,353.951,8.361,-0.0018099999,0,0
153.94167,2000,0,91.24,0.000002697398,0.000002697398,0.000002697398,0.99999994,0,0,0,0,0,0,1,0,0,0,0,false,false,false,0,47.629997,17.01,-0.0033043127,0.0033097074,0.7070959,0.70710206,0,364.251,8.341001,-0.0016099999,0,0
153.95,2000,0,91.24,0.000002697398,0.000002697398,0.000002697398,0.99999994,0,0,0,0,0,0,1,0,0,0,0,false,false,false,0,50.67,17.01,-0.0033097074,0.0033151023,0.7070959,0.707102,0,374.461,8.331,-0.0014099999,0,0
153.95833,2000,0,91.24,0.000002697398,0.000002697398,0.000002697398,0.99999994,0,0,0,0,0,0,1,0,0,0,0,false,false,false,0,53.789997,17.01,-0.0033151023,0.003320497,0.7070959,0.707102,0,384.581,8.321,-0.00131,0,0
153.96666,2000,0,91.24,0.000002697398,0.000002697398,0.000002697398,0.99999994,0,0,0,0,0,0,1,0,0,0,0,false,false,false,0,56.989998,17.01,-0.0033204972,0.0033258921,0.707096,0.70710194,0,394.611,8.321,-0.00111,0,0
153.975,2000,0,91.24,0.000002697398,0.000002697398,0.000002697398,0.99999994,0,0,0,0,0,0,1,0,0,0,0,false,false,false,0,60.28,17.01,-0.003325892,0.0033312866,0.7070959,0.7071019,0,404.561,8.321,-0.0010099999,0,0
153.98334,2000,0,91.24,0.000002697398,0.000002697398,0.000002697398,0.99999994,0,0,0,0,0,0,1,0,0,0,0,false,false,false,0,63.649998,17.01,-0.0033312866,0.0033366815,0.7070959,0.7071018,0,414.421,8.321,-0.00081,0,0
153.99167,2000,0,91.24,0.000002697398,0.000002697398,0.000002697398,0.99999994,0,0,0,0,0,0,1,0,0,0,0,false,false,false,0,67.1,17.01,-0.0033312866,0.0033366815,0.7070959,0.7071018,0,424.201,8.321,-0.00061,0,0
154,2000,0,91.24,0.000002697398,0.000002697398,0.000002697398,0.99999994,0,0,0,0,0,0,1,0,0,0,0,false,false,false,0,70.64,17.01,-0.0033312866,0.0033366815,0.7070959,0.7071018,0,433.891,8.321,-0.00051,0,0
154.00833,2000,0,91.24,0.000002697398,0.000002697398,0.000002697398,0.99999994,0,0,0,0,0,0,1,0,0,0,0,false,false,false,0,74.26,17.01,-0.0033312866,0.0033366815,0.7070959,0.7071018,0,443.501,8.321,-0.00051,0,0
154.01666,2000,0,91.24,0.000002697398,0.000002697398,0.000002697398,0.99999994,0,0,0,0,0,0,1,0,0,0,0,false,false,false,0,77.96,17.01,-0.0033312866,0.0033366815,0.7070959,0.7071018,0,453.031,8.321,-0.00051,0,0
154.025,2000,0,91.24,0.000002697398,0.000002697398,0.000002697398,0.99999994,0,0,0,0,0,0,1,0,0,0,0,false,false,false,0,81.74,17.01,-0.0033312866,0.0033366815,0.7070959,0.7071018,0,462.481,8.321,-0.00051,0,0
154.03334,2000,0,91.24,0.000002697398,0.000002697398,0.000002697398,0.99999994,0,0,0,0,0,0,1,0,0,0,0,false,false,false,0,85.59,17.01,-0.0033312866,0.0033366815,0.7070959,0.7071018,0,471.85098,8.321,-0.00051,0,0
154.04167,2000,0,91.24,0.000002697398,0.000002697398,0.000002697398,0.99999994,0,0,0,0,0,0,1,0,0,0,0,false,false,false,0,89.52,17.01,-0.0033312866,0.0033366815,0.7070959,0.7071018,0,481.141,8.321,-0.00051,0,0
154.05,2000,0,91.24,0.000002697398,0.000002697398,0.000002697398,0.99999994,0,0,0,0,0,0,1,0,0,0,0,false,false,false,0,93.53,17.01,-0.0033312866,0.0033366815,0.7070959,0.7071018,0,490.35098,8.321,-0.00051,0,0
154.05833,2000,0,91.24,0.000002697398,0.000002697398,0.000002697398,0.99999994,0,0,0,0,0,0,1,0,0,0,0,false,false,false,0,97.619995,17.01,-0.0033312866,0.0033366815,0.7070959,0.7071018,0,499.481,8.321,-0.00051,0,0
154.06667,2000,0,91.24,0.000002697398,0.000002697398,0.000002697398,0.99999994,0,0,0,0,0,0,1,0,0,0,0,false,false,false,0,101.78,17.01,-0.0033312866,0.0033366815,0.7070959,0.7071018,0,508.531,8.321,-0.00051,0,0
154.075,2000,0,91.24,0.000002697398,0.000002697398,0.000002697398,0.99999994,0,0,0,0,0,0,1,0,0,0,0,false,false,false,0,106.02,17.01,-0.0033312866,0.0033366815,0.7070959,0.7071018,0,517.501,8.321,-0.00051,0,0
154.08333,2000,0,91.24,0.000002697398,0.000002697398,0.000002697398,0.99999994,0,0,0,0,0,0,1,0,0,0,0,false,false,false,0,110.329994,17.01,-0.0033312866,0.0033366815,0.7070959,0.7071018,0,526.391,8.321,-0.00051,0,0
154.09166,2000,0,91.24,0.000002697398,0.000002697398,0.000002697398,0.99999994,0,0,0,0,0,0,1,0,0,0,0,false,false,false,0,114.72,17.01,-0.0033312866,0.0033366815,0.7070959,0.7071018,0,535.21094,8.321,-0.00051,0,0
154.1,2000,0,91.24,0.000002697398,0.000002697398,0.000002697398,0.99999994,0,0,0,0,0,0,1,0,0,0,0,false,false,false,0,119.18,17.01,-0.0033312866,0.0033366815,0.7070959,0.7071018,0,543.951,8.321,-0.00061,0,0
154.10834,2000,0,91.24,0.000002697398,0.000002697398,0.000002697398,0.99999994,0,0,0,0,0,0,1,0,0,0,0,false,false,false,0,123.71,17.01,-0.0033312866,0.0033366815,0.7070959,0.7071018,0,552.621,8.321,-0.00061,0,0
154.11667,2000,0,91.24,0.000002697398,0.000002697398,0.000002697398,0.99999994,0,0,0,0,0,0,1,0,0,0,0,false,false,false,0,128.31999,17.01,-0.0033312866,0.0033366815,0.7070959,0.7071018,0,561.21094,8.321,-0.00061,0,0
154.125,2000,0,91.24,0.000002697398,0.000002697398,0.000002697398,0.99999994,0,0,0,0,0,0,1,0,0,0,0,false,false,false,0,133,17.01,-0.0033312866,0.0033366815,0.7070959,0.7071018,0,569.73096,8.321,-0.00061,0,0
154.13333,2000,0,91.24,0.000002697398,0.000002697398,0.000002697398,0.99999994,0,0,0,0,0,0,1,0,0,0,0,false,false,false,0,137.75,17.01,-0.0033312866,0.0033366815,0.7070959,0.7071018,0,578.18097,8.321,-0.00061,0,0
154.14166,2000,0,91.24,0.000002697398,0.000002697398,0.000002697398,0.99999994,0,0,0,0,0,0,1,0,0,0,0,false,false,false,0,142.56999,17.01,-0.0033312866,0.0033366815,0.7070959,0.7071018,0,586.55096,8.321,-0.00061,0,0
154.15,2000,0,91.24,0.000002697398,0.000002697398,0.000002697398,0.99999994,0,0,0,0,0,0,1,0,0,0,0,false,false,false,0,147.45999,17.01,-0.0033312866,0.0033366815,0.7070959,0.7071018,0,594.85095,8.321,-0.00061,0,0
154.15834,2000,0,91.24,0.000002697398,0.000002697398,0.000002697398,0.99999994,0,0,0,0,0,0,1,0,0,0,0,false,false,false,0,152.42,17.01,-0.0033312866,0.0033366815,0.7070959,0.7071018,0,603.08093,8.321,-0.00061,0,0
154.16667,2000,0,91.24,0.000002697398,0.000002697398,0.000002697398,0.99999994,0,0,0,0,0,0,1,0,0,0,0,false,false,false,0,157.45,17.01,-0.0033312866,0.0033366815,0.7070959,0.7071018,0,611.24097,8.321,-0.00061,0,0
154.175,2000,0,91.24,0.000002697398,0.000002697398,0.000002697398,0.99999994,0,0,0,0,0,0,1,0,0,0,0,false,false,false,0,162.54,17.01,-0.0033312866,0.0033366815,0.7070959,0.7071018,0,619.33093,8.321,-0.00061,0,0
154.18333,2000,0,91.24,0.000002697398,0.000002697398,0.000002697398,0.99999994,0,0,0,0,0,0,1,0,0,0,0,false,false,false,0,167.7,17.01,-0.0033312866,0.0033366815,0.7070959,0.7071018,0,627.35095,8.321,-0.00071,0,0
154.19167,2000,0,91.24,0.000002697398,0.000002697398,0.000002697398,0.99999994,0,0,0,0,0,0,1,0,0,0,0,false,false,false,0,172.93,17.01,-0.0033312866,0.0033366815,0.7070959,0.7071018,0,635.30096,8.321,-0.00071,0,0
154.2,2000,0,91.24,0.000002697398,0.000002697398,0.000002697398,0.99999994,0,0,0,0,0,0,1,0,0,0,0,false,false,false,0,178.22,17.01,-0.0033312866,0.0033366815,0.7070959,0.7071018,0,643.18097,8.321,-0.00071,0,0
154.20833,2000,0,91.24,0.000002697398,0.000002697398,0.000002697398,0.99999994,0,0,0,0,0,0,1,0,0,0,0,false,false,false,0,183.58,17.01,-0.0033312866,0.0033366815,0.7070959,0.7071018,0,651.001,8.321,-0.00071,0,0
154.21666,2000,0,91.24,0.000002697398,0.000002697398,0.000002697398,0.99999994,0,0,0,0,0,0,1,0,0,0,0,false,false,false,0,189.01,17.01,-0.0033312866,0.0033366815,0.7070959,0.7071018,0,658.751,8.321,-0.00071,0,0
154.225,2000,0,91.24,0.000002697398,0.000002697398,0.000002697398,0.99999994,0,0,0,0,0,0,1,0,0,0,0,false,false,false,0,194.5,17.01,-0.0033312866,0.0033366815,0.7070959,0.7071018,0,666.43097,8.321,-0.00071,0,0
154.23334,2000,0,91.24,0.000002697398,0.000002697398,0.000002697398,0.99999994,0,0,0,0,0,0,1,0,0,0,0,false,false,false,0,200.05,17.01,-0.0033312866,0.0033366815,0.7070959,0.7071018,0,674.05096,8.321,-0.00071,0,0
154.24167,2000,0,91.24,0.000002697398,0.000002697398,0.000002697398,0.99999994,0,0,0,0,0,0,1,0,0,0,0,false,false,false,0,205.67,17.01,-0.0033312866,0.0033366815,0.7070959,0.7071018,0,681.60095,8.321,-0.00071,0,0
154.25,2000,0,91.24,0.000002697398,0.000002697398,0.000002697398,0.99999994,0,0,0,0,0,0,1,0,0,0,0,false,false,false,0,211.34999,17.01,-0.0033312866,0.0033366815,0.7070959,0.7071018,0,689.09094,8.321,-0.00071,0,0
154.25833,2000,0,91.24,0.000002697398,0.000002697398,0.000002697398,0.99999994,0,0,0,0,0,0,1,0,0,0,0,false,false,false,0,217.09,17.01,-0.0033312866,0.0033366815,0.7070959,0.7071018,0,696.511,8.321,-0.00071,0,0
154.26666,2000,0,91.24,0.000002697398,0.000002697398,0.000002697398,0.99999994,0,0,0,0,0,0,1,0,0,0,0,false,false,false,0,222.89,17.01,-0.0033312866,0.0033366815,0.7070959,0.7071018,0,703.871,8.321,-0.00071,0,0
154.275,2000,0,91.24,0.000002697398,0.000002697398,0.000002697398,0.99999994,0,0,0,0,0,0,1,0,0,0,0,false,false,false,0,228.76,17.01,-0.0033312866,0.0033366815,0.7070959,0.7071018,0,711.17096,8.321,-0.00071,0,0
154.28334,2000,0,91.24,0.000002697398,0.000002697398,0.000002697398,0.99999994,0,0,0,0,0,0,1,0,0,0,0,false,false,false,0,234.68999,17.01,-0.0033312866,0.0033366815,0.7070959,0.7071018,0,718.40094,8.321,-0.00081,0,0
154.29167,2000,0,91.24,0.000002697398,0.000002697398,0.000002697398,0.99999994,0,0,0,0,0,0,1,0,0,0,0,false,false,false,0,240.68,17.01,-0.0033312866,0.0033366815,0.7070959,0.7071018,0,725.571,8.321,-0.00081,0,0
154.3,2000,0,91.24,0.000002697398,0.000002697398,0.000002697398,0.99999994,0,0,0,0,0,0,1,0,0,0,0,false,false,false,0,246.73,17.01,-0.0033312866,0.0033366815,0.7070959,0.7071018,0,732.68097,8.321,-0.00081,0,0
154.30833,2000,0,91.24,0.000002697398,0.000002697398,0.000002697398,0.99999994,0,0,0,0,0,0,1,0,0,0,0,false,false,false,0,252.84,17.01,-0.0033312866,0.0033366815,0.7070959,0.7071018,0,739.73096,8.321,-0.00081,0,0
154.31667,2000,0,91.24,0.000002697398,0.000002697398,0.000002697398,0.99999994,0,0,0,0,0,0,1,0,0,0,0,false,false,false,0,259,17.01,-0.0033312866,0.0033366815,0.7070959,0.7071018,0,746.72095,8.321,-0.00081,0,0
154.325,2000,0,91.24,0.000002697398,0.000002697398,0.000002697398,0.99999994,0,0,0,0,0,0,1,0,0,0,0,false,false,false,0,265.22,17.01,-0.0033312866,0.0033366815,0.7070959,0.7071018,0,753.65094,8.321,-0.00081,0,0
154.33333,2000,0,91.24,0.000002697398,0.000002697398,0.000002697398,0.99999994,0,0,0,0,0,0,1,0,0,0,0,false,false,false,0,271.5,17.01,-0.0033312866,0.0033366815,0.7070959,0.7071018,0,760.52094,8.321,-0.00081,0,0
154.34166,2000,0,91.24,0.000002697398,0.000002697398,0.000002697398,0.99999994,0,0,0,0,0,0,1,0,0,0,0,false,false,false,0,277.84,17.01,-0.0033312866,0.0033366815,0.7070959,0.7071018,0,767.33093,8.321,-0.00081,0,0
154.35,2000,0,91.24,0.000002697398,0.000002697398,0.000002697398,0.99999994,0,0,0,0,0,0,1,0,0,0,0,false,false,false,0,284.22998,17.01,-0.0033312866,0.0033366815,0.7070959,0.7071018,0,774.08093,8.321,-0.00081,0,0
154.35834,2000,0,91.24,0.000002697398,0.000002697398,0.000002697398,0.99999994,0,0,0,0,0,0,1,0,0,0,0,false,false,false,0,290.68,17.01,-0.0033312866,0.0033366815,0.7070959,0.7071018,0,780.77094,8.321,-0.00081,0,0
154.36667,2000,0,91.24,0.000002697398,0.000002697398,0.000002697398,0.99999994,0,0,0,0,0,0,1,0,0,0,0,false,false,false,0,297.19,17.01,-0.0033312866,0.0033366815,0.7070959,0.7071018,0,787.41095,8.321,-0.00081,0,0
154.375,2000,0,91.24,0.000002697398,0.000002697398,0.000002697398,0.99999994,0,0,0,0,0,0,1,0,0,0,0,false,false,false,0,303.75,17.01,-0.0033312866,0.0033366815,0.7070959,0.7071018,0,793.99097,8.321,-0.00081,0,0
154.38333,2000,0,91.24,0.000002697398,0.000002697398,0.000002697398,0.99999994,0,0,0,0,0,0,1,0,0,0,0,false,false,false,0,310.37,17.01,-0.0033312866,0.0033366815,0.7070959,0.7071018,0,800.511,8.321,-0.00081,0,0
154.39166,2000,0,91.24,0.000002697398,0.000002697398,0.000002697398,0.99999994,0,0,0,0,0,0,1,0,0,0,0,false,false,false,0,317.03998,17.01,-0.0033312866,0.0033366815,0.7070959,0.7071018,0,806.98096,8.321,-0.00091,0,0
154.4,2000,0,91.24,0.000002697398,0.000002697398,0.000002697398,0.99999994,0,0,0,0,0,0,1,0,0,0,0,false,false,false,0,323.75998,17.01,-0.0033312866,0.0033420762,0.7070959,0.7071018,0,813.3909,8.321,-0.00091,0,0
154.40834,2000,0,91.24,0.000002697398,0.000002697398,0.000002697398,0.99999994,0,0,0,0,0,0,1,0,0,0,0,false,false,false,0,330.53998,17.01,-0.0033312866,0.003347471,0.7070959,0.70710176,0,819.751,8.321,-0.00091,0,0
154.41667,2000,0,91.24,0.000002697398,0.000002697398,0.000002697398,0.99999994,0,0,0,0,0,0,1,0,0,0,0,false,false,false,0,337.37,17.01,-0.0033312868,0.003352866,0.707096,0.70710176,0,826.05096,8.321,-0.00081,0,0
154.425,2000,0,91.24,0.000002697398,0.000002697398,0.000002697398,0.99999994,0,0,0,0,0,0,1,0,0,0,0,false,false,false,0,344.25,17.01,-0.0033312868,0.003352866,0.707096,0.70710176,0,832.30096,8.321,-0.00071,-0.00010999999,0
154.43333,2000,0,91.24,0.000002697398,0.000002697398,0.000002697398,0.99999994,0,0,0,0,0,0,1,0,0,0,0,false,false,false,0,351.19,17.01,-0.0033312868,0.003352866,0.707096,0.70710176,0,838.501,8.321,-0.00071,-0.00010999999,0
154.44167,2000,0,91.24,0.000002697398,0.000002697398,0.000002697398,0.99999994,0,0,0,0,0,0,1,0,0,0,0,false,false,false,0,358.18,17.01,-0.0033312868,0.003352866,0.707096,0.70710176,0,844.6409,8.321,-0.00071,-0.00010999999,0
154.45,2000,0,91.24,0.000002697398,0.000002697398,0.000002697398,0.99999994,0,0,0,0,0,0,1,0,0,0,0,false,false,false,0,365.22,17.01,-0.0033312868,0.003352866,0.707096,0.70710176,0,850.73096,8.321,-0.00071,-0.00010999999,0
154.45833,2000,0,91.24,0.000002697398,0.000002697398,0.000002697398,0.99999994,0,0,0,0,0,0,1,0,0,0,0,false,false,false,0,372.31,17.01,-0.0033312868,0.003352866,0.707096,0.70710176,0,856.77094,8.321,-0.00071,-0.00010999999,0
154.46666,2000,0,91.24,0.000002697398,0.000002697398,0.000002697398,0.99999994,0,0,0,0,0,0,1,0,0,0,0,false,false,false,0,379.44998,17.01,-0.0033312868,0.003352866,0.707096,0.70710176,0,862.761,8.321,-0.00071,-0.00010999999,0
154.475,2000,0,91.24,0.000002697398,0.000002697398,0.000002697398,0.99999994,0,0,0,0,0,0,1,0,0,0,0,false,false,false,0,386.63998,17.01,-0.0033312868,0.003352866,0.707096,0.70710176,0,868.691,8.321,-0.00071,-0.00010999999,0
154.48334,2000,0,91.24,0.000002697398,0.000002697398,0.000002697398,0.99999994,0,0,0,0,0,0,1,0,0,0,0,false,false,false,0,393.88,17.01,-0.0033312868,0.003352866,0.707096,0.70710176,0,874.571,8.321,-0.00071,-0.00010999999,0
154.49167,2000,0,91.24,0.000002697398,0.000002697398,0.000002697398,0.99999994,0,0,0,0,0,0,1,0,0,0,0,false,false,false,0,401.16998,17.01,-0.0033312868,0.003352866,0.707096,0.70710176,0,880.40094,8.321,-0.00071,-0.00010999999,0
154.5,2000,0,91.24,0.000002697398,0.000002697398,0.000002697398,0.99999994,0,0,0,0,0,0,1,0,0,0,0,false,false,false,0,408.50998,17.01,-0.0033312868,0.003352866,0.707096,0.70710176,0,886.18097,8.321,-0.00071,-0.00010999999,0
154.50833,2000,0,91.24,0.000002697398,0.000002697398,0.000002697398,0.99999994,0,0,0,0,0,0,1,0,0,0,0,false,false,false,0,415.88998,17.01,-0.0033312868,0.003352866,0.707096,0.70710176,0,891.91095,8.321,-0.00071,-0.00010999999,0
154.51666,2000,0,91.24,0.000002697398,0.000002697398,0.000002697398,0.99999994,0,0,0,0,0,0,1,0,0,0,0,false,false,false,0,423.31998,17.01,-0.0033312868,0.003352866,0.707096,0.70710176,0,897.59094,8.321,-0.00071,-0.00010999999,0
154.525,2000,0,91.24,0.000002697398,0.000002697398,0.000002697398,0.99999994,0,0,0,0,0,0,1,0,0,0,0,false,false,false,0,430.8,17.01,-0.0033312868,0.003352866,0.707096,0.70710176,0,903.23096,8.321,-0.00071,-0.00010999999,0
154.53334,2000,0,91.24,0.000002697398,0.000002697398,0.000002697398,0.99999994,0,0,0,0,0,0,1,0,0,0,0,false,false,false,0,438.33,17.01,-0.0033312868,0.003352866,0.707096,0.70710176,0,908.821,8.321,-0.00071,-0.00010999999,0
154.54167,2000,0,91.24,0.000002697398,0.000002697398,0.000002697398,0.99999994,0,0,0,0,0,0,1,0,0,0,0,false,false,false,0,445.9,17.01,-0.0033312868,0.003352866,0.707096,0.70710176,0,914.36096,8.321,-0.00071,-0.00010999999,0
154.55,2000,0,91.24,0.000002697398,0.000002697398,0.000002697398,0.99999994,0,0,0,0,0,0,1,0,0,0,0,false,false,false,0,453.52,17.01,-0.0033312868,0.003352866,0.707096,0.70710176,0,919.85095,8.321,-0.00071,-0.00010999999,0
154.55833,2000,0,91.24,0.000002697398,0.000002697398,0.000002697398,0.99999994,0,0,0,0,0,0,1,0,0,0,0,false,false,false,0,461.19,17.01,-0.0033312868,0.003352866,0.707096,0.70710176,0,925.30096,8.321,-0.00071,-0.00010999999,0
154.56667,2000,0,91.24,0.000002697398,0.000002697398,0.000002697398,0.99999994,0,0,0,0,0,0,1,0,0,0,0,false,false,false,0,468.9,17.01,-0.0033312868,0.003352866,0.707096,0.70710176,0,930.7009,8.321,-0.00071,-0.00010999999,0
154.575,2000,0,91.24,0.000002697398,0.000002697398,0.000002697398,0.99999994,0,0,0,0,0,0,1,0,0,0,0,false,false,false,0,476.66,17.01,-0.0033312868,0.003352866,0.707096,0.70710176,0,936.05096,8.321,-0.00071,-0.00010999999,0
154.58333,2000,0,91.24,0.000002697398,0.000002697398,0.000002697398,0.99999994,0,0,0,0,0,0,1,0,0,0,0,false,false,false,0,484.46,17.01,-0.0033312868,0.003352866,0.707096,0.70710176,0,941.36096,8.321,-0.00071,-0.00010999999,0
154.59166,2000,0,91.24,0.000002697398,0.000002697398,0.000002697398,0.99999994,0,0,0,0,0,0,1,0,0,0,0,false,false,false,0,492.3,17.01,-0.0033312868,0.003352866,0.707096,0.70710176,0,946.621,8.321,-0.00081,-0.00010999999,0
154.6,2000,0,91.24,0.000002697398,0.000002697398,0.000002697398,0.99999994,0,0,0,0,0,0,1,0,0,0,0,false,false,false,0,500.19,17.01,-0.0033312868,0.003352866,0.707096,0.70710176,0,951.84094,8.321,-0.00081,-0.00010999999,0
154.60834,2000,0,91.24,0.000002697398,0.000002697398,0.000002697398,0.99999994,0,0,0,0,0,0,1,0,0,0,0,false,false,false,0,508.12,17.01,-0.0033312868,0.003352866,0.707096,0.70710176,0,957.0109,8.321,-0.00081,-0.00010999999,0
154.61667,2000,0,91.24,0.000002697398,0.000002697398,0.000002697398,0.99999994,0,0,0,0,0,0,1,0,0,0,0,false,false,false,0,516.1,17.01,-0.0033312868,0.003352866,0.707096,0.70710176,0,962.1409,8.321,-0.00081,-0.00010999999,0
154.625,2000,0,91.24,0.000002697398,0.000002697398,0.000002697398,0.99999994,0,0,0,0,0,0,1,0,0,0,0,false,false,false,0,524.12,17.01,-0.0033312868,0.003352866,0.707096,0.70710176,0,967.22095,8.321,-0.00081,-0.00010999999,0
154.63333,2000,0,91.24,0.000002697398,0.000002697398,0.000002697398,0.99999994,0,0,0,0,0,0,1,0,0,0,0,false,false,false,0,532.18,17.01,-0.0033312868,0.003352866,0.707096,0.70710176,0,972.2609,8.321,-0.00081,-0.00010999999,0
154.64166,2000,0,91.24,0.000002697398,0.000002697398,0.000002697398,0.99999994,0,0,0,0,0,0,1,0,0,0,0,false,false,false,0,540.27997,17.01,-0.0033312868,0.003352866,0.707096,0.70710176,0,977.2609,8.321,-0.00081,-0.00010999999,0
154.65,2000,0,91.24,0.000002697398,0.000002697398,0.000002697398,0.99999994,0,0,0,0,0,0,1,0,0,0,0,false,false,false,0,548.42,17.01,-0.0033312868,0.003352866,0.707096,0.70710176,0,982.21094,8.321,-0.00081,-0.00010999999,0
154.65834,2000,0,91.24,0.000002697398,0.000002697398,0.000002697398,0.99999994,0,0,0,0,0,0,1,0,0,0,0,false,false,false,0,556.61,17.01,-0.0033312868,0.003352866,0.707096,0.70710176,0,987.121,8.321,-0.00081,-0.00010999999,0
154.66667,2000,0,91.24,0.000002697398,0.000002697398,0.000002697398,0.99999994,0,0,0,0,0,0,1,0,0,0,0,false,false,false,0,564.83997,17.01,-0.0033312868,0.003352866,0.707096,0.70710176,0,991.99097,8.321,-0.00081,-0.00010999999,0
154.675,2000,0,91.24,0.000002697398,0.000002697398,0.000002697398,0.99999994,0,0,0,0,0,0,1,0,0,0,0,false,false,false,0,573.11,17.01,-0.0033312868,0.003352866,0.707096,0.70710176,0,996.821,8.321,-0.00081,-0.00010999999,0
154.68333,2000,0,91.24,0.000002697398,0.000002697398,0.000002697398,0.99999994,0,0,0,0,0,0,1,0,0,0,0,false,false,false,0,581.42,17.01,-0.0033312868,0.003352866,0.707096,0.70710176,0,1001.61096,8.321,-0.00081,-0.00010999999,0
154.69167,2000,0,91.24,0.000002697398,0.000002697398,0.000002697398,0.99999994,0,0,0,0,0,0,1,0,0,0,0,false,false,false,0,589.76996,17.01,-0.0033312868,0.003352866,0.707096,0.70710176,0,1006.35095,8.321,-0.00081,-0.00010999999,0
154.7,2000,0,91.24,0.000002697398,0.000002697398,0.000002697398,0.99999994,0,0,0,0,0,0,1,0,0,0,0,false,false,false,0,598.16,17.01,-0.0033312868,0.003352866,0.707096,0.70710176,0,1011.05096,8.321,-0.00081,-0.00010999999,0
154.70833,2000,0,91.24,0.000002697398,0.000002697398,0.000002697398,0.99999994,0,0,0,0,0,0,1,0,0,0,0,false,false,false,0,606.58997,17.01,-0.0033312868,0.003352866,0.707096,0.70710176,0,1015.71094,8.321,-0.00081,-0.00010999999,0
154.71666,2000,0,91.24,0.000002697398,0.000002697398,0.000002697398,0.99999994,0,0,0,0,0,0,1,0,0,0,0,false,false,false,0,615.05,17.01,-0.0033312868,0.003352866,0.707096,0.70710176,0,1020.33093,8.321,-0.00081,-0.00010999999,0
154.725,2000,0,91.24,0.000002697398,0.000002697398,0.000002697398,0.99999994,0,0,0,0,0,0,1,0,0,0,0,false,false,false,0,623.55,17.01,-0.0033312868,0.003352866,0.707096,0.70710176,0,1024.911,8.321,-0.00081,-0.00010999999,0
154.73334,2000,0,91.24,0.000002697398,0.000002697398,0.000002697398,0.99999994,0,0,0,0,0,0,1,0,0,0,0,false,false,false,0,632.08997,17.01,-0.0033312868,0.003352866,0.707096,0.70710176,0,1029.4509,8.321,-0.00081,-0.00010999999,0
154.74167,2000,0,91.24,0.000002697398,0.000002697398,0.000002697398,0.99999994,0,0,0,0,0,0,1,0,0,0,0,false,false,false,0,640.67,17.01,-0.0033312868,0.003352866,0.707096,0.70710176,0,1033.9609,8.321,-0.00091,-0.00010999999,0
154.75,2000,0,91.24,0.000002697398,0.000002697398,0.000002697398,0.99999994,0,0,0,0,0,0,1,0,0,0,0,false,false,false,0,649.29,17.01,-0.0033366815,0.0033528658,0.7070959,0.7071017,0,1038.4309,8.321,-0.00091,-0.00010999999,0
154.75833,2000,0,91.24,0.000002697398,0.000002697398,0.000002697398,0.99999994,0,0,0,0,0,0,1,0,0,0,0,false,false,false,0,657.94,17.01,-0.0033420762,0.0033528658,0.7070959,0.7071017,0,1042.861,8.321,-0.00091,-0.00010999999,0
154.76666,2000,0,91.24,0.000002697398,0.000002697398,0.000002697398,0.99999994,0,0,0,0,0,0,1,0,0,0,0,false,false,false,0,666.63,17.01,-0.003347471,0.0033528658,0.7070959,0.70710164,0,1047.251,8.321,-0.00081,-0.00010999999,0
154.775,2000,0,91.24,0.000002697398,0.000002697398,0.000002697398,0.99999994,0,0,0,0,0,0,1,0,0,0,0,false,false,false,0,675.36,17.01,-0.003347471,0.0033528658,0.7070959,0.70710164,0,1051.601,8.321,-0.00071,0,0
154.78334,2000,0,91.24,0.000002697398,0.000002697398,0.000002697398,0.99999994,0,0,0,0,0,0,1,0,0,0,0,false,false,false,0,684.12,17.01,-0.003347471,0.0033528658,0.7070959,0.70710164,0,1055.9209,8.321,-0.00071,0,0
154.79167,2000,0,91.24,0.000002697398,0.000002697398,0.000002697398,0.99999994,0,0,0,0,0,0,1,0,0,0,0,false,false,false,0,692.92,17.01,-0.003347471,0.0033528658,0.7070959,0.70710164,0,1060.2009,8.321,-0.00071,0,0
154.8,2000,0,91.24,0.000002697398,0.000002697398,0.000002697398,0.99999994,0,0,0,0,0,0,1,0,0,0,0,false,false,false,0,701.76,17.01,-0.003347471,0.0033528658,0.7070959,0.70710164,0,1064.4409,8.321,-0.00071,0,0
154.80833,2000,0,91.24,0.000002697398,0.000002697398,0.000002697398,0.99999994,0,0,0,0,0,0,1,0,0,0,0,false,false,false,0,710.63,17.01,-0.003347471,0.0033528658,0.7070959,0.70710164,0,1068.651,8.321,-0.00071,0,0
154.81667,2000,0,91.24,0.000002697398,0.000002697398,0.000002697398,0.99999994,0,0,0,0,0,0,1,0,0,0,0,false,false,false,0,719.54,17.01,-0.003347471,0.0033528658,0.7070959,0.70710164,0,1072.8209,8.321,-0.00071,0,0
154.825,2000,0,91.24,0.000002697398,0.000002697398,0.000002697398,0.99999994,0,0,0,0,0,0,1,0,0,0,0,false,false,false,0,728.48,17.01,-0.003347471,0.0033528658,0.7070959,0.70710164,0,1076.9509,8.321,-0.00071,0,0
154.83333,2000,0,91.24,0.000002697398,0.000002697398,0.000002697398,0.99999994,0,0,0,0,0,0,1,0,0,0,0,false,false,false,0,737.45,17.01,-0.003347471,0.0033528658,0.7070959,0.70710164,0,1081.0509,8.321,-0.00071,0,0
154.84166,2000,0,91.24,0.000002697398,0.000002697398,0.000002697398,0.99999994,0,0,0,0,0,0,1,0,0,0,0,false,false,false,0,746.45996,17.01,-0.003347471,0.0033528658,0.7070959,0.70710164,0,1085.111,8.321,-0.00071,0,0
154.85,2000,0,91.24,0.000002697398,0.000002697398,0.000002697398,0.99999994,0,0,0,0,0,0,1,0,0,0,0,false,false,false,0,755.5,17.01,-0.003347471,0.0033528658,0.7070959,0.70710164,0,1089.141,8.321,-0.00071,0,0
154.85834,2000,0,91.24,0.000002697398,0.000002697398,0.000002697398,0.99999994,0,0,0,0,0,0,1,0,0,0,0,false,false,false,0,764.57996,17.01,-0.003347471,0.0033528658,0.7070959,0.70710164,0,1093.131,8.321,-0.00071,0,0
154.86667,2000,0,91.24,0.000002697398,0.000002697398,0.000002697398,0.99999994,0,0,0,0,0,0,1,0,0,0,0,false,false,false,0,773.69,17.01,-0.003347471,0.0033528658,0.7070959,0.70710164,0,1097.091,8.321,-0.00071,0,0
154.875,2000,0,91.24,0.000002697398,0.000002697398,0.000002697398,0.99999994,0,0,0,0,0,0,1,0,0,0,0,false,false,false,0,782.82996,17.01,-0.003347471,0.0033528658,0.7070959,0.70710164,0,1101.021,8.321,-0.00071,0,0
154.88333,2000,0,91.24,0.000002697398,0.000002697398,0.000002697398,0.99999994,0,0,0,0,0,0,1,0,0,0,0,false,false,false,0,792.01,17.01,-0.003347471,0.0033528658,0.7070959,0.70710164,0,1104.911,8.321,-0.00071,0,0
154.89166,2000,0,91.24,0.000002697398,0.000002697398,0.000002697398,0.99999994,0,0,0,0,0,0,1,0,0,0,0,false,false,false,0,801.22,17.01,-0.003347471,0.0033528658,0.7070959,0.70710164,0,1108.771,8.321,-0.00071,0,0
154.9,2000,0,91.24,0.000002697398,0.000002697398,0.000002697398,0.99999994,0,0,0,0,0,0,1,0,0,0,0,false,false,false,0,810.45996,17.01,-0.003347471,0.0033528658,0.7070959,0.70710164,0,1112.601,8.321,-0.00071,0,0
154.90834,2000,0,91.24,0.000002697398,0.000002697398,0.000002697398,0.99999994,0,0,0,0,0,0,1,0,0,0,0,false,false,false,0,819.73,17.01,-0.003347471,0.0033528658,0.7070959,0.70710164,0,1116.391,8.321,-0.00071,0,0
154.91667,2000,0,91.24,0.000002697398,0.000002697398,0.000002697398,0.99999994,0,0,0,0,0,0,1,0,0,0,0,false,false,false,0,829.02997,17.01,-0.003347471,0.0033528658,0.7070959,0.70710164,0,1120.151,8.321,-0.00071,0,0
154.925,2000,0,91.24,0.000002697398,0.000002697398,0.000002697398,0.99999994,0,0,0,0,0,0,1,0,0,0,0,false,false,false,0,838.36,17.01,-0.003347471,0.0033528658,0.7070959,0.70710164,0,1123.881,8.321,-0.00071,0,0
154.93333,2000,0,91.24,0.000002697398,0.000002697398,0.000002697398,0.99999994,0,0,0,0,0,0,1,0,0,0,0,false,false,false,0,847.73,17.01,-0.003347471,0.0033528658,0.7070959,0.70710164,0,1127.5809,8.321,-0.00071,0,0
154.94167,2000,0,91.24,0.000002697398,0.000002697398,0.000002697398,0.99999994,0,0,0,0,0,0,1,0,0,0,0,false,false,false,0,857.13,17.01,-0.003347471,0.0033528658,0.7070959,0.70710164,0,1131.241,8.321,-0.00071,0,0
154.95,2000,0,91.24,0.000002697398,0.000002697398,0.000002697398,0.99999994,0,0,0,0,0,0,1,0,0,0,0,false,false,false,0,866.56,17.01,-0.003347471,0.0033528658,0.7070959,0.70710164,0,1134.871,8.321,-0.00071,0,0
154.95833,2000,0,91.24,0.000002697398,0.000002697398,0.000002697398,0.99999994,0,0,0,0,0,0,1,0,0,0,0,false,false,false,0,876.01996,17.01,-0.003347471,0.0033528658,0.7070959,0.70710164,0,1138.471,8.321,-0.00071,0,0
154.96666,2000,0,91.24,0.000002697398,0.000002697398,0.000002697398,0.99999994,0,0,0,0,0,0,1,0,0,0,0,false,false,false,0,885.51,17.01,-0.003347471,0.0033528658,0.7070959,0.70710164,0,1142.0409,8.321,-0.00071,0,0
154.975,2000,0,91.24,0.000002697398,0.000002697398,0.000002697398,0.99999994,0,0,0,0,0,0,1,0,0,0,0,false,false,false,0,895.02997,17.01,-0.003347471,0.0033528658,0.7070959,0.70710164,0,1145.5809,8.321,-0.00071,0,0
154.98334,2000,0,91.24,0.000002697398,0.000002697398,0.000002697398,0.99999994,0,0,0,0,0,0,1,0,0,0,0,false,false,false,0,904.57996,17.01,-0.003347471,0.0033528658,0.7070959,0.70710164,0,1149.091,8.321,-0.00071,0,0
154.99167,2000,0,91.24,0.000002697398,0.000002697398,0.000002697398,0.99999994,0,0,0,0,0,0,1,0,0,0,0,false,false,false,0,914.16,17.01,-0.003347471,0.0033528658,0.7070959,0.70710164,0,1152.5709,8.321,-0.00071,0,0
155,2000,0,91.24,0.000002697398,0.000002697398,0.000002697398,0.99999994,0,0,0,0,0,0,1,0,0,0,0,false,false,false,0,923.76,17.01,-0.003347471,0.0033528658,0.7070959,0.70710164,0,1156.021,8.321,-0.00071,0,0
155.00833,2000,0,91.24,0.000002697398,0.000002697398,0.000002697398,0.99999994,0,0,0,0,0,0,1,0,0,0,0,false,false,false,0,933.38995,17.01,-0.003347471,0.0033528658,0.7070959,0.70710164,0,1159.4409,8.321,-0.00071,0,0
155.01666,2000,0,91.24,0.000002697398,0.000002697398,0.000002697398,0.99999994,0,0,0,0,0,0,1,0,0,0,0,false,false,false,0,943.05,17.01,-0.003347471,0.0033528658,0.7070959,0.70710164,0,1162.8309,8.321,-0.00071,0,0
155.025,2000,0,91.24,0.000002697398,0.000002697398,0.000002697398,0.99999994,0,0,0,0,0,0,1,0,0,0,0,false,false,false,0,952.74,17.01,-0.003347471,0.0033528658,0.7070959,0.70710164,0,1166.1909,8.321,-0.00071,0,0
155.03334,2000,0,91.24,0.000002697398,0.000002697398,0.000002697398,0.99999994,0,0,0,0,0,0,1,0,0,0,0,false,false,false,0,962.45996,17.01,-0.003347471,0.0033528658,0.7070959,0.70710164,0,1169.521,8.321,-0.00071,0,0
155.04167,2000,0,91.24,0.000002697398,0.000002697398,0.000002697398,0.99999994,0,0,0,0,0,0,1,0,0,0,0,false,false,false,0,972.20996,17.01,-0.003347471,0.0033528658,0.7070959,0.70710164,0,1172.8309,8.321,-0.00081,0,0
155.05,2000,0,91.24,0.000002697398,0.000002697398,0.000002697398,0.99999994,0,0,0,0,0,0,1,0,0,0,0,false,false,false,0,981.98,17.01,-0.003347471,0.0033528658,0.7070959,0.70710164,0,1176.111,8.321,-0.00081,0,0
155.05833,2000,0,91.24,0.000002697398,0.000002697398,0.000002697398,0.99999994,0,0,0,0,0,0,1,0,0,0,0,false,false,false,0,991.77997,17.01,-0.003347471,0.0033528658,0.7070959,0.70710164,0,1179.361,8.321,-0.00081,0,0
155.06667,2000,0,91.24,0.000002697398,0.000002697398,0.000002697398,0.99999994,0,0,0,0,0,0,1,0,0,0,0,false,false,false,0,1001.61,17.01,-0.003347471,0.0033528658,0.7070959,0.70710164,0,1182.5809,8.321,-0.00081,0,0
155.075,2000,0,91.24,0.000002697398,0.000002697398,0.000002697398,0.99999994,0,0,0,0,0,0,1,0,0,0,0,false,false,false,0,1011.45996,17.01,-0.003347471,0.0033528658,0.7070959,0.70710164,0,1185.771,8.321,-0.00081,0,0
155.08333,2000,0,91.24,0.000002697398,0.000002697398,0.000002697398,0.99999994,0,0,0,0,0,0,1,0,0,0,0,false,false,false,0,1021.33997,17.01,-0.003347471,0.0033528658,0.7070959,0.70710164,0,1188.9409,8.321,-0.00081,0,0
155.09166,2000,0,91.24,0.000002697398,0.000002697398,0.000002697398,0.99999994,0,0,0,0,0,0,1,0,0,0,0,false,false,false,0,1031.25,17.01,-0.003347471,0.0033528658,0.7070959,0.70710164,0,1192.0809,8.321,-0.00081,0,0
155.1,2000,0,91.24,0.000002697398,0.000002697398,0.000002697398,0.99999994,0,0,0,0,0,0,1,0,0,0,0,false,false,false,0,1041.1799,17.01,-0.003347471,0.0033528658,0.7070959,0.70710164,0,1195.1909,8.321,-0.00081,0,0
155.10834,2000,0,91.24,0.000002697398,0.000002697398,0.000002697398,0.99999994,0,0,0,0,0,0,1,0,0,0,0,false,false,false,0,1051.14,17.01,-0.003347471,0.0033528658,0.7070959,0.70710164,0,1198.281,8.321,-0.00081,0,0
155.11667,2000,0,91.24,0.000002697398,0.000002697398,0.000002697398,0.99999994,0,0,0,0,0,0,1,0,0,0,0,false,false,false,0,1061.13,17.01,-0.003347471,0.0033528658,0.7070959,0.70710164,0,1201.341,8.321,-0.00081,0,0
155.125,2000,0,91.24,0.000002697398,0.000002697398,0.000002697398,0.99999994,0,0,0,0,0,0,1,1,0,0,0,false,false,true,0,1071.14,17.01,-0.003347471,0.0033528658,0.7070959,0.70710164,-13.151,1202.261,8.341001,-0.00081,0.00341,0.36471
155.13333,2000,0,91.24,0.000002697398,0.000002697398,0.000002697398,0.99999994,0,0,0,0,0,0,1,1,0,0,0,false,false,true,-0.11,1081.16,17.01,-0.003347471,0.0033582605,0.7081682,0.70602775,-23.581,1203.501,8.341001,-0.00081,0.00461,0.64171
155.14166,2000,0,91.24,0.000002697398,0.000002697398,0.000002697398,0.99999994,0,0,0,0,0,0,1,1,0,0,0,false,false,true,-0.31,1091.19,17.01,-0.003347471,0.0033636554,0.71005094,0.70413417,-33.451,1204.751,8.341001,-0.00081,0.00491,0.88151
155.15,2000,0,91.24,0.000002697398,0.000002697398,0.000002697398,0.99999994,0,0,0,0,0,0,1,1,0,0,0,false,false,true,-0.59,1101.23,17.01,-0.003347471,0.00336905,0.7126308,0.70152307,-43.161,1205.9409,8.341001,-0.00081,0.00471,1.09031
155.15834,2000,0,91.24,0.000002697398,0.000002697398,0.000002697398,0.99999994,0,0,0,0,0,0,1,1,0,0,0,false,false,true,-0.95,1111.28,17.01,-0.0033528658,0.00336905,0.71580803,0.6982808,-52.970997,1207.021,8.341001,-0.00071,0.00411,1.27341
155.16667,2000,0,91.24,0.000002697398,0.000002697398,0.000002697398,0.99999994,0,0,0,0,0,0,1,1,0,0,0,false,false,true,-1.39,1121.34,17.01,-0.0033582607,0.0033636556,0.71950394,0.6944721,-63.031,1207.9409,8.341001,-0.00071,0.00341,1.43521
155.175,2000,0,91.24,0.000002697398,0.000002697398,0.000002697398,0.99999994,0,0,0,0,0,0,1,1,0,0,0,false,false,true,-1.92,1131.41,17.01,-0.00336905,0.0033528658,0.72364473,0.69015616,-73.421,1208.6709,8.341001,-0.00071,0.00271,1.5792099
155.18333,2000,0,91.24,0.000002697398,0.000002697398,0.000002697398,0.99999994,0,0,0,0,0,0,1,1,0,0,0,false,false,true,-2.53,1141.48,17.01,-0.0033852346,0.0033420762,0.7281683,0.68538177,-84.181,1209.1809,8.341001,-0.00071,0.00201,1.70831
155.19167,2000,0,91.24,0.000002697398,0.000002697398,0.000002697398,0.99999994,0,0,0,0,0,0,1,1,0,0,0,false,false,true,-3.23,1151.5599,17.01,-0.003406814,0.0033258921,0.7330285,0.68018126,-95.291,1209.4309,8.341001,-0.00061,0.00131,1.8249099
155.2,2000,0,91.24,0.000002697398,0.000002697398,0.000002697398,0.99999994,0,0,0,0,0,0,1,1,0,0,0,false,false,true,-4.02,1161.64,17.01,-0.003428393,0.0033043127,0.7381801,0.6745868,-106.721,1209.4109,8.341001,-0.00051,0.00071,1.93081
155.20833,2000,0,91.24,0.000002697398,0.000002697398,0.000002697398,0.99999994,0,0,0,0,0,0,1,1,0,0,0,false,false,true,-4.91,1171.72,17.01,-0.003455367,0.0032827335,0.743584,0.6686255,-118.40099,1209.111,8.341001,-0.00040999998,0.00021,2.02751
155.21666,2000,0,91.24,0.000002697398,0.000002697398,0.000002697398,0.99999994,0,0,0,0,0,0,1,1,0,0,0,false,false,true,-5.9,1181.7999,17.01,-0.0034823408,0.0032557594,0.7492067,0.66231894,-130.261,1208.521,8.341001,-0.00030999997,-0.00010999999,2.1161098
155.225,2000,0,91.24,0.000002697398,0.000002697398,0.000002697398,0.99999994,0,0,0,0,0,0,1,1,0,0,0,false,false,true,-6.99,1191.87,17.01,-0.0035147096,0.0032233908,0.75501615,0.65568876,-142.201,1207.641,8.341001,-0.00030999997,-0.00040999998,2.19761
155.23334,2000,0,91.24,0.000002697398,0.000002697398,0.000002697398,0.99999994,0,0,0,0,0,0,1,1,0,0,0,false,false,true,-8.179999,1201.9299,17.01,-0.0035470787,0.0031910222,0.7609904,0.6487456,-154.131,1206.491,8.341001,-0.00021,-0.00061,2.27251
155.24167,2000,0,91.24,0.000002697398,0.000002697398,0.000002697398,0.99999994,0,0,0,0,0,0,1,1,0,0,0,false,false,true,-9.46,1211.98,17.01,-0.0035794473,0.0031586532,0.7670988,0.64151114,-165.94101,1205.0809,8.341001,-0.00010999999,-0.00081,2.34151
155.25,2000,0,91.24,0.000002697398,0.000002697398,0.000002697398,0.99999994,0,0,0,0,0,0,1,1,0,0,0,false,false,true,-10.84,1222.02,17.01,-0.003611816,0.0031208897,0.77332133,0.6339962,-177.511,1203.4509,8.341001,0,-0.00091,2.40481
155.25833,2000,0,91.24,0.000002697398,0.000002697398,0.000002697398,0.99999994,0,0,0,0,0,0,1,1,0,0,0,false,false,true,-12.32,1232.0499,17.01,-0.003644185,0.003083126,0.7796343,0.62621677,-188.72101,1201.651,8.341001,0,-0.0010099999,2.46281
155.26666,2000,0,91.24,0.000002697398,0.000002697398,0.000002697398,0.99999994,0,0,0,0,0,0,1,1,0,0,0,false,false,true,-13.889999,1242.0599,17.01,-0.0036765535,0.0030453624,0.78601885,0.618184,-199.461,1199.731,8.341001,0,-0.00111,2.51561
155.275,2000,0,91.24,0.000002697398,0.000002697398,0.000002697398,0.99999994,0,0,0,0,0,0,1,1,0,0,0,false,false,true,-15.549999,1252.0599,17.01,-0.0037143172,0.003002204,0.79245335,0.6099137,-209.591,1197.751,8.341001,0,-0.0012099999,2.56331
155.28334,2000,0,91.24,0.000002697398,0.000002697398,0.000002697398,0.99999994,0,0,0,0,0,0,1,1,0,0,0,false,false,true,-17.3,1262.0399,17.01,-0.0037520807,0.0029590456,0.79892105,0.6014168,-218.981,1195.8009,8.341001,0,-0.0012099999,2.60591
155.29167,2000,0,91.24,0.000002697398,0.000002697398,0.000002697398,0.99999994,0,0,0,0,0,0,1,1,0,0,0,false,false,true,-19.119999,1272,17.01,-0.0037898445,0.0029158876,0.8054059,0.5927043,-227.491,1193.971,8.341001,0,-0.0012099999,2.64341
155.3,2000,0,91.24,0.000002697398,0.000002697398,0.000002697398,0.99999994,0,0,0,0,0,0,1,1,0,0,0,false,false,true,-21.02,1281.95,17.01,-0.003827608,0.002872729,0.81188524,0.58379734,-234.991,1192.371,8.341001,0.00010999999,-0.0012099999,2.67571
155.30833,2000,0,91.24,0.000002697398,0.000002697398,0.000002697398,0.99999994,0,0,0,0,0,0,1,1,0,0,0,false,false,true,-22.98,1291.89,17.01,-0.0038653717,0.0028241759,0.81834507,0.57470715,-241.341,1191.131,8.341001,0.00021,-0.0012099999,2.70271
155.31667,2000,0,91.24,0.000002697398,0.000002697398,0.000002697398,0.99999994,0,0,0,0,0,0,1,1,0,0,0,false,false,true,-24.99,1301.82,17.01,-0.0039031352,0.0027756228,0.82476515,0.5654551,-246.401,1190.401,8.341001,0.00030999997,-0.0012099999,2.72431
155.325,2000,0,91.24,0.000002697398,0.000002697398,0.000002697398,0.99999994,0,0,0,0,0,0,1,1,0,0,0,false,false,true,-27.039999,1311.74,17.01,-0.0039355042,0.0027270697,0.83113015,0.5560573,-251.681,1189.471,8.341001,0.00040999998,-0.00111,2.74541
155.33333,2000,0,91.24,0.000002697398,0.000002697398,0.000002697398,0.99999994,0,0,0,0,0,0,1,1,0,0,0,false,false,true,-29.14,1321.65,17.01,-0.0039678724,0.0026785163,0.8374363,0.5465138,-257.171,1188.3209,8.341001,0.00040999998,-0.0010099999,2.76611
155.34166,2000,0,91.24,0.000002697398,0.000002697398,0.000002697398,0.99999994,0,0,0,0,0,0,1,1,0,0,0,false,false,true,-31.279999,1331.5499,17.01,-0.004000241,0.002629963,0.84368014,0.5368247,-262.851,1186.9609,8.341001,0.00040999998,-0.0010099999,2.78651
155.35,2000,0,91.24,0.000002697398,0.000002697398,0.000002697398,0.99999994,0,0,0,0,0,0,1,1,0,0,0,false,false,true,-33.469997,1341.44,17.01,-0.00403261,0.0025814099,0.8498545,0.52699536,-268.721,1185.381,8.341001,0.00040999998,-0.00091,2.8066099
155.35834,2000,0,91.24,0.000002697398,0.000002697398,0.000002697398,0.99999994,0,0,0,0,0,0,1,1,0,0,0,false,false,true,-35.71,1351.32,17.01,-0.0040649786,0.0025328568,0.85595965,0.5170203,-274.761,1183.5809,8.341001,0.00040999998,-0.00081,2.82631
155.36667,2000,0,91.24,0.000002697398,0.000002697398,0.000002697398,0.99999994,0,0,0,0,0,0,1,1,0,0,0,false,false,true,-38,1361.1799,17.01,-0.004097348,0.002484304,0.8619885,0.50690514,-280.961,1181.5509,8.341001,0.00040999998,-0.00081,2.84571
155.375,2000,0,91.24,0.000002697398,0.000002697398,0.000002697398,0.99999994,0,0,0,0,0,0,1,1,0,0,0,false,false,true,-40.34,1371.03,17.01,-0.0041297167,0.0024303559,0.8679379,0.49664953,-287.301,1179.2909,8.341001,0.00040999998,-0.00071,2.86481
155.38333,2000,0,91.24,0.000002697398,0.000002697398,0.000002697398,0.99999994,0,0,0,0,0,0,1,1,0,0,0,false,false,true,-42.73,1380.86,17.01,-0.0041620857,0.0023764079,0.8738045,0.48625374,-293.781,1176.8009,8.341001,0.00040999998,-0.00061,2.88361
155.39166,2000,0,91.24,0.000002697398,0.000002697398,0.000002697398,0.99999994,0,0,0,0,0,0,1,1,0,0,0,false,false,true,-45.18,1390.6699,17.01,-0.0041890587,0.0023224594,0.87958485,0.47571763,-300.381,1174.0809,8.341001,0.00040999998,-0.00051,2.9021099
155.4,2000,0,91.24,0.000002697398,0.000002697398,0.000002697398,0.99999994,0,0,0,0,0,0,1,1,0,0,0,false,false,true,-47.68,1400.45,17.01,-0.0042160326,0.0022685116,0.88527304,0.4650466,-307.091,1171.121,8.341001,0.00040999998,-0.00040999998,2.92031
155.40834,2000,0,91.24,0.000002697398,0.000002697398,0.000002697398,0.99999994,0,0,0,0,0,0,1,1,0,0,0,false,false,true,-50.239998,1410.21,17.01,-0.004243007,0.0022145638,0.890866,0.45424092,-313.891,1167.9309,8.341001,0.00030999997,-0.00040999998,2.93821
155.41667,2000,0,91.24,0.000002697398,0.000002697398,0.000002697398,0.99999994,0,0,0,0,0,0,1,1,0,0,0,false,false,true,-52.86,1419.94,17.01,-0.004269981,0.0021606158,0.8963604,0.4433002,-320.781,1164.511,8.341001,0.00030999997,-0.00040999998,2.9558098
155.425,2000,0,91.24,0.000002697398,0.000002697398,0.000002697398,0.99999994,0,0,0,0,0,0,1,1,0,0,0,false,false,true,-55.53,1429.64,17.01,-0.004296955,0.0021066677,0.9017506,0.43223006,-327.741,1160.851,8.341001,0.00030999997,-0.00030999997,2.97311
155.43333,2000,0,91.24,0.000002697398,0.000002697398,0.000002697398,0.99999994,0,0,0,0,0,0,1,1,0,0,0,false,false,true,-58.26,1439.3099,17.01,-0.0043239295,0.0020527202,0.90703636,0.421025,-334.771,1156.9609,8.341001,0.00030999997,-0.00030999997,2.99021
155.44167,2000,0,91.24,0.000002697398,0.000002697398,0.000002697398,0.99999994,0,0,0,0,0,0,1,1,0,0,0,false,false,true,-61.05,1448.95,17.01,-0.004350903,0.001998772,0.91221195,0.4096905,-341.851,1152.841,8.341001,0.00030999997,-0.00030999997,3.00701
155.45,2000,0,91.24,0.000002697398,0.000002697398,0.000002697398,0.99999994,0,0,0,0,0,0,1,1,0,0,0,false,false,true,-63.899998,1458.5599,17.01,-0.004377877,0.001944824,0.9172722,0.3982319,-348.971,1148.501,8.341001,0.00030999997,-0.00021,3.02351
155.45833,2000,0,91.24,0.000002697398,0.000002697398,0.000002697398,0.99999994,0,0,0,0,0,0,1,1,0,0,0,false,false,true,-66.81,1468.13,17.01,-0.0044048512,0.0018854814,0.92221665,0.3866438,-356.121,1143.9309,8.341001,0.00030999997,-0.00010999999,3.03971
155.46666,2000,0,91.24,0.000002697398,0.000002697398,0.000002697398,0.99999994,0,0,0,0,0,0,1,1,0,0,0,false,false,true,-69.78,1477.6599,17.01,-0.00442643,0.0018261385,0.92704,0.37493166,-363.291,1139.141,8.341001,0.00030999997,0,3.05561
155.475,2000,0,91.24,0.000002697398,0.000002697398,0.000002697398,0.99999994,0,0,0,0,0,0,1,1,0,0,0,false,false,true,-72.81,1487.15,17.01,-0.0044480087,0.0017667955,0.9317374,0.36310077,-370.481,1134.131,8.341001,0.00030999997,0,3.07121
155.48334,2000,0,91.24,0.000002697398,0.000002697398,0.000002697398,0.99999994,0,0,0,0,0,0,1,1,0,0,0,false,false,true,-75.9,1496.6,17.01,-0.0044695884,0.0017074529,0.93630844,0.35114592,-377.671,1128.911,8.341001,0.00021,0,3.08651
155.49167,2000,0,91.24,0.000002697398,0.000002697398,0.000002697398,0.99999994,0,0,0,0,0,0,1,1,0,0,0,false,false,true,-79.049995,1506.01,17.01,-0.004491167,0.00164811,0.94074607,0.33907765,-384.851,1123.481,8.341001,0.00021,0,3.10161
155.5,2000,0,91.24,0.000002697398,0.000002697398,0.000002697398,0.99999994,0,0,0,0,0,0,1,1,0,0,0,false,false,true,-82.259995,1515.37,17.01,-0.004512747,0.0015887675,0.94504994,0.32689083,-392.021,1117.841,8.341001,0.00021,0,3.11641
155.50833,2000,0,91.24,0.000002697398,0.000002697398,0.000002697398,0.99999994,0,0,0,0,0,0,1,1,0,0,0,false,false,true,-85.53,1524.69,17.01,-0.0045343256,0.0015294246,0.94921523,0.31459057,-399.171,1112.001,8.341001,0.00021,0,3.13091
155.51666,2000,0,91.24,0.000002697398,0.000002697398,0.000002697398,0.99999994,0,0,0,0,0,0,1,1,0,0,0,false,false,true,-88.86,1533.96,17.01,-0.0045559052,0.001470082,0.953238,0.30218259,-406.291,1105.971,8.341001,0.00021,0,3.14511
155.525,2000,0,91.24,0.000002697398,0.000002697398,0.000002697398,0.99999994,0,0,0,0,0,0,1,1,0,0,0,false,false,true,-92.25,1543.1799,17.01,-0.00457209,0.0014107393,0.95711565,0.2896666,-413.371,1099.751,8.341001,0.00021,0,3.15901
155.53334,2000,0,91.24,0.000002697398,0.000002697398,0.000002697398,0.99999994,0,0,0,0,0,0,1,1,0,0,0,false,false,true,-95.689995,1552.34,17.01,-0.004588274,0.0013513964,0.9608456,0.27704275,-420.411,1093.341,8.341001,0.00021,0,3.17261
155.54167,2000,0,91.24,0.000002697398,0.000002697398,0.000002697398,0.99999994,0,0,0,0,0,0,1,1,0,0,0,false,false,true,-99.189995,1561.45,17.01,-0.004604458,0.0012920535,0.964424,0.26431632,-427.401,1086.751,8.341001,0.00021,0,3.18591
155.55,2000,0,91.24,0.000002697398,0.000002697398,0.000002697398,0.99999994,0,0,0,0,0,0,1,1,0,0,0,false,false,true,-102.75,1570.51,17.01,-0.004620643,0.0012327109,0.9678473,0.25149283,-434.341,1079.991,8.341001,0.00021,0,3.19891
155.55833,2000,0,91.24,0.000002697398,0.000002697398,0.000002697398,0.99999994,0,0,0,0,0,0,1,1,0,0,0,false,false,true,-106.369995,1579.51,17.01,-0.004636827,0.0011679734,0.9711129,0.2385723,-441.221,1073.0709,8.341001,0.00021,0,3.2116098
155.56667,2000,0,91.24,0.000002697398,0.000002697398,0.000002697398,0.99999994,0,0,0,0,0,0,1,1,0,0,0,false,false,true,-110.049995,1588.45,17.01,-0.0046530114,0.0011032358,0.9742187,0.22555457,-448.031,1065.991,8.341001,0.00021,0,3.22401
155.575,2000,0,91.24,0.000002697398,0.000002697398,0.000002697398,0.99999994,0,0,0,0,0,0,1,1,0,0,0,false,false,true,-113.78,1597.33,17.01,-0.0046691964,0.0010384984,0.9771612,0.21244523,-454.781,1058.751,8.341001,0.00021,0,3.23611
155.58333,2000,0,91.24,0.000002697398,0.000002697398,0.000002697398,0.99999994,0,0,0,0,0,0,1,1,0,0,0,false,false,true,-117.57,1606.15,17.01,-0.004679986,0.0009737608,0.97993714,0.19924948,-461.461,1051.371,8.341001,0.00021,0,3.24791
155.59166,2000,0,91.24,0.000002697398,0.000002697398,0.000002697398,0.99999994,0,0,0,0,0,0,1,1,0,0,0,false,false,true,-121.42,1614.9099,17.01,-0.004690775,0.00090902316,0.98254323,0.18597278,-468.061,1043.851,8.341001,0.00021,0,3.25941
155.6,2000,0,91.24,0.000002697398,0.000002697398,0.000002697398,0.99999994,0,0,0,0,0,0,1,1,0,0,0,false,false,true,-125.32,1623.61,17.01,-0.0047015646,0.0008442856,0.9849786,0.17260987,-474.591,1036.2009,8.341001,0.00010999999,0,3.2706099
155.60834,2000,0,91.24,0.000002697398,0.000002697398,0.000002697398,0.99999994,0,0,0,0,0,0,1,1,0,0,0,false,false,true,-129.27,1632.24,17.01,-0.0047123544,0.000779548,0.98723936,0.15917134,-481.041,1028.4209,8.341001,0.00010999999,0,3.2815099
155.61667,2000,0,91.24,0.000002697398,0.000002697398,0.000002697398,0.99999994,0,0,0,0,0,0,1,1,0,0,0,false,false,true,-133.28,1640.8099,17.01,-0.0047231438,0.0007148105,0.9893235,0.14565739,-487.421,1020.52094,8.341001,0.00010999999,0,3.29211
155.625,2000,0,91.24,0.000002697398,0.000002697398,0.000002697398,0.99999994,0,0,0,0,0,0,1,1,0,0,0,false,false,true,-137.34,1649.3099,17.01,-0.0047339336,0.00065007294,0.9912284,0.13207321,-493.721,1012.501,8.341001,0.00010999999,0,3.30241
155.63333,2000,0,91.24,0.000002697398,0.000002697398,0.000002697398,0.99999994,0,0,0,0,0,0,1,1,0,0,0,false,false,true,-141.45,1657.75,17.01,-0.0047447234,0.0005853354,0.9929516,0.1184243,-499.941,1004.381,8.341001,0.00010999999,0,3.3124099
155.64166,2000,0,91.24,0.000002697398,0.000002697398,0.000002697398,0.99999994,0,0,0,0,0,0,1,1,0,0,0,false,false,true,-145.62,1666.12,17.01,-0.004750118,0.00052059785,0.9944912,0.10471073,-506.091,996.15094,8.341001,0.00010999999,0.00010999999,3.32211
155.65,2000,0,91.24,0.000002697398,0.000002697398,0.000002697398,0.99999994,0,0,0,0,0,0,1,1,0,0,0,false,false,true,-149.84,1674.4199,17.01,-0.0047555123,0.00045586022,0.99584496,0.09093771,-512.16095,987.83093,8.341001,0.00010999999,0.00010999999,3.3315098
155.65834,2000,0,91.24,0.000002697398,0.000002697398,0.000002697398,0.99999994,0,0,0,0,0,0,1,1,0,0,0,false,false,true,-154.11,1682.6499,17.01,-0.0047609075,0.0003911227,0.9970114,0.07710537,-518.16095,979.42096,8.341001,0.00010999999,0.00010999999,3.34061
155.66667,2000,0,91.24,0.000002697398,0.000002697398,0.000002697398,0.99999994,0,0,0,0,0,0,1,1,0,0,0,false,false,true,-158.43,1690.8099,17.01,-0.004766302,0.00032638517,0.99798816,0.06321917,-524.09094,970.92096,8.341001,0.00010999999,0.00010999999,3.34931
155.675,2000,0,91.24,0.000002697398,0.000002697398,0.000002697398,0.99999994,0,0,0,0,0,0,1,1,0,0,0,false,false,true,-162.8,1698.8999,17.01,-0.0047716973,0.00026164763,0.99877334,0.04928433,-529.951,962.34094,8.341001,0.00010999999,0.00021,3.35771
155.68333,2000,0,91.24,0.000002697398,0.000002697398,0.000002697398,0.99999994,0,0,0,0,0,0,1,1,0,0,0,false,false,true,-167.22,1706.9199,17.01,-0.004771697,0.00019691006,0.99936503,0.03530641,-535.751,953.68097,8.341001,0.00010999999,0.00021,3.36581
155.69167,2000,0,91.24,0.000002697398,0.000002697398,0.000002697398,0.99999994,0,0,0,0,0,0,1,1,0,0,0,false,false,true,-171.68,1714.87,17.01,-0.004771697,0.0001321725,0.9997619,0.021290647,-541.49097,944.941,8.341001,0.00010999999,0.00021,3.37361
155.7,2000,0,91.24,0.000002697398,0.000002697398,0.000002697398,0.99999994,0,0,0,0,0,0,1,1,0,0,0,false,false,true,-176.19,1722.74,17.01,-0.0047716973,0.00006204016,0.9999624,0.0072371196,-547.17096,936.131,8.341001,0.00021,0.00021,3.3810098
155.70833,2000,0,91.24,0.000002697398,0.000002697398,0.000002697398,0.99999994,0,0,0,0,0,0,1,1,0,0,0,false,false,true,-180.75,1730.5399,17.01,-0.0047716973,-0.000008092195,0.99996513,-0.006848736,-552.80096,927.251,8.341001,0.00021,0.00021,3.38811
155.71666,2000,0,91.24,0.000002697398,0.000002697398,0.000002697398,0.99999994,0,0,0,0,0,0,1,1,0,0,0,false,false,true,-185.36,1738.27,17.01,-0.004771697,-0.00007822454,0.99976885,-0.020961564,-558.381,918.311,8.341001,0.00021,0.00021,3.39481
155.725,2000,0,91.24,0.000002697398,0.000002697398,0.000002697398,0.99999994,0,0,0,0,0,0,1,1,0,0,0,false,false,true,-190.01,1745.9199,17.01,-0.004771697,-0.00014835689,0.9993723,-0.035101365,-563.92096,909.30096,8.341001,0.00010999999,0.00021,3.4012098
155.73334,2000,0,91.24,0.000002697398,0.000002697398,0.000002697398,0.99999994,0,0,0,0,0,0,1,1,0,0,0,false,false,true,-194.70999,1753.5,17.01,-0.004766302,-0.00021848925,0.9987744,-0.04926275,-569.42096,900.23096,8.341001,0,0.00030999997,3.4072099
155.74167,2000,0,91.24,0.000002697398,0.000002697398,0.000002697398,0.99999994,0,0,0,0,0,0,1,1,0,0,0,false,false,true,-199.45999,1761,17.01,-0.004760907,-0.00028862155,0.99797446,-0.06343495,-574.891,891.09094,8.341001,0,0.00030999997,3.4128098
155.75,2000,0,91.24,0.000002697398,0.000002697398,0.000002697398,0.99999994,0,0,0,0,0,0,1,1,0,0,0,false,false,true,-204.25,1768.4299,17.01,-0.0047555123,-0.0003587539,0.9969716,-0.07761791,-580.331,881.8909,8.341001,0,0.00030999997,3.41801
155.75833,2000,0,91.24,0.000002697398,0.000002697398,0.000002697398,0.99999994,0,0,0,0,0,0,1,1,0,0,0,false,false,true,-209.09,1775.7799,17.01,-0.0047501177,-0.0004288863,0.9957654,-0.09180628,-585.751,872.621,8.341001,0,0.00030999997,3.4228098
155.76666,2000,0,91.24,0.000002697398,0.000002697398,0.000002697398,0.99999994,0,0,0,0,0,0,1,1,0,0,0,false,false,true,-213.97,1783.0499,17.01,-0.004744723,-0.00049901864,0.9943546,-0.10600007,-591.16095,863.29095,8.341001,0,0.00030999997,3.42711
155.775,2000,0,91.24,0.000002697398,0.000002697398,0.000002697398,0.99999994,0,0,0,0,0,0,1,1,0,0,0,false,false,true,-218.9,1790.24,17.01,-0.0047339336,-0.00056915096,0.9927396,-0.12018843,-596.561,853.8909,8.341001,-0.00010999999,0.00030999997,3.43101
155.78334,2000,0,91.24,0.000002697398,0.000002697398,0.000002697398,0.99999994,0,0,0,0,0,0,1,1,0,0,0,false,false,true,-223.87,1797.36,17.01,-0.0047231438,-0.0006338885,0.99092025,-0.13436599,-601.90094,844.381,8.331,-0.00021,0.00030999997,3.4363098
155.79167,2000,0,91.24,0.000002697398,0.000002697398,0.000002697398,0.99999994,0,0,0,0,0,0,1,1,0,0,0,false,false,true,-228.89,1804.3999,17.01,-0.0047123544,-0.0006986261,0.9888951,-0.14853816,-607.131,834.74097,8.331,-0.00021,0.00030999997,3.44481
155.8,2000,0,91.24,0.000002697398,0.000002697398,0.000002697398,0.99999994,0,0,0,0,0,0,1,1,0,0,0,false,false,true,-233.95,1811.36,17.01,-0.0047015646,-0.00076336367,0.98666143,-0.16271578,-612.261,824.98096,8.331,-0.00021,0.00030999997,3.45631
155.80833,2000,0,91.24,0.000002697398,0.000002697398,0.000002697398,0.99999994,0,0,0,0,0,0,1,1,0,0,0,false,false,true,-239.04999,1818.23,17.01,-0.0046907756,-0.00082810124,0.98421556,-0.17690954,-617.28094,815.10095,8.331,-0.00021,0.00021,3.4709098
155.81667,2000,0,91.24,0.000002697398,0.000002697398,0.000002697398,0.99999994,0,0,0,0,0,0,1,1,0,0,0,false,false,true,-244.18999,1825.02,17.01,-0.0046745907,-0.00089283875,0.98155415,-0.19112486,-622.21094,805.10095,8.331,-0.00021,0.00021,3.48841
155.825,2000,0,91.24,0.000002697398,0.000002697398,0.000002697398,0.99999994,0,0,0,0,0,0,1,1,0,0,0,false,false,true,-249.37999,1831.73,17.01,-0.004658406,-0.0009575763,0.97867227,-0.2053726,-627.04095,794.98096,8.331,-0.00021,0.00010999999,3.50891
155.83333,2000,0,91.24,0.000002697398,0.000002697398,0.000002697398,0.99999994,0,0,0,0,0,0,1,1,0,0,0,false,false,true,-254.61,1838.35,17.01,-0.0046422225,-0.001022314,0.9755653,-0.21965808,-631.78094,784.751,8.331,-0.00021,0.00010999999,3.53231
155.84166,2000,0,91.24,0.000002697398,0.000002697398,0.000002697398,0.99999994,0,0,0,0,0,0,1,1,0,0,0,false,false,true,-259.87,1844.89,17.01,-0.004626038,-0.0010924463,0.97222686,-0.23399208,-636.43097,774.40094,8.331,-0.00021,0,3.55861
155.85,2000,0,91.24,0.000002697398,0.000002697398,0.000002697398,0.99999994,0,0,0,0,0,0,1,1,0,0,0,false,false,true,-265.16998,1851.34,17.01,-0.0046098535,-0.0011625787,0.96865094,-0.24838005,-640.951,763.92096,8.331,-0.00021,0,3.58841
155.85834,2000,0,91.24,0.000002697398,0.000002697398,0.000002697398,0.99999994,0,0,0,0,0,0,1,1,0,0,0,false,false,true,-270.50998,1857.71,17.01,-0.0045936685,-0.0012327108,0.9648295,-0.26283273,-645.24097,753.28094,8.331,-0.00021,0,3.62281
155.86667,2000,0,91.24,0.000002697398,0.000002697398,0.000002697398,0.99999994,0,0,0,0,0,0,1,1,0,0,0,false,false,true,-275.88998,1863.99,17.01,-0.00457209,-0.0013028433,0.9607524,-0.27736643,-649.30096,742.49097,8.331,-0.00030999997,0,3.66161
155.875,2000,0,91.24,0.000002697398,0.000002697398,0.000002697398,0.99999994,0,0,0,0,0,0,1,1,0,0,0,false,false,true,-281.3,1870.1799,17.01,-0.0045505106,-0.0013729756,0.956409,-0.29199174,-653.141,731.561,8.331,-0.00040999998,-0.00010999999,3.70481
155.88333,2000,0,91.24,0.000002697398,0.000002697398,0.000002697398,0.99999994,0,0,0,0,0,0,1,1,0,0,0,false,false,true,-286.74,1876.2799,17.01,-0.0045289313,-0.001443108,0.951788,-0.3067196,-656.761,720.501,8.331,-0.00051,-0.00021,3.75241
