time,ball_loc_x,ball_loc_y,ball_loc_z,ball_rot_x,ball_rot_y,ball_rot_z,ball_rot_w,ball_vel_x,ball_vel_y,ball_vel_z,ball_ang_x,ball_ang_y,ball_ang_z,player0_throttle,player0_steer,player0_pitch,player0_yaw,player0_roll,player0_jump,player0_boost,player0_handbrake,player0_loc_x,player0_loc_y,player0_loc_z,player0_rot_x,player0_rot_y,player0_rot_z,player0_rot_w,player0_vel_x,player0_vel_y,player0_vel_z,player0_ang_x,player0_ang_y,player0_ang_z
174.60834,2000,0,91.24,0.000002697398,0.000002697398,0.000002697398,0.99999994,0,0,0,0,0,0,1,0,0,0,0,false,false,false,0,-2888.1099,17.01,-0.003347471,0.00336905,0.70708513,0.7071124,0,1400.3009,8.321,-0.00081,-0.00010999999,0
174.61667,2000,0,91.24,0.000002697398,0.000002697398,0.000002697398,0.99999994,0,0,0,0,0,0,0,1,0,0,0,false,false,true,0,-2876.44,17.01,-0.003347471,0.00336905,0.70708513,0.7071124,-12.151,1398.761,8.331,-0.00091,0.00301,0.33791
174.625,2000,0,91.24,0.000002697398,0.000002697398,0.000002697398,0.99999994,0,0,0,0,0,0,0,1,0,0,0,false,false,true,-0.099999994,-2864.78,17.01,-0.0033474711,0.0033744453,0.7080821,0.7061141,-22.120998,1397.4509,8.331,-0.00091,0.00421,0.60171
174.63333,2000,0,91.24,0.000002697398,0.000002697398,0.000002697398,0.99999994,0,0,0,0,0,0,0,1,0,0,0,false,false,true,-0.28,-2853.13,17.01,-0.003347471,0.0033798397,0.7098475,0.7043392,-31.730999,1396.1609,8.331,-0.00091,0.00451,0.83171
174.64166,2000,0,91.24,0.000002697398,0.000002697398,0.000002697398,0.99999994,0,0,0,0,0,0,0,1,0,0,0,false,false,true,-0.53999996,-2841.49,17.01,-0.0033474711,0.0033852349,0.71228534,0.70187384,-41.371,1394.841,8.331,-0.00091,0.0043099998,1.03371
174.65,2000,0,91.24,0.000002697398,0.000002697398,0.000002697398,0.99999994,0,0,0,0,0,0,0,1,0,0,0,false,false,true,-0.88,-2829.8699,17.01,-0.0033528658,0.0033852346,0.7153024,0.6987987,-51.281,1393.4409,8.331,-0.00081,0.00381,1.21261
174.65834,2000,0,91.24,0.000002697398,0.000002697398,0.000002697398,0.99999994,0,0,0,0,0,0,0,1,0,0,0,false,false,true,-1.31,-2818.26,17.01,-0.0033582605,0.0033798397,0.71882623,0.6951733,-61.600998,1391.9209,8.341001,-0.00071,0.00311,1.3723099
174.66667,2000,0,91.24,0.000002697398,0.000002697398,0.000002697398,0.99999994,0,0,0,0,0,0,0,1,0,0,0,false,false,true,-1.8199999,-2806.66,17.01,-0.00336905,0.003374445,0.72278947,0.6910517,-72.391,1390.241,8.341001,-0.00071,0.00241,1.5160099
174.675,2000,0,91.24,0.000002697398,0.000002697398,0.000002697398,0.99999994,0,0,0,0,0,0,0,1,0,0,0,false,false,true,-2.4199998,-2795.0698,17.01,-0.0033852346,0.0033636554,0.7271409,0.6864715,-83.671,1388.371,8.341001,-0.00061,0.0017099999,1.6461099
174.68333,2000,0,91.24,0.000002697398,0.000002697398,0.000002697398,0.99999994,0,0,0,0,0,0,0,1,0,0,0,false,false,true,-3.12,-2783.5,17.01,-0.0034068138,0.003347471,0.73182976,0.6814706,-95.401,1386.281,8.341001,-0.00051,0.00111,1.76471
174.69167,2000,0,91.24,0.000002697398,0.000002697398,0.000002697398,0.99999994,0,0,0,0,0,0,0,1,0,0,0,false,false,true,-3.9199998,-2771.95,17.01,-0.003428393,0.003325892,0.7368215,0.67607033,-107.520996,1383.9509,8.341001,-0.00040999998,0.00061,1.87341
174.7,2000,0,91.24,0.000002697398,0.000002697398,0.000002697398,0.99999994,0,0,0,0,0,0,0,1,0,0,0,false,false,true,-4.8199997,-2760.42,17.01,-0.003455367,0.0033043127,0.7420767,0.67029786,-119.951,1381.371,8.341001,-0.00040999998,0.00010999999,1.97331
174.70833,2000,0,91.24,0.000002697398,0.000002697398,0.000002697398,0.99999994,0,0,0,0,0,0,0,1,0,0,0,false,false,true,-5.8199997,-2748.91,17.01,-0.0034823404,0.003277338,0.74756193,0.6641747,-132.601,1378.521,8.341001,-0.00030999997,-0.00021,2.06541
174.71666,2000,0,91.24,0.000002697398,0.000002697398,0.000002697398,0.99999994,0,0,0,0,0,0,0,1,0,0,0,false,false,true,-6.93,-2737.42,17.01,-0.003509315,0.0032503647,0.7532497,0.65771717,-145.351,1375.4109,8.341001,-0.00021,-0.00040999998,2.15051
174.725,2000,0,91.24,0.000002697398,0.000002697398,0.000002697398,0.99999994,0,0,0,0,0,0,0,1,0,0,0,false,false,true,-8.139999,-2725.96,17.01,-0.003541684,0.003217996,0.75911295,0.6509413,-158.091,1372.0509,8.351,-0.00010999999,-0.00061,2.2290099
174.73334,2000,0,91.24,0.000002697398,0.000002697398,0.000002697398,0.99999994,0,0,0,0,0,0,0,1,0,0,0,false,false,true,-9.46,-2714.53,17.01,-0.003574052,0.0031856268,0.76512545,0.6438632,-170.681,1368.4609,8.351,-0.00010999999,-0.00081,2.30131
174.74167,2000,0,91.24,0.000002697398,0.000002697398,0.000002697398,0.99999994,0,0,0,0,0,0,0,1,0,0,0,false,false,true,-10.88,-2703.13,17.01,-0.0036064212,0.0031478636,0.7712623,0.63649935,-183.001,1364.6809,8.351,0,-0.0010099999,2.3677099
174.75,2000,0,91.24,0.000002697398,0.000002697398,0.000002697398,0.99999994,0,0,0,0,0,0,0,1,0,0,0,false,false,true,-12.41,-2691.76,17.01,-0.00363879,0.0031101,0.77750355,0.62886024,-194.901,1360.751,8.351,0,-0.00111,2.42831
174.75833,2000,0,91.24,0.000002697398,0.000002697398,0.000002697398,0.99999994,0,0,0,0,0,0,0,1,0,0,0,false,false,true,-14.03,-2680.42,17.01,-0.0036711588,0.0030723363,0.78382576,0.62096226,-206.241,1356.731,8.351,0,-0.0012099999,2.48311
174.76666,2000,0,91.24,0.000002697398,0.000002697398,0.000002697398,0.99999994,0,0,0,0,0,0,0,1,0,0,0,false,false,true,-15.75,-2669.1099,17.01,-0.0037089225,0.0030291781,0.79020673,0.6128216,-216.871,1352.6909,8.351,0,-0.00131,2.53211
174.775,2000,0,91.24,0.000002697398,0.000002697398,0.000002697398,0.99999994,0,0,0,0,0,0,0,1,0,0,0,false,false,true,-17.56,-2657.8398,17.01,-0.003746686,0.0029860197,0.79662955,0.6044487,-226.641,1348.7109,8.351,0,-0.0014099999,2.57531
174.78334,2000,0,91.24,0.000002697398,0.000002697398,0.000002697398,0.99999994,0,0,0,0,0,0,0,1,0,0,0,false,false,true,-19.449999,-2646.5999,17.01,-0.0037844495,0.0029428613,0.8030698,0.5958656,-235.391,1344.9109,8.351,0.00010999999,-0.0014099999,2.61251
174.79167,2000,0,91.24,0.000002697398,0.000002697398,0.000002697398,0.99999994,0,0,0,0,0,0,0,1,0,0,0,false,false,true,-21.41,-2635.39,17.01,-0.003822213,0.0028997029,0.8095086,0.5870882,-242.97101,1341.401,8.351,0.00021,-0.0014099999,2.64361
174.8,2000,0,91.24,0.000002697398,0.000002697398,0.000002697398,0.99999994,0,0,0,0,0,0,0,1,0,0,0,false,false,true,-23.43,-2624.21,17.01,-0.0038599768,0.0028511498,0.8159247,0.5781382,-249.22101,1338.3209,8.341001,0.00030999997,-0.0014099999,2.66841
174.80833,2000,0,91.24,0.000002697398,0.000002697398,0.000002697398,0.99999994,0,0,0,0,0,0,0,1,0,0,0,false,false,true,-25.51,-2613.06,17.01,-0.0038977405,0.002802597,0.82230145,0.56903183,-253.97101,1335.8309,8.341001,0.00040999998,-0.0014099999,2.68671
174.81667,2000,0,91.24,0.000002697398,0.000002697398,0.000002697398,0.99999994,0,0,0,0,0,0,0,1,0,0,0,false,false,true,-27.63,-2601.93,17.01,-0.0039301086,0.0027540433,0.82862025,0.55979043,-258.911,1333.111,8.341001,0.00040999998,-0.00131,2.70431
174.825,2000,0,91.24,0.000002697398,0.000002697398,0.000002697398,0.99999994,0,0,0,0,0,0,0,1,0,0,0,false,false,true,-29.789999,-2590.8198,17.01,-0.0039624777,0.0027054902,0.8348743,0.5504196,-264.021,1330.151,8.341001,0.00040999998,-0.0012099999,2.72141
174.83333,2000,0,91.24,0.000002697398,0.000002697398,0.000002697398,0.99999994,0,0,0,0,0,0,0,1,0,0,0,false,false,true,-31.99,-2579.74,17.01,-0.0039948463,0.002656937,0.84106076,0.5409193,-269.281,1326.9509,8.341001,0.00040999998,-0.00111,2.73791
174.84166,2000,0,91.24,0.000002697398,0.000002697398,0.000002697398,0.99999994,0,0,0,0,0,0,0,1,0,0,0,false,false,true,-34.23,-2568.68,17.01,-0.0040272153,0.0026083838,0.84717655,0.53128964,-274.681,1323.501,8.341001,0.00040999998,-0.0010099999,2.7539098
174.85,2000,0,91.24,0.000002697398,0.000002697398,0.000002697398,0.99999994,0,0,0,0,0,0,0,1,0,0,0,false,false,true,-36.52,-2557.65,17.01,-0.004059584,0.0025598307,0.8532158,0.5215358,-280.201,1319.7909,8.341001,0.00040999998,-0.0010099999,2.76941
174.85834,2000,0,91.24,0.000002697398,0.000002697398,0.000002697398,0.99999994,0,0,0,0,0,0,0,1,0,0,0,false,false,true,-38.86,-2546.65,17.01,-0.0040919525,0.0025112776,0.85917574,0.5116579,-285.821,1315.8309,8.341001,0.00040999998,-0.00091,2.78441
174.86667,2000,0,91.24,0.000002697398,0.000002697398,0.000002697398,0.99999994,0,0,0,0,0,0,0,1,0,0,0,false,false,true,-41.239998,-2535.68,17.01,-0.0041243215,0.0024627245,0.86505383,0.50165594,-291.521,1311.611,8.341001,0.00040999998,-0.00081,2.79881
174.875,2000,0,91.24,0.000002697398,0.000002697398,0.000002697398,0.99999994,0,0,0,0,0,0,0,1,0,0,0,false,false,true,-43.67,-2524.75,17.01,-0.0041566906,0.0024087767,0.8708444,0.49153525,-297.29102,1307.131,8.341001,0.00051,-0.00071,2.81271
174.88333,2000,0,91.24,0.000002697398,0.000002697398,0.000002697398,0.99999994,0,0,0,0,0,0,0,1,0,0,0,false,false,true,-46.149998,-2513.8599,17.01,-0.0041836645,0.0023548284,0.87654495,0.48129588,-303.111,1302.401,8.341001,0.00051,-0.00061,2.82601
174.89166,2000,0,91.24,0.000002697398,0.000002697398,0.000002697398,0.99999994,0,0,0,0,0,0,0,1,0,0,0,false,false,true,-48.68,-2503.01,17.01,-0.0042106383,0.0023008804,0.8821504,0.4709432,-308.961,1297.4109,8.341001,0.00051,-0.00061,2.83881
174.9,2000,0,91.24,0.000002697398,0.000002697398,0.000002697398,0.99999994,0,0,0,0,0,0,0,1,0,0,0,false,false,true,-51.25,-2492.2,17.01,-0.004237612,0.0022469324,0.88765836,0.46047723,-314.821,1292.1609,8.341001,0.00040999998,-0.00061,2.8510098
174.90834,2000,0,91.24,0.000002697398,0.000002697398,0.000002697398,0.99999994,0,0,0,0,0,0,0,1,0,0,0,false,false,true,-53.87,-2481.43,17.01,-0.004264586,0.0021929846,0.893067,0.449898,-320.671,1286.6609,8.341001,0.00030999997,-0.00051,2.8626099
174.91667,2000,0,91.24,0.000002697398,0.000002697398,0.000002697398,0.99999994,0,0,0,0,0,0,0,1,0,0,0,false,false,true,-56.539997,-2470.71,17.01,-0.0042915605,0.0021390368,0.8983685,0.43921635,-326.501,1280.9109,8.341001,0.00030999997,-0.00051,2.87361
174.925,2000,0,91.24,0.000002697398,0.000002697398,0.000002697398,0.99999994,0,0,0,0,0,0,0,1,0,0,0,false,false,true,-59.26,-2460.04,17.01,-0.0043185344,0.0020850888,0.9035638,0.42842668,-332.301,1274.9209,8.341001,0.00030999997,-0.00040999998,2.88391
174.93333,2000,0,91.24,0.000002697398,0.000002697398,0.000002697398,0.99999994,0,0,0,0,0,0,0,1,0,0,0,false,false,true,-62.03,-2449.42,17.01,-0.0043455083,0.0020311407,0.9086458,0.41753995,-338.041,1268.6909,8.341001,0.00021,-0.00040999998,2.89361
174.94167,2000,0,91.24,0.000002697398,0.000002697398,0.000002697398,0.99999994,0,0,0,0,0,0,0,1,0,0,0,false,false,true,-64.85,-2438.8499,17.01,-0.0043724827,0.001977193,0.9136132,0.40655607,-343.711,1262.221,8.341001,0.00021,-0.00030999997,2.9026098
174.95,2000,0,91.24,0.000002697398,0.000002697398,0.000002697398,0.99999994,0,0,0,0,0,0,0,1,0,0,0,false,false,true,-67.71,-2428.3298,17.01,-0.004399456,0.0019232448,0.91846406,0.39547515,-349.301,1255.531,8.341001,0.00021,-0.00021,2.91091
174.95833,2000,0,91.24,0.000002697398,0.000002697398,0.000002697398,0.99999994,0,0,0,0,0,0,0,1,0,0,0,false,false,true,-70.619995,-2417.8699,17.01,-0.0044210353,0.0018692969,0.92319244,0.38430783,-354.791,1248.621,8.341001,0.00021,-0.00021,2.91851
174.96666,2000,0,91.24,0.000002697398,0.000002697398,0.000002697398,0.99999994,0,0,0,0,0,0,0,1,0,0,0,false,false,true,-73.58,-2407.46,17.01,-0.0044426145,0.0018153489,0.9277971,0.37305427,-360.171,1241.501,8.341001,0.00021,-0.00021,2.92541
174.975,2000,0,91.24,0.000002697398,0.000002697398,0.000002697398,0.99999994,0,0,0,0,0,0,0,1,0,0,0,false,false,true,-76.58,-2397.1099,17.01,-0.0044641937,0.001761401,0.93227446,0.36171973,-365.421,1234.1809,8.341001,0.00021,-0.00021,2.93151
174.98334,2000,0,91.24,0.000002697398,0.000002697398,0.000002697398,0.99999994,0,0,0,0,0,0,0,1,0,0,0,false,false,true,-79.63,-2386.82,17.01,-0.004485773,0.0017074529,0.9366236,0.35030434,-370.531,1226.6709,8.341001,0.00021,-0.00021,2.93681
174.99167,2000,0,91.24,0.000002697398,0.000002697398,0.000002697398,0.99999994,0,0,0,0,0,0,0,1,0,0,0,false,false,true,-82.72,-2376.5999,17.01,-0.004507352,0.001653505,0.94083935,0.33881873,-375.491,1218.981,8.341001,0.00021,-0.00021,2.94131
175,2000,0,91.24,0.000002697398,0.000002697398,0.000002697398,0.99999994,0,0,0,0,0,0,0,1,0,0,0,false,false,true,-85.85,-2366.44,17.01,-0.004528931,0.0015995569,0.9449209,0.32726306,-380.291,1211.121,8.341001,0.00030999997,-0.00021,2.94501
175.00833,2000,0,91.24,0.000002697398,0.000002697398,0.000002697398,0.99999994,0,0,0,0,0,0,0,1,0,0,0,false,false,true,-89.02,-2356.3499,17.01,-0.004550511,0.0015402144,0.94886595,0.31564263,-384.911,1203.101,8.341001,0.00030999997,-0.00021,2.9479098
175.01666,2000,0,91.24,0.000002697398,0.000002697398,0.000002697398,0.99999994,0,0,0,0,0,0,0,1,0,0,0,false,false,true,-92.229996,-2346.32,17.01,-0.00457209,0.0014808717,0.9526717,0.3039629,-389.351,1194.9409,8.341001,0.00030999997,-0.00010999999,2.94991
175.025,2000,0,91.24,0.000002697398,0.000002697398,0.000002697398,0.99999994,0,0,0,0,0,0,0,1,0,0,0,false,false,true,-95.47,-2336.3599,17.01,-0.004588274,0.0014215288,0.9563362,0.29222912,-393.591,1186.651,8.341001,0.00030999997,0,2.95101
175.03334,2000,0,91.24,0.000002697398,0.000002697398,0.000002697398,0.99999994,0,0,0,0,0,0,0,1,0,0,0,false,false,true,-98.75,-2326.47,17.01,-0.0046044583,0.001362186,0.95985746,0.28044686,-397.631,1178.241,8.341001,0.00030999997,0,2.95121
175.04167,2000,0,91.24,0.000002697398,0.000002697398,0.000002697398,0.99999994,0,0,0,0,0,0,0,1,0,0,0,false,false,true,-102.06,-2316.65,17.01,-0.0046206424,0.0013028431,0.9632337,0.26862136,-401.461,1169.731,8.341001,0.00030999997,0,2.95051
175.05,2000,0,91.24,0.000002697398,0.000002697398,0.000002697398,0.99999994,0,0,0,0,0,0,0,1,0,0,0,false,false,true,-105.409996,-2306.9,17.01,-0.0046368274,0.0012435006,0.9664637,0.25675827,-405.081,1161.131,8.341001,0.00030999997,0,2.9488099
175.05833,2000,0,91.24,0.000002697398,0.000002697398,0.000002697398,0.99999994,0,0,0,0,0,0,0,1,0,0,0,false,false,true,-108.79,-2297.22,17.01,-0.004653012,0.0011841578,0.96954584,0.24486265,-408.481,1152.4609,8.341001,0.00030999997,0,2.94611
175.06667,2000,0,91.24,0.000002697398,0.000002697398,0.000002697398,0.99999994,0,0,0,0,0,0,0,1,0,0,0,false,false,true,-112.189995,-2287.6199,17.01,-0.004669196,0.001124815,0.97247785,0.23294553,-411.651,1143.731,8.341001,0.00021,0,2.94241
175.075,2000,0,91.24,0.000002697398,0.000002697398,0.000002697398,0.99999994,0,0,0,0,0,0,0,1,0,0,0,false,false,true,-115.619995,-2278.0898,17.01,-0.004679985,0.001065472,0.9752603,0.22100674,-414.591,1134.9609,8.341001,0.00021,0,2.93771
175.08333,2000,0,91.24,0.000002697398,0.000002697398,0.000002697398,0.99999994,0,0,0,0,0,0,0,1,0,0,0,false,false,true,-119.07,-2268.63,17.01,-0.004690775,0.0010061294,0.97789276,0.2090518,-417.301,1126.161,8.341001,0.00021,0,2.93191
175.09166,2000,0,91.24,0.000002697398,0.000002697398,0.000002697398,0.99999994,0,0,0,0,0,0,0,1,0,0,0,false,false,true,-122.549995,-2259.25,17.01,-0.004701564,0.0009467866,0.9803732,0.19709153,-419.781,1117.351,8.341001,0.00021,0,2.92501
175.1,2000,0,91.24,0.000002697398,0.000002697398,0.000002697398,0.99999994,0,0,0,0,0,0,0,1,0,0,0,false,false,true,-126.049995,-2249.94,17.01,-0.004712355,0.000887444,0.9827021,0.1851312,-422.031,1108.5409,8.341001,0.00021,0,2.9170098
175.10834,2000,0,91.24,0.000002697398,0.000002697398,0.000002697398,0.99999994,0,0,0,0,0,0,0,1,0,0,0,false,false,true,-129.56999,-2240.7,17.01,-0.0047231433,0.00082810107,0.984879,0.1731763,-424.051,1099.751,8.341001,0.00010999999,0,2.9079099
175.11667,2000,0,91.24,0.000002697398,0.000002697398,0.000002697398,0.99999994,0,0,0,0,0,0,0,1,0,0,0,false,false,true,-133.09999,-2231.54,17.01,-0.0047339336,0.0007687585,0.9869048,0.16123216,-425.831,1091.001,8.341001,0.00010999999,0,2.89761
175.125,2000,0,91.24,0.000002697398,0.000002697398,0.000002697398,0.99999994,0,0,0,0,0,0,0,1,0,0,0,false,false,true,-136.65,-2222.45,17.01,-0.004744723,0.0007094157,0.9887796,0.14930427,-427.391,1082.3009,8.341001,0.00010999999,0,2.8861098
175.13333,2000,0,91.24,0.000002697398,0.000002697398,0.000002697398,0.99999994,0,0,0,0,0,0,0,1,0,0,0,false,false,true,-140.20999,-2213.43,17.01,-0.004755513,0.00065007294,0.9905035,0.13740326,-428.721,1073.6709,8.341001,0.00010999999,0,2.87341
175.14166,2000,0,91.24,0.000002697398,0.000002697398,0.000002697398,0.99999994,0,0,0,0,0,0,0,1,0,0,0,false,false,true,-143.78,-2204.48,17.01,-0.004760908,0.0005907302,0.9920776,0.12553473,-429.831,1065.121,8.341001,0.00010999999,0,2.85951
175.15,2000,0,91.24,0.000002697398,0.000002697398,0.000002697398,0.99999994,0,0,0,0,0,0,0,1,0,0,0,false,false,true,-147.36,-2195.5999,17.01,-0.0047663026,0.00053138746,0.9935031,0.11370385,-430.721,1056.661,8.341001,0.00010999999,0,2.84431
175.15834,2000,0,91.24,0.000002697398,0.000002697398,0.000002697398,0.99999994,0,0,0,0,0,0,0,1,0,0,0,false,false,true,-150.95,-2186.79,17.01,-0.0047716973,0.0004720447,0.99478084,0.10192162,-431.411,1048.3109,8.341001,0.00010999999,0,2.82781
175.16667,2000,0,91.24,0.000002697398,0.000002697398,0.000002697398,0.99999994,0,0,0,0,0,0,0,1,0,0,0,false,false,true,-154.55,-2178.05,17.01,-0.004777092,0.0004127019,0.9959127,0.090193234,-431.891,1040.091,8.341001,0,0,2.81001
175.175,2000,0,91.24,0.000002697398,0.000002697398,0.000002697398,0.99999994,0,0,0,0,0,0,0,1,0,0,0,false,false,true,-158.15,-2169.38,17.01,-0.0047824867,0.00035875392,0.9969006,0.07852429,-432.181,1032.011,8.341001,0,0,2.7908099
175.18333,2000,0,91.24,0.000002697398,0.000002697398,0.000002697398,0.99999994,0,0,0,0,0,0,0,1,0,0,0,false,false,true,-161.75,-2160.78,17.01,-0.004787882,0.00030480602,0.9977464,0.0669254,-432.281,1024.0809,8.341001,0,0,2.77021
175.19167,2000,0,91.24,0.000002697398,0.000002697398,0.000002697398,0.99999994,0,0,0,0,0,0,0,1,0,0,0,false,false,true,-165.34999,-2152.25,17.01,-0.004793276,0.00025085802,0.99845254,0.05540211,-432.211,1016.311,8.341001,0,0,2.74821
175.2,2000,0,91.24,0.000002697398,0.000002697398,0.000002697398,0.99999994,0,0,0,0,0,0,0,1,0,0,0,false,false,true,-168.95,-2143.78,17.01,-0.0047932765,0.00019691007,0.99902153,0.043965064,-431.971,1008.71094,8.341001,0,0,2.72471
175.20833,2000,0,91.24,0.000002697398,0.000002697398,0.000002697398,0.99999994,0,0,0,0,0,0,0,1,0,0,0,false,false,true,-172.55,-2135.3699,17.01,-0.004793276,0.00014296209,0.9994563,0.03261972,-431.581,1001.30096,8.341001,0.00010999999,0,2.69971
175.21666,2000,0,91.24,0.000002697398,0.000002697398,0.000002697398,0.99999994,0,0,0,0,0,0,0,1,0,0,0,false,false,true,-176.15,-2127.03,17.01,-0.0047932756,0.00008901413,0.99975985,0.021376962,-431.051,994.09094,8.341001,0.00021,0,2.67321
175.225,2000,0,91.24,0.000002697398,0.000002697398,0.000002697398,0.99999994,0,0,0,0,0,0,0,1,0,0,0,false,false,true,-179.73999,-2118.75,17.01,-0.0047932765,0.000035066176,0.99993604,0.010242022,-430.381,987.08093,8.341001,0.00021,0,2.64511
175.23334,2000,0,91.24,0.000002697398,0.000002697398,0.000002697398,0.99999994,0,0,0,0,0,0,0,1,0,0,0,false,false,true,-183.33,-2110.52,17.01,-0.0047932765,-0.000018881788,0.9999882,-0.0007795481,-429.60098,980.29095,8.341001,0.00021,0,2.6154099
175.24167,2000,0,91.24,0.000002697398,0.000002697398,0.000002697398,0.99999994,0,0,0,0,0,0,0,1,0,0,0,false,false,true,-186.90999,-2102.3499,17.01,-0.004793276,-0.000072829745,0.99992025,-0.011677078,-428.711,973.72095,8.341001,0.00030999997,0,2.58401
175.25,2000,0,91.24,0.000002697398,0.000002697398,0.000002697398,0.99999994,0,0,0,0,0,0,0,1,0,0,0,false,false,true,-190.48,-2094.24,17.01,-0.0047932756,-0.00012677768,0.99973655,-0.022439737,-427.731,967.381,8.331,0.00030999997,0,2.55091
175.25833,2000,0,91.24,0.000002697398,0.000002697398,0.000002697398,0.99999994,0,0,0,0,0,0,0,1,0,0,0,false,false,true,-194.04,-2086.18,17.01,-0.004793276,-0.00018072566,0.99944174,-0.033062134,-426.671,961.28094,8.331,0.00030999997,0,2.51611
175.26666,2000,0,91.24,0.000002697398,0.000002697398,0.000002697398,0.99999994,0,0,0,0,0,0,0,1,0,0,0,false,false,true,-197.59999,-2078.17,17.01,-0.004793276,-0.00023467363,0.9990402,-0.04353887,-425.501,955.33093,8.331,0.00030999997,0,2.48291
175.275,2000,0,91.24,0.000002697398,0.000002697398,0.000002697398,0.99999994,0,0,0,0,0,0,0,1,0,0,0,false,false,true,-201.15,-2070.21,17.01,-0.0047932756,-0.00028322675,0.9985363,-0.05386994,-424.221,949.53094,8.331,0.00021,0,2.45131
175.28334,2000,0,91.24,0.000002697398,0.000002697398,0.000002697398,0.99999994,0,0,0,0,0,0,0,1,0,0,0,false,false,true,-204.69,-2062.3,17.01,-0.0047878814,-0.00033177997,0.99793404,-0.06406615,-422.85098,943.8909,8.331,0.00021,0,2.42131
175.29167,2000,0,91.24,0.000002697398,0.000002697398,0.000002697398,0.99999994,0,0,0,0,0,0,0,1,0,0,0,false,false,true,-208.20999,-2054.43,17.01,-0.0047824867,-0.00038033313,0.9972368,-0.07413288,-421.401,938.41095,8.331,0.00010999999,0,2.3928099
175.3,2000,0,91.24,0.000002697398,0.000002697398,0.000002697398,0.99999994,0,0,0,0,0,0,0,1,0,0,0,false,false,true,-211.72,-2046.61,17.01,-0.004777092,-0.0004288863,0.9964482,-0.08407014,-419.881,933.11096,8.331,0.00010999999,0,2.36561
175.30833,2000,0,91.24,0.000002697398,0.000002697398,0.000002697398,0.99999994,0,0,0,0,0,0,0,1,0,0,0,false,false,true,-215.22,-2038.83,17.01,-0.004771697,-0.00047743946,0.9955711,-0.09388867,-418.241,927.91095,8.331,0,0,2.34181
175.31667,2000,0,91.24,0.000002697398,0.000002697398,0.000002697398,0.99999994,0,0,0,0,0,0,0,1,0,0,0,false,false,true,-218.70999,-2031.1,17.01,-0.004766302,-0.0005259926,0.9946075,-0.10359935,-416.461,922.761,8.331,0,0,2.32261
175.325,2000,0,91.24,0.000002697398,0.000002697398,0.000002697398,0.99999994,0,0,0,0,0,0,0,1,0,0,0,false,false,true,-222.18,-2023.4099,17.01,-0.004760908,-0.0005745458,0.9935585,-0.113218315,-414.551,917.68097,8.331,0,0,2.30781
175.33333,2000,0,91.24,0.000002697398,0.000002697398,0.000002697398,0.99999994,0,0,0,0,0,0,0,1,0,0,0,false,false,true,-225.62999,-2015.76,17.01,-0.0047555123,-0.00061770406,0.9924238,-0.12276713,-412.521,912.68097,8.331,-0.00010999999,0,2.29721
175.34166,2000,0,91.24,0.000002697398,0.000002697398,0.000002697398,0.99999994,0,0,0,0,0,0,0,1,0,0,0,false,false,true,-229.06999,-2008.1499,17.01,-0.0047501177,-0.00066086254,0.9912031,-0.13226202,-410.371,907.77094,8.331,-0.00021,0,2.29071
175.35,2000,0,91.24,0.000002697398,0.000002697398,0.000002697398,0.99999994,0,0,0,0,0,0,0,1,0,0,0,false,false,true,-232.48999,-2000.59,17.01,-0.004744723,-0.0007040209,0.9898952,-0.14171915,-408.121,902.97095,8.331,-0.00030999997,0,2.28821
175.35834,2000,0,91.24,0.000002697398,0.000002697398,0.000002697398,0.99999994,0,0,0,0,0,0,0,1,0,0,0,false,false,true,-235.89,-1993.07,17.01,-0.0047393288,-0.0007471793,0.9884993,-0.1511493,-405.771,898.28094,8.331,-0.00030999997,0,2.28971
175.36667,2000,0,91.24,0.000002697398,0.000002697398,0.000002697398,0.99999994,0,0,0,0,0,0,0,1,0,0,0,false,false,true,-239.26999,-1985.58,17.01,-0.0047339336,-0.0007903376,0.9870121,-0.16057403,-403.32098,893.72095,8.331,-0.00040999998,0,2.2950099
175.375,2000,0,91.24,0.000002697398,0.000002697398,0.000002697398,0.99999994,0,0,0,0,0,0,0,1,0,0,0,false,false,true,-242.62999,-1978.13,17.01,-0.004728538,-0.00083349587,0.9854315,-0.17000413,-400.791,889.29095,8.331,-0.00040999998,0,2.30411
175.38333,2000,0,91.24,0.000002697398,0.000002697398,0.000002697398,0.99999994,0,0,0,0,0,0,0,1,0,0,0,false,false,true,-245.97,-1970.72,17.01,-0.004717749,-0.00087665435,0.9837543,-0.17945586,-398.191,885.011,8.331,-0.00051,0,2.31691
175.39166,2000,0,91.24,0.000002697398,0.000002697398,0.000002697398,0.99999994,0,0,0,0,0,0,0,1,0,0,0,false,false,true,-249.29,-1963.34,17.01,-0.0047069597,-0.00091981277,0.98197585,-0.18894535,-395.501,880.83093,8.331,-0.00051,-0.00010999999,2.33251
175.4,2000,0,91.24,0.000002697398,0.000002697398,0.000002697398,0.99999994,0,0,0,0,0,0,0,1,0,0,0,false,false,true,-252.59,-1956,17.01,-0.00469617,-0.0009629711,0.98009354,-0.198478,-392.701,876.67096,8.331,-0.00051,-0.00010999999,2.34881
175.40834,2000,0,91.24,0.000002697398,0.000002697398,0.000002697398,0.99999994,0,0,0,0,0,0,0,1,0,0,0,false,false,true,-255.86,-1948.69,17.01,-0.004685381,-0.0010061295,0.9781045,-0.20805922,-389.781,872.55096,8.331,-0.00051,-0.00021,2.36591
175.41667,2000,0,91.24,0.000002697398,0.000002697398,0.000002697398,0.99999994,0,0,0,0,0,0,0,1,0,0,0,false,false,true,-259.11,-1941.4199,17.01,-0.0046745907,-0.0010492879,0.9760064,-0.21768896,-386.761,868.46094,8.331,-0.00051,-0.00021,2.38381
175.425,2000,0,91.24,0.000002697398,0.000002697398,0.000002697398,0.99999994,0,0,0,0,0,0,0,1,0,0,0,false,false,true,-262.33,-1934.1799,17.01,-0.0046638018,-0.0010924463,0.973796,-0.22737268,-383.661,864.43097,8.331,-0.00040999998,-0.00021,2.40231
175.43333,2000,0,91.24,0.000002697398,0.000002697398,0.000002697398,0.99999994,0,0,0,0,0,0,0,1,0,0,0,false,false,true,-265.53,-1926.98,17.01,-0.004653012,-0.0011356047,0.9714709,-0.23711029,-380.481,860.46094,8.331,-0.00040999998,-0.00021,2.4214098
175.44167,2000,0,91.24,0.000002697398,0.000002697398,0.000002697398,0.99999994,0,0,0,0,0,0,0,1,0,0,0,false,false,true,-268.69998,-1919.8099,17.01,-0.004642222,-0.0011787629,0.9690286,-0.24690187,-377.231,856.561,8.331,-0.00030999997,-0.00021,2.44121
175.45,2000,0,91.24,0.000002697398,0.000002697398,0.000002697398,0.99999994,0,0,0,0,0,0,0,1,0,0,0,false,false,true,-271.84,-1912.6699,17.01,-0.0046314322,-0.0012219213,0.9664666,-0.2567474,-373.891,852.71094,8.331,-0.00021,-0.00021,2.4609098
175.45833,2000,0,91.24,0.000002697398,0.000002697398,0.000002697398,0.99999994,0,0,0,0,0,0,0,1,0,0,0,false,false,true,-274.96,-1905.5599,17.01,-0.004620643,-0.0012704745,0.9637838,-0.2666415,-370.411,848.821,8.331,-0.00010999999,-0.00021,2.47841
175.46666,2000,0,91.24,0.000002697398,0.000002697398,0.000002697398,0.99999994,0,0,0,0,0,0,0,1,0,0,0,false,false,true,-278.05,-1898.49,17.01,-0.004609853,-0.0013190276,0.9609792,-0.27657875,-366.801,844.90094,8.331,-0.00010999999,-0.00021,2.49381
175.475,2000,0,91.24,0.000002697398,0.000002697398,0.000002697398,0.99999994,0,0,0,0,0,0,0,1,0,0,0,false,false,true,-281.11,-1891.45,17.01,-0.0045990637,-0.0013675808,0.9580537,-0.28654838,-363.051,840.96094,8.331,-0.00010999999,-0.00010999999,2.50721
175.48334,2000,0,91.24,0.000002697398,0.000002697398,0.000002697398,0.99999994,0,0,0,0,0,0,0,1,0,0,0,false,false,true,-284.13998,-1884.44,17.01,-0.004582879,-0.001416134,0.95500845,-0.29653957,-359.181,837.02094,8.331,-0.00010999999,0,2.5185099
175.49167,2000,0,91.24,0.000002697398,0.000002697398,0.000002697398,0.99999994,0,0,0,0,0,0,0,1,0,0,0,false,false,true,-287.13,-1877.46,17.01,-0.0045666946,-0.0014646872,0.9518434,-0.306547,-355.181,833.09094,8.331,0,0,2.5278099
175.5,2000,0,91.24,0.000002697398,0.000002697398,0.000002697398,0.99999994,0,0,0,0,0,0,0,1,0,0,0,false,false,true,-290.09,-1870.5199,17.01,-0.00455051,-0.0015132402,0.9485621,-0.31655434,-351.061,829.17096,8.331,0,0,2.53511
175.50833,2000,0,91.24,0.000002697398,0.000002697398,0.000002697398,0.99999994,0,0,0,0,0,0,0,1,0,0,0,false,false,true,-293.02,-1863.61,17.01,-0.0045343265,-0.0015617936,0.9451655,-0.32655638,-346.831,825.28094,8.331,0,0,2.54051
175.51666,2000,0,91.24,0.000002697398,0.000002697398,0.000002697398,0.99999994,0,0,0,0,0,0,0,1,0,0,0,false,false,true,-295.91,-1856.73,17.01,-0.0045181415,-0.0016103466,0.9416561,-0.33654213,-342.491,821.43097,8.331,0,0,2.54401
175.525,2000,0,91.24,0.000002697398,0.000002697398,0.000002697398,0.99999994,0,0,0,0,0,0,0,1,0,0,0,false,false,true,-298.75998,-1849.88,17.01,-0.0045019574,-0.0016588998,0.9380353,-0.34650636,-338.051,817.631,8.331,0,0,2.54561
175.53334,2000,0,91.24,0.000002697398,0.000002697398,0.000002697398,0.99999994,0,0,0,0,0,0,0,1,0,0,0,false,false,true,-301.58,-1843.07,17.01,-0.004485773,-0.0017074529,0.9343065,-0.35643822,-333.521,813.881,8.331,0,0,2.54531
175.54167,2000,0,91.24,0.000002697398,0.000002697398,0.000002697398,0.99999994,0,0,0,0,0,0,0,1,0,0,0,false,false,true,-304.36,-1836.2899,17.01,-0.0044695884,-0.0017560062,0.93047374,-0.36632693,-328.901,810.201,8.331,0,0,2.54321
175.55,2000,0,91.24,0.000002697398,0.000002697398,0.000002697398,0.99999994,0,0,0,0,0,0,0,1,0,0,0,false,false,true,-307.1,-1829.5399,17.01,-0.004453404,-0.0018045594,0.9265393,-0.3761671,-324.201,806.59094,8.331,0,0,2.53931
175.55833,2000,0,91.24,0.000002697398,0.000002697398,0.000002697398,0.99999994,0,0,0,0,0,0,0,1,0,0,0,false,false,true,-309.8,-1822.82,17.01,-0.004431825,-0.0018531126,0.922508,-0.3859479,-319.431,803.061,8.331,0,0.00010999999,2.53371
175.56667,2000,0,91.24,0.000002697398,0.000002697398,0.000002697398,0.99999994,0,0,0,0,0,0,0,1,0,0,0,false,false,true,-312.46,-1816.13,17.01,-0.004410246,-0.0019016658,0.91838276,-0.39566398,-314.601,799.621,8.331,0,0.00010999999,2.52631
175.575,2000,0,91.24,0.000002697398,0.000002697398,0.000002697398,0.99999994,0,0,0,0,0,0,0,1,0,0,0,false,false,true,-315.08,-1809.47,17.01,-0.0043886667,-0.0019502188,0.9141667,-0.40530986,-309.721,796.27094,8.331,0,0.00010999999,2.51721
175.58333,2000,0,91.24,0.000002697398,0.000002697398,0.000002697398,0.99999994,0,0,0,0,0,0,0,1,0,0,0,false,false,true,-317.66,-1802.83,17.01,-0.004367088,-0.0019987721,0.90986574,-0.41487494,-304.801,793.02094,8.331,0,0.00010999999,2.50641
175.59166,2000,0,91.24,0.000002697398,0.000002697398,0.000002697398,0.99999994,0,0,0,0,0,0,0,1,0,0,0,false,false,true,-320.19998,-1796.22,17.01,-0.0043455083,-0.0020419303,0.9054838,-0.42435357,-299.851,789.881,8.331,0,0.00010999999,2.49401
175.6,2000,0,91.24,0.000002697398,0.000002697398,0.000002697398,0.99999994,0,0,0,0,0,0,0,1,0,0,0,false,false,true,-322.69998,-1789.64,17.01,-0.004323929,-0.0020850885,0.90102494,-0.4337406,-294.871,786.85095,8.331,0,0.00010999999,2.47991
175.60834,2000,0,91.24,0.000002697398,0.000002697398,0.000002697398,0.99999994,0,0,0,0,0,0,0,1,0,0,0,false,false,true,-325.16,-1783.08,17.01,-0.00430235,-0.002128247,0.8964963,-0.44302505,-289.881,783.93097,8.331,0,0.00010999999,2.46421
175.61667,2000,0,91.24,0.000002697398,0.000002697398,0.000002697398,0.99999994,0,0,0,0,0,0,0,1,0,0,0,false,false,true,-327.58,-1776.5499,17.01,-0.0042807707,-0.0021714054,0.8919,-0.45220703,-284.881,781.121,8.331,0,0.00010999999,2.44701
175.625,2000,0,91.24,0.000002697398,0.000002697398,0.000002697398,0.99999994,0,0,0,0,0,0,0,1,0,0,0,false,false,true,-329.94998,-1770.0399,17.01,-0.004259191,-0.0022145635,0.8872437,-0.46127567,-279.891,778.43097,8.331,0,0.00021,2.42821
175.63333,2000,0,91.24,0.000002697398,0.000002697398,0.000002697398,0.99999994,0,0,0,0,0,0,0,1,0,0,0,false,false,true,-332.28,-1763.5499,17.01,-0.0042376127,-0.0022577224,0.8825302,-0.47023112,-274.911,775.85095,8.331,0,0.00030999997,2.4079099
175.64166,2000,0,91.24,0.000002697398,0.000002697398,0.000002697398,0.99999994,0,0,0,0,0,0,0,1,0,0,0,false,false,true,-334.57,-1757.08,17.01,-0.004216033,-0.0023008804,0.8777676,-0.47906244,-269.961,773.3909,8.331,0,0.00030999997,2.38611
175.65,2000,0,91.24,0.000002697398,0.000002697398,0.000002697398,0.99999994,0,0,0,0,0,0,0,1,0,0,0,false,false,true,-336.82,-1750.63,17.01,-0.0041944543,-0.002344039,0.8729621,-0.4877643,-265.04102,771.05096,8.331,0,0.00040999998,2.36281
175.65834,2000,0,91.24,0.000002697398,0.000002697398,0.000002697398,0.99999994,0,0,0,0,0,0,0,1,0,0,0,false,false,true,-339.03,-1744.2,17.01,-0.00416748,-0.0023871972,0.8681168,-0.49633664,-260.161,768.83093,8.331,0,0.00040999998,2.33811
175.66667,2000,0,91.24,0.000002697398,0.000002697398,0.000002697398,0.99999994,0,0,0,0,0,0,0,1,0,0,0,false,false,true,-341.19998,-1737.7899,17.01,-0.004140506,-0.0024303556,0.86324114,-0.5047687,-255.33101,766.73096,8.331,0,0.00040999998,2.31201
175.675,2000,0,91.24,0.000002697398,0.000002697398,0.000002697398,0.99999994,0,0,0,0,0,0,0,1,0,0,0,false,false,true,-343.33,-1731.3999,17.01,-0.0041135317,-0.002473514,0.8583389,-0.5130605,-250.561,764.751,8.331,0,0.00040999998,2.28451
175.68333,2000,0,91.24,0.000002697398,0.000002697398,0.000002697398,0.99999994,0,0,0,0,0,0,0,1,0,0,0,false,false,true,-345.41998,-1725.0299,17.01,-0.004086558,-0.0025112776,0.8534169,-0.5212067,-245.86101,762.881,8.331,0,0.00040999998,2.25571
175.69167,2000,0,91.24,0.000002697398,0.000002697398,0.000002697398,0.99999994,0,0,0,0,0,0,0,1,0,0,0,false,false,true,-347.47,-1718.6699,17.01,-0.004059584,-0.002549041,0.8484824,-0.5292018,-241.231,761.121,8.331,0.00010999999,0.00030999997,2.22551
175.7,2000,0,91.24,0.000002697398,0.000002697398,0.000002697398,0.99999994,0,0,0,0,0,0,0,1,0,0,0,false,false,true,-349.47998,-1712.33,17.01,-0.00403261,-0.0025868048,0.84353936,-0.53704584,-236.691,759.47095,8.331,0.00010999999,0.00030999997,2.19401
175.70833,2000,0,91.24,0.000002697398,0.000002697398,0.000002697398,0.99999994,0,0,0,0,0,0,0,1,0,0,0,false,false,true,-351.44998,-1706,17.01,-0.004005636,-0.0026245683,0.83859545,-0.54473346,-232.231,757.93097,8.331,0.00021,0.00030999997,2.16131
175.71666,2000,0,91.24,0.000002697398,0.000002697398,0.000002697398,0.99999994,0,0,0,0,0,0,0,1,0,0,0,false,false,true,-353.38998,-1699.6799,17.01,-0.003978662,-0.0026623318,0.833655,-0.5522647,-227.871,756.49097,8.331,0.00021,0.00030999997,2.12731
175.725,2000,0,91.24,0.000002697398,0.000002697398,0.000002697398,0.99999994,0,0,0,0,0,0,0,1,0,0,0,false,false,true,-355.28998,-1693.38,17.01,-0.003951688,-0.0027000955,0.82872593,-0.55963403,-223.61101,755.15094,8.331,0.00021,0.00021,2.09211
175.73334,2000,0,91.24,0.000002697398,0.000002697398,0.000002697398,0.99999994,0,0,0,0,0,0,0,1,0,0,0,false,false,true,-357.15,-1687.09,17.01,-0.0039301086,-0.002737859,0.8238166,-0.56683606,-219.461,753.90094,8.321,0.00021,0.00021,2.05581
175.74167,2000,0,91.24,0.000002697398,0.000002697398,0.000002697398,0.99999994,0,0,0,0,0,0,0,1,0,0,0,false,false,true,-358.97998,-1680.8099,17.01,-0.00390853,-0.002770228,0.8189317,-0.57387096,-215.421,752.74097,8.321,0.00021,0.00021,2.01831
175.75,2000,0,91.24,0.000002697398,0.000002697398,0.000002697398,0.99999994,0,0,0,0,0,0,0,1,0,0,0,false,false,true,-360.78,-1674.5399,17.01,-0.003886951,-0.002802597,0.814076,-0.58073854,-211.501,751.67096,8.321,0.00021,0.00021,1.97971
175.75833,2000,0,91.24,0.000002697398,0.000002697398,0.000002697398,0.99999994,0,0,0,0,0,0,0,1,0,0,0,false,false,true,-362.53998,-1668.2799,17.01,-0.0038653715,-0.0028349652,0.80925816,-0.58743346,-207.701,750.68097,8.321,0.00021,0.00021,1.94001
175.76666,2000,0,91.24,0.000002697398,0.000002697398,0.000002697398,0.99999994,0,0,0,0,0,0,0,1,0,0,0,false,false,true,-364.27,-1662.02,17.01,-0.0038437918,-0.0028673338,0.80448323,-0.59395576,-204.031,749.77094,8.321,0.00021,0.00030999997,1.89931
175.775,2000,0,91.24,0.000002697398,0.000002697398,0.000002697398,0.99999994,0,0,0,0,0,0,0,1,0,0,0,false,false,true,-365.97,-1655.77,17.01,-0.003822213,-0.0028997029,0.7997563,-0.6003055,-200.481,748.93097,8.321,0.00010999999,0.00030999997,1.85761
175.78334,2000,0,91.24,0.000002697398,0.000002697398,0.000002697398,0.99999994,0,0,0,0,0,0,0,1,0,0,0,false,false,true,-367.63998,-1649.5299,17.01,-0.0038006338,-0.0029320717,0.7950863,-0.6064772,-197.061,748.16095,8.321,0.00010999999,0.00030999997,1.8149099
175.79167,2000,0,91.24,0.000002697398,0.000002697398,0.000002697398,0.99999994,0,0,0,0,0,0,0,1,0,0,0,false,false,true,-369.28,-1643.2899,17.01,-0.0037790546,-0.0029644405,0.79047847,-0.61247087,-193.781,747.451,8.321,0,0.00030999997,1.77131
175.8,2000,0,91.24,0.000002697398,0.000002697398,0.000002697398,0.99999994,0,0,0,0,0,0,0,1,0,0,0,false,false,true,-370.88998,-1637.0599,17.01,-0.0037574756,-0.0029914144,0.7859381,-0.61828643,-190.631,746.80096,8.321,0,0.00030999997,1.72681
175.80833,2000,0,91.24,0.000002697398,0.000002697398,0.000002697398,0.99999994,0,0,0,0,0,0,0,1,0,0,0,false,false,true,-372.47998,-1630.84,17.01,-0.0037358964,-0.0030183885,0.7814702,-0.623924,-187.61101,746.201,8.321,0,0.00030999997,1.68141
175.81667,2000,0,91.24,0.000002697398,0.000002697398,0.000002697398,0.99999994,0,0,0,0,0,0,0,1,0,0,0,false,false,true,-374.03998,-1624.62,17.01,-0.0037143172,-0.0030453624,0.7770799,-0.62938356,-184.731,745.65094,8.321,0,0.00040999998,1.6352099
175.825,2000,0,91.24,0.000002697398,0.000002697398,0.000002697398,0.99999994,0,0,0,0,0,0,0,1,0,0,0,false,false,true,-375.58,-1618.4099,17.01,-0.003692738,-0.0030723363,0.77277225,-0.63466513,-181.981,745.1409,8.321,0,0.00040999998,1.58831
175.83333,2000,0,91.24,0.000002697398,0.000002697398,0.000002697398,0.99999994,0,0,0,0,0,0,0,1,0,0,0,false,false,true,-377.1,-1612.2,17.01,-0.0036711588,-0.0030993104,0.76855695,-0.63976324,-179.371,744.67096,8.321,0,0.00040999998,1.54061
175.84166,2000,0,91.24,0.000002697398,0.000002697398,0.000002697398,0.99999994,0,0,0,0,0,0,0,1,0,0,0,false,false,true,-378.59,-1605.99,17.01,-0.0036495796,-0.0031262843,0.76443464,-0.64468324,-176.891,744.23096,8.321,0,0.00040999998,1.4923099
175.85,2000,0,91.24,0.000002697398,0.000002697398,0.000002697398,0.99999994,0,0,0,0,0,0,0,1,0,0,0,false,false,true,-380.06,-1599.7899,17.01,-0.0036280004,-0.0031478636,0.7604101,-0.6494253,-174.541,743.821,8.321,0,0.00040999998,1.4435099
175.85834,2000,0,91.24,0.000002697398,0.000002697398,0.000002697398,0.99999994,0,0,0,0,0,0,0,1,0,0,0,false,false,true,-381.50998,-1593.59,17.01,-0.0036064214,-0.003169443,0.75648844,-0.6539894,-172.321,743.441,8.321,0,0.00040999998,1.39421
175.86667,2000,0,91.24,0.000002697398,0.000002697398,0.000002697398,0.99999994,0,0,0,0,0,0,0,1,0,0,0,false,false,true,-382.94998,-1587.39,17.01,-0.0035848422,-0.0031910222,0.7526744,-0.6583754,-170.22101,743.08093,8.311,0,0.00040999998,1.34461
175.875,2000,0,91.24,0.000002697398,0.000002697398,0.000002697398,0.99999994,0,0,0,0,0,0,0,1,0,0,0,false,false,true,-384.37,-1581.2,17.01,-0.0035632628,-0.0032126012,0.7489728,-0.6625833,-168.241,742.74097,8.311,0,0.00030999997,1.29471
175.88333,2000,0,91.24,0.000002697398,0.000002697398,0.000002697398,0.99999994,0,0,0,0,0,0,0,1,0,0,0,false,false,true,-385.77,-1575.01,17.01,-0.003547078,-0.0032341802,0.7453882,-0.66661316,-166.371,742.42096,8.311,0,0.00021,1.24461
175.89166,2000,0,91.24,0.000002697398,0.000002697398,0.000002697398,0.99999994,0,0,0,0,0,0,0,1,0,0,0,false,false,true,-387.16,-1568.82,17.01,-0.0035308942,-0.0032557594,0.74192053,-0.67047054,-164.61101,742.11096,8.311,0,0.00021,1.19451
175.9,2000,0,91.24,0.000002697398,0.000002697398,0.000002697398,0.99999994,0,0,0,0,0,0,0,1,0,0,0,false,false,true,-388.53,-1562.64,17.01,-0.0035147096,-0.003271944,0.738574,-0.6741552,-162.951,741.821,8.311,0,0.00021,1.14441
175.90834,2000,0,91.24,0.000002697398,0.000002697398,0.000002697398,0.99999994,0,0,0,0,0,0,0,1,0,0,0,false,false,true,-389.88998,-1556.46,17.01,-0.0034985254,-0.0032881282,0.73535293,-0.6776672,-161.391,741.54095,8.311,0,0.00021,1.09431
175.91667,2000,0,91.24,0.000002697398,0.000002697398,0.000002697398,0.99999994,0,0,0,0,0,0,0,1,0,0,0,false,false,true,-391.22998,-1550.2799,17.01,-0.0034823408,-0.0033043127,0.7322564,-0.681012,-159.931,741.27094,8.311,0,0.00021,1.04431
175.925,2000,0,91.24,0.000002697398,0.000002697398,0.000002697398,0.99999994,0,0,0,0,0,0,0,1,0,0,0,false,false,true,-392.56,-1544.1,17.01,-0.0034661565,-0.003320497,0.72928834,-0.68418956,-158.561,741.011,8.311,0,0.00021,0.99451
175.93333,2000,0,91.24,0.000002697398,0.000002697398,0.000002697398,0.99999994,0,0,0,0,0,0,0,1,0,0,0,false,false,true,-393.88,-1537.9199,17.01,-0.0034499723,-0.0033366815,0.7264474,-0.6872052,-157.281,740.751,8.311,0,0.00010999999,0.94491
175.94167,2000,0,91.24,0.000002697398,0.000002697398,0.000002697398,0.99999994,0,0,0,0,0,0,0,1,0,0,0,false,false,true,-395.19,-1531.75,17.01,-0.003433788,-0.003352866,0.72373706,-0.6900591,-156.08101,740.501,8.311,0,0,0.89561
175.95,2000,0,91.24,0.000002697398,0.000002697398,0.000002697398,0.99999994,0,0,0,0,0,0,0,1,0,0,0,false,false,true,-396.49,-1525.58,17.01,-0.0034229981,-0.0033636554,0.72115546,-0.69275653,-154.961,740.251,8.311,0,0,0.84661
175.95833,2000,0,91.24,0.000002697398,0.000002697398,0.000002697398,0.99999994,0,0,0,0,0,0,0,1,0,0,0,false,false,true,-397.78,-1519.4099,17.01,-0.0034122085,-0.003374445,0.71870595,-0.6952975,-153.921,740.001,8.311,0,0,0.79791
175.96666,2000,0,91.24,0.000002697398,0.000002697398,0.000002697398,0.99999994,0,0,0,0,0,0,0,1,0,0,0,false,false,true,-399.06,-1513.24,17.01,-0.003401419,-0.0033852346,0.71639144,-0.69768196,-152.951,739.761,8.311,0,0,0.74961
175.975,2000,0,91.24,0.000002697398,0.000002697398,0.000002697398,0.99999994,0,0,0,0,0,0,0,1,0,0,0,false,false,true,-400.33,-1507.08,17.01,-0.0033906293,-0.0033960242,0.71420956,-0.6999154,-152.041,739.52094,8.311,0,0,0.70171
175.98334,2000,0,91.24,0.000002697398,0.000002697398,0.000002697398,0.99999994,0,0,0,0,0,0,0,1,0,0,0,false,false,true,-401.6,-1500.9199,17.01,-0.00337984,-0.003406814,0.71216285,-0.7019979,-151.201,739.28094,8.311,0,0,0.65421
175.99167,2000,0,91.24,0.000002697398,0.000002697398,0.000002697398,0.99999994,0,0,0,0,0,0,0,1,0,0,0,false,false,true,-402.86,-1494.76,17.01,-0.00336905,-0.0034176034,0.71024853,-0.70393455,-150.41101,739.04095,8.311,0,0,0.60711
176,2000,0,91.24,0.000002697398,0.000002697398,0.000002697398,0.99999994,0,0,0,0,0,0,0,1,0,0,0,false,false,true,-404.11,-1488.6,17.01,-0.0033582605,-0.003428393,0.7084635,-0.70573103,-149.681,738.80096,8.311,0,0,0.56051
176.00833,2000,0,91.24,0.000002697398,0.000002697398,0.000002697398,0.99999994,0,0,0,0,0,0,0,1,0,0,0,false,false,true,-405.36,-1482.44,17.01,0.003352866,0.003433788,-0.7068154,0.70738167,-149.001,738.561,8.311,0,0,0.51441
176.01666,2000,0,91.24,0.000002697398,0.000002697398,0.000002697398,0.99999994,0,0,0,0,0,0,0,1,0,0,0,false,false,true,-406.6,-1476.2899,17.01,0.003347471,0.0034391826,-0.70529944,0.7088932,-148.371,738.321,8.311,0,0,0.46871
176.025,2000,0,91.24,0.000002697398,0.000002697398,0.000002697398,0.99999994,0,0,0,0,0,0,0,1,0,0,0,false,false,true,-407.84,-1470.14,17.01,0.0033420762,0.0034445773,-0.703913,0.7102699,-147.781,738.08093,8.311,0,0,0.42351002
176.03334,2000,0,91.24,0.000002697398,0.000002697398,0.000002697398,0.99999994,0,0,0,0,0,0,0,1,0,0,0,false,false,true,-409.06998,-1463.99,17.01,0.0033366818,0.0034499725,-0.7026561,0.7115134,-147.231,737.84094,8.311,0,0,0.37881002
176.04167,2000,0,91.24,0.000002697398,0.000002697398,0.000002697398,0.99999994,0,0,0,0,0,0,0,1,0,0,0,false,false,true,-410.3,-1457.84,17.01,0.0033312866,0.003455367,-0.7015339,0.7126198,-146.711,737.60095,8.311,0,0,0.33461002
176.05,2000,0,91.24,0.000002697398,0.000002697398,0.000002697398,0.99999994,0,0,0,0,0,0,0,1,0,0,0,false,false,true,-411.52,-1451.69,17.01,0.003325892,0.0034607616,-0.7005412,0.7135957,-146.231,737.36096,8.311,0,0,0.29091
176.05833,2000,0,91.24,0.000002697398,0.000002697398,0.000002697398,0.99999994,0,0,0,0,0,0,0,1,0,0,0,false,false,true,-412.74,-1445.5499,17.01,0.003320497,0.0034661565,-0.699678,0.7144421,-145.77101,737.121,8.311,0,0,0.24770999
176.06667,2000,0,91.24,0.000002697398,0.000002697398,0.000002697398,0.99999994,0,0,0,0,0,0,0,1,0,0,0,false,false,true,-413.94998,-1439.4099,17.01,0.0033151023,0.0034715512,-0.69893897,0.71516514,-145.341,736.881,8.311,0,0,0.20501
176.075,2000,0,91.24,0.000002697398,0.000002697398,0.000002697398,0.99999994,0,0,0,0,0,0,0,1,0,0,0,false,false,true,-415.16,-1433.27,17.01,0.0033097074,0.0034769461,-0.6983293,0.7157604,-144.931,736.6409,8.311,0,0,0.16291
176.08333,2000,0,91.24,0.000002697398,0.000002697398,0.000002697398,0.99999994,0,0,0,0,0,0,0,1,0,0,0,false,false,true,-416.37,-1427.13,17.01,0.0033097074,0.0034769461,-0.6978438,0.7162338,-144.541,736.40094,8.311,0,0,0.121309996
176.09166,2000,0,91.24,0.000002697398,0.000002697398,0.000002697398,0.99999994,0,0,0,0,0,0,0,1,0,0,0,false,false,true,-417.56998,-1420.99,17.01,0.0033097076,0.0034769464,-0.6974824,0.7165858,-144.16101,736.16095,8.311,0,0,0.08021
176.1,2000,0,91.24,0.000002697398,0.000002697398,0.000002697398,0.99999994,0,0,0,0,0,0,0,1,0,0,0,false,false,true,-418.77,-1414.86,17.01,0.0033097076,0.0034769464,-0.69724506,0.7168167,-143.791,735.92096,8.311,0,0,0.03961
176.10834,2000,0,91.24,0.000002697398,0.000002697398,0.000002697398,0.99999994,0,0,0,0,0,0,0,1,0,0,0,false,false,true,-419.97,-1408.73,17.01,0.0033097074,0.0034769461,-0.69712627,0.7169322,-143.431,735.691,8.311,0,0,-0.00040999998
176.11667,2000,0,91.24,0.000002697398,0.000002697398,0.000002697398,0.99999994,0,0,0,0,0,0,0,1,0,0,0,false,false,true,-421.16998,-1402.6,17.01,0.0033097074,0.0034769461,-0.69712627,0.7169322,-143.071,735.46094,8.311,0,0,-0.039909996
176.125,2000,0,91.24,0.000002697398,0.000002697398,0.000002697398,0.99999994,0,0,0,0,0,0,0,1,0,0,0,false,false,true,-422.36,-1396.47,17.01,0.0033097076,0.0034769464,-0.69724506,0.7168167,-142.711,735.23096,8.311,0,0,-0.07890999
176.13333,2000,0,91.24,0.000002697398,0.000002697398,0.000002697398,0.99999994,0,0,0,0,0,0,0,1,0,0,0,false,false,true,-423.55,-1390.34,17.01,0.0033097076,0.0034769464,-0.6974824,0.7165858,-142.351,735.011,8.311,0,0,-0.11741
176.14166,2000,0,91.24,0.000002697398,0.000002697398,0.000002697398,0.99999994,0,0,0,0,0,0,0,1,0,0,0,false,false,true,-424.74,-1384.21,17.01,0.0033097074,0.0034769461,-0.697833,0.7162443,-141.981,734.79095,8.311,0,0,-0.15540999
176.15,2000,0,91.24,0.000002697398,0.000002697398,0.000002697398,0.99999994,0,0,0,0,0,0,0,1,0,0,0,false,false,true,-425.91998,-1378.09,17.01,0.0033097074,0.0034769461,-0.69829696,0.71579194,-141.601,734.58093,8.311,0,-0.00010999999,-0.19291
176.15834,2000,0,91.24,0.000002697398,0.000002697398,0.000002697398,0.99999994,0,0,0,0,0,0,0,1,0,0,0,false,false,true,-427.09998,-1371.97,17.01,0.0033151023,0.0034715512,-0.69887424,0.7152284,-141.211,734.371,8.311,0,-0.00021,-0.22990999
176.16667,2000,0,91.24,0.000002697398,0.000002697398,0.000002697398,0.99999994,0,0,0,0,0,0,0,1,0,0,0,false,false,true,-428.28,-1365.85,17.01,0.003320497,0.0034661565,-0.69955933,0.71455824,-140.811,734.17096,8.311,0,-0.00021,-0.26641
176.175,2000,0,91.24,0.000002697398,0.000002697398,0.000002697398,0.99999994,0,0,0,0,0,0,0,1,0,0,0,false,false,true,-429.44998,-1359.73,17.01,0.003325892,0.0034607616,-0.7003524,0.713781,-140.391,733.97095,8.311,0,-0.00021,-0.30241
176.18333,2000,0,91.24,0.000002697398,0.000002697398,0.000002697398,0.99999994,0,0,0,0,0,0,0,1,0,0,0,false,false,true,-430.62,-1353.61,17.01,0.0033312866,0.003455367,-0.7012533,0.71289593,-139.951,733.78094,8.311,0,-0.00021,-0.33791
176.19167,2000,0,91.24,0.000002697398,0.000002697398,0.000002697398,0.99999994,0,0,0,0,0,0,0,1,0,0,0,false,false,true,-431.78998,-1347.5,17.01,0.0033366818,0.0034499725,-0.70225686,0.71190745,-139.481,733.59094,8.311,0,-0.00010999999,-0.37291
176.2,2000,0,91.24,0.000002697398,0.000002697398,0.000002697398,0.99999994,0,0,0,0,0,0,0,1,0,0,0,false,false,true,-432.94998,-1341.39,17.01,0.0033420762,0.0034445773,-0.7033627,0.71081483,-138.991,733.41095,8.311,0,-0.00010999999,-0.40731
176.20833,2000,0,91.24,0.000002697398,0.000002697398,0.000002697398,0.99999994,0,0,0,0,0,0,0,1,0,0,0,false,false,true,-434.11,-1335.28,17.01,0.003347471,0.0034391826,-0.70456576,0.7096224,-138.47101,733.23096,8.311,0,-0.00010999999,-0.44121
176.21666,2000,0,91.24,0.000002697398,0.000002697398,0.000002697398,0.99999994,0,0,0,0,0,0,0,1,0,0,0,false,false,true,-435.25998,-1329.1699,17.01,0.0033528658,0.0034337877,-0.7058713,0.7083237,-137.921,733.061,8.311,0,-0.00010999999,-0.47461
176.225,2000,0,91.24,0.000002697398,0.000002697398,0.000002697398,0.99999994,0,0,0,0,0,0,0,1,0,0,0,false,false,true,-436.41,-1323.0599,17.01,-0.0033582605,-0.003428393,0.7072685,-0.7069287,-137.33101,732.90094,8.311,0,-0.00010999999,-0.50751
176.23334,2000,0,91.24,0.000002697398,0.000002697398,0.000002697398,0.99999994,0,0,0,0,0,0,0,1,0,0,0,false,false,true,-437.55,-1316.95,17.01,-0.0033636556,-0.0034229984,0.7087644,-0.70542896,-136.711,732.74097,8.311,0,-0.00010999999,-0.53991
176.24167,2000,0,91.24,0.000002697398,0.000002697398,0.000002697398,0.99999994,0,0,0,0,0,0,0,1,0,0,0,false,false,true,-438.69,-1310.84,17.01,-0.00336905,-0.0034176034,0.7103501,-0.7038321,-136.05101,732.59094,8.311,0,-0.00021,-0.57181
176.25,2000,0,91.24,0.000002697398,0.000002697398,0.000002697398,0.99999994,0,0,0,0,0,0,0,1,0,0,0,false,false,true,-439.81998,-1304.73,17.01,-0.0033798397,-0.0034068138,0.71202445,-0.7021381,-135.351,732.441,8.311,0,-0.00030999997,-0.60321
176.25833,2000,0,91.24,0.000002697398,0.000002697398,0.000002697398,0.99999994,0,0,0,0,0,0,0,1,0,0,0,false,false,true,-440.94998,-1298.63,17.01,-0.0033906293,-0.0033960242,0.7137863,-0.700347,-134.601,732.30096,8.311,0,-0.00030999997,-0.63401
176.26666,2000,0,91.24,0.000002697398,0.000002697398,0.000002697398,0.99999994,0,0,0,0,0,0,0,1,0,0,0,false,false,true,-442.06998,-1292.53,17.01,-0.003401419,-0.0033852346,0.7156341,-0.6984588,-133.811,732.16095,8.311,0,-0.00030999997,-0.66431
176.275,2000,0,91.24,0.000002697398,0.000002697398,0.000002697398,0.99999994,0,0,0,0,0,0,0,1,0,0,0,false,false,true,-443.19,-1286.4299,17.01,-0.0034122085,-0.003374445,0.7175663,-0.69647354,-132.97101,732.03094,8.311,0,-0.00021,-0.69401
176.28334,2000,0,91.24,0.000002697398,0.000002697398,0.000002697398,0.99999994,0,0,0,0,0,0,0,1,0,0,0,false,false,true,-444.3,-1280.33,17.01,-0.0034229981,-0.0033636554,0.7195764,-0.69439656,-132.08101,731.90094,8.311,0,-0.00021,-0.72321
176.29167,2000,0,91.24,0.000002697398,0.000002697398,0.000002697398,0.99999994,0,0,0,0,0,0,0,1,0,0,0,false,false,true,-445.4,-1274.23,17.01,-0.003433788,-0.003352866,0.7216682,-0.6922225,-131.141,731.77094,8.311,0,-0.00021,-0.75181
176.3,2000,0,91.24,0.000002697398,0.000002697398,0.000002697398,0.99999994,0,0,0,0,0,0,0,1,0,0,0,false,false,true,-446.49,-1268.13,17.01,-0.0034445776,-0.0033420764,0.7238348,-0.6899566,-130.141,731.65094,8.311,0,-0.00021,-0.77990997
176.30833,2000,0,91.24,0.000002697398,0.000002697398,0.000002697398,0.99999994,0,0,0,0,0,0,0,1,0,0,0,false,false,true,-447.56998,-1262.03,17.01,-0.003455367,-0.0033312866,0.72607464,-0.68759906,-129.091,731.53094,8.311,0,-0.00021,-0.80741
176.31667,2000,0,91.24,0.000002697398,0.000002697398,0.000002697398,0.99999994,0,0,0,0,0,0,0,1,0,0,0,false,false,true,-448.65,-1255.9299,17.01,-0.0034661565,-0.003320497,0.7283862,-0.6851498,-127.980995,731.41095,8.311,0,-0.00021,-0.83431
176.325,2000,0,91.24,0.000002697398,0.000002697398,0.000002697398,0.99999994,0,0,0,0,0,0,0,1,0,0,0,false,false,true,-449.72,-1249.83,17.01,-0.0034769461,-0.0033097074,0.73076296,-0.68261427,-126.811,731.29095,8.311,0,-0.00021,-0.86061
176.33333,2000,0,91.24,0.000002697398,0.000002697398,0.000002697398,0.99999994,0,0,0,0,0,0,0,1,0,0,0,false,false,true,-450.78,-1243.74,17.01,-0.0034877358,-0.0032989178,0.73320836,-0.67998695,-125.58099,731.17096,8.311,0,-0.00021,-0.88631
176.34166,2000,0,91.24,0.000002697398,0.000002697398,0.000002697398,0.99999994,0,0,0,0,0,0,0,1,0,0,0,false,false,true,-451.83,-1237.65,17.01,-0.0034985254,-0.0032827335,0.73571575,-0.67727333,-124.291,731.05096,8.311,0,-0.00021,-0.91131
176.35,2000,0,91.24,0.000002697398,0.000002697398,0.000002697398,0.99999994,0,0,0,0,0,0,0,1,0,0,0,false,false,true,-452.87,-1231.5599,17.01,-0.003509315,-0.003266549,0.7382834,-0.67447346,-122.940994,730.93097,8.311,0,-0.00021,-0.93571
176.35834,2000,0,91.24,0.000002697398,0.000002697398,0.000002697398,0.99999994,0,0,0,0,0,0,0,1,0,0,0,false,false,true,-453.88998,-1225.47,17.01,-0.0035201048,-0.003250365,0.74090993,-0.6715873,-121.520996,730.80096,8.311,0,-0.00021,-0.95950997
176.36667,2000,0,91.24,0.000002697398,0.000002697398,0.000002697398,0.99999994,0,0,0,0,0,0,0,1,0,0,0,false,false,true,-454.9,-1219.38,17.01,-0.0035362889,-0.0032341804,0.7435887,-0.66862005,-120.041,730.67096,8.311,0,-0.00021,-0.98261
176.375,2000,0,91.24,0.000002697398,0.000002697398,0.000002697398,0.99999994,0,0,0,0,0,0,0,1,0,0,0,false,false,true,-455.9,-1213.2899,17.01,-0.0035524734,-0.0032179959,0.74631816,-0.665572,-118.491,730.53094,8.311,0,-0.00021,-1.00511
176.38333,2000,0,91.24,0.000002697398,0.000002697398,0.000002697398,0.99999994,0,0,0,0,0,0,0,1,0,0,0,false,false,true,-456.88998,-1207.2,17.01,-0.0035686577,-0.0032018116,0.7490968,-0.66244304,-116.881,730.381,8.311,0,-0.00021,-1.02701
176.39166,2000,0,91.24,0.000002697398,0.000002697398,0.000002697398,0.99999994,0,0,0,0,0,0,0,1,0,0,0,false,false,true,-457.86,-1201.11,17.01,-0.003584842,-0.003185627,0.75192326,-0.6592331,-115.201,730.22095,8.311,0,-0.00021,-1.04831
176.4,2000,0,91.24,0.000002697398,0.000002697398,0.000002697398,0.99999994,0,0,0,0,0,0,0,1,0,0,0,false,false,true,-458.81998,-1195.02,17.01,-0.0036010267,-0.003169443,0.75479573,-0.6559423,-113.461,730.05096,8.311,0,-0.00021,-1.06901
176.40834,2000,0,91.24,0.000002697398,0.000002697398,0.000002697398,0.99999994,0,0,0,0,0,0,0,1,0,0,0,false,false,true,-459.77,-1188.94,17.01,-0.003617211,-0.0031532585,0.7577081,-0.65257597,-111.65099,729.871,8.311,0,-0.00010999999,-1.08921
176.41667,2000,0,91.24,0.000002697398,0.000002697398,0.000002697398,0.99999994,0,0,0,0,0,0,0,1,0,0,0,false,false,true,-460.69998,-1182.86,17.01,-0.0036333948,-0.0031370737,0.7606634,-0.64912856,-109.781,729.67096,8.311,0,-0.00010999999,-1.10881
176.425,2000,0,91.24,0.000002697398,0.000002697398,0.000002697398,0.99999994,0,0,0,0,0,0,0,1,0,0,0,false,false,true,-461.61,-1176.78,17.01,-0.0036495796,-0.0031208897,0.76365566,-0.6456058,-107.840996,729.46094,8.311,0,-0.00010999999,-1.12781
176.43333,2000,0,91.24,0.000002697398,0.000002697398,0.000002697398,0.99999994,0,0,0,0,0,0,0,1,0,0,0,false,false,true,-462.50998,-1170.7,17.01,-0.003665764,-0.0031047051,0.7666832,-0.64200747,-105.840996,729.23096,8.311,0,-0.00010999999,-1.14631
176.44167,2000,0,91.24,0.000002697398,0.000002697398,0.000002697398,0.99999994,0,0,0,0,0,0,0,1,0,0,0,false,false,true,-463.38998,-1164.62,17.01,-0.0036819484,-0.0030885208,0.7697403,-0.638339,-103.781,728.98096,8.311,0,-0.00010999999,-1.16431
176.45,2000,0,91.24,0.000002697398,0.000002697398,0.000002697398,0.99999994,0,0,0,0,0,0,0,1,0,0,0,false,false,true,-464.25,-1158.5499,17.01,-0.0036981327,-0.0030723363,0.77282983,-0.634595,-101.651,728.71094,8.311,0,-0.00010999999,-1.18181
176.45833,2000,0,91.24,0.000002697398,0.000002697398,0.000002697398,0.99999994,0,0,0,0,0,0,0,1,0,0,0,false,false,true,-465.09998,-1152.48,17.01,-0.0037143172,-0.003056152,0.7759461,-0.6307808,-99.461,728.42096,8.311,-0.00010999999,-0.00010999999,-1.19871
176.46666,2000,0,91.24,0.000002697398,0.000002697398,0.000002697398,0.99999994,0,0,0,0,0,0,0,1,0,0,0,false,false,true,-465.93,-1146.41,17.01,-0.003730501,-0.0030345726,0.77908754,-0.6268965,-97.211,728.11096,8.311,-0.00021,-0.00010999999,-1.21511
176.475,2000,0,91.24,0.000002697398,0.000002697398,0.000002697398,0.99999994,0,0,0,0,0,0,0,1,0,0,0,false,false,true,-466.74,-1140.34,17.01,-0.003746686,-0.0030129936,0.782253,-0.62294215,-94.901,727.77094,8.311,-0.00021,-0.00010999999,-1.23101
176.48334,2000,0,91.24,0.000002697398,0.000002697398,0.000002697398,0.99999994,0,0,0,0,0,0,0,1,0,0,0,false,false,true,-467.53,-1134.28,17.01,-0.0037628706,-0.0029914146,0.78543687,-0.61892307,-92.531,727.41095,8.311,-0.00021,0,-1.24651
176.49167,2000,0,91.24,0.000002697398,0.000002697398,0.000002697398,0.99999994,0,0,0,0,0,0,0,1,0,0,0,false,false,true,-468.3,-1128.22,17.01,-0.0037790549,-0.0029698354,0.788642,-0.61483383,-90.101,727.02094,8.311,-0.00021,0,-1.26151
176.5,2000,0,91.24,0.000002697398,0.000002697398,0.000002697398,0.99999994,0,0,0,0,0,0,0,1,0,0,0,false,false,true,-469.05,-1122.16,17.01,-0.0037952394,-0.0029482562,0.791863,-0.6106798,-87.611,726.60095,8.311,-0.00021,0,-1.27601
176.50833,2000,0,91.24,0.000002697398,0.000002697398,0.000002697398,0.99999994,0,0,0,0,0,0,0,1,0,0,0,false,false,true,-469.78,-1116.11,17.01,-0.0038114237,-0.002926677,0.79509866,-0.60646105,-85.071,726.15094,8.311,-0.00010999999,0,-1.29001
176.51666,2000,0,91.24,0.000002697398,0.000002697398,0.000002697398,0.99999994,0,0,0,0,0,0,0,1,0,0,0,false,false,true,-470.49,-1110.0599,17.01,-0.003827608,-0.0029050978,0.79834765,-0.6021775,-82.471,725.67096,8.311,-0.00010999999,0,-1.30361
176.525,2000,0,91.24,0.000002697398,0.000002697398,0.000002697398,0.99999994,0,0,0,0,0,0,0,1,0,0,0,false,false,true,-471.18,-1104.01,17.01,-0.0038437922,-0.0028835186,0.801609,-0.5978293,-79.821,725.15094,8.311,-0.00010999999,0,-1.31671
176.53334,2000,0,91.24,0.000002697398,0.000002697398,0.000002697398,0.99999994,0,0,0,0,0,0,0,1,0,0,0,false,false,true,-471.84998,-1097.97,17.01,-0.0038599768,-0.0028619394,0.8048773,-0.59342176,-77.111,724.60095,8.311,-0.00010999999,0,-1.32941
176.54167,2000,0,91.24,0.000002697398,0.000002697398,0.000002697398,0.99999994,0,0,0,0,0,0,0,1,0,0,0,false,false,true,-472.49,-1091.9299,17.01,-0.003876161,-0.0028403602,0.8081516,-0.5889548,-74.351,724.011,8.311,-0.00010999999,0,-1.34171
176.55,2000,0,91.24,0.000002697398,0.000002697398,0.000002697398,0.99999994,0,0,0,0,0,0,0,1,0,0,0,false,false,true,-473.11,-1085.9,17.01,-0.0038923454,-0.002818781,0.8114309,-0.58442855,-71.541,723.381,8.311,-0.00010999999,0,-1.35361
176.55833,2000,0,91.24,0.000002697398,0.000002697398,0.000002697398,0.99999994,0,0,0,0,0,0,0,1,0,0,0,false,false,true,-473.71,-1079.87,17.01,-0.0039085294,-0.0027972017,0.814714,-0.5798429,-68.681,722.71094,8.311,-0.00010999999,0,-1.36501
176.56667,2000,0,91.24,0.000002697398,0.000002697398,0.000002697398,0.99999994,0,0,0,0,0,0,0,1,0,0,0,false,false,true,-474.28,-1073.85,17.01,-0.003924714,-0.0027756225,0.81799996,-0.57519805,-65.781,722.001,8.311,-0.00010999999,0,-1.37601
176.575,2000,0,91.24,0.000002697398,0.000002697398,0.000002697398,0.99999994,0,0,0,0,0,0,0,1,0,0,0,false,false,true,-474.83,-1067.83,17.01,-0.0039408985,-0.0027540433,0.821284,-0.5704992,-62.830997,721.251,8.311,-0.00010999999,0,-1.38661
176.58333,2000,0,91.24,0.000002697398,0.000002697398,0.000002697398,0.99999994,0,0,0,0,0,0,0,1,0,0,0,false,false,true,-475.34998,-1061.82,17.01,-0.003957083,-0.002732464,0.82456523,-0.5657463,-59.830997,720.46094,8.311,-0.00010999999,0,-1.3968099
176.59166,2000,0,91.24,0.000002697398,0.000002697398,0.000002697398,0.99999994,0,0,0,0,0,0,0,1,0,0,0,false,false,true,-475.84998,-1055.82,17.01,-0.0039732675,-0.0027108851,0.8278427,-0.5609396,-56.790997,719.621,8.311,-0.00010999999,0,-1.40661
176.6,2000,0,91.24,0.000002697398,0.000002697398,0.000002697398,0.99999994,0,0,0,0,0,0,0,1,0,0,0,false,false,true,-476.31998,-1049.82,17.01,-0.0039894516,-0.002689306,0.8311156,-0.5560788,-53.711,718.74097,8.311,-0.00010999999,0,-1.41601
176.60834,2000,0,91.24,0.000002697398,0.000002697398,0.000002697398,0.99999994,0,0,0,0,0,0,0,1,0,0,0,false,false,true,-476.77,-1043.83,17.01,-0.004005636,-0.0026677267,0.8343829,-0.55116415,-50.591,717.811,8.311,-0.00021,0,-1.42501
176.61667,2000,0,91.24,0.000002697398,0.000002697398,0.000002697398,0.99999994,0,0,0,0,0,0,0,1,0,0,0,false,false,true,-477.19,-1037.85,17.01,-0.00402182,-0.0026407526,0.8376403,-0.54620093,-47.431,716.83093,8.311,-0.00021,0,-1.43371
176.625,2000,0,91.24,0.000002697398,0.000002697398,0.000002697398,0.99999994,0,0,0,0,0,0,0,1,0,0,0,false,false,true,-477.59,-1031.88,17.01,-0.0040380047,-0.0026137787,0.840887,-0.54118913,-44.240997,715.80096,8.311,-0.00021,0,-1.4420099
176.63333,2000,0,91.24,0.000002697398,0.000002697398,0.000002697398,0.99999994,0,0,0,0,0,0,0,1,0,0,0,false,false,true,-477.96,-1025.91,17.01,-0.004054189,-0.0025868048,0.8441224,-0.53612876,-41.021,714.72095,8.311,-0.00021,0,-1.4499099
176.64166,2000,0,91.24,0.000002697398,0.000002697398,0.000002697398,0.99999994,0,0,0,0,0,0,0,1,0,0,0,false,false,true,-478.3,-1019.94995,17.01,-0.004070374,-0.002559831,0.84734565,-0.5310199,-37.760998,713.59094,8.311,-0.00021,0,-1.45751
176.65,2000,0,91.24,0.000002697398,0.000002697398,0.000002697398,0.99999994,0,0,0,0,0,0,0,1,0,0,0,false,false,true,-478.61,-1014,17.01,-0.0040865582,-0.002532857,0.85055596,-0.5258625,-34.470997,712.41095,8.311,-0.00021,0,-1.46471
176.65834,2000,0,91.24,0.000002697398,0.000002697398,0.000002697398,0.99999994,0,0,0,0,0,0,0,1,0,0,0,false,false,true,-478.9,-1008.06,17.01,-0.004102742,-0.0025058824,0.8537493,-0.5206618,-31.151,711.18097,8.311,-0.00010999999,0,-1.47161
176.66667,2000,0,91.24,0.000002697398,0.000002697398,0.000002697398,0.99999994,0,0,0,0,0,0,0,1,0,0,0,false,false,true,-479.16,-1002.13,17.01,-0.004118927,-0.0024789087,0.8569253,-0.51541805,-27.810999,709.90094,8.311,-0.00010999999,0,-1.47811
176.675,2000,0,91.24,0.000002697398,0.000002697398,0.000002697398,0.99999994,0,0,0,0,0,0,0,1,0,0,0,false,false,true,-479.38998,-996.20996,17.01,-0.004135111,-0.0024519349,0.8600831,-0.5101311,-24.440998,708.561,8.311,-0.00010999999,0,-1.48431
