time,ball_loc_x,ball_loc_y,ball_loc_z,ball_rot_x,ball_rot_y,ball_rot_z,ball_rot_w,ball_vel_x,ball_vel_y,ball_vel_z,ball_ang_x,ball_ang_y,ball_ang_z,player0_throttle,player0_steer,player0_pitch,player0_yaw,player0_roll,player0_jump,player0_boost,player0_handbrake,player0_loc_x,player0_loc_y,player0_loc_z,player0_rot_x,player0_rot_y,player0_rot_z,player0_rot_w,player0_vel_x,player0_vel_y,player0_vel_z,player0_ang_x,player0_ang_y,player0_ang_z
87.066666,2000,0,91.24,0.000002697398,0.000002697398,0.000002697398,0.99999994,0,0,0,0,0,0,0.7007874,0,0,0,0,false,false,false,0,-4680.4,17.01,-0.0033474711,0.0033474711,0.7071125,0.7070852,-0.011,703.71094,8.321,-0.00061,0,0
87.075,2000,0,91.24,0.000002697398,0.000002697398,0.000002697398,0.99999994,0,0,0,0,0,0,0,1,0,0,0,false,false,true,0,-4674.53,17.01,-0.0033474711,0.0033474711,0.7071125,0.7070852,-12.911,700.201,8.351,-0.00091,0.00331,0.35311002
87.083336,2000,0,91.24,0.000002697398,0.000002697398,0.000002697398,0.99999994,0,0,0,0,0,0,0,1,0,0,0,false,false,true,-0.11,-4668.69,17.01,-0.003347471,0.0033528658,0.70815206,0.70604396,-22.071,697.67096,8.361,-0.00111,0.0043099998,0.59891
87.09167,2000,0,91.24,0.000002697398,0.000002697398,0.000002697398,0.99999994,0,0,0,0,0,0,0,1,0,0,0,false,false,true,-0.29,-4662.88,17.01,-0.003347471,0.0033582605,0.70991194,0.7042744,-30.331,695.391,8.361,-0.0012099999,0.00451,0.80951
87.1,2000,0,91.24,0.000002697398,0.000002697398,0.000002697398,0.99999994,0,0,0,0,0,0,0,1,0,0,0,false,false,true,-0.53999996,-4657.08,17.01,-0.003347471,0.0033636554,0.7122854,0.7018738,-37.961,693.29095,8.361,-0.0012099999,0.00421,0.98991
87.10833,2000,0,91.24,0.000002697398,0.000002697398,0.000002697398,0.99999994,0,0,0,0,0,0,0,1,0,0,0,false,false,true,-0.85999995,-4651.3,17.01,-0.0033528658,0.0033636554,0.715176,0.6989282,-45.161,691.321,8.361,-0.00111,0.00361,1.1446099
87.11667,2000,0,91.24,0.000002697398,0.000002697398,0.000002697398,0.99999994,0,0,0,0,0,0,0,1,0,0,0,false,false,true,-1.24,-4645.54,17.01,-0.0033636554,0.0033636554,0.71850264,0.6955078,-52.071,689.441,8.361,-0.00111,0.00291,1.27761
87.125,2000,0,91.24,0.000002697398,0.000002697398,0.000002697398,0.99999994,0,0,0,0,0,0,0,1,0,0,0,false,false,true,-1.67,-4639.79,17.01,-0.0033744453,0.0033582607,0.7221959,0.69167215,-58.781,687.621,8.361,-0.0010099999,0.00221,1.39221
87.13333,2000,0,91.24,0.000002697398,0.000002697398,0.000002697398,0.99999994,0,0,0,0,0,0,0,1,0,0,0,false,false,true,-2.1599998,-4634.06,17.01,-0.0033906295,0.0033474711,0.7261975,0.6874696,-65.351,685.821,8.361,-0.00091,0.00151,1.49131
87.14167,2000,0,91.24,0.000002697398,0.000002697398,0.000002697398,0.99999994,0,0,0,0,0,0,0,1,0,0,0,false,false,true,-2.7,-4628.34,17.01,-0.0034068138,0.0033312866,0.7304557,0.68294334,-71.821,684.03094,8.361,-0.00081,0.00081,1.57731
87.15,2000,0,91.24,0.000002697398,0.000002697398,0.000002697398,0.99999994,0,0,0,0,0,0,0,1,0,0,0,false,false,true,-3.3,-4622.64,17.01,-0.0034283926,0.0033151018,0.7349302,0.67812574,-78.201,682.23096,8.351,-0.00071,0.00021,1.65211
87.15833,2000,0,91.24,0.000002697398,0.000002697398,0.000002697398,0.99999994,0,0,0,0,0,0,0,1,0,0,0,false,false,true,-3.9499998,-4616.9497,17.01,-0.0034499723,0.003293523,0.7395822,0.6730492,-84.491,680.41095,8.351,-0.00061,-0.00021,1.71751
87.166664,2000,0,91.24,0.000002697398,0.000002697398,0.000002697398,0.99999994,0,0,0,0,0,0,0,1,0,0,0,false,false,true,-4.65,-4611.28,17.01,-0.0034769464,0.0032719441,0.74437857,0.66774076,-90.671,678.561,8.351,-0.00051,-0.00051,1.7747099
87.175,2000,0,91.24,0.000002697398,0.000002697398,0.000002697398,0.99999994,0,0,0,0,0,0,0,1,0,0,0,false,false,true,-5.41,-4605.62,17.01,-0.00350392,0.0032449698,0.74929726,0.6622164,-96.730995,676.68097,8.351,-0.00040999998,-0.00081,1.8249099
87.183334,2000,0,91.24,0.000002697398,0.000002697398,0.000002697398,0.99999994,0,0,0,0,0,0,0,1,0,0,0,false,false,true,-6.22,-4599.98,17.01,-0.0035308942,0.0032179959,0.7543125,0.65649796,-102.641,674.77094,8.351,-0.00030999997,-0.0010099999,1.86901
87.191666,2000,0,91.24,0.000002697398,0.000002697398,0.000002697398,0.99999994,0,0,0,0,0,0,0,1,0,0,0,false,false,true,-7.08,-4594.36,17.01,-0.003557868,0.003191022,0.7594043,0.6506014,-108.361,672.85095,8.351,-0.00021,-0.00111,1.90781
87.2,2000,0,91.24,0.000002697398,0.000002697398,0.000002697398,0.99999994,0,0,0,0,0,0,0,1,0,0,0,false,false,true,-7.98,-4588.75,17.01,-0.0035848422,0.0031586534,0.76455307,0.64454305,-113.861,670.92096,8.351,-0.00010999999,-0.0012099999,1.94181
87.208336,2000,0,91.24,0.000002697398,0.000002697398,0.000002697398,0.99999994,0,0,0,0,0,0,0,1,0,0,0,false,false,true,-8.929999,-4583.1597,17.01,-0.003611816,0.0031262843,0.7697449,0.6383336,-119.101,669.001,8.341001,-0.00010999999,-0.00131,1.97161
87.21667,2000,0,91.24,0.000002697398,0.000002697398,0.000002697398,0.99999994,0,0,0,0,0,0,0,1,0,0,0,false,false,true,-9.92,-4577.58,17.01,-0.0036441851,0.0030939158,0.7749623,0.63198936,-124.031,667.11096,8.341001,-0.00010999999,-0.0014099999,1.99751
87.225,2000,0,91.24,0.000002697398,0.000002697398,0.000002697398,0.99999994,0,0,0,0,0,0,0,1,0,0,0,false,false,true,-10.95,-4572.02,17.01,-0.0036765537,0.003061547,0.780197,0.6255155,-128.61101,665.27094,8.341001,0,-0.0014099999,2.01981
87.23333,2000,0,91.24,0.000002697398,0.000002697398,0.000002697398,0.99999994,0,0,0,0,0,0,0,1,0,0,0,false,false,true,-12.0199995,-4566.48,17.01,-0.0037089223,0.003029178,0.7854327,0.61892843,-132.781,663.52094,8.341001,0,-0.0014099999,2.03881
87.24167,2000,0,91.24,0.000002697398,0.000002697398,0.000002697398,0.99999994,0,0,0,0,0,0,0,1,0,0,0,false,false,true,-13.13,-4560.9497,17.01,-0.0037412911,0.0029914144,0.7906624,0.61223346,-136.501,661.891,8.341001,0,-0.0014099999,2.05471
87.25,2000,0,91.24,0.000002697398,0.000002697398,0.000002697398,0.99999994,0,0,0,0,0,0,0,1,0,0,0,false,false,true,-14.2699995,-4555.4297,17.01,-0.00377366,0.002953651,0.79587543,0.60544133,-139.711,660.42096,8.331,0,-0.00131,2.06761
87.25833,2000,0,91.24,0.000002697398,0.000002697398,0.000002697398,0.99999994,0,0,0,0,0,0,0,1,0,0,0,false,false,true,-15.429999,-4549.9297,17.01,-0.0038006338,0.0029158874,0.80106133,0.59856296,-142.341,659.15094,8.331,0.00010999999,-0.0012099999,2.07761
87.26667,2000,0,91.24,0.000002697398,0.000002697398,0.000002697398,0.99999994,0,0,0,0,0,0,0,1,0,0,0,false,false,true,-16.619999,-4544.44,17.01,-0.003827608,0.0028781237,0.8062146,0.5916037,-144.341,658.141,8.331,0.00010999999,-0.00111,2.08481
87.275,2000,0,91.24,0.000002697398,0.000002697398,0.000002697398,0.99999994,0,0,0,0,0,0,0,1,0,0,0,false,false,true,-17.82,-4538.9497,17.01,-0.0038545819,0.0028403602,0.81132215,0.5845796,-146.431,657.05096,8.331,0.00010999999,-0.0010099999,2.09181
87.28333,2000,0,91.24,0.000002697398,0.000002697398,0.000002697398,0.99999994,0,0,0,0,0,0,0,1,0,0,0,false,false,true,-19.039999,-4533.4697,17.01,-0.0038815557,0.0028025967,0.8163868,0.57748544,-148.601,655.881,8.331,0.00010999999,-0.00091,2.09861
87.291664,2000,0,91.24,0.000002697398,0.000002697398,0.000002697398,0.99999994,0,0,0,0,0,0,0,1,0,0,0,false,false,true,-20.279999,-4528,17.01,-0.0039085294,0.002764833,0.82140404,0.5703265,-150.841,654.621,8.331,0,-0.00081,2.10521
87.3,2000,0,91.24,0.000002697398,0.000002697398,0.000002697398,0.99999994,0,0,0,0,0,0,0,1,0,0,0,false,false,true,-21.539999,-4522.54,17.01,-0.003935504,0.0027270694,0.82637656,0.5630974,-153.151,653.27094,8.331,0,-0.00071,2.11151
87.308334,2000,0,91.24,0.000002697398,0.000002697398,0.000002697398,0.99999994,0,0,0,0,0,0,0,1,0,0,0,false,false,true,-22.82,-4517.1,17.01,-0.0039624777,0.002689306,0.8312997,0.55580366,-155.521,651.83093,8.331,0,-0.00071,2.11761
87.316666,2000,0,91.24,0.000002697398,0.000002697398,0.000002697398,0.99999994,0,0,0,0,0,0,0,1,0,0,0,false,false,true,-24.119999,-4511.67,17.01,-0.0039894516,0.0026515422,0.8361727,0.54844517,-157.951,650.30096,8.331,0,-0.00061,2.12351
87.325,2000,0,91.24,0.000002697398,0.000002697398,0.000002697398,0.99999994,0,0,0,0,0,0,0,1,0,0,0,false,false,true,-25.439999,-4506.25,17.01,-0.0040164255,0.0026137787,0.8409913,0.54102725,-160.431,648.68097,8.331,0,-0.00051,2.12921
87.333336,2000,0,91.24,0.000002697398,0.000002697398,0.000002697398,0.99999994,0,0,0,0,0,0,0,1,0,0,0,false,false,true,-26.779999,-4500.84,17.01,-0.004043399,0.002576015,0.84575814,0.5335446,-162.961,646.97095,8.331,0,-0.00040999998,2.13471
87.34167,2000,0,91.24,0.000002697398,0.000002697398,0.000002697398,0.99999994,0,0,0,0,0,0,0,1,0,0,0,false,false,true,-28.14,-4495.4497,17.01,-0.0040649786,0.0025382515,0.8504693,0.5260027,-165.531,645.16095,8.331,0,-0.00030999997,2.1400099
87.35,2000,0,91.24,0.000002697398,0.000002697398,0.000002697398,0.99999994,0,0,0,0,0,0,0,1,0,0,0,false,false,true,-29.519999,-4490.07,17.01,-0.004086558,0.002500488,0.8551272,0.51839596,-168.141,643.261,8.331,0,-0.00030999997,2.14501
87.35833,2000,0,91.24,0.000002697398,0.000002697398,0.000002697398,0.99999994,0,0,0,0,0,0,0,1,0,0,0,false,false,true,-30.92,-4484.71,17.01,-0.004108137,0.0024627245,0.85972774,0.51072997,-170.781,641.27094,8.331,0,-0.00030999997,2.14981
87.36667,2000,0,91.24,0.000002697398,0.000002697398,0.000002697398,0.99999994,0,0,0,0,0,0,0,1,0,0,0,false,false,true,-32.34,-4479.37,17.01,-0.004129716,0.0024249607,0.86426723,0.50301003,-173.451,639.18097,8.331,0,-0.00030999997,2.15441
87.375,2000,0,91.24,0.000002697398,0.000002697398,0.000002697398,0.99999994,0,0,0,0,0,0,0,1,0,0,0,false,false,true,-33.79,-4474.04,17.01,-0.0041512954,0.0023871972,0.86874825,0.49523064,-176.141,637.001,8.331,0,-0.00030999997,2.15881
87.38333,2000,0,91.24,0.000002697398,0.000002697398,0.000002697398,0.99999994,0,0,0,0,0,0,0,1,0,0,0,false,false,true,-35.26,-4468.73,17.01,-0.0041728746,0.0023494337,0.87316704,0.4873974,-178.841,634.73096,8.331,0,-0.00030999997,2.16291
87.39167,2000,0,91.24,0.000002697398,0.000002697398,0.000002697398,0.99999994,0,0,0,0,0,0,0,1,0,0,0,false,false,true,-36.75,-4463.44,17.01,-0.004194454,0.00231167,0.8775231,0.47951022,-181.561,632.36096,8.331,0,-0.00030999997,2.16681
87.4,2000,0,91.24,0.000002697398,0.000002697398,0.000002697398,0.99999994,0,0,0,0,0,0,0,1,0,0,0,false,false,true,-38.26,-4458.17,17.01,-0.004216033,0.0022739065,0.8818161,0.471569,-184.281,629.90094,8.331,0,-0.00030999997,2.17051
87.40833,2000,0,91.24,0.000002697398,0.000002697398,0.000002697398,0.99999994,0,0,0,0,0,0,0,1,0,0,0,false,false,true,-39.8,-4452.92,17.01,-0.0042376122,0.002236143,0.8860452,0.4635739,-187.001,627.35095,8.331,0,-0.00030999997,2.17391
87.416664,2000,0,91.24,0.000002697398,0.000002697398,0.000002697398,0.99999994,0,0,0,0,0,0,0,1,0,0,0,false,false,true,-41.36,-4447.69,17.01,-0.0042591915,0.0021983793,0.89020735,0.45553026,-189.72101,624.71094,8.331,0,-0.00030999997,2.17711
87.425,2000,0,91.24,0.000002697398,0.000002697398,0.000002697398,0.99999994,0,0,0,0,0,0,0,1,0,0,0,false,false,true,-42.94,-4442.48,17.01,-0.00428077,0.0021606155,0.89430195,0.44743794,-192.431,621.98096,8.331,0,-0.00021,2.18011
87.433334,2000,0,91.24,0.000002697398,0.000002697398,0.000002697398,0.99999994,0,0,0,0,0,0,0,1,0,0,0,false,false,true,-44.539997,-4437.3,17.01,-0.0043023503,0.0021228525,0.8983289,0.43929726,-195.131,619.17096,8.331,0,-0.00021,2.18281
87.441666,2000,0,91.24,0.000002697398,0.000002697398,0.000002697398,0.99999994,0,0,0,0,0,0,0,1,0,0,0,false,false,true,-46.17,-4432.14,17.01,-0.0043239295,0.0020850888,0.90228754,0.43110797,-197.821,616.27094,8.331,0,-0.00021,2.18531
87.45,2000,0,91.24,0.000002697398,0.000002697398,0.000002697398,0.99999994,0,0,0,0,0,0,0,1,0,0,0,false,false,true,-47.82,-4427,17.01,-0.0043455083,0.002047325,0.906175,0.4228754,-200.491,613.29095,8.331,0.00010999999,-0.00010999999,2.18751
87.458336,2000,0,91.24,0.000002697398,0.000002697398,0.000002697398,0.99999994,0,0,0,0,0,0,0,1,0,0,0,false,false,true,-49.489998,-4421.89,17.01,-0.004361693,0.0020095618,0.90999115,0.4145998,-203.131,610.23096,8.331,0.00010999999,-0.00010999999,2.1895099
87.46667,2000,0,91.24,0.000002697398,0.000002697398,0.000002697398,0.99999994,0,0,0,0,0,0,0,1,0,0,0,false,false,true,-51.18,-4416.8,17.01,-0.004377877,0.0019717978,0.9137355,0.4062809,-205.751,607.08093,8.331,0.00021,-0.00010999999,2.19121
87.475,2000,0,91.24,0.000002697398,0.000002697398,0.000002697398,0.99999994,0,0,0,0,0,0,0,1,0,0,0,false,false,true,-52.89,-4411.7397,17.01,-0.0043940614,0.0019286396,0.9174056,0.39792436,-208.33101,603.86096,8.331,0.00021,-0.00010999999,2.19271
87.48333,2000,0,91.24,0.000002697398,0.000002697398,0.000002697398,0.99999994,0,0,0,0,0,0,0,1,0,0,0,false,false,true,-54.629997,-4406.71,17.01,-0.0044102455,0.0018854813,0.92100346,0.38952467,-210.881,600.561,8.331,0.00021,-0.00010999999,2.19391
87.49167,2000,0,91.24,0.000002697398,0.000002697398,0.000002697398,0.99999994,0,0,0,0,0,0,0,1,0,0,0,false,false,true,-56.39,-4401.71,17.01,-0.00442643,0.0018423229,0.92452663,0.38108712,-213.391,597.191,8.331,0.00021,-0.00010999999,2.19481
87.5,2000,0,91.24,0.000002697398,0.000002697398,0.000002697398,0.99999994,0,0,0,0,0,0,0,1,0,0,0,false,false,true,-58.17,-4396.73,17.01,-0.0044426145,0.0017991646,0.9279727,0.3726173,-215.86101,593.74097,8.331,0.00010999999,-0.00010999999,2.19551
87.50833,2000,0,91.24,0.000002697398,0.000002697398,0.000002697398,0.99999994,0,0,0,0,0,0,0,1,0,0,0,false,false,true,-59.969997,-4391.78,17.01,-0.0044587995,0.0017560063,0.9313416,0.36411506,-218.281,590.23096,8.331,0.00010999999,-0.00010999999,2.19591
87.51667,2000,0,91.24,0.000002697398,0.000002697398,0.000002697398,0.99999994,0,0,0,0,0,0,0,1,0,0,0,false,false,true,-61.789997,-4386.86,17.01,-0.004474983,0.0017128477,0.9346333,0.35558045,-220.651,586.65094,8.331,0.00010999999,-0.00010999999,2.19611
87.525,2000,0,91.24,0.000002697398,0.000002697398,0.000002697398,0.99999994,0,0,0,0,0,0,0,1,0,0,0,false,false,true,-63.629997,-4381.9697,17.01,-0.0044911676,0.0016696894,0.93784785,0.3470135,-222.97101,583.011,8.331,0,-0.00010999999,2.1960099
87.53333,2000,0,91.24,0.000002697398,0.000002697398,0.000002697398,0.99999994,0,0,0,0,0,0,0,1,0,0,0,false,false,true,-65.49,-4377.11,17.01,-0.004507352,0.001626531,0.94098306,0.33841953,-225.241,579.311,8.331,0,-0.00010999999,2.19561
87.541664,2000,0,91.24,0.000002697398,0.000002697398,0.000002697398,0.99999994,0,0,0,0,0,0,0,1,0,0,0,false,false,true,-67.369995,-4372.28,17.01,-0.0045235357,0.0015833726,0.944039,0.3297986,-227.451,575.55096,8.331,0,-0.00010999999,2.19491
87.55,2000,0,91.24,0.000002697398,0.000002697398,0.000002697398,0.99999994,0,0,0,0,0,0,0,1,0,0,0,false,false,true,-69.27,-4367.48,17.01,-0.0045397207,0.0015402143,0.9470159,0.32115078,-229.601,571.73096,8.331,0,-0.00010999999,2.19401
87.558334,2000,0,91.24,0.000002697398,0.000002697398,0.000002697398,0.99999994,0,0,0,0,0,0,0,1,0,0,0,false,false,true,-71.18,-4362.7197,17.01,-0.0045559057,0.001497056,0.9499118,0.31248128,-231.69101,567.86096,8.331,0,-0.00010999999,2.19281
87.566666,2000,0,91.24,0.000002697398,0.000002697398,0.000002697398,0.99999994,0,0,0,0,0,0,0,1,0,0,0,false,false,true,-73.11,-4357.9897,17.01,-0.0045720898,0.0014538976,0.9527268,0.30379024,-233.711,563.941,8.331,0,0,2.19131
87.575,2000,0,91.24,0.000002697398,0.000002697398,0.000002697398,0.99999994,0,0,0,0,0,0,0,1,0,0,0,false,false,true,-75.06,-4353.29,17.01,-0.0045828787,0.001410739,0.95546114,0.29507753,-235.671,559.98096,8.331,0,0,2.1895099
87.583336,2000,0,91.24,0.000002697398,0.000002697398,0.000002697398,0.99999994,0,0,0,0,0,0,0,1,0,0,0,false,false,true,-77.02,-4348.62,17.01,-0.004593669,0.0013675808,0.95811343,0.28634876,-237.561,555.98096,8.331,0,0,2.18751
87.59167,2000,0,91.24,0.000002697398,0.000002697398,0.000002697398,0.99999994,0,0,0,0,0,0,0,1,0,0,0,false,false,true,-79,-4343.9897,17.01,-0.0046044583,0.0013244224,0.96068364,0.2776038,-239.381,551.941,8.331,0,0,2.18521
87.6,2000,0,91.24,0.000002697398,0.000002697398,0.000002697398,0.99999994,0,0,0,0,0,0,0,1,0,0,0,false,false,true,-80.99,-4339.39,17.01,-0.004615248,0.001281264,0.96317065,0.26884797,-241.131,547.86096,8.331,0,0,2.18261
87.60833,2000,0,91.24,0.000002697398,0.000002697398,0.000002697398,0.99999994,0,0,0,0,0,0,0,1,0,0,0,false,false,true,-83,-4334.82,17.01,-0.004626037,0.0012381056,0.9655761,0.260076,-242.801,543.751,8.331,0,0,2.17971
87.61667,2000,0,91.24,0.000002697398,0.000002697398,0.000002697398,0.99999994,0,0,0,0,0,0,0,1,0,0,0,false,false,true,-85.02,-4330.29,17.01,-0.004636827,0.0011949473,0.9678977,0.2512986,-244.401,539.61096,8.331,0,0,2.1765099
87.625,2000,0,91.24,0.000002697398,0.000002697398,0.000002697398,0.99999994,0,0,0,0,0,0,0,1,0,0,0,false,false,true,-87.06,-4325.79,17.01,-0.0046476163,0.0011517889,0.9701368,0.24251047,-245.921,535.451,8.331,0,0,2.1730099
87.63333,2000,0,91.24,0.000002697398,0.000002697398,0.000002697398,0.99999994,0,0,0,0,0,0,0,1,0,0,0,false,false,true,-89.11,-4321.33,17.01,-0.004658406,0.0011086306,0.9722928,0.23371698,-247.371,531.261,8.331,0,0,2.16921
87.64167,2000,0,91.24,0.000002697398,0.000002697398,0.000002697398,0.99999994,0,0,0,0,0,0,0,1,0,0,0,false,false,true,-91.17,-4316.9,17.01,-0.0046691964,0.0010654723,0.9743659,0.22491801,-248.741,527.061,8.331,0,0,2.16521
87.65,2000,0,91.24,0.000002697398,0.000002697398,0.000002697398,0.99999994,0,0,0,0,0,0,0,1,0,0,0,false,false,true,-93.24,-4312.51,17.01,-0.0046799853,0.0010223138,0.9763552,0.21611908,-250.031,522.84094,8.331,0,0,2.16091
87.65833,2000,0,91.24,0.000002697398,0.000002697398,0.000002697398,0.99999994,0,0,0,0,0,0,0,1,0,0,0,false,false,true,-95.32,-4308.15,17.01,-0.0046907756,0.0009791555,0.9782614,0.2073201,-251.241,518.61096,8.331,0,0,2.1563098
87.666664,2000,0,91.24,0.000002697398,0.000002697398,0.000002697398,0.99999994,0,0,0,0,0,0,0,1,0,0,0,false,false,true,-97.409996,-4303.83,17.01,-0.004701565,0.0009359972,0.98008484,0.19852118,-252.371,514.371,8.331,0,0,2.1514099
87.675,2000,0,91.24,0.000002697398,0.000002697398,0.000002697398,0.99999994,0,0,0,0,0,0,0,1,0,0,0,false,false,true,-99.509995,-4299.54,17.01,-0.0047123544,0.00089283875,0.981825,0.18972765,-253.421,510.13098,8.331,0,0,2.14621
87.683334,2000,0,91.24,0.000002697398,0.000002697398,0.000002697398,0.99999994,0,0,0,0,0,0,0,1,0,0,0,false,false,true,-101.619995,-4295.29,17.01,-0.004717749,0.0008496804,0.9834825,0.18093944,-254.391,505.891,8.331,0,0,2.1407099
87.691666,2000,0,91.24,0.000002697398,0.000002697398,0.000002697398,0.99999994,0,0,0,0,0,0,0,1,0,0,0,false,false,true,-103.74,-4291.07,17.01,-0.0047231438,0.00080652203,0.98505694,0.1721621,-255.281,501.651,8.331,-0.00010999999,0,2.1349099
87.7,2000,0,91.24,0.000002697398,0.000002697398,0.000002697398,0.99999994,0,0,0,0,0,0,0,1,0,0,0,false,false,true,-105.869995,-4286.89,17.01,-0.0047285384,0.00076336367,0.98654896,0.16339548,-256.101,497.421,8.331,-0.00010999999,0,2.12881
87.708336,2000,0,91.24,0.000002697398,0.000002697398,0.000002697398,0.99999994,0,0,0,0,0,0,0,1,0,0,0,false,false,true,-108,-4282.7397,17.01,-0.0047339336,0.00072020525,0.98795927,0.15463972,-256.841,493.201,8.331,-0.00010999999,0,2.12241
87.71667,2000,0,91.24,0.000002697398,0.000002697398,0.000002697398,0.99999994,0,0,0,0,0,0,0,1,0,0,0,false,false,true,-110.14,-4278.63,17.01,-0.0047393283,0.0006770469,0.98928845,0.14589475,-257.501,488.991,8.331,-0.00010999999,0,2.11571
87.725,2000,0,91.24,0.000002697398,0.000002697398,0.000002697398,0.99999994,0,0,0,0,0,0,0,1,0,0,0,false,false,true,-112.29,-4274.55,17.01,-0.004744723,0.0006338885,0.99053645,0.13716589,-258.081,484.801,8.331,-0.00021,0,2.10871
87.73333,2000,0,91.24,0.000002697398,0.000002697398,0.000002697398,0.99999994,0,0,0,0,0,0,0,1,0,0,0,false,false,true,-114.439995,-4270.51,17.01,-0.004750118,0.0005907302,0.9917033,0.12845871,-258.591,480.63098,8.331,-0.00021,0,2.10141
87.74167,2000,0,91.24,0.000002697398,0.000002697398,0.000002697398,0.99999994,0,0,0,0,0,0,0,1,0,0,0,false,false,true,-116.59,-4266.5,17.01,-0.0047555133,0.00054757186,0.99278975,0.11977299,-259.021,476.481,8.331,-0.00021,0,2.0938098
87.75,2000,0,91.24,0.000002697398,0.000002697398,0.000002697398,0.99999994,0,0,0,0,0,0,0,1,0,0,0,false,false,true,-118.75,-4262.53,17.01,-0.004760907,0.0005044134,0.9937965,0.11110893,-259.381,472.361,8.331,-0.00021,0,2.0859098
87.75833,2000,0,91.24,0.000002697398,0.000002697398,0.000002697398,0.99999994,0,0,0,0,0,0,0,1,0,0,0,false,false,true,-120.909996,-4258.59,17.01,-0.004766302,0.00046125508,0.99472487,0.10246648,-259.671,468.271,8.331,-0.00021,0,2.07771
87.76667,2000,0,91.24,0.000002697398,0.000002697398,0.000002697398,0.99999994,0,0,0,0,0,0,0,1,0,0,0,false,false,true,-123.07,-4254.69,17.01,-0.004771697,0.0004234915,0.99557465,0.09385091,-259.881,464.211,8.331,-0.00030999997,0,2.06921
87.775,2000,0,91.24,0.000002697398,0.000002697398,0.000002697398,0.99999994,0,0,0,0,0,0,0,1,0,0,0,false,false,true,-125.24,-4250.82,17.01,-0.004777092,0.0003857279,0.99634695,0.08526239,-260.021,460.181,8.331,-0.00030999997,0,2.06041
87.78333,2000,0,91.24,0.000002697398,0.000002697398,0.000002697398,0.99999994,0,0,0,0,0,0,0,1,0,0,0,false,false,true,-127.409996,-4246.98,17.01,-0.0047824862,0.00034796432,0.99704206,0.07670615,-260.101,456.191,8.331,-0.00030999997,0,2.05131
87.791664,2000,0,91.24,0.000002697398,0.000002697398,0.000002697398,0.99999994,0,0,0,0,0,0,0,1,0,0,0,false,false,true,-129.58,-4243.1797,17.01,-0.004787882,0.0003102008,0.9976613,0.06818239,-260.111,452.241,8.331,-0.00021,0,2.04191
87.8,2000,0,91.24,0.000002697398,0.000002697398,0.000002697398,0.99999994,0,0,0,0,0,0,0,1,0,0,0,false,false,true,-131.75,-4239.4097,17.01,-0.004787882,0.00027243723,0.99820536,0.05969098,-260.051,448.331,8.331,-0.00010999999,0,2.0322099
87.808334,2000,0,91.24,0.000002697398,0.000002697398,0.000002697398,0.99999994,0,0,0,0,0,0,0,1,0,0,0,false,false,true,-133.92,-4235.67,17.01,-0.004787882,0.00023467364,0.998675,0.051237248,-259.931,444.471,8.331,0,0,2.02221
87.816666,2000,0,91.24,0.000002697398,0.000002697398,0.000002697398,0.99999994,0,0,0,0,0,0,0,1,0,0,0,false,false,true,-136.09,-4231.9697,17.01,-0.004787882,0.00019691007,0.99907124,0.042821366,-259.751,440.661,8.331,0,0,2.01191
87.825,2000,0,91.24,0.000002697398,0.000002697398,0.000002697398,0.99999994,0,0,0,0,0,0,0,1,0,0,0,false,false,true,-138.25,-4228.3,17.01,-0.0047878814,0.00015914648,0.99939513,0.034443244,-259.511,436.901,8.331,0,0,2.0013099
87.833336,2000,0,91.24,0.000002697398,0.000002697398,0.000002697398,0.99999994,0,0,0,0,0,0,0,1,0,0,0,false,false,true,-140.41,-4224.6597,17.01,-0.004787882,0.000121382924,0.9996476,0.026108202,-259.221,433.191,8.331,0,0,1.99031
87.84167,2000,0,91.24,0.000002697398,0.000002697398,0.000002697398,0.99999994,0,0,0,0,0,0,0,1,0,0,0,false,false,true,-142.56999,-4221.05,17.01,-0.0047878814,0.000083619336,0.99982977,0.017816398,-258.871,429.531,8.331,0,0,1.97901
87.85,2000,0,91.24,0.000002697398,0.000002697398,0.000002697398,0.99999994,0,0,0,0,0,0,0,1,0,0,0,false,false,true,-144.73,-4217.4697,17.01,-0.004787882,0.00004585577,0.99994266,0.009573067,-258.471,425.931,8.331,0,0,1.96741
87.85833,2000,0,91.24,0.000002697398,0.000002697398,0.000002697398,0.99999994,0,0,0,0,0,0,0,1,0,0,0,false,false,true,-146.87999,-4213.92,17.01,-0.004787882,0.000008092195,0.99998754,0.0013783706,-258.021,422.391,8.331,0.00010999999,-0.00010999999,1.95551
87.86667,2000,0,91.24,0.000002697398,0.000002697398,0.000002697398,0.99999994,0,0,0,0,0,0,0,1,0,0,0,false,false,true,-149.03,-4210.4,17.01,-0.004787882,-0.00002967138,0.9999656,-0.0067678145,-257.521,418.911,8.331,0.00010999999,-0.00010999999,1.94331
87.875,2000,0,91.24,0.000002697398,0.000002697398,0.000002697398,0.99999994,0,0,0,0,0,0,0,1,0,0,0,false,false,true,-151.18,-4206.9097,17.01,-0.0047878814,-0.00006743495,0.999878,-0.014865403,-256.981,415.491,8.331,0.00021,-0.00010999999,1.93071
87.88333,2000,0,91.24,0.000002697398,0.000002697398,0.000002697398,0.99999994,0,0,0,0,0,0,0,1,0,0,0,false,false,true,-153.31999,-4203.4497,17.01,-0.004787882,-0.00010519853,0.99972606,-0.022909088,-256.401,412.141,8.331,0.00021,-0.00010999999,1.91781
87.89167,2000,0,91.24,0.000002697398,0.000002697398,0.000002697398,0.99999994,0,0,0,0,0,0,0,1,0,0,0,false,false,true,-155.45999,-4200.01,17.01,-0.004787882,-0.0001429621,0.999511,-0.030898824,-255.781,408.851,8.331,0.00021,-0.00010999999,1.9046099
87.9,2000,0,91.24,0.000002697398,0.000002697398,0.000002697398,0.99999994,0,0,0,0,0,0,0,1,0,0,0,false,false,true,-157.59,-4196.6,17.01,-0.0047878814,-0.00018072566,0.9992343,-0.03882921,-255.121,405.631,8.331,0.00030999997,-0.00010999999,1.8910099
87.90833,2000,0,91.24,0.000002697398,0.000002697398,0.000002697398,0.99999994,0,0,0,0,0,0,0,1,0,0,0,false,false,true,-159.72,-4193.2197,17.01,-0.004787882,-0.00021848927,0.99889743,-0.046700224,-254.431,402.481,8.331,0.00030999997,-0.00010999999,1.87711
87.916664,2000,0,91.24,0.000002697398,0.000002697398,0.000002697398,0.99999994,0,0,0,0,0,0,0,1,0,0,0,false,false,true,-161.84,-4189.87,17.01,-0.0047878814,-0.0002562528,0.99850154,-0.054511927,-253.701,399.401,8.331,0.00030999997,0,1.86281
87.925,2000,0,91.24,0.000002697398,0.000002697398,0.000002697398,0.99999994,0,0,0,0,0,0,0,1,0,0,0,false,false,true,-163.95,-4186.54,17.01,-0.004787881,-0.00029401635,0.99804837,-0.06225889,-252.951,396.391,8.331,0.00030999997,0,1.84821
87.933334,2000,0,91.24,0.000002697398,0.000002697398,0.000002697398,0.99999994,0,0,0,0,0,0,0,1,0,0,0,false,false,true,-166.06,-4183.2397,17.01,-0.0047878814,-0.00033177997,0.9975395,-0.06994109,-252.171,393.451,8.331,0.00030999997,0,1.83321
87.941666,2000,0,91.24,0.000002697398,0.000002697398,0.000002697398,0.99999994,0,0,0,0,0,0,0,1,0,0,0,false,false,true,-168.16,-4179.96,17.01,-0.004787882,-0.00036954356,0.9969762,-0.077558585,-251.371,390.581,8.331,0.00030999997,0,1.8178099
87.95,2000,0,91.24,0.000002697398,0.000002697398,0.000002697398,0.99999994,0,0,0,0,0,0,0,1,0,0,0,false,false,true,-170.25,-4176.6997,17.01,-0.004782487,-0.00040730715,0.9963603,-0.08510595,-250.551,387.791,8.331,0.00030999997,0,1.80211
87.958336,2000,0,91.24,0.000002697398,0.000002697398,0.000002697398,0.99999994,0,0,0,0,0,0,0,1,0,0,0,false,false,true,-172.34,-4173.4697,17.01,-0.0047770925,-0.0004450707,0.9956934,-0.092583135,-249.711,385.07098,8.331,0.00030999997,0,1.78601
87.96667,2000,0,91.24,0.000002697398,0.000002697398,0.000002697398,0.99999994,0,0,0,0,0,0,0,1,0,0,0,false,false,true,-174.42,-4170.26,17.01,-0.004771697,-0.00048283426,0.9949768,-0.09999023,-248.851,382.411,8.331,0.00030999997,0,1.77011
87.975,2000,0,91.24,0.000002697398,0.000002697398,0.000002697398,0.99999994,0,0,0,0,0,0,0,1,0,0,0,false,false,true,-176.48999,-4167.07,17.01,-0.0047663026,-0.00052059785,0.99421215,-0.1073272,-247.961,379.801,8.331,0.00030999997,0,1.75481
87.98333,2000,0,91.24,0.000002697398,0.000002697398,0.000002697398,0.99999994,0,0,0,0,0,0,0,1,0,0,0,false,false,true,-178.56,-4163.9,17.01,-0.004760907,-0.0005583613,0.9934007,-0.11459397,-247.041,377.241,8.331,0.00021,0,1.74001
87.99167,2000,0,91.24,0.000002697398,0.000002697398,0.000002697398,0.99999994,0,0,0,0,0,0,0,1,0,0,0,false,false,true,-180.62,-4160.76,17.01,-0.004755513,-0.00059612497,0.9925442,-0.121790685,-246.091,374.731,8.331,0.00010999999,0,1.7258099
88,2000,0,91.24,0.000002697398,0.000002697398,0.000002697398,0.99999994,0,0,0,0,0,0,0,1,0,0,0,false,false,true,-182.67,-4157.64,17.01,-0.0047501177,-0.0006284937,0.991643,-0.12892264,-245.121,372.271,8.321,0.00010999999,0,1.7121099
88.00833,2000,0,91.24,0.000002697398,0.000002697398,0.000002697398,0.99999994,0,0,0,0,0,0,0,1,0,0,0,false,false,true,-184.70999,-4154.54,17.01,-0.004744723,-0.00066086254,0.99069786,-0.13599522,-244.131,369.871,8.321,0.00010999999,0,1.69891
88.01667,2000,0,91.24,0.000002697398,0.000002697398,0.000002697398,0.99999994,0,0,0,0,0,0,0,1,0,0,0,false,false,true,-186.73999,-4151.46,17.01,-0.0047393288,-0.00069323136,0.9897106,-0.14300312,-243.121,367.521,8.321,0.00010999999,0,1.6862099
88.025,2000,0,91.24,0.000002697398,0.000002697398,0.000002697398,0.99999994,0,0,0,0,0,0,0,1,0,0,0,false,false,true,-188.76999,-4148.4,17.01,-0.0047339336,-0.00072560005,0.9886817,-0.14995164,-242.101,365.231,8.321,0.00010999999,0,1.6740099
88.03333,2000,0,91.24,0.000002697398,0.000002697398,0.000002697398,0.99999994,0,0,0,0,0,0,0,1,0,0,0,false,false,true,-190.79,-4145.36,17.01,-0.0047285384,-0.00075796887,0.98761135,-0.1568462,-241.061,363.001,8.321,0.00010999999,0,1.66231
88.041664,2000,0,91.24,0.000002697398,0.000002697398,0.000002697398,0.99999994,0,0,0,0,0,0,0,1,0,0,0,false,false,true,-192.8,-4142.33,17.01,-0.0047231438,-0.0007903376,0.9865016,-0.16368145,-240.011,360.831,8.321,0.00010999999,0,1.6510099
88.05,2000,0,91.24,0.000002697398,0.000002697398,0.000002697398,0.99999994,0,0,0,0,0,0,0,1,0,0,0,false,false,true,-194.8,-4139.32,17.01,-0.0047177486,-0.0008227063,0.98535234,-0.17046268,-238.951,358.711,8.321,0.00010999999,0,1.64011
88.058334,2000,0,91.24,0.000002697398,0.000002697398,0.000002697398,0.99999994,0,0,0,0,0,0,0,1,0,0,0,false,false,true,-196.79,-4136.33,17.01,-0.0047123544,-0.0008550752,0.98416495,-0.17719005,-237.891,356.651,8.321,0.00010999999,0,1.62961
88.066666,2000,0,91.24,0.000002697398,0.000002697398,0.000002697398,0.99999994,0,0,0,0,0,0,0,1,0,0,0,false,false,true,-198.76999,-4133.36,17.01,-0.0047069597,-0.00088744395,0.98293906,-0.18386886,-236.821,354.651,8.321,0.00010999999,0,1.6195099
88.075,2000,0,91.24,0.000002697398,0.000002697398,0.000002697398,0.99999994,0,0,0,0,0,0,0,1,0,0,0,false,false,true,-200.73999,-4130.4,17.01,-0.004701565,-0.0009198128,0.9816757,-0.19049907,-235.751,352.711,8.321,0.00010999999,0,1.60991
88.083336,2000,0,91.24,0.000002697398,0.000002697398,0.000002697398,0.99999994,0,0,0,0,0,0,0,1,0,0,0,false,false,true,-202.7,-4127.46,17.01,-0.0046961703,-0.0009521816,0.9803755,-0.19708076,-234.651,350.801,8.321,0.00010999999,0,1.6015099
88.09167,2000,0,91.24,0.000002697398,0.000002697398,0.000002697398,0.99999994,0,0,0,0,0,0,0,1,0,0,0,false,false,true,-204.65999,-4124.54,17.01,-0.004690775,-0.0009845502,0.97903836,-0.20361924,-233.521,348.931,8.321,0,0,1.59441
88.1,2000,0,91.24,0.000002697398,0.000002697398,0.000002697398,0.99999994,0,0,0,0,0,0,0,1,0,0,0,false,false,true,-206.61,-4121.63,17.01,-0.00468538,-0.0010169189,0.9776637,-0.21011999,-232.371,347.091,8.321,0,0,1.5885099
88.10833,2000,0,91.24,0.000002697398,0.000002697398,0.000002697398,0.99999994,0,0,0,0,0,0,0,1,0,0,0,false,false,true,-208.54999,-4118.7397,17.01,-0.0046799853,-0.0010492879,0.9762512,-0.21658842,-231.19101,345.291,8.321,0,0,1.58371
88.11667,2000,0,91.24,0.000002697398,0.000002697398,0.000002697398,0.99999994,0,0,0,0,0,0,0,1,0,0,0,false,false,true,-210.48,-4115.86,17.01,-0.004674591,-0.0010816567,0.974801,-0.22302443,-229.991,343.531,8.321,0,0,1.58011
88.125,2000,0,91.24,0.000002697398,0.000002697398,0.000002697398,0.99999994,0,0,0,0,0,0,0,1,0,0,0,false,false,true,-212.4,-4113,17.01,-0.0046691964,-0.0011140255,0.9733112,-0.22943889,-228.771,341.811,8.321,0,0,1.57761
88.13333,2000,0,91.24,0.000002697398,0.000002697398,0.000002697398,0.99999994,0,0,0,0,0,0,0,1,0,0,0,false,false,true,-214.31,-4110.15,17.01,-0.0046638013,-0.0011463942,0.97178197,-0.23583171,-227.541,340.131,8.321,0,0,1.57621
88.14167,2000,0,91.24,0.000002697398,0.000002697398,0.000002697398,0.99999994,0,0,0,0,0,0,0,1,0,0,0,false,false,true,-216.20999,-4107.32,17.01,-0.004658406,-0.0011787629,0.9702123,-0.24220839,-226.291,338.491,8.321,-0.00010999999,0,1.57591
88.15,2000,0,91.24,0.000002697398,0.000002697398,0.000002697398,0.99999994,0,0,0,0,0,0,0,1,0,0,0,false,false,true,-218.09999,-4104.5,17.01,-0.004653011,-0.0012111316,0.96860075,-0.24857423,-225.011,336.861,8.321,-0.00021,0,1.57601
88.15833,2000,0,91.24,0.000002697398,0.000002697398,0.000002697398,0.99999994,0,0,0,0,0,0,0,1,0,0,0,false,false,true,-219.98,-4101.69,17.01,-0.0046422225,-0.0012381058,0.96694773,-0.2549294,-223.701,335.241,8.321,-0.00030999997,0,1.5763099
88.166664,2000,0,91.24,0.000002697398,0.000002697398,0.000002697398,0.99999994,0,0,0,0,0,0,0,1,0,0,0,false,false,true,-221.84,-4098.9,17.01,-0.0046314322,-0.0012650797,0.96525276,-0.26127368,-222.351,333.631,8.321,-0.00030999997,0,1.57691
88.175,2000,0,91.24,0.000002697398,0.000002697398,0.000002697398,0.99999994,0,0,0,0,0,0,0,1,0,0,0,false,false,true,-223.69,-4096.12,17.01,-0.004620643,-0.0012920536,0.9635146,-0.26761255,-220.97101,332.031,8.321,-0.00021,0,1.57771
88.183334,2000,0,91.24,0.000002697398,0.000002697398,0.000002697398,0.99999994,0,0,0,0,0,0,0,1,0,0,0,false,false,true,-225.53,-4093.3499,17.01,-0.004609853,-0.0013190276,0.96173453,-0.2739407,-219.561,330.441,8.321,-0.00010999999,0,1.57871
88.191666,2000,0,91.24,0.000002697398,0.000002697398,0.000002697398,0.99999994,0,0,0,0,0,0,0,1,0,0,0,false,false,true,-227.36,-4090.5999,17.01,-0.0045990637,-0.0013513964,0.9599111,-0.2802634,-218.131,328.861,8.321,0,0,1.5799099
88.2,2000,0,91.24,0.000002697398,0.000002697398,0.000002697398,0.99999994,0,0,0,0,0,0,0,1,0,0,0,false,false,true,-229.18,-4087.8599,17.01,-0.004588274,-0.0013837651,0.95804566,-0.28657535,-216.671,327.301,8.321,0,0,1.5814099
88.208336,2000,0,91.24,0.000002697398,0.000002697398,0.000002697398,0.99999994,0,0,0,0,0,0,0,1,0,0,0,false,false,true,-230.98999,-4085.13,17.01,-0.004577485,-0.0014161341,0.9561366,-0.29288194,-215.19101,325.761,8.321,0,-0.00010999999,1.58311
88.21667,2000,0,91.24,0.000002697398,0.000002697398,0.000002697398,0.99999994,0,0,0,0,0,0,0,1,0,0,0,false,false,true,-232.78,-4082.42,17.01,-0.0045666946,-0.0014485028,0.95418364,-0.29918304,-213.69101,324.241,8.321,0,-0.00010999999,1.5850099
88.225,2000,0,91.24,0.000002697398,0.000002697398,0.000002697398,0.99999994,0,0,0,0,0,0,0,1,0,0,0,false,false,true,-234.56,-4079.72,17.01,-0.0045559052,-0.0014808716,0.95218676,-0.3054788,-212.171,322.741,8.321,0,-0.00021,1.58701
88.23333,2000,0,91.24,0.000002697398,0.000002697398,0.000002697398,0.99999994,0,0,0,0,0,0,0,1,0,0,0,false,false,true,-236.33,-4077.03,17.01,-0.004545115,-0.0015132402,0.95014566,-0.3117691,-210.631,321.261,8.321,-0.00010999999,-0.00021,1.5892099
88.24167,2000,0,91.24,0.000002697398,0.000002697398,0.000002697398,0.99999994,0,0,0,0,0,0,0,1,0,0,0,false,false,true,-238.09,-4074.3499,17.01,-0.004534326,-0.0015402143,0.9480604,-0.3180541,-209.071,319.811,8.321,-0.00010999999,-0.00030999997,1.59161
88.25,2000,0,91.24,0.000002697398,0.000002697398,0.000002697398,0.99999994,0,0,0,0,0,0,0,1,0,0,0,false,false,true,-239.83,-4071.68,17.01,-0.004523536,-0.0015671883,0.94593054,-0.32433367,-207.501,318.391,8.321,-0.00010999999,-0.00030999997,1.59411
88.25833,2000,0,91.24,0.000002697398,0.000002697398,0.000002697398,0.99999994,0,0,0,0,0,0,0,1,0,0,0,false,false,true,-241.56,-4069.03,17.01,-0.0045127473,-0.0015941623,0.94375604,-0.3306079,-205.911,316.991,8.321,-0.00010999999,-0.00030999997,1.59681
88.26667,2000,0,91.24,0.000002697398,0.000002697398,0.000002697398,0.99999994,0,0,0,0,0,0,0,1,0,0,0,false,false,true,-243.28,-4066.39,17.01,-0.0045019574,-0.0016211362,0.94153464,-0.336882,-204.311,315.621,8.321,-0.00010999999,-0.00030999997,1.59971
88.275,2000,0,91.24,0.000002697398,0.000002697398,0.000002697398,0.99999994,0,0,0,0,0,0,0,1,0,0,0,false,false,true,-244.98,-4063.76,17.01,-0.004491168,-0.0016481103,0.9392681,-0.34315082,-202.701,314.281,8.321,0,-0.00030999997,1.60271
88.28333,2000,0,91.24,0.000002697398,0.000002697398,0.000002697398,0.99999994,0,0,0,0,0,0,0,1,0,0,0,false,false,true,-246.67,-4061.14,17.01,-0.0044803782,-0.0016750842,0.9369561,-0.3494142,-201.08101,312.971,8.321,0,-0.00030999997,1.60591
88.291664,2000,0,91.24,0.000002697398,0.000002697398,0.000002697398,0.99999994,0,0,0,0,0,0,0,1,0,0,0,false,false,true,-248.34999,-4058.53,17.01,-0.0044695884,-0.0017020581,0.9345964,-0.35567755,-199.431,311.661,8.321,0,-0.00030999997,1.60851
88.3,2000,0,91.24,0.000002697398,0.000002697398,0.000002697398,0.99999994,0,0,0,0,0,0,0,1,0,0,0,false,false,true,-250.01,-4055.93,17.01,-0.004458799,-0.0017290321,0.9321908,-0.36193556,-197.751,310.361,8.321,0,-0.00030999997,1.61051
88.308334,2000,0,91.24,0.000002697398,0.000002697398,0.000002697398,0.99999994,0,0,0,0,0,0,0,1,0,0,0,false,false,true,-251.65999,-4053.3398,17.01,-0.004448009,-0.0017560062,0.929741,-0.36818278,-196.041,309.061,8.321,0,-0.00021,1.61191
88.316666,2000,0,91.24,0.000002697398,0.000002697398,0.000002697398,0.99999994,0,0,0,0,0,0,0,1,0,0,0,false,false,true,-253.29,-4050.76,17.01,-0.00443722,-0.0017829802,0.92724717,-0.37441915,-194.30101,307.771,8.321,0.00010999999,-0.00021,1.61271
88.325,2000,0,91.24,0.000002697398,0.000002697398,0.000002697398,0.99999994,0,0,0,0,0,0,0,1,0,0,0,false,false,true,-254.90999,-4048.2,17.01,-0.00442643,-0.0018153489,0.9247111,-0.38063937,-192.531,306.491,8.321,0.00021,-0.00010999999,1.61291
88.333336,2000,0,91.24,0.000002697398,0.000002697398,0.000002697398,0.99999994,0,0,0,0,0,0,0,1,0,0,0,false,false,true,-256.50998,-4045.65,17.01,-0.00441564,-0.0018477174,0.92213285,-0.38684338,-190.731,305.221,8.321,0.00021,-0.00010999999,1.61261
88.34167,2000,0,91.24,0.000002697398,0.000002697398,0.000002697398,0.99999994,0,0,0,0,0,0,0,1,0,0,0,false,false,true,-258.1,-4043.1099,17.01,-0.004404851,-0.0018800865,0.91951257,-0.3930313,-188.901,303.961,8.321,0.00021,-0.00010999999,1.61171
88.35,2000,0,91.24,0.000002697398,0.000002697398,0.000002697398,0.99999994,0,0,0,0,0,0,0,1,0,0,0,false,false,true,-259.66998,-4040.5798,17.01,-0.0043940614,-0.0019124552,0.91685236,-0.39919755,-187.05101,302.711,8.321,0.00021,0,1.61021
88.35833,2000,0,91.24,0.000002697398,0.000002697398,0.000002697398,0.99999994,0,0,0,0,0,0,0,1,0,0,0,false,false,true,-261.22998,-4038.0598,17.01,-0.0043832716,-0.001944824,0.9141524,-0.40534222,-185.181,301.481,8.321,0.00010999999,0,1.60821
88.36667,2000,0,91.24,0.000002697398,0.000002697398,0.000002697398,0.99999994,0,0,0,0,0,0,0,1,0,0,0,false,false,true,-262.77,-4035.5498,17.01,-0.0043724827,-0.001977193,0.91141516,-0.41145998,-183.291,300.261,8.321,0,0,1.60561
88.375,2000,0,91.24,0.000002697398,0.000002697398,0.000002697398,0.99999994,0,0,0,0,0,0,0,1,0,0,0,false,false,true,-264.3,-4033.0498,17.01,-0.004361692,-0.0020041664,0.90864325,-0.4175453,-181.381,299.061,8.321,0,0,1.60241
88.38333,2000,0,91.24,0.000002697398,0.000002697398,0.000002697398,0.99999994,0,0,0,0,0,0,0,1,0,0,0,false,false,true,-265.81,-4030.5598,17.01,-0.0043455083,-0.0020311407,0.90583485,-0.42360368,-179.451,297.881,8.321,0,0,1.59871
88.39167,2000,0,91.24,0.000002697398,0.000002697398,0.000002697398,0.99999994,0,0,0,0,0,0,0,1,0,0,0,false,false,true,-267.31,-4028.0798,17.01,-0.004329324,-0.0020581146,0.90299237,-0.4296297,-177.501,296.721,8.321,0,0,1.59451
88.4,2000,0,91.24,0.000002697398,0.000002697398,0.000002697398,0.99999994,0,0,0,0,0,0,0,1,0,0,0,false,false,true,-268.79,-4025.6099,17.01,-0.0043131392,-0.0020850885,0.9001188,-0.43561798,-175.541,295.581,8.321,0,0,1.58971
88.40833,2000,0,91.24,0.000002697398,0.000002697398,0.000002697398,0.99999994,0,0,0,0,0,0,0,1,0,0,0,false,false,true,-270.25,-4023.15,17.01,-0.004296955,-0.0021120626,0.8972147,-0.44156843,-173.571,294.461,8.321,0.00010999999,0,1.58441
88.416664,2000,0,91.24,0.000002697398,0.000002697398,0.000002697398,0.99999994,0,0,0,0,0,0,0,1,0,0,0,false,false,true,-271.69998,-4020.7,17.01,-0.0042807707,-0.0021390365,0.8942805,-0.44748116,-171.591,293.361,8.321,0.00010999999,0,1.57861
88.425,2000,0,91.24,0.000002697398,0.000002697398,0.000002697398,0.99999994,0,0,0,0,0,0,0,1,0,0,0,false,false,true,-273.13,-4018.25,17.01,-0.0042645857,-0.0021660104,0.8913165,-0.45335606,-169.601,292.29102,8.321,0.00021,0,1.57221
88.433334,2000,0,91.24,0.000002697398,0.000002697398,0.000002697398,0.99999994,0,0,0,0,0,0,0,1,0,0,0,false,false,true,-274.54,-4015.8098,17.01,-0.004248402,-0.0021929848,0.888329,-0.45918256,-167.601,291.241,8.321,0.00021,0,1.56531
88.441666,2000,0,91.24,0.000002697398,0.000002697398,0.000002697398,0.99999994,0,0,0,0,0,0,0,1,0,0,0,false,false,true,-275.94,-4013.38,17.01,-0.004232218,-0.0022199587,0.8853157,-0.4649658,-165.601,290.221,8.321,0.00030999997,0,1.55791
88.45,2000,0,91.24,0.000002697398,0.000002697398,0.000002697398,0.99999994,0,0,0,0,0,0,0,1,0,0,0,false,false,true,-277.32,-4010.96,17.01,-0.0042160335,-0.0022469328,0.8822801,-0.47070047,-163.591,289.221,8.321,0.00030999997,0,1.55001
88.458336,2000,0,91.24,0.000002697398,0.000002697398,0.000002697398,0.99999994,0,0,0,0,0,0,0,1,0,0,0,false,false,true,-278.68,-4008.5498,17.01,-0.0041998485,-0.0022739065,0.87922287,-0.47638658,-161.58101,288.251,8.321,0.00040999998,0,1.54161
88.46667,2000,0,91.24,0.000002697398,0.000002697398,0.000002697398,0.99999994,0,0,0,0,0,0,0,1,0,0,0,false,false,true,-280.03,-4006.15,17.01,-0.004183665,-0.0023008806,0.8761448,-0.48202422,-159.571,287.301,8.321,0.00040999998,0,1.53271
88.475,2000,0,91.24,0.000002697398,0.000002697398,0.000002697398,0.99999994,0,0,0,0,0,0,0,1,0,0,0,false,false,true,-281.36,-4003.76,17.01,-0.00416748,-0.0023278545,0.8730497,-0.4876078,-157.561,286.381,8.321,0.00040999998,0,1.52331
88.48333,2000,0,91.24,0.000002697398,0.000002697398,0.000002697398,0.99999994,0,0,0,0,0,0,0,1,0,0,0,false,false,true,-282.66998,-4001.3699,17.01,-0.0041512954,-0.0023548284,0.86993825,-0.49313748,-155.561,285.491,8.321,0.00040999998,0,1.51351
88.49167,2000,0,91.24,0.000002697398,0.000002697398,0.000002697398,0.99999994,0,0,0,0,0,0,0,1,0,0,0,false,false,true,-283.97,-3998.99,17.01,-0.0041351113,-0.0023818028,0.8668114,-0.49861327,-153.561,284.621,8.321,0.00040999998,0,1.50321
88.50833,2000,0,91.24,0.000002697398,0.000002697398,0.000002697398,0.99999994,0,0,0,0,0,0,0,1,0,0,0,false,false,true,-286.50998,-3994.25,17.01,-0.0041027423,-0.0024357503,0.86051804,-0.50939745,-149.591,282.971,8.321,0.00040999998,0,1.48121
88.51667,2000,0,91.24,0.000002697398,0.000002697398,0.000002697398,0.99999994,0,0,0,0,0,0,0,1,0,0,0,false,false,true,-287.75998,-3991.89,17.01,-0.004086558,-0.0024627245,0.85735667,-0.51470053,-147.621,282.191,8.321,0.00040999998,0,1.46951
88.525,2000,0,91.24,0.000002697398,0.000002697398,0.000002697398,0.99999994,0,0,0,0,0,0,0,1,0,0,0,false,false,true,-288.99,-3989.5398,17.01,-0.0040703737,-0.0024896984,0.85419,-0.51993895,-145.66101,281.431,8.321,0.00040999998,0,1.45741
88.53333,2000,0,91.24,0.000002697398,0.000002697398,0.000002697398,0.99999994,0,0,0,0,0,0,0,1,0,0,0,false,false,true,-290.19998,-3987.19,17.01,-0.004054189,-0.0025166722,0.851016,-0.525118,-143.72101,280.701,8.321,0.00040999998,0,1.44481
88.541664,2000,0,91.24,0.000002697398,0.000002697398,0.000002697398,0.99999994,0,0,0,0,0,0,0,1,0,0,0,false,false,true,-291.4,-3984.8499,17.01,-0.0040380047,-0.0025436464,0.8478389,-0.53023225,-141.791,280.001,8.321,0.00040999998,0,1.43181
88.55,2000,0,91.24,0.000002697398,0.000002697398,0.000002697398,0.99999994,0,0,0,0,0,0,0,1,0,0,0,false,false,true,-292.58,-3982.52,17.01,-0.00402182,-0.0025706203,0.84466,-0.5352818,-139.881,279.321,8.321,0.00040999998,-0.00010999999,1.41841
88.558334,2000,0,91.24,0.000002697398,0.000002697398,0.000002697398,0.99999994,0,0,0,0,0,0,0,1,0,0,0,false,false,true,-293.75,-3980.19,17.01,-0.004005636,-0.0025975944,0.8414803,-0.5402666,-137.981,278.671,8.321,0.00040999998,-0.00010999999,1.4046099
88.566666,2000,0,91.24,0.000002697398,0.000002697398,0.000002697398,0.99999994,0,0,0,0,0,0,0,1,0,0,0,false,false,true,-294.9,-3977.8699,17.01,-0.003989452,-0.0026245685,0.8383045,-0.54518133,-136.101,278.04102,8.321,0.00040999998,-0.00010999999,1.39041
88.575,2000,0,91.24,0.000002697398,0.000002697398,0.000002697398,0.99999994,0,0,0,0,0,0,0,1,0,0,0,false,false,true,-296.03,-3975.5498,17.01,-0.003973267,-0.0026461475,0.8351339,-0.5500258,-134.241,277.441,8.321,0.00040999998,-0.00021,1.37581
88.583336,2000,0,91.24,0.000002697398,0.000002697398,0.000002697398,0.99999994,0,0,0,0,0,0,0,1,0,0,0,false,false,true,-297.15,-3973.24,17.01,-0.003957083,-0.0026677267,0.8319662,-0.55480564,-132.41101,276.861,8.321,0.00040999998,-0.00021,1.3608099
88.59167,2000,0,91.24,0.000002697398,0.000002697398,0.000002697398,0.99999994,0,0,0,0,0,0,0,1,0,0,0,false,false,true,-298.25,-3970.93,17.01,-0.0039408985,-0.002689306,0.8288062,-0.5595153,-130.601,276.311,8.321,0.00040999998,-0.00021,1.34541
88.6,2000,0,91.24,0.000002697398,0.000002697398,0.000002697398,0.99999994,0,0,0,0,0,0,0,1,0,0,0,false,false,true,-299.34,-3968.63,17.01,-0.0039301086,-0.002710885,0.8256551,-0.56415486,-128.811,275.781,8.321,0.00040999998,-0.00021,1.32961
88.60833,2000,0,91.24,0.000002697398,0.000002697398,0.000002697398,0.99999994,0,0,0,0,0,0,0,1,0,0,0,false,false,true,-300.41,-3966.3298,17.01,-0.0039193192,-0.002732464,0.822518,-0.5687189,-127.050995,275.271,8.321,0.00040999998,-0.00021,1.31351
88.61667,2000,0,91.24,0.000002697398,0.000002697398,0.000002697398,0.99999994,0,0,0,0,0,0,0,1,0,0,0,false,false,true,-301.47,-3964.0398,17.01,-0.0039085294,-0.0027540433,0.81939256,-0.57321274,-125.311,274.79102,8.321,0.00040999998,-0.00010999999,1.29701
88.625,2000,0,91.24,0.000002697398,0.000002697398,0.000002697398,0.99999994,0,0,0,0,0,0,0,1,0,0,0,false,false,true,-302.50998,-3961.75,17.01,-0.0038923454,-0.0027756225,0.8162838,-0.5776311,-123.601,274.331,8.321,0.00030999997,0,1.28011
88.63333,2000,0,91.24,0.000002697398,0.000002697398,0.000002697398,0.99999994,0,0,0,0,0,0,0,1,0,0,0,false,false,true,-303.53998,-3959.46,17.01,-0.003876161,-0.0027972017,0.81318945,-0.58197933,-121.921,273.891,8.321,0.00030999997,0,1.26291
88.64167,2000,0,91.24,0.000002697398,0.000002697398,0.000002697398,0.99999994,0,0,0,0,0,0,0,1,0,0,0,false,false,true,-304.56,-3957.18,17.01,-0.003859977,-0.0028187812,0.81011456,-0.5862521,-120.260994,273.471,8.321,0.00030999997,0,1.24541
88.65,2000,0,91.24,0.000002697398,0.000002697398,0.000002697398,0.99999994,0,0,0,0,0,0,0,1,0,0,0,false,false,true,-305.56,-3954.9,17.01,-0.0038437922,-0.0028403602,0.80706054,-0.5904492,-118.631,273.071,8.321,0.00030999997,0,1.22761
88.65833,2000,0,91.24,0.000002697398,0.000002697398,0.000002697398,0.99999994,0,0,0,0,0,0,0,1,0,0,0,false,false,true,-306.55,-3952.6199,17.01,-0.0038276075,-0.0028619391,0.8040289,-0.59457076,-117.031,272.691,8.321,0.00030999997,0,1.20941
88.666664,2000,0,91.24,0.000002697398,0.000002697398,0.000002697398,0.99999994,0,0,0,0,0,0,0,1,0,0,0,false,false,true,-307.53,-3950.3499,17.01,-0.0038114234,-0.0028835186,0.80102104,-0.59861696,-115.461,272.331,8.321,0.00030999997,0,1.19091
88.675,2000,0,91.24,0.000002697398,0.000002697398,0.000002697398,0.99999994,0,0,0,0,0,0,0,1,0,0,0,false,false,true,-308.49,-3948.0798,17.01,-0.0037952394,-0.002905098,0.7980425,-0.60258216,-113.921,271.981,8.321,0.00030999997,-0.00010999999,1.17221
88.683334,2000,0,91.24,0.000002697398,0.000002697398,0.000002697398,0.99999994,0,0,0,0,0,0,0,1,0,0,0,false,false,true,-309.44,-3945.8098,17.01,-0.0037844495,-0.0029266768,0.7950905,-0.6064718,-112.410995,271.651,8.321,0.00030999997,-0.00010999999,1.15321
88.691666,2000,0,91.24,0.000002697398,0.000002697398,0.000002697398,0.99999994,0,0,0,0,0,0,0,1,0,0,0,false,false,true,-310.38,-3943.5498,17.01,-0.00377366,-0.0029428613,0.79216665,-0.61028594,-110.940994,271.331,8.321,0.00021,-0.00010999999,1.13391
88.7,2000,0,91.24,0.000002697398,0.000002697398,0.000002697398,0.99999994,0,0,0,0,0,0,0,1,0,0,0,false,false,true,-311.3,-3941.2898,17.01,-0.0037628706,-0.0029590458,0.78927654,-0.6140192,-109.501,271.031,8.321,0.00021,-0.00010999999,1.11431
88.708336,2000,0,91.24,0.000002697398,0.000002697398,0.000002697398,0.99999994,0,0,0,0,0,0,0,1,0,0,0,false,false,true,-312.21,-3939.03,17.01,-0.0037520807,-0.00297523,0.7864173,-0.61767685,-108.090996,270.741,8.321,0.00021,-0.00010999999,1.09451
88.71667,2000,0,91.24,0.000002697398,0.000002697398,0.000002697398,0.99999994,0,0,0,0,0,0,0,1,0,0,0,false,false,true,-313.11,-3936.77,17.01,-0.0037412911,-0.0029914144,0.78359056,-0.621259,-106.711,270.471,8.321,0.00021,0,1.07451
88.725,2000,0,91.24,0.000002697398,0.000002697398,0.000002697398,0.99999994,0,0,0,0,0,0,0,1,0,0,0,false,false,true,-314,-3934.52,17.01,-0.0037305015,-0.003007599,0.7808019,-0.6247602,-105.370995,270.211,8.321,0.00010999999,0,1.05421
88.73333,2000,0,91.24,0.000002697398,0.000002697398,0.000002697398,0.99999994,0,0,0,0,0,0,0,1,0,0,0,false,false,true,-314.88,-3932.27,17.01,-0.003719712,-0.0030237832,0.7780484,-0.6281859,-104.061,269.961,8.321,0.00010999999,0,1.03371
88.74167,2000,0,91.24,0.000002697398,0.000002697398,0.000002697398,0.99999994,0,0,0,0,0,0,0,1,0,0,0,false,false,true,-315.75,-3930.02,17.01,-0.0037089223,-0.0030399675,0.7753359,-0.6315307,-102.781,269.721,8.321,0.00010999999,0,1.01301
88.75,2000,0,91.24,0.000002697398,0.000002697398,0.000002697398,0.99999994,0,0,0,0,0,0,0,1,0,0,0,false,false,true,-316.61,-3927.77,17.01,-0.003698133,-0.0030561523,0.7726615,-0.6348001,-101.531,269.491,8.321,0,0,0.99211
88.75833,2000,0,91.24,0.000002697398,0.000002697398,0.000002697398,0.99999994,0,0,0,0,0,0,0,1,0,0,0,false,false,true,-317.46,-3925.52,17.01,-0.0036873426,-0.003072336,0.770031,-0.63798827,-100.311,269.271,8.321,0,0,0.97111
88.76667,2000,0,91.24,0.000002697398,0.000002697398,0.000002697398,0.99999994,0,0,0,0,0,0,0,1,0,0,0,false,false,true,-318.3,-3923.28,17.01,-0.003676553,-0.0030885206,0.7674413,-0.64110106,-99.131,269.061,8.321,0,0,0.94991
88.775,2000,0,91.24,0.000002697398,0.000002697398,0.000002697398,0.99999994,0,0,0,0,0,0,0,1,0,0,0,false,false,true,-319.13,-3921.0398,17.01,-0.0036657641,-0.0031047054,0.76489836,-0.64413303,-97.980995,268.861,8.321,0,0,0.92860997
88.78333,2000,0,91.24,0.000002697398,0.000002697398,0.000002697398,0.99999994,0,0,0,0,0,0,0,1,0,0,0,false,false,true,-319.94998,-3918.7998,17.01,-0.003654974,-0.0031208894,0.7623989,-0.6470893,-96.861,268.671,8.321,0,0.00010999999,0.90721
88.791664,2000,0,91.24,0.000002697398,0.000002697398,0.000002697398,0.99999994,0,0,0,0,0,0,0,1,0,0,0,false,false,true,-320.75998,-3916.5598,17.01,-0.003644185,-0.003137074,0.75994897,-0.6499648,-95.770996,268.491,8.321,0,0.00010999999,0.88561
88.8,2000,0,91.24,0.000002697398,0.000002697398,0.000002697398,0.99999994,0,0,0,0,0,0,0,1,0,0,0,false,false,true,-321.56,-3914.3198,17.01,-0.0036333953,-0.0031532582,0.7575453,-0.65276474,-94.711,268.311,8.321,0,0.00010999999,0.86401
88.808334,2000,0,91.24,0.000002697398,0.000002697398,0.000002697398,0.99999994,0,0,0,0,0,0,0,1,0,0,0,false,false,true,-322.35,-3912.0798,17.01,-0.003622606,-0.003164048,0.75518924,-0.65548915,-93.681,268.141,8.321,-0.00010999999,0.00010999999,0.84231
88.816666,2000,0,91.24,0.000002697398,0.000002697398,0.000002697398,0.99999994,0,0,0,0,0,0,0,1,0,0,0,false,false,true,-323.13,-3909.8398,17.01,-0.003611816,-0.0031748374,0.7528819,-0.658138,-92.681,267.981,8.321,-0.00010999999,0.00010999999,0.82050997
88.825,2000,0,91.24,0.000002697398,0.000002697398,0.000002697398,0.99999994,0,0,0,0,0,0,0,1,0,0,0,false,false,true,-323.9,-3907.6099,17.01,-0.003601026,-0.0031856268,0.7506293,-0.66070586,-91.711,267.821,8.321,-0.00010999999,0.00010999999,0.79871
88.833336,2000,0,91.24,0.000002697398,0.000002697398,0.000002697398,0.99999994,0,0,0,0,0,0,0,1,0,0,0,false,false,true,-324.66,-3905.38,17.01,-0.0035902364,-0.0031964164,0.74842817,-0.66319823,-90.760994,267.671,8.321,-0.00010999999,0.00010999999,0.77691
88.84167,2000,0,91.24,0.000002697398,0.000002697398,0.000002697398,0.99999994,0,0,0,0,0,0,0,1,0,0,0,false,false,true,-325.41998,-3903.15,17.01,-0.0035794473,-0.0032072063,0.7462796,-0.66561514,-89.840996,267.521,8.321,-0.00010999999,0.00010999999,0.75510997
88.85,2000,0,91.24,0.000002697398,0.000002697398,0.000002697398,0.99999994,0,0,0,0,0,0,0,1,0,0,0,false,false,true,-326.16998,-3900.92,17.01,-0.003568658,-0.003217996,0.74417984,-0.66796196,-88.951,267.381,8.321,-0.00010999999,0.00010999999,0.73331
88.85833,2000,0,91.24,0.000002697398,0.000002697398,0.000002697398,0.99999994,0,0,0,0,0,0,0,1,0,0,0,false,false,true,-326.91,-3898.69,17.01,-0.003557868,-0.0032287855,0.742135,-0.67023313,-88.081,267.241,8.321,-0.00010999999,0.00010999999,0.71151
88.86667,2000,0,91.24,0.000002697398,0.000002697398,0.000002697398,0.99999994,0,0,0,0,0,0,0,1,0,0,0,false,false,true,-327.63998,-3896.46,17.01,-0.0035470785,-0.003239575,0.74014604,-0.67242885,-87.241,267.111,8.321,-0.00010999999,0.00010999999,0.68971
88.875,2000,0,91.24,0.000002697398,0.000002697398,0.000002697398,0.99999994,0,0,0,0,0,0,0,1,0,0,0,false,false,true,-328.37,-3894.23,17.01,-0.0035362889,-0.0032503647,0.7382094,-0.6745544,-86.421,266.981,8.321,-0.00010999999,0.00010999999,0.66801
88.88333,2000,0,91.24,0.000002697398,0.000002697398,0.000002697398,0.99999994,0,0,0,0,0,0,0,1,0,0,0,false,false,true,-329.09,-3892,17.01,-0.0035254993,-0.0032611543,0.7363309,-0.6766044,-85.631,266.851,8.321,-0.00010999999,0.00010999999,0.64641
88.89167,2000,0,91.24,0.000002697398,0.000002697398,0.000002697398,0.99999994,0,0,0,0,0,0,0,1,0,0,0,false,false,true,-329.8,-3889.78,17.01,-0.0035147096,-0.003271944,0.7345067,-0.6785843,-84.861,266.731,8.321,-0.00010999999,0.00010999999,0.62481
88.9,2000,0,91.24,0.000002697398,0.000002697398,0.000002697398,0.99999994,0,0,0,0,0,0,0,1,0,0,0,false,false,true,-330.50998,-3887.5598,17.01,-0.00350392,-0.0032827335,0.7327377,-0.68049407,-84.111,266.611,8.321,0,0.00010999999,0.60331
88.90833,2000,0,91.24,0.000002697398,0.000002697398,0.000002697398,0.99999994,0,0,0,0,0,0,0,1,0,0,0,false,false,true,-331.21,-3885.3398,17.01,-0.0034931304,-0.003293523,0.731025,-0.6823337,-83.381,266.491,8.321,0,0,0.58191
88.916664,2000,0,91.24,0.000002697398,0.000002697398,0.000002697398,0.99999994,0,0,0,0,0,0,0,1,0,0,0,false,false,true,-331.9,-3883.1199,17.01,-0.003487736,-0.003304313,0.72936934,-0.68410325,-82.671,266.371,8.321,0,0,0.56061
88.925,2000,0,91.24,0.000002697398,0.000002697398,0.000002697398,0.99999994,0,0,0,0,0,0,0,1,0,0,0,false,false,true,-332.59,-3880.9,17.01,-0.0034823408,-0.0033151023,0.72777164,-0.6858026,-81.980995,266.261,8.321,0,0,0.53941
88.933334,2000,0,91.24,0.000002697398,0.000002697398,0.000002697398,0.99999994,0,0,0,0,0,0,0,1,0,0,0,false,false,true,-333.27,-3878.68,17.01,-0.0034769461,-0.003320497,0.7262278,-0.6874372,-81.311,266.151,8.321,-0.00010999999,0,0.51841
88.941666,2000,0,91.24,0.000002697398,0.000002697398,0.000002697398,0.99999994,0,0,0,0,0,0,0,1,0,0,0,false,false,true,-333.94998,-3876.46,17.01,-0.0034715512,-0.003325892,0.72474366,-0.6890017,-80.660995,266.04102,8.321,-0.00010999999,0,0.49751
88.95,2000,0,91.24,0.000002697398,0.000002697398,0.000002697398,0.99999994,0,0,0,0,0,0,0,1,0,0,0,false,false,true,-334.62,-3874.24,17.01,-0.0034661568,-0.0033312868,0.72331494,-0.6905015,-80.031,265.931,8.321,-0.00010999999,0,0.47671
88.958336,2000,0,91.24,0.000002697398,0.000002697398,0.000002697398,0.99999994,0,0,0,0,0,0,0,1,0,0,0,false,false,true,-335.28998,-3872.02,17.01,-0.0034607616,-0.0033366815,0.72194225,-0.6919365,-79.421,265.821,8.321,-0.00010999999,0,0.45611
88.96667,2000,0,91.24,0.000002697398,0.000002697398,0.000002697398,0.99999994,0,0,0,0,0,0,0,1,0,0,0,false,false,true,-335.94998,-3869.7998,17.01,-0.003455367,-0.0033420762,0.7206264,-0.6933068,-78.831,265.711,8.321,-0.00010999999,0,0.43561
88.975,2000,0,91.24,0.000002697398,0.000002697398,0.000002697398,0.99999994,0,0,0,0,0,0,0,1,0,0,0,false,false,true,-336.61,-3867.5898,17.01,-0.0034499725,-0.0033474711,0.7193681,-0.6946124,-78.251,265.611,8.311,-0.00010999999,0,0.41531
88.98333,2000,0,91.24,0.000002697398,0.000002697398,0.000002697398,0.99999994,0,0,0,0,0,0,0,1,0,0,0,false,false,true,-337.25998,-3865.38,17.01,-0.0034445773,-0.0033528658,0.71816266,-0.69585854,-77.690994,265.511,8.311,-0.00010999999,0,0.39511
88.99167,2000,0,91.24,0.000002697398,0.000002697398,0.000002697398,0.99999994,0,0,0,0,0,0,0,1,0,0,0,false,false,true,-337.91,-3863.17,17.01,-0.0034391826,-0.0033582605,0.71701604,-0.69703996,-77.141,265.411,8.311,-0.00010999999,0.00010999999,0.37511
89,2000,0,91.24,0.000002697398,0.000002697398,0.000002697398,0.99999994,0,0,0,0,0,0,0,1,0,0,0,false,false,true,-338.55,-3860.96,17.01,-0.0034337877,-0.0033636554,0.7159235,-0.6981621,-76.611,265.311,8.311,-0.00010999999,0.00010999999,0.35531
89.00833,2000,0,91.24,0.000002697398,0.000002697398,0.000002697398,0.99999994,0,0,0,0,0,0,0,1,0,0,0,false,false,true,-339.19,-3858.75,17.01,-0.003428393,-0.00336905,0.71489084,-0.69921947,-76.090996,265.211,8.311,-0.00010999999,0.00010999999,0.33561
89.01667,2000,0,91.24,0.000002697398,0.000002697398,0.000002697398,0.99999994,0,0,0,0,0,0,0,1,0,0,0,false,false,true,-339.82,-3856.5398,17.01,-0.0034229977,-0.0033744446,0.71391326,-0.7002174,-75.590996,265.111,8.311,-0.00010999999,0.00010999999,0.31611001
89.025,2000,0,91.24,0.000002697398,0.000002697398,0.000002697398,0.99999994,0,0,0,0,0,0,0,1,0,0,0,false,false,true,-340.44998,-3854.3298,17.01,-0.003417603,-0.0033798392,0.71299136,-0.70115614,-75.101,265.011,8.311,-0.00010999999,0.00010999999,0.29681
89.03333,2000,0,91.24,0.000002697398,0.000002697398,0.000002697398,0.99999994,0,0,0,0,0,0,0,1,0,0,0,false,false,true,-341.08,-3852.1199,17.01,-0.003412208,-0.0033852342,0.7121255,-0.70203555,-74.620995,264.911,8.311,-0.00010999999,0.00010999999,0.27771002
89.041664,2000,0,91.24,0.000002697398,0.000002697398,0.000002697398,0.99999994,0,0,0,0,0,0,0,1,0,0,0,false,false,true,-341.69998,-3849.91,17.01,-0.0034068138,-0.0033906293,0.71131086,-0.702861,-74.151,264.811,8.311,-0.00010999999,0.00010999999,0.25871
89.05,2000,0,91.24,0.000002697398,0.000002697398,0.000002697398,0.99999994,0,0,0,0,0,0,0,1,0,0,0,false,false,true,-342.32,-3847.7,17.01,-0.003401419,-0.0033960242,0.7105531,-0.70362705,-73.701,264.711,8.311,-0.00010999999,0.00010999999,0.23990999
89.058334,2000,0,91.24,0.000002697398,0.000002697398,0.000002697398,0.99999994,0,0,0,0,0,0,0,1,0,0,0,false,false,true,-342.93,-3845.49,17.01,-0.0033960242,-0.003401419,0.7098472,-0.7043392,-73.261,264.621,8.311,-0.00010999999,0,0.22130999
89.066666,2000,0,91.24,0.000002697398,0.000002697398,0.000002697398,0.99999994,0,0,0,0,0,0,0,1,0,0,0,false,false,true,-343.53998,-3843.28,17.01,-0.0033906293,-0.0034068138,0.7091989,-0.70499194,-72.831,264.531,8.311,-0.00010999999,0,0.20290999
89.075,2000,0,91.24,0.000002697398,0.000002697398,0.000002697398,0.99999994,0,0,0,0,0,0,0,1,0,0,0,false,false,true,-344.15,-3841.0798,17.01,-0.0033852346,-0.0034068138,0.70860314,-0.7055908,-72.410995,264.441,8.311,-0.00010999999,0,0.18471
89.083336,2000,0,91.24,0.000002697398,0.000002697398,0.000002697398,0.99999994,0,0,0,0,0,0,0,1,0,0,0,false,false,true,-344.75,-3838.88,17.01,-0.00337984,-0.003406814,0.70806026,-0.7061357,-72.001,264.351,8.311,-0.00010999999,0,0.16670999
89.09167,2000,0,91.24,0.000002697398,0.000002697398,0.000002697398,0.99999994,0,0,0,0,0,0,0,1,0,0,0,false,false,true,-345.35,-3836.68,17.01,-0.003374445,-0.0034068138,0.70757025,-0.7066266,-71.590996,264.261,8.311,0,0,0.14891
89.1,2000,0,91.24,0.000002697398,0.000002697398,0.000002697398,0.99999994,0,0,0,0,0,0,0,1,0,0,0,false,false,true,-345.94998,-3834.48,17.01,-0.003374445,-0.0034068138,0.7071336,-0.70706356,-71.190994,264.171,8.311,0,0,0.13131
89.10833,2000,0,91.24,0.000002697398,0.000002697398,0.000002697398,0.99999994,0,0,0,0,0,0,0,1,0,0,0,false,false,true,-346.53998,-3832.28,17.01,0.003374445,0.0034068138,-0.70674527,0.70745176,-70.800995,264.081,8.311,0,0,0.11391
89.11667,2000,0,91.24,0.000002697398,0.000002697398,0.000002697398,0.99999994,0,0,0,0,0,0,0,1,0,0,0,false,false,true,-347.13,-3830.0798,17.01,0.003374445,0.0034068138,-0.70641077,0.7077857,-70.421,263.991,8.311,0,0,0.096609995
89.125,2000,0,91.24,0.000002697398,0.000002697398,0.000002697398,0.99999994,0,0,0,0,0,0,0,1,0,0,0,false,false,true,-347.72,-3827.88,17.01,0.003374445,0.0034068138,-0.70612484,0.708071,-70.041,263.901,8.311,0,0,0.079509996
89.13333,2000,0,91.24,0.000002697398,0.000002697398,0.000002697398,0.99999994,0,0,0,0,0,0,0,1,0,0,0,false,false,true,-348.3,-3825.68,17.01,0.003374445,0.0034068138,-0.7058875,0.7083076,-69.671,263.811,8.311,0,0,0.06261
89.14167,2000,0,91.24,0.000002697398,0.000002697398,0.000002697398,0.99999994,0,0,0,0,0,0,0,1,0,0,0,false,false,true,-348.88,-3823.48,17.01,0.0033744453,0.003406814,-0.7057041,0.70849043,-69.300995,263.721,8.311,0,0,0.045909997
89.15,2000,0,91.24,0.000002697398,0.000002697398,0.000002697398,0.99999994,0,0,0,0,0,0,0,1,0,0,0,false,false,true,-349.46,-3821.28,17.01,0.003374445,0.0034068138,-0.7055692,0.70862466,-68.940994,263.631,8.311,0,0,0.029409999
