time,ball_loc_x,ball_loc_y,ball_loc_z,ball_rot_x,ball_rot_y,ball_rot_z,ball_rot_w,ball_vel_x,ball_vel_y,ball_vel_z,ball_ang_x,ball_ang_y,ball_ang_z,player0_throttle,player0_steer,player0_pitch,player0_yaw,player0_roll,player0_jump,player0_boost,player0_handbrake,player0_loc_x,player0_loc_y,player0_loc_z,player0_rot_x,player0_rot_y,player0_rot_z,player0_rot_w,player0_vel_x,player0_vel_y,player0_vel_z,player0_ang_x,player0_ang_y,player0_ang_z
58.65,2000,0,91.24,0.000002697398,0.000002697398,0.000002697398,0.99999994,0,0,0,0,0,0,0,0,0,0,0,false,false,false,0,0.14,17.01,-0.00336905,0.0033798397,0.7071014,0.7070959,0,0.011,8.321,-0.00051,0,0
58.658333,2000,0,73,0.000002697398,0.000002697398,0.000002697398,0.99999994,0,0,0,0,0,0,0.4015748,0,0,0,0,false,false,false,0,0,16.94,0.0000026973983,0.0000026973983,0.70710677,0.70710677,0,0,2.041,-0.050809998,0,0
58.666668,2000,0,87.6,0.000002697398,0.000002697398,0.000002697398,0.99999994,0,0,0,0,0,0,0.4015748,0,0,0,0,false,false,false,0,0,16.89,-0.00014835689,0.00015375168,0.7071067,0.7071067,0,5.351,3.8809998,-0.085609995,0,0
58.675,2000,0,90.52,0.000002697398,0.000002697398,0.000002697398,0.99999994,0,0,0,0,0,0,0.4015748,0,0,0,0,false,false,false,0,0.04,16.85,-0.00040191234,0.00040730715,0.70710653,0.70710677,0,10.681,5.481,-0.107209995,0,0
58.683334,2000,0,91.1,0.000002697398,0.000002697398,0.000002697398,0.99999994,0,0,0,0,0,0,0.4015748,0,0,0,0,false,false,false,0,0.13,16.83,-0.00072020525,0.00072560005,0.7071067,0.707106,0,15.991,6.791,-0.11630999,0,0
58.691666,2000,0,91.22,0.000002697398,0.000002697398,0.000002697398,0.99999994,0,0,0,0,0,0,0.4015748,0,0,0,0,false,false,false,0,0.26,16.82,-0.0010654721,0.001070867,0.70710516,0.7071067,0,21.290998,7.7409997,-0.114709996,0,0
58.7,2000,0,91.24,0.000002697398,0.000002697398,0.000002697398,0.99999994,0,0,0,0,0,0,0.4015748,0,0,0,0,false,false,false,0,0.44,16.82,-0.0014053443,0.0014107391,0.7071067,0.70710397,0,26.571,8.431,-0.106709994,0,0
58.708332,2000,0,91.24,0.000002697398,0.000002697398,0.000002697398,0.99999994,0,0,0,0,0,0,0.4015748,0,0,0,0,false,false,false,0,0.65999997,16.82,-0.0017182427,0.0017236375,0.707108,0.70710135,0,31.831,8.9210005,-0.095309995,0,0
58.716667,2000,0,91.24,0.000002697398,0.000002697398,0.000002697398,0.99999994,0,0,0,0,0,0,0.4015748,0,0,0,0,false,false,false,0,0.93,16.83,-0.001998772,0.0020041666,0.70710653,0.7071013,0,37.071,9.281,-0.082509995,0,0
58.725,2000,0,91.24,0.000002697398,0.000002697398,0.000002697398,0.99999994,0,0,0,0,0,0,0.4015748,0,0,0,0,false,false,false,0,1.24,16.84,-0.0022415377,0.0022469326,0.70710504,0.7071013,0,42.291,9.521,-0.06961,0,0
58.733334,2000,0,91.24,0.000002697398,0.000002697398,0.000002697398,0.99999994,0,0,0,0,0,0,0.4015748,0,0,0,0,false,false,false,0,1.5899999,16.85,-0.00244654,0.0024519349,0.70710367,0.7071013,0,47.490997,9.6710005,-0.057509996,0,0
58.741665,2000,0,91.24,0.000002697398,0.000002697398,0.000002697398,0.99999994,0,0,0,0,0,0,0.4015748,0,0,0,0,false,false,false,0,1.99,16.859999,-0.0026137787,0.0026191734,0.7071025,0.7071013,0,52.681,9.771,-0.046609998,0,0
58.75,2000,0,91.24,0.000002697398,0.000002697398,0.000002697398,0.99999994,0,0,0,0,0,0,0.4015748,0,0,0,0,false,false,false,0,2.4299998,16.869999,-0.0027486486,0.0027540433,0.70710146,0.7071013,0,57.850998,9.821,-0.037109997,0,0
58.758335,2000,0,91.24,0.000002697398,0.000002697398,0.000002697398,0.99999994,0,0,0,0,0,0,0.4015748,0,0,0,0,false,false,false,0,2.9099998,16.88,-0.0028565445,0.0028619394,0.70710063,0.7071013,0,63.001,9.841001,-0.02911,0,0
58.766666,2000,0,91.24,0.000002697398,0.000002697398,0.000002697398,0.99999994,0,0,0,0,0,0,0.4015748,0,0,0,0,false,false,false,0,3.4399998,16.89,-0.0029428613,0.002948256,0.7071013,0.7070999,0,68.131,9.821,-0.02291,0,0
58.775,2000,0,91.24,0.000002697398,0.000002697398,0.000002697398,0.99999994,0,0,0,0,0,0,0.4015748,0,0,0,0,false,false,false,0,4.0099998,16.9,-0.0030129936,0.0030183885,0.7070993,0.7071013,0,73.251,9.761001,-0.018410001,0,0
58.783333,2000,0,91.24,0.000002697398,0.000002697398,0.000002697398,0.99999994,0,0,0,0,0,0,0.4015748,0,0,0,0,false,false,false,0,4.62,16.91,-0.0030669416,0.0030723363,0.7071013,0.70709884,0,78.351,9.681,-0.014909999,0,0
58.791668,2000,0,91.24,0.000002697398,0.000002697398,0.000002697398,0.99999994,0,0,0,0,0,0,0.4015748,0,0,0,0,false,false,false,0,5.27,16.92,-0.0031101,0.0031154947,0.7070985,0.7071013,0,83.431,9.591001,-0.012309999,0,0
58.8,2000,0,91.24,0.000002697398,0.000002697398,0.000002697398,0.99999994,0,0,0,0,0,0,0.4015748,0,0,0,0,false,false,false,0,5.97,16.93,-0.0031478636,0.0031532582,0.7070959,0.7071035,0,88.491,9.491,-0.01031,0,0
58.808334,2000,0,91.24,0.000002697398,0.000002697398,0.000002697398,0.99999994,0,0,0,0,0,0,0.4015748,0,0,0,0,false,false,false,0,6.71,16.94,-0.0031802324,0.003185627,0.7070959,0.7071032,0,93.541,9.391,-0.00871,0,0
58.816666,2000,0,91.24,0.000002697398,0.000002697398,0.000002697398,0.99999994,0,0,0,0,0,0,0.4015748,0,0,0,0,false,false,false,0,7.49,16.949999,-0.0032072063,0.0032126012,0.7070959,0.70710295,0,98.571,9.281,-0.00731,0,0
58.825,2000,0,91.24,0.000002697398,0.000002697398,0.000002697398,0.99999994,0,0,0,0,0,0,0.4015748,0,0,0,0,false,false,false,0,8.309999,16.96,-0.0032287855,0.0032341804,0.7070959,0.7071028,0,103.58099,9.1710005,-0.00621,0,0
58.833332,2000,0,91.24,0.000002697398,0.000002697398,0.000002697398,0.99999994,0,0,0,0,0,0,0.4015748,0,0,0,0,false,false,false,0,9.17,16.97,-0.00324497,0.003250365,0.707096,0.70710266,0,108.571,9.061,-0.00531,0,0
58.841667,2000,0,91.24,0.000002697398,0.000002697398,0.000002697398,0.99999994,0,0,0,0,0,0,0.4015748,0,0,0,0,false,false,false,0,10.07,16.98,-0.0032611543,0.003266549,0.7070959,0.7071025,0,113.550995,8.951,-0.00461,0,0
58.85,2000,0,91.24,0.000002697398,0.000002697398,0.000002697398,0.99999994,0,0,0,0,0,0,0.4015748,0,0,0,0,false,false,false,0,11.0199995,16.99,-0.0032773386,0.0032827335,0.7070959,0.7071023,0,118.510994,8.841001,-0.00401,0,0
58.858334,2000,0,91.24,0.000002697398,0.000002697398,0.000002697398,0.99999994,0,0,0,0,0,0,0.4015748,0,0,0,0,false,false,false,0,12.009999,17,-0.0032881282,0.003293523,0.7070959,0.70710224,0,123.451,8.731,-0.00341,0,0
58.866665,2000,0,91.24,0.000002697398,0.000002697398,0.000002697398,0.99999994,0,0,0,0,0,0,0.4015748,0,0,0,0,false,false,false,0,13.04,17.01,-0.0032989178,0.0033043127,0.7070959,0.7071021,0,128.381,8.621,-0.00291,0,0
58.875,2000,0,91.24,0.000002697398,0.000002697398,0.000002697398,0.99999994,0,0,0,0,0,0,0.4015748,0,0,0,0,false,false,false,0,14.11,17.01,-0.0033097074,0.0033151023,0.7070959,0.707102,0,133.291,8.511001,-0.00251,0,0
58.883335,2000,0,91.24,0.000002697398,0.000002697398,0.000002697398,0.99999994,0,0,0,0,0,0,0.4015748,0,0,0,0,false,false,false,0,15.219999,17.01,-0.0033151023,0.003320497,0.7070959,0.707102,0,138.181,8.441,-0.00221,0,0
58.891666,2000,0,91.24,0.000002697398,0.000002697398,0.000002697398,0.99999994,0,0,0,0,0,0,0.4015748,0,0,0,0,false,false,false,0,16.369999,17.01,-0.0033204972,0.0033258921,0.707096,0.70710194,0,143.05101,8.391,-0.0019099999,0,0
58.9,2000,0,91.24,0.000002697398,0.000002697398,0.000002697398,0.99999994,0,0,0,0,0,0,0.4015748,0,0,0,0,false,false,false,0,17.56,17.01,-0.003325892,0.0033312866,0.7070959,0.7071019,0,147.91101,8.361,-0.0017099999,0,0
58.908333,2000,0,91.24,0.000002697398,0.000002697398,0.000002697398,0.99999994,0,0,0,0,0,0,0.4015748,0,0,0,0,false,false,false,0,18.789999,17.01,-0.0033312866,0.0033366815,0.7070959,0.7071018,0,152.751,8.341001,-0.00151,0,0
58.916668,2000,0,91.24,0.000002697398,0.000002697398,0.000002697398,0.99999994,0,0,0,0,0,0,0.4015748,0,0,0,0,false,false,false,0,20.06,17.01,-0.0033366815,0.0033420762,0.7070959,0.70710176,0,157.571,8.331,-0.00131,0,0
58.925,2000,0,91.24,0.000002697398,0.000002697398,0.000002697398,0.99999994,0,0,0,0,0,0,0.4015748,0,0,0,0,false,false,false,0,21.369999,17.01,-0.0033420762,0.003347471,0.7070959,0.7071017,0,162.381,8.321,-0.00111,0,0
58.933334,2000,0,91.24,0.000002697398,0.000002697398,0.000002697398,0.99999994,0,0,0,0,0,0,0.4015748,0,0,0,0,false,false,false,0,22.72,17.01,-0.003347471,0.0033528658,0.7070959,0.70710164,0,167.171,8.321,-0.00091,0,0
58.941666,2000,0,91.24,0.000002697398,0.000002697398,0.000002697398,0.99999994,0,0,0,0,0,0,0.4015748,0,0,0,0,false,false,false,0,24.109999,17.01,-0.003347471,0.0033582605,0.7070959,0.70710164,0,171.94101,8.321,-0.00081,0,0
58.95,2000,0,91.24,0.000002697398,0.000002697398,0.000002697398,0.99999994,0,0,0,0,0,0,0.4015748,0,0,0,0,false,false,false,0,25.539999,17.01,-0.003347471,0.0033582605,0.7070959,0.70710164,0,176.701,8.321,-0.00071,0,0
58.958332,2000,0,91.24,0.000002697398,0.000002697398,0.000002697398,0.99999994,0,0,0,0,0,0,0.4015748,0,0,0,0,false,false,false,0,27.01,17.01,-0.003347471,0.0033582605,0.7070959,0.70710164,0,181.44101,8.321,-0.00061,0,0
58.966667,2000,0,91.24,0.000002697398,0.000002697398,0.000002697398,0.99999994,0,0,0,0,0,0,0.4015748,0,0,0,0,false,false,false,0,28.519999,17.01,-0.003347471,0.0033582605,0.7070959,0.70710164,0,186.171,8.321,-0.00061,0,0
58.975,2000,0,91.24,0.000002697398,0.000002697398,0.000002697398,0.99999994,0,0,0,0,0,0,0.4015748,0,0,0,0,false,false,false,0,30.07,17.01,-0.003347471,0.0033582605,0.7070959,0.70710164,0,190.881,8.321,-0.00061,0,0
58.983334,2000,0,91.24,0.000002697398,0.000002697398,0.000002697398,0.99999994,0,0,0,0,0,0,0.4015748,0,0,0,0,false,false,false,0,31.66,17.01,-0.003347471,0.0033582605,0.7070959,0.70710164,0,195.571,8.321,-0.00061,0,0
58.991665,2000,0,91.24,0.000002697398,0.000002697398,0.000002697398,0.99999994,0,0,0,0,0,0,0.4015748,0,0,0,0,false,false,false,0,33.29,17.01,-0.003347471,0.0033582605,0.7070959,0.70710164,0,200.251,8.321,-0.00061,0,0
59,2000,0,91.24,0.000002697398,0.000002697398,0.000002697398,0.99999994,0,0,0,0,0,0,0.4015748,0,0,0,0,false,false,false,0,34.96,17.01,-0.003347471,0.0033582605,0.7070959,0.70710164,0,204.911,8.321,-0.00061,0,0
59.008335,2000,0,91.24,0.000002697398,0.000002697398,0.000002697398,0.99999994,0,0,0,0,0,0,0.4015748,0,0,0,0,false,false,false,0,36.67,17.01,-0.003347471,0.0033582605,0.7070959,0.70710164,0,209.561,8.321,-0.00061,0,0
59.016666,2000,0,91.24,0.000002697398,0.000002697398,0.000002697398,0.99999994,0,0,0,0,0,0,0.4015748,0,0,0,0,false,false,false,0,38.42,17.01,-0.003347471,0.0033582605,0.7070959,0.70710164,0,214.19101,8.321,-0.00061,0,0
59.025,2000,0,91.24,0.000002697398,0.000002697398,0.000002697398,0.99999994,0,0,0,0,0,0,0.4015748,0,0,0,0,false,false,false,0,40.2,17.01,-0.003347471,0.0033582605,0.7070959,0.70710164,0,218.801,8.321,-0.00061,0,0
59.033333,2000,0,91.24,0.000002697398,0.000002697398,0.000002697398,0.99999994,0,0,0,0,0,0,0.4015748,0,0,0,0,false,false,false,0,42.02,17.01,-0.003347471,0.0033582605,0.7070959,0.70710164,0,223.401,8.321,-0.00061,0,0
59.041668,2000,0,91.24,0.000002697398,0.000002697398,0.000002697398,0.99999994,0,0,0,0,0,0,0.4015748,0,0,0,0,false,false,false,0,43.879997,17.01,-0.003347471,0.0033582605,0.7070959,0.70710164,0,227.981,8.321,-0.00061,0,0
59.05,2000,0,91.24,0.000002697398,0.000002697398,0.000002697398,0.99999994,0,0,0,0,0,0,0.4015748,0,0,0,0,false,false,false,0,45.78,17.01,-0.003347471,0.0033582605,0.7070959,0.70710164,0,232.551,8.321,-0.00061,0,0
59.058334,2000,0,91.24,0.000002697398,0.000002697398,0.000002697398,0.99999994,0,0,0,0,0,0,0.4015748,0,0,0,0,false,false,false,0,47.719997,17.01,-0.003347471,0.0033582605,0.7070959,0.70710164,0,237.101,8.321,-0.00061,0,0
59.066666,2000,0,91.24,0.000002697398,0.000002697398,0.000002697398,0.99999994,0,0,0,0,0,0,0.4015748,0,0,0,0,false,false,false,0,49.7,17.01,-0.003347471,0.0033582605,0.7070959,0.70710164,0,241.631,8.321,-0.00061,0,0
59.075,2000,0,91.24,0.000002697398,0.000002697398,0.000002697398,0.99999994,0,0,0,0,0,0,0.4015748,0,0,0,0,false,false,false,0,51.71,17.01,-0.003347471,0.0033582605,0.7070959,0.70710164,0,246.151,8.321,-0.00061,0,0
59.083332,2000,0,91.24,0.000002697398,0.000002697398,0.000002697398,0.99999994,0,0,0,0,0,0,0.4015748,0,0,0,0,false,false,false,0,53.76,17.01,-0.003347471,0.0033582605,0.7070959,0.70710164,0,250.651,8.321,-0.00061,0,0
59.091667,2000,0,91.24,0.000002697398,0.000002697398,0.000002697398,0.99999994,0,0,0,0,0,0,0.4015748,0,0,0,0,false,false,false,0,55.85,17.01,-0.003347471,0.0033582605,0.7070959,0.70710164,0,255.141,8.321,-0.00061,0,0
59.1,2000,0,91.24,0.000002697398,0.000002697398,0.000002697398,0.99999994,0,0,0,0,0,0,0.4015748,0,0,0,0,false,false,false,0,57.98,17.01,-0.003347471,0.0033582605,0.7070959,0.70710164,0,259.611,8.321,-0.00061,0,0
59.108334,2000,0,91.24,0.000002697398,0.000002697398,0.000002697398,0.99999994,0,0,0,0,0,0,0.4015748,0,0,0,0,false,false,false,0,60.14,17.01,-0.003347471,0.0033582605,0.7070959,0.70710164,0,264.071,8.321,-0.00061,0,0
59.116665,2000,0,91.24,0.000002697398,0.000002697398,0.000002697398,0.99999994,0,0,0,0,0,0,0.4015748,0,0,0,0,false,false,false,0,62.34,17.01,-0.003347471,0.0033582605,0.7070959,0.70710164,0,268.511,8.321,-0.00061,0,0
59.125,2000,0,91.24,0.000002697398,0.000002697398,0.000002697398,0.99999994,0,0,0,0,0,0,0.4015748,0,0,0,0,false,false,false,0,64.58,17.01,-0.003347471,0.0033582605,0.7070959,0.70710164,0,272.941,8.321,-0.00061,0,0
59.133335,2000,0,91.24,0.000002697398,0.000002697398,0.000002697398,0.99999994,0,0,0,0,0,0,0.4015748,0,0,0,0,false,false,false,0,66.85,17.01,-0.003347471,0.0033582605,0.7070959,0.70710164,0,277.351,8.321,-0.00061,0,0
59.141666,2000,0,91.24,0.000002697398,0.000002697398,0.000002697398,0.99999994,0,0,0,0,0,0,0.4015748,0,0,0,0,false,false,false,0,69.159996,17.01,-0.003347471,0.0033582605,0.7070959,0.70710164,0,281.751,8.321,-0.00061,0,0
59.15,2000,0,91.24,0.000002697398,0.000002697398,0.000002697398,0.99999994,0,0,0,0,0,0,0.4015748,0,0,0,0,false,false,false,0,71.51,17.01,-0.003347471,0.0033582605,0.7070959,0.70710164,0,286.131,8.321,-0.00061,0,0
59.158333,2000,0,91.24,0.000002697398,0.000002697398,0.000002697398,0.99999994,0,0,0,0,0,0,0.4015748,0,0,0,0,false,false,false,0,73.89,17.01,-0.003347471,0.0033582605,0.7070959,0.70710164,0,290.501,8.321,-0.00061,0,0
59.166668,2000,0,91.24,0.000002697398,0.000002697398,0.000002697398,0.99999994,0,0,0,0,0,0,0.4015748,0,0,0,0,false,false,false,0,76.31,17.01,-0.003347471,0.0033582605,0.7070959,0.70710164,0,294.851,8.321,-0.00061,0,0
59.175,2000,0,91.24,0.000002697398,0.000002697398,0.000002697398,0.99999994,0,0,0,0,0,0,0.4015748,0,0,0,0,false,false,false,0,78.77,17.01,-0.003347471,0.0033582605,0.7070959,0.70710164,0,299.191,8.321,-0.00061,0,0
59.183334,2000,0,91.24,0.000002697398,0.000002697398,0.000002697398,0.99999994,0,0,0,0,0,0,0.4015748,0,0,0,0,false,false,false,0,81.259995,17.01,-0.003347471,0.0033582605,0.7070959,0.70710164,0,303.511,8.321,-0.00061,0,0
59.191666,2000,0,91.24,0.000002697398,0.000002697398,0.000002697398,0.99999994,0,0,0,0,0,0,0.4015748,0,0,0,0,false,false,false,0,83.79,17.01,-0.003347471,0.0033582605,0.7070959,0.70710164,0,307.821,8.321,-0.00061,0,0
59.2,2000,0,91.24,0.000002697398,0.000002697398,0.000002697398,0.99999994,0,0,0,0,0,0,0.4015748,0,0,0,0,false,false,false,0,86.36,17.01,-0.003347471,0.0033582605,0.7070959,0.70710164,0,312.111,8.321,-0.00061,0,0
59.208332,2000,0,91.24,0.000002697398,0.000002697398,0.000002697398,0.99999994,0,0,0,0,0,0,0.4015748,0,0,0,0,false,false,false,0,88.96,17.01,-0.003347471,0.0033582605,0.7070959,0.70710164,0,316.391,8.321,-0.00061,0,0
59.216667,2000,0,91.24,0.000002697398,0.000002697398,0.000002697398,0.99999994,0,0,0,0,0,0,0.4015748,0,0,0,0,false,false,false,0,91.6,17.01,-0.003347471,0.0033582605,0.7070959,0.70710164,0,320.651,8.321,-0.00061,0,0
59.225,2000,0,91.24,0.000002697398,0.000002697398,0.000002697398,0.99999994,0,0,0,0,0,0,0.4015748,0,0,0,0,false,false,false,0,94.27,17.01,-0.003347471,0.0033582605,0.7070959,0.70710164,0,324.901,8.321,-0.00061,0,0
59.233334,2000,0,91.24,0.000002697398,0.000002697398,0.000002697398,0.99999994,0,0,0,0,0,0,0.4015748,0,0,0,0,false,false,false,0,96.979996,17.01,-0.003347471,0.0033582605,0.7070959,0.70710164,0,329.131,8.321,-0.00061,0,0
59.241665,2000,0,91.24,0.000002697398,0.000002697398,0.000002697398,0.99999994,0,0,0,0,0,0,0.4015748,0,0,0,0,false,false,false,0,99.72,17.01,-0.003347471,0.0033582605,0.7070959,0.70710164,0,333.351,8.321,-0.00061,0,0
59.25,2000,0,91.24,0.000002697398,0.000002697398,0.000002697398,0.99999994,0,0,0,0,0,0,0.4015748,0,0,0,0,false,false,false,0,102.5,17.01,-0.003347471,0.0033582605,0.7070959,0.70710164,0,337.551,8.321,-0.00061,0,0
59.258335,2000,0,91.24,0.000002697398,0.000002697398,0.000002697398,0.99999994,0,0,0,0,0,0,0.4015748,0,0,0,0,false,false,false,0,105.31,17.01,-0.003347471,0.0033582605,0.7070959,0.70710164,0,341.741,8.321,-0.00061,0,0
59.266666,2000,0,91.24,0.000002697398,0.000002697398,0.000002697398,0.99999994,0,0,0,0,0,0,0.4015748,0,0,0,0,false,false,false,0,108.159996,17.01,-0.003347471,0.0033582605,0.7070959,0.70710164,0,345.911,8.321,-0.00061,0,0
59.275,2000,0,91.24,0.000002697398,0.000002697398,0.000002697398,0.99999994,0,0,0,0,0,0,0.4015748,0,0,0,0,false,false,false,0,111.04,17.01,-0.003347471,0.0033582605,0.7070959,0.70710164,0,350.071,8.321,-0.00061,0,0
59.283333,2000,0,91.24,0.000002697398,0.000002697398,0.000002697398,0.99999994,0,0,0,0,0,0,0.4015748,0,0,0,0,false,false,false,0,113.96,17.01,-0.003347471,0.0033582605,0.7070959,0.70710164,0,354.221,8.321,-0.00061,0,0
59.291668,2000,0,91.24,0.000002697398,0.000002697398,0.000002697398,0.99999994,0,0,0,0,0,0,0.4015748,0,0,0,0,false,false,false,0,116.909996,17.01,-0.003347471,0.0033582605,0.7070959,0.70710164,0,358.351,8.321,-0.00061,0,0
59.3,2000,0,91.24,0.000002697398,0.000002697398,0.000002697398,0.99999994,0,0,0,0,0,0,0.4015748,0,0,0,0,false,false,false,0,119.899994,17.01,-0.003347471,0.0033582605,0.7070959,0.70710164,0,362.471,8.321,-0.00061,0,0
59.308334,2000,0,91.24,0.000002697398,0.000002697398,0.000002697398,0.99999994,0,0,0,0,0,0,0.4015748,0,0,0,0,false,false,false,0,122.92,17.01,-0.003347471,0.0033582605,0.7070959,0.70710164,0,366.57098,8.321,-0.00061,0,0
59.316666,2000,0,91.24,0.000002697398,0.000002697398,0.000002697398,0.99999994,0,0,0,0,0,0,0.4015748,0,0,0,0,false,false,false,0,125.96999,17.01,-0.003347471,0.0033582605,0.7070959,0.70710164,0,370.661,8.321,-0.00061,0,0
59.325,2000,0,91.24,0.000002697398,0.000002697398,0.000002697398,0.99999994,0,0,0,0,0,0,0.4015748,0,0,0,0,false,false,false,0,129.06,17.01,-0.003347471,0.0033582605,0.7070959,0.70710164,0,374.731,8.321,-0.00061,0,0
59.333332,2000,0,91.24,0.000002697398,0.000002697398,0.000002697398,0.99999994,0,0,0,0,0,0,0.4015748,0,0,0,0,false,false,false,0,132.18,17.01,-0.003347471,0.0033582605,0.7070959,0.70710164,0,378.791,8.321,-0.00061,0,0
59.341667,2000,0,91.24,0.000002697398,0.000002697398,0.000002697398,0.99999994,0,0,0,0,0,0,0.4015748,0,0,0,0,false,false,false,0,135.34,17.01,-0.003347471,0.0033582605,0.7070959,0.70710164,0,382.841,8.321,-0.00061,0,0
59.35,2000,0,91.24,0.000002697398,0.000002697398,0.000002697398,0.99999994,0,0,0,0,0,0,0.4015748,0,0,0,0,false,false,false,0,138.53,17.01,-0.003347471,0.0033582605,0.7070959,0.70710164,0,386.871,8.321,-0.00061,0,0
59.358334,2000,0,91.24,0.000002697398,0.000002697398,0.000002697398,0.99999994,0,0,0,0,0,0,0.4015748,0,0,0,0,false,false,false,0,141.75,17.01,-0.003347471,0.0033582605,0.7070959,0.70710164,0,390.891,8.321,-0.00061,0,0
59.366665,2000,0,91.24,0.000002697398,0.000002697398,0.000002697398,0.99999994,0,0,0,0,0,0,0.4015748,0,0,0,0,false,false,false,0,145.01,17.01,-0.003347471,0.0033582605,0.7070959,0.70710164,0,394.891,8.321,-0.00061,0,0
59.375,2000,0,91.24,0.000002697398,0.000002697398,0.000002697398,0.99999994,0,0,0,0,0,0,0.4015748,0,0,0,0,false,false,false,0,148.3,17.01,-0.003347471,0.0033582605,0.7070959,0.70710164,0,398.881,8.321,-0.00061,0,0
59.383335,2000,0,91.24,0.000002697398,0.000002697398,0.000002697398,0.99999994,0,0,0,0,0,0,0.4015748,0,0,0,0,false,false,false,0,151.62,17.01,-0.003347471,0.0033582605,0.7070959,0.70710164,0,402.861,8.321,-0.00061,0,0
59.391666,2000,0,91.24,0.000002697398,0.000002697398,0.000002697398,0.99999994,0,0,0,0,0,0,1,1,0,0,0,false,false,true,0,154.98,17.01,-0.003347471,0.0033582605,0.7070959,0.70710164,-11.711,408.451,8.351,-0.00040999998,0.00291,0.31731
59.4,2000,0,91.24,0.000002697398,0.000002697398,0.000002697398,0.99999994,0,0,0,0,0,0,1,1,0,0,0,false,false,true,-0.099999994,158.37999,17.01,-0.0033420762,0.0033636554,0.7080283,0.706168,-19.931,415.141,8.361,-0.00030999997,0.00381,0.53881
59.408333,2000,0,91.24,0.000002697398,0.000002697398,0.000002697398,0.99999994,0,0,0,0,0,0,1,1,0,0,0,false,false,true,-0.26999998,161.84,17.01,-0.0033366815,0.00336905,0.7096121,0.70457655,-27.321,421.921,8.361,-0.00021,0.00391,0.73221
59.416668,2000,0,91.24,0.000002697398,0.000002697398,0.000002697398,0.99999994,0,0,0,0,0,0,1,1,0,0,0,false,false,true,-0.5,165.36,17.01,-0.0033366815,0.00336905,0.7117588,0.70240784,-34.080997,428.731,8.361,-0.00021,0.00361,0.90051
59.425,2000,0,91.24,0.000002697398,0.000002697398,0.000002697398,0.99999994,0,0,0,0,0,0,1,1,0,0,0,false,false,true,-0.78,168.93,17.01,-0.0033366815,0.00336905,0.71438956,0.699732,-40.371,435.501,8.361,-0.00021,0.00311,1.04671
59.433334,2000,0,91.24,0.000002697398,0.000002697398,0.000002697398,0.99999994,0,0,0,0,0,0,1,1,0,0,0,false,false,true,-1.12,172.56,17.01,-0.0033420762,0.0033636554,0.7174357,0.6966084,-46.330997,442.191,8.351,-0.00021,0.00251,1.17391
59.441666,2000,0,91.24,0.000002697398,0.000002697398,0.000002697398,0.99999994,0,0,0,0,0,0,1,1,0,0,0,false,false,true,-1.51,176.23999,17.01,-0.003352866,0.003352866,0.7208345,0.693091,-52.051,448.761,8.351,-0.00021,0.0018099999,1.28491
59.45,2000,0,91.24,0.000002697398,0.000002697398,0.000002697398,0.99999994,0,0,0,0,0,0,1,1,0,0,0,false,false,true,-1.9399999,179.98,17.01,-0.0033636554,0.0033420762,0.7245338,0.6892229,-57.611,455.181,8.351,-0.00021,0.0012099999,1.38201
59.458332,2000,0,91.24,0.000002697398,0.000002697398,0.000002697398,0.99999994,0,0,0,0,0,0,1,1,0,0,0,false,false,true,-2.4199998,183.76999,17.01,-0.0033798397,0.003325892,0.72849315,0.68503654,-63.071,461.421,8.341001,-0.00021,0.00061,1.46741
59.466667,2000,0,91.24,0.000002697398,0.000002697398,0.000002697398,0.99999994,0,0,0,0,0,0,1,1,0,0,0,false,false,true,-2.95,187.62,17.01,-0.003401419,0.0033097074,0.7326679,0.68056965,-68.480995,467.461,8.341001,-0.00021,0.00010999999,1.54301
59.475,2000,0,91.24,0.000002697398,0.000002697398,0.000002697398,0.99999994,0,0,0,0,0,0,1,1,0,0,0,false,false,true,-3.52,191.51999,17.01,-0.0034229984,0.0032881284,0.73702955,0.67584383,-73.861,473.291,8.341001,-0.00021,-0.00021,1.61021
59.483334,2000,0,91.24,0.000002697398,0.000002697398,0.000002697398,0.99999994,0,0,0,0,0,0,1,1,0,0,0,false,false,true,-4.14,195.45999,17.01,-0.0034445773,0.003266549,0.7415453,0.67088586,-79.221,478.891,8.341001,-0.00021,-0.00040999998,1.6704099
59.491665,2000,0,91.24,0.000002697398,0.000002697398,0.000002697398,0.99999994,0,0,0,0,0,0,1,1,0,0,0,false,false,true,-4.7999997,199.45,17.01,-0.0034715515,0.0032395753,0.7461982,0.66570693,-84.561,484.261,8.341001,-0.00021,-0.00061,1.72471
59.5,2000,0,91.24,0.000002697398,0.000002697398,0.000002697398,0.99999994,0,0,0,0,0,0,1,1,0,0,0,false,false,true,-5.5,203.48999,17.01,-0.0034985254,0.0032126012,0.75096196,0.66032827,-89.881,489.401,8.341001,-0.00021,-0.00081,1.77401
59.508335,2000,0,91.24,0.000002697398,0.000002697398,0.000002697398,0.99999994,0,0,0,0,0,0,1,1,0,0,0,false,false,true,-6.25,207.56999,17.01,-0.0035254993,0.003185627,0.75582105,0.65476084,-95.160995,494.311,8.341001,-0.00021,-0.00091,1.8191099
59.516666,2000,0,91.24,0.000002697398,0.000002697398,0.000002697398,0.99999994,0,0,0,0,0,0,1,1,0,0,0,false,false,true,-7.04,211.69,17.01,-0.0035524734,0.0031586532,0.76076037,0.6490153,-100.391,498.991,8.331,-0.00010999999,-0.0010099999,1.86061
59.525,2000,0,91.24,0.000002697398,0.000002697398,0.000002697398,0.99999994,0,0,0,0,0,0,1,1,0,0,0,false,false,true,-7.8799996,215.84999,17.01,-0.0035794473,0.0031262843,0.7657697,0.6430972,-105.541,503.451,8.331,-0.00010999999,-0.0010099999,1.89901
59.533333,2000,0,91.24,0.000002697398,0.000002697398,0.000002697398,0.99999994,0,0,0,0,0,0,1,1,0,0,0,false,false,true,-8.76,220.04999,17.01,-0.0036064212,0.0030939155,0.7708348,0.63701725,-110.58099,507.711,8.331,-0.00010999999,-0.0010099999,1.9347099
59.541668,2000,0,91.24,0.000002697398,0.000002697398,0.000002697398,0.99999994,0,0,0,0,0,0,1,1,0,0,0,false,false,true,-9.679999,224.28,17.01,-0.0036333953,0.0030615467,0.7759464,0.6307809,-115.471,511.791,8.331,-0.00010999999,-0.0010099999,1.96801
59.55,2000,0,91.24,0.000002697398,0.000002697398,0.000002697398,0.99999994,0,0,0,0,0,0,1,1,0,0,0,false,false,true,-10.639999,228.54,17.01,-0.0036603692,0.003029178,0.78109115,0.62439877,-120.171,515.71094,8.331,-0.00010999999,-0.0010099999,1.99921
59.558334,2000,0,91.24,0.000002697398,0.000002697398,0.000002697398,0.99999994,0,0,0,0,0,0,1,1,0,0,0,false,false,true,-11.639999,232.84,17.01,-0.003687343,0.0029968093,0.78626496,0.61787105,-124.641,519.501,8.331,-0.00010999999,-0.0010099999,2.02841
59.566666,2000,0,91.24,0.000002697398,0.000002697398,0.000002697398,0.99999994,0,0,0,0,0,0,1,1,0,0,0,false,false,true,-12.679999,237.17,17.01,-0.0037143168,0.0029644403,0.79145944,0.611203,-128.83101,523.191,8.331,-0.00010999999,-0.0010099999,2.05581
59.575,2000,0,91.24,0.000002697398,0.000002697398,0.000002697398,0.99999994,0,0,0,0,0,0,1,1,0,0,0,false,false,true,-13.75,241.53,17.01,-0.0037412911,0.0029320717,0.7966666,0.60440016,-132.681,526.821,8.331,-0.00010999999,-0.0010099999,2.08151
59.583332,2000,0,91.24,0.000002697398,0.000002697398,0.000002697398,0.99999994,0,0,0,0,0,0,1,1,0,0,0,false,false,true,-14.86,245.92,17.01,-0.0037682652,0.0028997029,0.8018787,0.59746784,-136.141,530.43097,8.321,-0.00010999999,-0.0010099999,2.10571
59.591667,2000,0,91.24,0.000002697398,0.000002697398,0.000002697398,0.99999994,0,0,0,0,0,0,1,1,0,0,0,false,false,true,-15.99,250.34,17.01,-0.0037952394,0.0028619396,0.8070884,0.5904115,-139.77101,533.951,8.321,-0.00010999999,-0.0010099999,2.12971
59.6,2000,0,91.24,0.000002697398,0.000002697398,0.000002697398,0.99999994,0,0,0,0,0,0,1,1,0,0,0,false,false,true,-17.15,254.79,17.01,-0.003822213,0.0028241756,0.8122963,0.5832255,-143.55101,537.371,8.321,-0.00010999999,-0.0010099999,2.15361
59.608334,2000,0,91.24,0.000002697398,0.000002697398,0.000002697398,0.99999994,0,0,0,0,0,0,1,1,0,0,0,false,false,true,-18.35,259.27,17.01,-0.0038491872,0.0027864121,0.8174953,0.5759155,-147.491,540.691,8.321,-0.00010999999,-0.00091,2.17731
59.616665,2000,0,91.24,0.000002697398,0.000002697398,0.000002697398,0.99999994,0,0,0,0,0,0,1,1,0,0,0,false,false,true,-19.58,263.78,17.01,-0.0038761613,0.0027486489,0.82268596,0.5684762,-151.591,543.90094,8.321,-0.00010999999,-0.00081,2.2009099
59.625,2000,0,91.24,0.000002697398,0.000002697398,0.000002697398,0.99999994,0,0,0,0,0,0,1,1,0,0,0,false,false,true,-20.84,268.31,17.01,-0.003903135,0.002710885,0.827865,0.5609071,-155.841,547.001,8.321,-0.00010999999,-0.00081,2.22441
59.633335,2000,0,91.24,0.000002697398,0.000002697398,0.000002697398,0.99999994,0,0,0,0,0,0,1,1,0,0,0,false,false,true,-22.14,272.87,17.01,-0.003930108,0.0026731212,0.833029,0.5532087,-160.241,549.98096,8.321,-0.00010999999,-0.00071,2.24771
59.641666,2000,0,91.24,0.000002697398,0.000002697398,0.000002697398,0.99999994,0,0,0,0,0,0,1,1,0,0,0,false,false,true,-23.48,277.44998,17.01,-0.0039570834,0.0026353581,0.83817476,0.54538095,-164.781,552.831,8.321,-0.00010999999,-0.00071,2.27091
59.65,2000,0,91.24,0.000002697398,0.000002697398,0.000002697398,0.99999994,0,0,0,0,0,0,1,1,0,0,0,false,false,true,-24.85,282.06,17.01,-0.003984057,0.0025975944,0.84329903,0.5374235,-169.461,555.561,8.321,-0.00010999999,-0.00061,2.29401
59.658333,2000,0,91.24,0.000002697398,0.000002697398,0.000002697398,0.99999994,0,0,0,0,0,0,1,1,0,0,0,false,false,true,-26.26,286.69,17.01,-0.0040110312,0.002559831,0.84839845,0.52933675,-174.281,558.15094,8.321,-0.00010999999,-0.00061,2.31691
59.666668,2000,0,91.24,0.000002697398,0.000002697398,0.000002697398,0.99999994,0,0,0,0,0,0,1,1,0,0,0,false,false,true,-27.71,291.34,17.01,-0.004038005,0.0025220674,0.8534698,0.5211205,-179.241,560.61096,8.321,-0.00010999999,-0.00051,2.33971
59.675,2000,0,91.24,0.000002697398,0.000002697398,0.000002697398,0.99999994,0,0,0,0,0,0,1,1,0,0,0,false,false,true,-29.199999,296.00998,17.01,-0.0040649786,0.0024843037,0.85850996,0.5127746,-184.33101,562.93097,8.321,0,-0.00051,2.36241
59.683334,2000,0,91.24,0.000002697398,0.000002697398,0.000002697398,0.99999994,0,0,0,0,0,0,1,1,0,0,0,false,false,true,-30.74,300.69998,17.01,-0.0040919525,0.0024411452,0.8635157,0.50429934,-189.55101,565.10095,8.321,0,-0.00051,2.3849099
59.691666,2000,0,91.24,0.000002697398,0.000002697398,0.000002697398,0.99999994,0,0,0,0,0,0,1,1,0,0,0,false,false,true,-32.32,305.41,17.01,-0.0041189273,0.002397987,0.8684838,0.49569464,-194.901,567.121,8.321,0,-0.00040999998,2.40731
59.7,2000,0,91.24,0.000002697398,0.000002697398,0.000002697398,0.99999994,0,0,0,0,0,0,1,1,0,0,0,false,false,true,-33.94,310.13998,17.01,-0.0041459003,0.0023548282,0.8734109,0.48696038,-200.371,568.99097,8.321,0,-0.00030999997,2.42961
59.708332,2000,0,91.24,0.000002697398,0.000002697398,0.000002697398,0.99999994,0,0,0,0,0,0,1,1,0,0,0,false,false,true,-35.61,314.88,17.01,-0.004172875,0.0023116702,0.8782971,0.47809142,-205.951,570.701,8.321,0,-0.00021,2.45181
59.716667,2000,0,91.24,0.000002697398,0.000002697398,0.000002697398,0.99999994,0,0,0,0,0,0,1,1,0,0,0,false,false,true,-37.329998,319.63998,17.01,-0.0041944534,0.0022685116,0.88313586,0.46909273,-211.651,572.251,8.321,0,-0.00010999999,2.47381
59.725,2000,0,91.24,0.000002697398,0.000002697398,0.000002697398,0.99999994,0,0,0,0,0,0,1,1,0,0,0,false,false,true,-39.09,324.41,17.01,-0.004216033,0.0022253534,0.8879243,0.45996478,-217.451,573.631,8.321,0,-0.00010999999,2.49571
59.733334,2000,0,91.24,0.000002697398,0.000002697398,0.000002697398,0.99999994,0,0,0,0,0,0,1,1,0,0,0,false,false,true,-40.899998,329.19,17.01,-0.0042376127,0.0021821952,0.89265907,0.45070726,-223.36101,574.85095,8.321,0,-0.00010999999,2.51751
59.741665,2000,0,91.24,0.000002697398,0.000002697398,0.000002697398,0.99999994,0,0,0,0,0,0,1,1,0,0,0,false,false,true,-42.76,333.97998,17.01,-0.004259191,0.0021390363,0.89733684,0.44132024,-229.371,575.891,8.321,0,-0.00010999999,2.5392098
59.75,2000,0,91.24,0.000002697398,0.000002697398,0.000002697398,0.99999994,0,0,0,0,0,0,1,1,0,0,0,false,false,true,-44.67,338.78,17.01,-0.0042807707,0.0020958781,0.9019549,0.43180385,-235.47101,576.761,8.321,0,-0.00010999999,2.56071
59.758335,2000,0,91.24,0.000002697398,0.000002697398,0.000002697398,0.99999994,0,0,0,0,0,0,1,1,0,0,0,false,false,true,-46.629997,343.59,17.01,-0.0043023494,0.0020473248,0.90650964,0.42215782,-241.661,577.451,8.321,0,-0.00021,2.58211
59.766666,2000,0,91.24,0.000002697398,0.000002697398,0.000002697398,0.99999994,0,0,0,0,0,0,1,1,0,0,0,false,false,true,-48.64,348.4,17.01,-0.0043239295,0.0019987721,0.9109983,0.41238254,-247.941,577.96094,8.321,0,-0.00021,2.60341
59.775,2000,0,91.24,0.000002697398,0.000002697398,0.000002697398,0.99999994,0,0,0,0,0,0,1,1,0,0,0,false,false,true,-50.71,353.22,17.01,-0.0043455083,0.0019502188,0.9154174,0.4024776,-254.301,578.28094,8.321,0,-0.00021,2.62461
59.783333,2000,0,91.24,0.000002697398,0.000002697398,0.000002697398,0.99999994,0,0,0,0,0,0,1,1,0,0,0,false,false,true,-52.829998,358.03998,17.01,-0.0043670875,0.0019016657,0.9197638,0.39244327,-260.731,578.42096,8.321,0,-0.00021,2.6456099
59.791668,2000,0,91.24,0.000002697398,0.000002697398,0.000002697398,0.99999994,0,0,0,0,0,0,1,1,0,0,0,false,false,true,-55,362.86,17.01,-0.0043886667,0.0018531125,0.9240344,0.3822794,-267.231,578.371,8.321,0,-0.00021,2.6665099
59.8,2000,0,91.24,0.000002697398,0.000002697398,0.000002697398,0.99999994,0,0,0,0,0,0,1,1,0,0,0,false,false,true,-57.23,367.68,17.01,-0.004410246,0.0018045595,0.92822385,0.37199154,-273.801,578.121,8.321,0,-0.00021,2.68731
59.808334,2000,0,91.24,0.000002697398,0.000002697398,0.000002697398,0.99999994,0,0,0,0,0,0,1,1,0,0,0,false,false,true,-59.51,372.5,17.01,-0.004431825,0.0017560063,0.93233114,0.36157408,-280.421,577.68097,8.321,0,-0.00021,2.70801
59.816666,2000,0,91.24,0.000002697398,0.000002697398,0.000002697398,0.99999994,0,0,0,0,0,0,1,1,0,0,0,false,false,true,-61.85,377.31,17.01,-0.004453404,0.0017074529,0.936351,0.35103264,-287.101,577.04095,8.321,0,-0.00021,2.72861
59.825,2000,0,91.24,0.000002697398,0.000002697398,0.000002697398,0.99999994,0,0,0,0,0,0,1,1,0,0,0,false,false,true,-64.24,382.12,17.01,-0.004474983,0.0016588998,0.9402805,0.34036705,-293.821,576.21094,8.321,0,-0.00010999999,2.74911
59.833332,2000,0,91.24,0.000002697398,0.000002697398,0.000002697398,0.99999994,0,0,0,0,0,0,1,1,0,0,0,false,false,true,-66.689995,386.91998,17.01,-0.0044965628,0.0016049519,0.9441183,0.32957208,-300.591,575.18097,8.321,0,-0.00010999999,2.76941
59.841667,2000,0,91.24,0.000002697398,0.000002697398,0.000002697398,0.99999994,0,0,0,0,0,0,1,1,0,0,0,false,false,true,-69.189995,391.71,17.01,-0.0045127473,0.001551004,0.9478576,0.31865832,-307.391,573.951,8.321,0,0,2.78961
59.85,2000,0,91.24,0.000002697398,0.000002697398,0.000002697398,0.99999994,0,0,0,0,0,0,1,1,0,0,0,false,false,true,-71.75,396.49,17.01,-0.0045289313,0.0014970559,0.9514971,0.30762053,-314.221,572.511,8.321,0,0,2.80971
59.858334,2000,0,91.24,0.000002697398,0.000002697398,0.000002697398,0.99999994,0,0,0,0,0,0,1,1,0,0,0,false,false,true,-74.369995,401.25998,17.01,-0.0045451154,0.001443108,0.9550337,0.29645863,-321.081,570.871,8.321,0,0,2.82971
59.866665,2000,0,91.24,0.000002697398,0.000002697398,0.000002697398,0.99999994,0,0,0,0,0,0,1,1,0,0,0,false,false,true,-77.049995,406.02,17.01,-0.0045612995,0.0013891598,0.95846254,0.28517807,-327.961,569.03094,8.321,0,0,2.8496099
59.875,2000,0,91.24,0.000002697398,0.000002697398,0.000002697398,0.99999994,0,0,0,0,0,0,1,1,0,0,0,false,false,true,-79.78,410.75998,17.01,-0.0045774844,0.001335212,0.9617808,0.27377883,-334.851,566.98096,8.321,0,0,2.86941
59.883335,2000,0,91.24,0.000002697398,0.000002697398,0.000002697398,0.99999994,0,0,0,0,0,0,1,1,0,0,0,false,false,true,-82.57,415.47998,17.01,-0.0045936694,0.0012812641,0.9649852,0.26226094,-341.751,564.73096,8.321,0,0,2.8891098
59.891666,2000,0,91.24,0.000002697398,0.000002697398,0.000002697398,0.99999994,0,0,0,0,0,0,1,1,0,0,0,false,false,true,-85.42,420.19,17.01,-0.004609853,0.0012273161,0.9680726,0.25062427,-348.651,562.27094,8.321,0,0,2.90871
59.9,2000,0,91.24,0.000002697398,0.000002697398,0.000002697398,0.99999994,0,0,0,0,0,0,1,1,0,0,0,false,false,true,-88.33,424.88,17.01,-0.0046260376,0.0011733681,0.9710387,0.2388744,-355.551,559.61096,8.321,0,0,2.92821
59.908333,2000,0,91.24,0.000002697398,0.000002697398,0.000002697398,0.99999994,0,0,0,0,0,0,1,1,0,0,0,false,false,true,-91.29,429.53998,17.01,-0.0046422216,0.00111942,0.9738803,0.22701114,-362.441,556.74097,8.321,0,0,2.94761
59.916668,2000,0,91.24,0.000002697398,0.000002697398,0.000002697398,0.99999994,0,0,0,0,0,0,1,1,0,0,0,false,false,true,-94.31,434.18,17.01,-0.0046530114,0.0010600775,0.9765947,0.21503472,-369.311,553.67096,8.321,0.00010999999,0,2.96691
59.925,2000,0,91.24,0.000002697398,0.000002697398,0.000002697398,0.99999994,0,0,0,0,0,0,1,1,0,0,0,false,false,true,-97.39,438.78998,17.01,-0.0046638013,0.0010007346,0.9791785,0.20294489,-376.161,550.40094,8.321,0.00010999999,0,2.98611
59.933334,2000,0,91.24,0.000002697398,0.000002697398,0.000002697398,0.99999994,0,0,0,0,0,0,1,1,0,0,0,false,false,true,-100.52,443.38,17.01,-0.004674591,0.000941392,0.9816276,0.19074728,-382.991,546.92096,8.321,0.00010999999,0,3.00521
59.941666,2000,0,91.24,0.000002697398,0.000002697398,0.000002697398,0.99999994,0,0,0,0,0,0,1,1,0,0,0,false,false,true,-103.71,447.94,17.01,-0.0046853805,0.00088204915,0.9839389,0.17844164,-389.781,543.24097,8.321,0.00010999999,0,3.02421
59.95,2000,0,91.24,0.000002697398,0.000002697398,0.000002697398,0.99999994,0,0,0,0,0,0,1,1,0,0,0,false,false,true,-106.96,452.47,17.01,-0.00469617,0.00082270644,0.98610944,0.16602822,-396.541,539.36096,8.321,0.00010999999,0,3.04311
59.958332,2000,0,91.24,0.000002697398,0.000002697398,0.000002697398,0.99999994,0,0,0,0,0,0,1,1,0,0,0,false,false,true,-110.259995,456.96,17.01,-0.00470696,0.0007633637,0.9881352,0.15351222,-403.251,535.28094,8.321,0.00010999999,0,3.06191
59.966667,2000,0,91.24,0.000002697398,0.000002697398,0.000002697398,0.99999994,0,0,0,0,0,0,1,1,0,0,0,false,false,true,-113.619995,461.41998,17.01,-0.004717749,0.0007040209,0.9900132,0.1408937,-409.921,531.001,8.321,0.00010999999,0,3.08061
59.975,2000,0,91.24,0.000002697398,0.000002697398,0.000002697398,0.99999994,0,0,0,0,0,0,1,1,0,0,0,false,false,true,-117.04,465.84,17.01,-0.004728538,0.0006446781,0.9917402,0.12817276,-416.531,526.52094,8.321,0.00010999999,0,3.09921
59.983334,2000,0,91.24,0.000002697398,0.000002697398,0.000002697398,0.99999994,0,0,0,0,0,0,1,1,0,0,0,false,false,true,-120.509995,470.22998,17.01,-0.004733934,0.0005853354,0.9933129,0.11535466,-423.081,521.85095,8.321,0.00010999999,0,3.1177099
59.991665,2000,0,91.24,0.000002697398,0.000002697398,0.000002697398,0.99999994,0,0,0,0,0,0,1,1,0,0,0,false,false,true,-124.04,474.58,17.01,-0.0047393288,0.00052599265,0.9947278,0.102439515,-429.57098,516.98096,8.321,0.00010999999,0,3.13621
60,2000,0,91.24,0.000002697398,0.000002697398,0.000002697398,0.99999994,0,0,0,0,0,0,1,1,0,0,0,false,false,true,-127.619995,478.88998,17.01,-0.0047447234,0.0004612551,0.99598145,0.089432575,-435.991,511.921,8.321,0.00010999999,0,3.15461
60.008335,2000,0,91.24,0.000002697398,0.000002697398,0.000002697398,0.99999994,0,0,0,0,0,0,1,1,0,0,0,false,false,true,-131.25,483.16,17.01,-0.0047501177,0.0003965175,0.99707085,0.07633392,-442.341,506.671,8.321,0.00010999999,0,3.17291
60.016666,2000,0,91.24,0.000002697398,0.000002697398,0.000002697398,0.99999994,0,0,0,0,0,0,1,1,0,0,0,false,false,true,-134.94,487.37997,17.01,-0.004755513,0.00033177997,0.997993,0.06314364,-448.611,501.231,8.321,0.00010999999,0,3.19111
60.025,2000,0,91.24,0.000002697398,0.000002697398,0.000002697398,0.99999994,0,0,0,0,0,0,1,1,0,0,0,false,false,true,-138.68,491.56,17.01,-0.004760908,0.00026704243,0.9987445,0.04986697,-454.801,495.611,8.321,0.00010999999,0,3.2093098
60.033333,2000,0,91.24,0.000002697398,0.000002697398,0.000002697398,0.99999994,0,0,0,0,0,0,1,1,0,0,0,false,false,true,-142.47,495.69,17.01,-0.0047663017,0.00020230484,0.99932176,0.036509447,-460.901,489.801,8.321,0,0,3.2274098
60.041668,2000,0,91.24,0.000002697398,0.000002697398,0.000002697398,0.99999994,0,0,0,0,0,0,1,1,0,0,0,false,false,true,-146.31,499.77,17.01,-0.004766302,0.0001375673,0.99972254,0.023065535,-466.911,483.811,8.321,0,0,3.24541
60.05,2000,0,91.24,0.000002697398,0.000002697398,0.000002697398,0.99999994,0,0,0,0,0,0,1,1,0,0,0,false,false,true,-150.2,503.8,17.01,-0.004766302,0.000072829745,0.999943,0.009546092,-472.831,477.641,8.321,0,0,3.26331
60.058334,2000,0,91.24,0.000002697398,0.000002697398,0.000002697398,0.99999994,0,0,0,0,0,0,1,1,0,0,0,false,false,true,-154.14,507.78,17.01,-0.004766302,0.000008092194,0.9999804,-0.0040487945,-478.651,471.301,8.321,0,0,3.28121
60.066666,2000,0,91.24,0.000002697398,0.000002697398,0.000002697398,0.99999994,0,0,0,0,0,0,1,1,0,0,0,false,false,true,-158.12999,511.71,17.01,-0.0047663026,-0.000056645364,0.9998316,-0.017719293,-484.361,464.791,8.321,0,0,3.29901
60.075,2000,0,91.24,0.000002697398,0.000002697398,0.000002697398,0.99999994,0,0,0,0,0,0,1,1,0,0,0,false,false,true,-162.17,515.58,17.01,-0.004766302,-0.00012138292,0.9994936,-0.03145988,-489.961,458.111,8.321,0,0,3.31681
60.083332,2000,0,91.24,0.000002697398,0.000002697398,0.000002697398,0.99999994,0,0,0,0,0,0,1,1,0,0,0,false,false,true,-166.25,519.39996,17.01,-0.004766302,-0.00018612047,0.9989633,-0.0452706,-495.451,451.261,8.321,0,0,3.3345098
60.091667,2000,0,91.24,0.000002697398,0.000002697398,0.000002697398,0.99999994,0,0,0,0,0,0,1,1,0,0,0,false,false,true,-170.37999,523.16,17.01,-0.0047609075,-0.00025085802,0.9982379,-0.059146058,-500.831,444.241,8.321,0,0,3.35211
60.1,2000,0,91.24,0.000002697398,0.000002697398,0.000002697398,0.99999994,0,0,0,0,0,0,1,1,0,0,0,false,false,true,-174.55,526.86,17.01,-0.004755513,-0.00031559556,0.9973146,-0.0730809,-506.091,437.061,8.321,0,0,3.36971
60.108334,2000,0,91.24,0.000002697398,0.000002697398,0.000002697398,0.99999994,0,0,0,0,0,0,1,1,0,0,0,false,false,true,-178.76999,530.5,17.01,-0.0047501177,-0.00038033313,0.9961903,-0.08707504,-511.231,429.721,8.321,0,0,3.38721
60.116665,2000,0,91.24,0.000002697398,0.000002697398,0.000002697398,0.99999994,0,0,0,0,0,0,1,1,0,0,0,false,false,true,-183.03,534.08,17.01,-0.004744723,-0.00044507068,0.99486244,-0.10112313,-516.24097,422.221,8.321,0,0,3.4047098
60.125,2000,0,91.24,0.000002697398,0.000002697398,0.000002697398,0.99999994,0,0,0,0,0,0,1,1,0,0,0,false,false,true,-187.33,537.6,17.01,-0.0047393283,-0.0005098082,0.9933279,-0.11522517,-521.131,414.57098,8.321,0,0,3.4221098
60.133335,2000,0,91.24,0.000002697398,0.000002697398,0.000002697398,0.99999994,0,0,0,0,0,0,1,1,0,0,0,false,false,true,-191.67,541.05,17.01,-0.004733934,-0.0005799406,0.9915841,-0.12937582,-525.891,406.771,8.321,0,0,3.4395099
60.141666,2000,0,91.24,0.000002697398,0.000002697398,0.000002697398,0.99999994,0,0,0,0,0,0,1,1,0,0,0,false,false,true,-196.05,544.44,17.01,-0.0047231438,-0.00065007294,0.9896279,-0.14357495,-530.511,398.82098,8.321,0,0.00010999999,3.45681
60.15,2000,0,91.24,0.000002697398,0.000002697398,0.000002697398,0.99999994,0,0,0,0,0,0,1,1,0,0,0,false,false,true,-200.47,547.76,17.01,-0.004712355,-0.0007202053,0.98745763,-0.15781188,-535.001,390.721,8.321,0,0.00010999999,3.47411
60.158333,2000,0,91.24,0.000002697398,0.000002697398,0.000002697398,0.99999994,0,0,0,0,0,0,1,1,0,0,0,false,false,true,-204.93,551.01996,17.01,-0.0047015646,-0.0007903376,0.9850702,-0.17208658,-539.35095,382.481,8.321,0,0.00010999999,3.49131
60.166668,2000,0,91.24,0.000002697398,0.000002697398,0.000002697398,0.99999994,0,0,0,0,0,0,1,1,0,0,0,false,false,true,-209.42,554.20996,17.01,-0.004690775,-0.00086047,0.98246247,-0.18639901,-543.561,374.101,8.321,0,0.00010999999,3.5085099
60.175,2000,0,91.24,0.000002697398,0.000002697398,0.000002697398,0.99999994,0,0,0,0,0,0,1,1,0,0,0,false,false,true,-213.95,557.33,17.01,-0.004674591,-0.0009306024,0.9796333,-0.20073844,-547.621,365.581,8.321,0,0.00010999999,3.52561
60.183334,2000,0,91.24,0.000002697398,0.000002697398,0.000002697398,0.99999994,0,0,0,0,0,0,1,1,0,0,0,false,false,true,-218.51,560.38,17.01,-0.0046584057,-0.0010007345,0.9765792,-0.21510477,-551.53094,356.921,8.321,0,0.00010999999,3.5427098
60.191666,2000,0,91.24,0.000002697398,0.000002697398,0.000002697398,0.99999994,0,0,0,0,0,0,1,1,0,0,0,false,false,true,-223.11,563.35,17.01,-0.004642222,-0.001070867,0.97329736,-0.22949821,-555.30096,348.131,8.321,0,0.00010999999,3.55971
60.2,2000,0,91.24,0.000002697398,0.000002697398,0.000002697398,0.99999994,0,0,0,0,0,0,1,1,0,0,0,false,false,true,-227.73999,566.25,17.01,-0.004626037,-0.0011409993,0.9697866,-0.24390772,-558.91095,339.201,8.321,-0.00010999999,0.00010999999,3.57671
60.208332,2000,0,91.24,0.000002697398,0.000002697398,0.000002697398,0.99999994,0,0,0,0,0,0,1,1,0,0,0,false,false,true,-232.4,569.08,17.01,-0.0046098535,-0.0012111318,0.966044,-0.2583335,-562.371,330.141,8.321,-0.00010999999,0.00010999999,3.5936098
60.216667,2000,0,91.24,0.000002697398,0.000002697398,0.000002697398,0.99999994,0,0,0,0,0,0,1,1,0,0,0,false,false,true,-237.09,571.83,17.01,-0.0045882743,-0.0012812641,0.9620674,-0.27277005,-565.67096,320.951,8.321,-0.00021,0.00010999999,3.6105099
60.225,2000,0,91.24,0.000002697398,0.000002697398,0.000002697398,0.99999994,0,0,0,0,0,0,1,1,0,0,0,false,false,true,-241.79999,574.5,17.01,-0.004566695,-0.0013513966,0.95785517,-0.28721198,-568.821,311.631,8.321,-0.00021,0,3.62731
60.233334,2000,0,91.24,0.000002697398,0.000002697398,0.000002697398,0.99999994,0,0,0,0,0,0,1,1,0,0,0,false,false,true,-246.54,577.1,17.01,-0.0045451154,-0.0014215288,0.95340556,-0.30165386,-571.80096,302.191,8.321,-0.00030999997,0,3.64411
60.241665,2000,0,91.24,0.000002697398,0.000002697398,0.000002697398,0.99999994,0,0,0,0,0,0,1,1,0,0,0,false,false,true,-251.29999,579.62,17.01,-0.004523536,-0.0014916611,0.94871527,-0.3160958,-574.621,292.621,8.321,-0.00030999997,0,3.66081
60.25,2000,0,91.24,0.000002697398,0.000002697398,0.000002697398,0.99999994,0,0,0,0,0,0,1,1,0,0,0,false,false,true,-256.09,582.06,17.01,-0.0045019574,-0.0015617935,0.9437845,-0.33052692,-577.27094,282.931,8.321,-0.00040999998,0,3.67741
60.258335,2000,0,91.24,0.000002697398,0.000002697398,0.000002697398,0.99999994,0,0,0,0,0,0,1,1,0,0,0,false,false,true,-260.9,584.42,17.01,-0.004474983,-0.001626531,0.93860996,-0.34494725,-579.751,273.111,8.321,-0.00040999998,0,3.69391
60.266666,2000,0,91.24,0.000002697398,0.000002697398,0.000002697398,0.99999994,0,0,0,0,0,0,1,1,0,0,0,false,false,true,-265.72998,586.7,17.01,-0.004448009,-0.0016912686,0.9331901,-0.35935143,-582.061,263.171,8.321,-0.00040999998,0,3.71031
60.275,2000,0,91.24,0.000002697398,0.000002697398,0.000002697398,0.99999994,0,0,0,0,0,0,1,1,0,0,0,false,false,true,-270.58,588.89,17.01,-0.0044210353,-0.0017560062,0.9275236,-0.37373403,-584.201,253.11101,8.321,-0.00040999998,0,3.72661
60.283333,2000,0,91.24,0.000002697398,0.000002697398,0.000002697398,0.99999994,0,0,0,0,0,0,1,1,0,0,0,false,false,true,-275.44998,591,17.01,-0.0043940614,-0.0018207437,0.9216093,-0.38808963,-586.10095,242.951,8.321,-0.00030999997,0,3.74451
60.291668,2000,0,91.24,0.000002697398,0.000002697398,0.000002697398,0.99999994,0,0,0,0,0,0,1,1,0,0,0,false,false,true,-280.33,593.01996,17.01,-0.0043670875,-0.0018854813,0.9154435,-0.40241826,-587.751,232.711,8.321,-0.00030999997,0,3.76401
60.3,2000,0,91.24,0.000002697398,0.000002697398,0.000002697398,0.99999994,0,0,0,0,0,0,1,1,0,0,0,false,false,true,-285.22998,594.95996,17.01,-0.0043347185,-0.0019502188,0.90901995,-0.41672534,-589.15094,222.391,8.321,-0.00021,0,3.78521
60.308334,2000,0,91.24,0.000002697398,0.000002697398,0.000002697398,0.99999994,0,0,0,0,0,0,1,1,0,0,0,false,false,true,-290.13998,596.81,17.01,-0.0043023503,-0.0020149564,0.9023342,-0.4310108,-590.30096,211.991,8.321,-0.00010999999,0,3.8080099
60.316666,2000,0,91.24,0.000002697398,0.000002697398,0.000002697398,0.99999994,0,0,0,0,0,0,1,1,0,0,0,false,false,true,-295.06,598.58,17.01,-0.004269981,-0.0020850885,0.89538133,-0.44527468,-591.191,201.531,8.321,-0.00010999999,0,3.8324099
60.325,2000,0,91.24,0.000002697398,0.000002697398,0.000002697398,0.99999994,0,0,0,0,0,0,1,1,0,0,0,false,false,true,-299.99,600.26,17.01,-0.0042376122,-0.002155221,0.8881562,-0.45951703,-591.831,191.001,8.321,-0.00010999999,0,3.85851
60.333332,2000,0,91.24,0.000002697398,0.000002697398,0.000002697398,0.99999994,0,0,0,0,0,0,1,1,0,0,0,false,false,true,-304.91998,601.85,17.01,-0.0041998485,-0.0022199585,0.8806531,-0.47373775,-592.22095,180.411,8.321,-0.00010999999,0,3.8861098
60.341667,2000,0,91.24,0.000002697398,0.000002697398,0.000002697398,0.99999994,0,0,0,0,0,0,1,1,0,0,0,false,false,true,-309.86,603.35,17.01,-0.0041620857,-0.0022846963,0.8728659,-0.4879369,-592.35095,169.771,8.321,0,0,3.91531
60.35,2000,0,91.24,0.000002697398,0.000002697398,0.000002697398,0.99999994,0,0,0,0,0,0,1,1,0,0,0,false,false,true,-314.8,604.76,17.01,-0.004124322,-0.0023548286,0.8647912,-0.5021091,-592.22095,159.08101,8.321,0,0,3.94611
60.358334,2000,0,91.24,0.000002697398,0.000002697398,0.000002697398,0.99999994,0,0,0,0,0,0,1,1,0,0,0,false,false,true,-319.74,606.08997,17.01,-0.004086558,-0.0024249607,0.85641885,-0.5162596,-591.831,148.351,8.321,0,-0.00010999999,3.97851
60.366665,2000,0,91.24,0.000002697398,0.000002697398,0.000002697398,0.99999994,0,0,0,0,0,0,1,1,0,0,0,false,false,true,-324.66998,607.32996,17.01,-0.0040487945,-0.0024896984,0.8477445,-0.5303833,-591.18097,137.58101,8.321,0,-0.00010999999,4.01251
60.375,2000,0,91.24,0.000002697398,0.000002697398,0.000002697398,0.99999994,0,0,0,0,0,0,1,1,0,0,0,false,false,true,-329.6,608.48,17.01,-0.004005636,-0.002554436,0.8387604,-0.5444799,-590.27094,126.781,8.321,0,-0.00010999999,4.04801
60.383335,2000,0,91.24,0.000002697398,0.000002697398,0.000002697398,0.99999994,0,0,0,0,0,0,1,1,0,0,0,false,false,true,-334.52,609.54,17.01,-0.0039624777,-0.0026191734,0.8294574,-0.5585496,-589.10095,115.951,8.321,0,-0.00010999999,4.0851097
60.391666,2000,0,91.24,0.000002697398,0.000002697398,0.000002697398,0.99999994,0,0,0,0,0,0,1,1,0,0,0,false,false,true,-339.43,610.51,17.01,-0.0039193192,-0.002683911,0.8198301,-0.57258695,-587.65094,105.101,8.321,0,-0.00010999999,4.12361
60.4,2000,0,91.24,0.000002697398,0.000002697398,0.000002697398,0.99999994,0,0,0,0,0,0,1,1,0,0,0,false,false,true,-344.33,611.39,17.01,-0.0038707664,-0.0027486486,0.80987257,-0.5865865,-585.831,94.241,8.321,0,-0.00010999999,4.1627097
60.408333,2000,0,91.24,0.000002697398,0.000002697398,0.000002697398,0.99999994,0,0,0,0,0,0,1,1,0,0,0,false,false,true,-349.21,612.18,17.01,-0.003822213,-0.0028133863,0.79957837,-0.60054284,-583.641,83.391,8.321,0,0,4.20231
60.416668,2000,0,91.24,0.000002697398,0.000002697398,0.000002697398,0.99999994,0,0,0,0,0,0,1,1,0,0,0,false,false,true,-354.07,612.87,17.01,-0.00377366,-0.0028781237,0.7889408,-0.61445075,-581.081,72.550995,8.321,0,0,4.24251
60.425,2000,0,91.24,0.000002697398,0.000002697398,0.000002697398,0.99999994,0,0,0,0,0,0,1,1,0,0,0,false,false,true,-358.91,613.47,17.01,-0.003719712,-0.0029428613,0.7779572,-0.62829924,-578.15094,61.740997,8.321,0,0,4.28331
60.433334,2000,0,91.24,0.000002697398,0.000002697398,0.000002697398,0.99999994,0,0,0,0,0,0,1,1,0,0,0,false,false,true,-363.72998,613.98,17.01,-0.003665764,-0.003007599,0.7666204,-0.642083,-574.85095,50.970997,8.321,0.00010999999,0,4.32471
60.441666,2000,0,91.24,0.000002697398,0.000002697398,0.000002697398,0.99999994,0,0,0,0,0,0,1,1,0,0,0,false,false,true,-368.52,614.39996,17.01,-0.003611816,-0.0030723363,0.7549273,-0.6557912,-571.18097,40.260998,8.321,0.00010999999,0,4.36681
60.45,2000,0,91.24,0.000002697398,0.000002697398,0.000002697398,0.99999994,0,0,0,0,0,0,1,1,0,0,0,false,false,true,-373.28,614.74,17.01,-0.0035578683,-0.0031370742,0.7428703,-0.6694186,-567.141,29.610998,8.321,0.00010999999,0.00010999999,4.40961
60.458332,2000,0,91.24,0.000002697398,0.000002697398,0.000002697398,0.99999994,0,0,0,0,0,0,1,1,0,0,0,false,false,true,-378.00998,614.99,17.01,-0.0034985254,-0.0032018116,0.73044574,-0.68295413,-562.72095,19.071,8.321,0.00010999999,0.00021,4.45301
60.466667,2000,0,91.24,0.000002697398,0.000002697398,0.000002697398,0.99999994,0,0,0,0,0,0,1,1,0,0,0,false,false,true,-382.69998,615.14996,17.01,-0.0034391826,-0.003266549,0.7176505,-0.69638723,-557.90094,8.721001,8.321,0.00010999999,0.00021,4.49671
60.475,2000,0,91.24,0.000002697398,0.000002697398,0.000002697398,0.99999994,0,0,0,0,0,0,1,1,0,0,0,false,false,true,-387.35,615.22,17.01,0.003374445,0.0033312866,-0.70447946,0.70970845,-552.73096,-1.311,8.321,0.00010999999,0.00030999997,4.5398097
60.483334,2000,0,91.24,0.000002697398,0.000002697398,0.000002697398,0.99999994,0,0,0,0,0,0,1,1,0,0,0,false,false,true,-391.96,615.20996,17.01,0.0033097074,0.0033960242,-0.6909277,0.7229082,-547.23096,-11.021,8.321,0.00021,0.00030999997,4.58221
60.491665,2000,0,91.24,0.000002697398,0.000002697398,0.000002697398,0.99999994,0,0,0,0,0,0,1,1,0,0,0,false,false,true,-396.52,615.12,17.01,0.0032449698,0.0034607616,-0.6769982,0.73596925,-541.42096,-20.401,8.321,0.00021,0.00030999997,4.62391
60.5,2000,0,91.24,0.000002697398,0.000002697398,0.000002697398,0.99999994,0,0,0,0,0,0,1,1,0,0,0,false,false,true,-401.03,614.95,17.01,0.0031748377,0.0035254995,-0.66269666,0.7488729,-535.321,-29.440998,8.321,0.00021,0.00030999997,4.66491
60.508335,2000,0,91.24,0.000002697398,0.000002697398,0.000002697398,0.99999994,0,0,0,0,0,0,1,1,0,0,0,false,false,true,-405.49,614.7,17.01,0.0031047051,0.003590237,-0.6480173,0.7616107,-528.941,-38.130997,8.321,0.00021,0.00030999997,4.70511
60.516666,2000,0,91.24,0.000002697398,0.000002697398,0.000002697398,0.99999994,0,0,0,0,0,0,1,1,0,0,0,false,false,true,-409.9,614.38,17.01,0.0030345728,0.0036495796,-0.6329603,0.77416956,-522.311,-46.461,8.321,0.00021,0.00030999997,4.7445097
60.525,2000,0,91.24,0.000002697398,0.000002697398,0.000002697398,0.99999994,0,0,0,0,0,0,1,1,0,0,0,false,false,true,-414.25,613.99,17.01,0.0029590456,0.0037089223,-0.6175312,0.786532,-515.451,-54.420998,8.321,0.00021,0.00040999998,4.78301
60.533333,2000,0,91.24,0.000002697398,0.000002697398,0.000002697398,0.99999994,0,0,0,0,0,0,1,1,0,0,0,false,false,true,-418.55,613.54,17.01,0.0028835186,0.0037682652,-0.6017351,0.79868156,-508.38098,-62.010998,8.321,0.00021,0.00040999998,4.82061
60.541668,2000,0,91.24,0.000002697398,0.000002697398,0.000002697398,0.99999994,0,0,0,0,0,0,1,1,0,0,0,false,false,true,-422.78998,613.01996,17.01,0.0028079913,0.003827608,-0.58557224,0.81060624,-501.13098,-69.221,8.321,0.00021,0.00051,4.8572097
60.55,2000,0,91.24,0.000002697398,0.000002697398,0.000002697398,0.99999994,0,0,0,0,0,0,1,1,0,0,0,false,false,true,-426.97,612.44,17.01,0.0027270697,0.003886951,-0.56904805,0.82229054,-493.711,-76.061,8.321,0.00021,0.00051,4.89281
60.558334,2000,0,91.24,0.000002697398,0.000002697398,0.000002697398,0.99999994,0,0,0,0,0,0,1,1,0,0,0,false,false,true,-431.08,611.81,17.01,0.0026461475,0.003946293,-0.55216753,0.83371955,-486.151,-82.520996,8.321,0.00021,0.00051,4.92731
60.566666,2000,0,91.24,0.000002697398,0.000002697398,0.000002697398,0.99999994,0,0,0,0,0,0,1,1,0,0,0,false,false,true,-435.13,611.12,17.01,0.0025652254,0.0040002405,-0.5349364,0.84487873,-478.471,-88.611,8.321,0.00021,0.00051,4.96071
60.575,2000,0,91.24,0.000002697398,0.000002697398,0.000002697398,0.99999994,0,0,0,0,0,0,1,1,0,0,0,false,false,true,-439.12,610.38,17.01,0.002484304,0.0040541897,-0.51736027,0.85575444,-470.691,-94.33099,8.321,0.00021,0.00061,4.99291
60.583332,2000,0,91.24,0.000002697398,0.000002697398,0.000002697398,0.99999994,0,0,0,0,0,0,1,1,0,0,0,false,false,true,-443.03998,609.58997,17.01,0.0023979866,0.0041081365,-0.49944398,0.86633295,-462.841,-99.681,8.321,0.00021,0.00061,5.02381
60.591667,2000,0,91.24,0.000002697398,0.000002697398,0.000002697398,0.99999994,0,0,0,0,0,0,1,1,0,0,0,false,false,true,-446.9,608.76,17.01,0.0023116702,0.0041620857,-0.48119882,0.87659854,-454.931,-104.681,8.321,0.00021,0.00061,5.05331
60.6,2000,0,91.24,0.000002697398,0.000002697398,0.000002697398,0.99999994,0,0,0,0,0,0,1,1,0,0,0,false,false,true,-450.69,607.89,17.01,0.0022253534,0.0042106383,-0.46263522,0.8865359,-446.991,-109.33099,8.321,0.00010999999,0.00061,5.08131
60.608334,2000,0,91.24,0.000002697398,0.000002697398,0.000002697398,0.99999994,0,0,0,0,0,0,1,1,0,0,0,false,false,true,-454.41,606.98,17.01,0.0021336416,0.004259191,-0.44376406,0.8961308,-439.001,-113.571,8.321,0,0.00071,5.1058097
60.616665,2000,0,91.24,0.000002697398,0.000002697398,0.000002697398,0.99999994,0,0,0,0,0,0,1,1,0,0,0,false,false,true,-458.06998,606.02997,17.01,0.0020419303,0.0043077446,-0.42460173,0.9053676,-430.991,-117.40099,8.321,0,0.00081,5.12661
60.625,2000,0,91.24,0.000002697398,0.000002697398,0.000002697398,0.99999994,0,0,0,0,0,0,1,1,0,0,0,false,false,true,-461.66,605.05,17.01,0.0019502189,0.0043509034,-0.4051642,0.9142315,-422.991,-120.840996,8.321,0,0.00081,5.1437097
60.633335,2000,0,91.24,0.000002697398,0.000002697398,0.000002697398,0.99999994,0,0,0,0,0,0,1,1,0,0,0,false,false,true,-465.18,604.04,17.01,0.0018531125,0.0043940614,-0.38547853,0.9227044,-415.031,-123.90099,8.321,0,0.00091,5.15681
60.641666,2000,0,91.24,0.000002697398,0.000002697398,0.000002697398,0.99999994,0,0,0,0,0,0,1,1,0,0,0,false,false,true,-468.63998,603.01,17.01,0.0017560062,0.00443722,-0.36556625,0.930773,-407.061,-126.620995,8.321,0,0.00091,5.16571
60.65,2000,0,91.24,0.000002697398,0.000002697398,0.000002697398,0.99999994,0,0,0,0,0,0,1,1,0,0,0,false,false,true,-472.03,601.95,17.01,0.0016588996,0.0044749826,-0.34544894,0.93842524,-399.091,-129.02101,8.321,0,0.00081,5.17031
60.658333,2000,0,91.24,0.000002697398,0.000002697398,0.000002697398,0.99999994,0,0,0,0,0,0,1,1,0,0,0,false,false,true,-475.36,600.87,17.01,0.0015617936,0.0045127473,-0.3251537,0.9456491,-391.141,-131.11101,8.321,0,0.00081,5.17051
60.666668,2000,0,91.24,0.000002697398,0.000002697398,0.000002697398,0.99999994,0,0,0,0,0,0,1,1,0,0,0,false,false,true,-478.62,599.77997,17.01,0.001464687,0.00455051,-0.30470732,0.9524339,-383.241,-132.891,8.321,-0.00010999999,0.00071,5.1662097
60.675,2000,0,91.24,0.000002697398,0.000002697398,0.000002697398,0.99999994,0,0,0,0,0,0,1,1,0,0,0,false,false,true,-481.81,598.67,17.01,0.001367581,0.0045828796,-0.28413695,0.95877177,-375.421,-134.381,8.321,-0.00021,0.00061,5.1571097
60.683334,2000,0,91.24,0.000002697398,0.000002697398,0.000002697398,0.99999994,0,0,0,0,0,0,1,1,0,0,0,false,false,true,-484.94,597.55,17.01,0.0012650797,0.004615248,-0.26346937,0.9646558,-367.711,-135.601,8.311,-0.00021,0.00061,5.14281
60.691666,2000,0,91.24,0.000002697398,0.000002697398,0.000002697398,0.99999994,0,0,0,0,0,0,1,1,0,0,0,false,false,true,-488,596.42,17.01,0.0011625786,0.004642222,-0.24273708,0.97008026,-359.891,-136.591,8.311,-0.00030999997,0.00051,5.12871
60.7,2000,0,91.24,0.000002697398,0.000002697398,0.000002697398,0.99999994,0,0,0,0,0,0,1,1,0,0,0,false,false,true,-491,595.27997,17.01,0.0010600775,0.004669196,-0.22195084,0.97504604,-351.991,-137.33101,8.311,-0.00030999997,0.00040999998,5.11471
60.708332,2000,0,91.24,0.000002697398,0.000002697398,0.000002697398,0.99999994,0,0,0,0,0,0,1,1,0,0,0,false,false,true,-493.93,594.14,17.01,0.0009575764,0.0046907756,-0.20112146,0.9795546,-344.031,-137.821,8.311,-0.00040999998,0.00030999997,5.10081
60.716667,2000,0,91.24,0.000002697398,0.000002697398,0.000002697398,0.99999994,0,0,0,0,0,0,1,1,0,0,0,false,false,true,-496.8,592.99,17.01,0.0008550752,0.0047123544,-0.18025969,0.98360735,-336.021,-138.05101,8.311,-0.00040999998,0.00021,5.08701
60.725,2000,0,91.24,0.000002697398,0.000002697398,0.000002697398,0.99999994,0,0,0,0,0,0,1,1,0,0,0,false,false,true,-499.59998,591.83997,17.01,0.00075257407,0.0047285384,-0.15937096,0.9872071,-327.981,-138.02101,8.311,-0.00040999998,0.00010999999,5.07341
60.733334,2000,0,91.24,0.000002697398,0.000002697398,0.000002697398,0.99999994,0,0,0,0,0,0,1,1,0,0,0,false,false,true,-502.33,590.69,17.01,0.00065007294,0.004744723,-0.13846608,0.99035555,-319.921,-137.731,8.311,-0.00040999998,0,5.06011
60.741665,2000,0,91.24,0.000002697398,0.000002697398,0.000002697398,0.99999994,0,0,0,0,0,0,1,1,0,0,0,false,false,true,-505,589.54,17.01,0.0005475718,0.004755513,-0.11755577,0.9930547,-311.851,-137.171,8.311,-0.00040999998,0,5.0472097
60.75,2000,0,91.24,0.000002697398,0.000002697398,0.000002697398,0.99999994,0,0,0,0,0,0,1,1,0,0,0,false,false,true,-507.59998,588.39996,17.01,0.00044507068,0.004766302,-0.09664545,0.9953073,-303.771,-136.341,8.311,-0.00040999998,-0.00010999999,5.03481
60.758335,2000,0,91.24,0.000002697398,0.000002697398,0.000002697398,0.99999994,0,0,0,0,0,0,1,1,0,0,0,false,false,true,-510.12997,587.26,17.01,0.00034256955,0.004771697,-0.075745925,0.9971156,-295.701,-135.241,8.311,-0.00040999998,-0.00010999999,5.02311
60.766666,2000,0,91.24,0.000002697398,0.000002697398,0.000002697398,0.99999994,0,0,0,0,0,0,1,1,0,0,0,false,false,true,-512.58997,586.13,17.01,0.00024006843,0.004777092,-0.05486259,0.9984824,-287.641,-133.871,8.311,-0.00030999997,-0.00021,5.01221
60.775,2000,0,91.24,0.000002697398,0.000002697398,0.000002697398,0.99999994,0,0,0,0,0,0,1,1,0,0,0,false,false,true,-514.99,585.01,17.01,0.00013756729,0.0047824862,-0.034000825,0.9994102,-279.601,-132.231,8.311,-0.00021,-0.00021,5.00231
60.783333,2000,0,91.24,0.000002697398,0.000002697398,0.000002697398,0.99999994,0,0,0,0,0,0,1,1,0,0,0,false,false,true,-517.32,583.91,17.01,0.000035066172,0.0047824867,-0.013166042,0.99990183,-271.581,-130.311,8.311,-0.00010999999,-0.00030999997,4.99361
60.791668,2000,0,91.24,0.000002697398,0.000002697398,0.000002697398,0.99999994,0,0,0,0,0,0,1,1,0,0,0,false,false,true,-519.58,582.82,17.01,-0.00006743495,0.0047824867,0.007641729,0.9999593,-263.591,-128.11101,8.311,0,-0.00030999997,4.98621
