time,ball_loc_x,ball_loc_y,ball_loc_z,ball_rot_x,ball_rot_y,ball_rot_z,ball_rot_w,ball_vel_x,ball_vel_y,ball_vel_z,ball_ang_x,ball_ang_y,ball_ang_z,player0_throttle,player0_steer,player0_pitch,player0_yaw,player0_roll,player0_jump,player0_boost,player0_handbrake,player0_loc_x,player0_loc_y,player0_loc_z,player0_rot_x,player0_rot_y,player0_rot_z,player0_rot_w,player0_vel_x,player0_vel_y,player0_vel_z,player0_ang_x,player0_ang_y,player0_ang_z
105.05,2000,0,91.24,0.000002697398,0.000002697398,0.000002697398,0.99999994,0,0,0,0,0,0,0,0,0,0,0,false,false,false,0,0.14,17.01,-0.00336905,0.0033798397,0.7071014,0.7070959,0,0.011,8.321,-0.00051,0,0
105.058334,2000,0,73,0.000002697398,0.000002697398,0.000002697398,0.99999994,0,0,0,0,0,0,0.8031496,0,0,0,0,false,false,false,0,0,16.94,0.0000026973983,0.0000026973983,0.70710677,0.70710677,0,0,2.041,-0.050809998,0,0
105.066666,2000,0,87.6,0.000002697398,0.000002697398,0.000002697398,0.99999994,0,0,0,0,0,0,0.8031496,0,0,0,0,false,false,false,0,0,16.89,-0.00014835689,0.00015375168,0.7071067,0.7071067,0,10.701,3.8809998,-0.085609995,0,0
105.075,2000,0,90.52,0.000002697398,0.000002697398,0.000002697398,0.99999994,0,0,0,0,0,0,0.8031496,0,0,0,0,false,false,false,0,0.089999996,16.85,-0.00040191234,0.00040730715,0.70710653,0.70710677,0,21.331,5.481,-0.107209995,0,0
105.083336,2000,0,91.1,0.000002697398,0.000002697398,0.000002697398,0.99999994,0,0,0,0,0,0,0.8031496,0,0,0,0,false,false,false,0,0.26999998,16.83,-0.00072020525,0.00072560005,0.7071067,0.707106,0,31.890999,6.791,-0.11630999,0,0
105.09167,2000,0,91.22,0.000002697398,0.000002697398,0.000002697398,0.99999994,0,0,0,0,0,0,0.8031496,0,0,0,0,false,false,false,0,0.53999996,16.82,-0.0010654721,0.001070867,0.70710516,0.7071067,0,42.380997,7.7409997,-0.114609994,0,0
105.1,2000,0,91.24,0.000002697398,0.000002697398,0.000002697398,0.99999994,0,0,0,0,0,0,0.8031496,0,0,0,0,false,false,false,0,0.89,16.82,-0.0014053443,0.0014107391,0.7071067,0.70710397,0,52.790997,8.431,-0.10651,0,0
105.10833,2000,0,91.24,0.000002697398,0.000002697398,0.000002697398,0.99999994,0,0,0,0,0,0,0.8031496,0,0,0,0,false,false,false,0,1.3299999,16.82,-0.0017182427,0.0017236375,0.707108,0.70710135,0,63.130997,8.9210005,-0.09501,0,0
105.11667,2000,0,91.24,0.000002697398,0.000002697398,0.000002697398,0.99999994,0,0,0,0,0,0,0.8031496,0,0,0,0,false,false,false,0,1.86,16.83,-0.001998772,0.0020041666,0.70710653,0.7071013,0,73.401,9.281,-0.082109995,0,0
105.125,2000,0,91.24,0.000002697398,0.000002697398,0.000002697398,0.99999994,0,0,0,0,0,0,0.8031496,0,0,0,0,false,false,false,0,2.47,16.84,-0.0022415377,0.0022469326,0.70710504,0.7071013,0,83.601,9.521,-0.06921,0,0
105.13333,2000,0,91.24,0.000002697398,0.000002697398,0.000002697398,0.99999994,0,0,0,0,0,0,0.8031496,0,0,0,0,false,false,false,0,3.1699998,16.85,-0.00244654,0.0024519349,0.70710367,0.7071013,0,93.730995,9.6710005,-0.05701,0,0
105.14167,2000,0,91.24,0.000002697398,0.000002697398,0.000002697398,0.99999994,0,0,0,0,0,0,0.8031496,0,0,0,0,false,false,false,0,3.9499998,16.859999,-0.0026137787,0.0026191734,0.7071025,0.7071013,0,103.791,9.771,-0.046109997,0,0
105.15,2000,0,91.24,0.000002697398,0.000002697398,0.000002697398,0.99999994,0,0,0,0,0,0,0.8031496,0,0,0,0,false,false,false,0,4.81,16.869999,-0.0027486486,0.0027540433,0.70710146,0.7071013,0,113.781,9.821,-0.036609996,0,0
105.15833,2000,0,91.24,0.000002697398,0.000002697398,0.000002697398,0.99999994,0,0,0,0,0,0,0.8031496,0,0,0,0,false,false,false,0,5.7599998,16.88,-0.0028565445,0.0028619394,0.70710063,0.7071013,0,123.701,9.841001,-0.02851,0,0
105.166664,2000,0,91.24,0.000002697398,0.000002697398,0.000002697398,0.99999994,0,0,0,0,0,0,0.8031496,0,0,0,0,false,false,false,0,6.79,16.89,-0.0029428613,0.002948256,0.7071013,0.7070999,0,133.55101,9.821,-0.02231,0,0
105.175,2000,0,91.24,0.000002697398,0.000002697398,0.000002697398,0.99999994,0,0,0,0,0,0,0.8031496,0,0,0,0,false,false,false,0,7.8999996,16.9,-0.003007599,0.0030129936,0.7070993,0.7071013,0,143.341,9.761001,-0.01781,0,0
105.183334,2000,0,91.24,0.000002697398,0.000002697398,0.000002697398,0.99999994,0,0,0,0,0,0,0.8031496,0,0,0,0,false,false,false,0,9.09,16.91,-0.0030615467,0.0030669416,0.7071013,0.7070989,0,153.061,9.681,-0.014409999,0,0
105.191666,2000,0,91.24,0.000002697398,0.000002697398,0.000002697398,0.99999994,0,0,0,0,0,0,0.8031496,0,0,0,0,false,false,false,0,10.37,16.92,-0.0031047051,0.0031101,0.7070985,0.7071013,0,162.711,9.591001,-0.011809999,0,0
105.2,2000,0,91.24,0.000002697398,0.000002697398,0.000002697398,0.99999994,0,0,0,0,0,0,0.8031496,0,0,0,0,false,false,false,0,11.73,16.93,-0.003137074,0.0031424686,0.7070959,0.7071036,0,172.291,9.491,-0.00981,0,0
105.208336,2000,0,91.24,0.000002697398,0.000002697398,0.000002697398,0.99999994,0,0,0,0,0,0,0.8031496,0,0,0,0,false,false,false,0,13.17,16.94,-0.003164048,0.003169443,0.707096,0.7071034,0,181.811,9.391,-0.0083099995,0,0
105.21667,2000,0,91.24,0.000002697398,0.000002697398,0.000002697398,0.99999994,0,0,0,0,0,0,0.8031496,0,0,0,0,false,false,false,0,14.69,16.949999,-0.003191022,0.0031964167,0.7070959,0.70710313,0,191.261,9.281,-0.00711,0,0
105.225,2000,0,91.24,0.000002697398,0.000002697398,0.000002697398,0.99999994,0,0,0,0,0,0,0.8031496,0,0,0,0,false,false,false,0,16.279999,16.96,-0.0032126014,0.003217996,0.707096,0.70710295,0,200.651,9.1710005,-0.00611,0,0
105.23333,2000,0,91.24,0.000002697398,0.000002697398,0.000002697398,0.99999994,0,0,0,0,0,0,0.8031496,0,0,0,0,false,false,false,0,17.949999,16.97,-0.0032287855,0.0032341804,0.7070959,0.7071028,0,209.97101,9.061,-0.00521,0,0
105.24167,2000,0,91.24,0.000002697398,0.000002697398,0.000002697398,0.99999994,0,0,0,0,0,0,0.8031496,0,0,0,0,false,false,false,0,19.699999,16.98,-0.00324497,0.003250365,0.707096,0.70710266,0,219.231,8.951,-0.00451,0,0
105.25,2000,0,91.24,0.000002697398,0.000002697398,0.000002697398,0.99999994,0,0,0,0,0,0,0.8031496,0,0,0,0,false,false,false,0,21.529999,16.99,-0.0032557594,0.0032611543,0.7070959,0.70710254,0,228.431,8.841001,-0.00391,0,0
105.25833,2000,0,91.24,0.000002697398,0.000002697398,0.000002697398,0.99999994,0,0,0,0,0,0,0.8031496,0,0,0,0,false,false,false,0,23.43,17,-0.003266549,0.003271944,0.7070959,0.7071024,0,237.561,8.731,-0.00341,0,0
105.26667,2000,0,91.24,0.000002697398,0.000002697398,0.000002697398,0.99999994,0,0,0,0,0,0,0.8031496,0,0,0,0,false,false,false,0,25.41,17.01,-0.0032773386,0.0032827335,0.7070959,0.7071023,0,246.631,8.621,-0.00301,0,0
105.275,2000,0,91.24,0.000002697398,0.000002697398,0.000002697398,0.99999994,0,0,0,0,0,0,0.8031496,0,0,0,0,false,false,false,0,27.47,17.01,-0.0032881282,0.003293523,0.7070959,0.70710224,0,255.641,8.511001,-0.00261,0,0
105.28333,2000,0,91.24,0.000002697398,0.000002697398,0.000002697398,0.99999994,0,0,0,0,0,0,0.8031496,0,0,0,0,false,false,false,0,29.599998,17.01,-0.0032935233,0.003298918,0.707096,0.7071022,0,264.581,8.441,-0.0023100001,0,0
105.291664,2000,0,91.24,0.000002697398,0.000002697398,0.000002697398,0.99999994,0,0,0,0,0,0,0.8031496,0,0,0,0,false,false,false,0,31.8,17.01,-0.0032989178,0.0033043127,0.7070959,0.7071021,0,273.461,8.391,-0.00211,0,0
105.3,2000,0,91.24,0.000002697398,0.000002697398,0.000002697398,0.99999994,0,0,0,0,0,0,0.8031496,0,0,0,0,false,false,false,0,34.079998,17.01,-0.0033043127,0.0033097074,0.7070959,0.70710206,0,282.281,8.361,-0.0019099999,0,0
105.308334,2000,0,91.24,0.000002697398,0.000002697398,0.000002697398,0.99999994,0,0,0,0,0,0,0.8031496,0,0,0,0,false,false,false,0,36.43,17.01,-0.0033097074,0.0033151023,0.7070959,0.707102,0,291.04102,8.341001,-0.0017099999,0,0
105.316666,2000,0,91.24,0.000002697398,0.000002697398,0.000002697398,0.99999994,0,0,0,0,0,0,0.8031496,0,0,0,0,false,false,false,0,38.86,17.01,-0.0033151023,0.003320497,0.7070959,0.707102,0,299.741,8.331,-0.00151,0,0
105.325,2000,0,91.24,0.000002697398,0.000002697398,0.000002697398,0.99999994,0,0,0,0,0,0,0.8031496,0,0,0,0,false,false,false,0,41.36,17.01,-0.0033204972,0.0033258921,0.707096,0.70710194,0,308.381,8.321,-0.00131,0,0
105.333336,2000,0,91.24,0.000002697398,0.000002697398,0.000002697398,0.99999994,0,0,0,0,0,0,0.8031496,0,0,0,0,false,false,false,0,43.93,17.01,-0.003325892,0.0033312866,0.7070959,0.7071019,0,316.961,8.321,-0.00111,0,0
105.34167,2000,0,91.24,0.000002697398,0.000002697398,0.000002697398,0.99999994,0,0,0,0,0,0,0.8031496,0,0,0,0,false,false,false,0,46.57,17.01,-0.0033312866,0.0033366815,0.7070959,0.7071018,0,325.481,8.321,-0.0010099999,0,0
105.35,2000,0,91.24,0.000002697398,0.000002697398,0.000002697398,0.99999994,0,0,0,0,0,0,0.8031496,0,0,0,0,false,false,false,0,49.28,17.01,-0.0033366815,0.0033420762,0.7070959,0.70710176,0,333.941,8.321,-0.00081,0,0
105.35833,2000,0,91.24,0.000002697398,0.000002697398,0.000002697398,0.99999994,0,0,0,0,0,0,0.8031496,0,0,0,0,false,false,false,0,52.059998,17.01,-0.0033366815,0.0033420762,0.7070959,0.70710176,0,342.351,8.321,-0.00061,0,0
105.36667,2000,0,91.24,0.000002697398,0.000002697398,0.000002697398,0.99999994,0,0,0,0,0,0,0.8031496,0,0,0,0,false,false,false,0,54.91,17.01,-0.0033366815,0.0033420762,0.7070959,0.70710176,0,350.701,8.321,-0.00051,0,0
105.375,2000,0,91.24,0.000002697398,0.000002697398,0.000002697398,0.99999994,0,0,0,0,0,0,0.8031496,0,0,0,0,false,false,false,0,57.829998,17.01,-0.0033366815,0.0033420762,0.7070959,0.70710176,0,358.991,8.321,-0.00051,0,0
105.38333,2000,0,91.24,0.000002697398,0.000002697398,0.000002697398,0.99999994,0,0,0,0,0,0,0.8031496,0,0,0,0,false,false,false,0,60.82,17.01,-0.0033366815,0.0033420762,0.7070959,0.70710176,0,367.221,8.321,-0.00051,0,0
105.39167,2000,0,91.24,0.000002697398,0.000002697398,0.000002697398,0.99999994,0,0,0,0,0,0,0.8031496,0,0,0,0,false,false,false,0,63.879997,17.01,-0.0033366815,0.0033420762,0.7070959,0.70710176,0,375.401,8.321,-0.00051,0,0
105.4,2000,0,91.24,0.000002697398,0.000002697398,0.000002697398,0.99999994,0,0,0,0,0,0,0.8031496,0,0,0,0,false,false,false,0,67.01,17.01,-0.0033366815,0.0033420762,0.7070959,0.70710176,0,383.521,8.321,-0.00051,0,0
105.40833,2000,0,91.24,0.000002697398,0.000002697398,0.000002697398,0.99999994,0,0,0,0,0,0,0.8031496,0,0,0,0,false,false,false,0,70.21,17.01,-0.0033366815,0.0033420762,0.7070959,0.70710176,0,391.581,8.321,-0.00051,0,0
105.416664,2000,0,91.24,0.000002697398,0.000002697398,0.000002697398,0.99999994,0,0,0,0,0,0,0.8031496,0,0,0,0,false,false,false,0,73.47,17.01,-0.0033366815,0.0033420762,0.7070959,0.70710176,0,399.591,8.321,-0.00051,0,0
105.425,2000,0,91.24,0.000002697398,0.000002697398,0.000002697398,0.99999994,0,0,0,0,0,0,0.8031496,0,0,0,0,false,false,false,0,76.799995,17.01,-0.0033366815,0.0033420762,0.7070959,0.70710176,0,407.541,8.321,-0.00051,0,0
105.433334,2000,0,91.24,0.000002697398,0.000002697398,0.000002697398,0.99999994,0,0,0,0,0,0,0.8031496,0,0,0,0,false,false,false,0,80.2,17.01,-0.0033366815,0.0033420762,0.7070959,0.70710176,0,415.441,8.321,-0.00051,0,0
105.441666,2000,0,91.24,0.000002697398,0.000002697398,0.000002697398,0.99999994,0,0,0,0,0,0,0.8031496,0,0,0,0,false,false,false,0,83.659996,17.01,-0.0033366815,0.0033420762,0.7070959,0.70710176,0,423.281,8.321,-0.00051,0,0
105.45,2000,0,91.24,0.000002697398,0.000002697398,0.000002697398,0.99999994,0,0,0,0,0,0,0.8031496,0,0,0,0,false,false,false,0,87.189995,17.01,-0.0033366815,0.0033420762,0.7070959,0.70710176,0,431.07098,8.321,-0.00051,0,0
105.458336,2000,0,91.24,0.000002697398,0.000002697398,0.000002697398,0.99999994,0,0,0,0,0,0,0.8031496,0,0,0,0,false,false,false,0,90.78,17.01,-0.0033366815,0.0033420762,0.7070959,0.70710176,0,438.811,8.321,-0.00051,0,0
105.46667,2000,0,91.24,0.000002697398,0.000002697398,0.000002697398,0.99999994,0,0,0,0,0,0,0.8031496,0,0,0,0,false,false,false,0,94.439995,17.01,-0.0033366815,0.0033420762,0.7070959,0.70710176,0,446.491,8.321,-0.00051,0,0
105.475,2000,0,91.24,0.000002697398,0.000002697398,0.000002697398,0.99999994,0,0,0,0,0,0,0.8031496,0,0,0,0,false,false,false,0,98.159996,17.01,-0.0033366815,0.0033420762,0.7070959,0.70710176,0,454.121,8.321,-0.00051,0,0
105.48333,2000,0,91.24,0.000002697398,0.000002697398,0.000002697398,0.99999994,0,0,0,0,0,0,0.8031496,0,0,0,0,false,false,false,0,101.939995,17.01,-0.0033366815,0.0033420762,0.7070959,0.70710176,0,461.701,8.321,-0.00051,0,0
105.49167,2000,0,91.24,0.000002697398,0.000002697398,0.000002697398,0.99999994,0,0,0,0,0,0,0.8031496,0,0,0,0,false,false,false,0,105.79,17.01,-0.0033366815,0.0033420762,0.7070959,0.70710176,0,469.231,8.321,-0.00051,0,0
105.5,2000,0,91.24,0.000002697398,0.000002697398,0.000002697398,0.99999994,0,0,0,0,0,0,0.8031496,0,0,0,0,false,false,false,0,109.7,17.01,-0.0033366815,0.0033420762,0.7070959,0.70710176,0,476.701,8.321,-0.00051,0,0
105.50833,2000,0,91.24,0.000002697398,0.000002697398,0.000002697398,0.99999994,0,0,0,0,0,0,0.8031496,0,0,0,0,false,false,false,0,113.67,17.01,-0.0033366815,0.0033420762,0.7070959,0.70710176,0,484.121,8.321,-0.00061,0,0
105.51667,2000,0,91.24,0.000002697398,0.000002697398,0.000002697398,0.99999994,0,0,0,0,0,0,0.8031496,0,0,0,0,false,false,false,0,117.7,17.01,-0.0033366815,0.0033420762,0.7070959,0.70710176,0,491.491,8.321,-0.00061,0,0
105.525,2000,0,91.24,0.000002697398,0.000002697398,0.000002697398,0.99999994,0,0,0,0,0,0,0.8031496,0,0,0,0,false,false,false,0,121.799995,17.01,-0.0033366815,0.0033420762,0.7070959,0.70710176,0,498.811,8.321,-0.00061,0,0
105.53333,2000,0,91.24,0.000002697398,0.000002697398,0.000002697398,0.99999994,0,0,0,0,0,0,0.8031496,0,0,0,0,false,false,false,0,125.96,17.01,-0.0033366815,0.0033420762,0.7070959,0.70710176,0,506.081,8.321,-0.00061,0,0
105.541664,2000,0,91.24,0.000002697398,0.000002697398,0.000002697398,0.99999994,0,0,0,0,0,0,0.8031496,0,0,0,0,false,false,false,0,130.18,17.01,-0.0033366815,0.0033420762,0.7070959,0.70710176,0,513.30096,8.321,-0.00061,0,0
105.55,2000,0,91.24,0.000002697398,0.000002697398,0.000002697398,0.99999994,0,0,0,0,0,0,0.8031496,0,0,0,0,false,false,false,0,134.45999,17.01,-0.0033366815,0.0033420762,0.7070959,0.70710176,0,520.47095,8.321,-0.00061,0,0
105.558334,2000,0,91.24,0.000002697398,0.000002697398,0.000002697398,0.99999994,0,0,0,0,0,0,0.8031496,0,0,0,0,false,false,false,0,138.8,17.01,-0.0033366815,0.0033420762,0.7070959,0.70710176,0,527.59094,8.321,-0.00061,0,0
105.566666,2000,0,91.24,0.000002697398,0.000002697398,0.000002697398,0.99999994,0,0,0,0,0,0,0.8031496,0,0,0,0,false,false,false,0,143.2,17.01,-0.0033366815,0.0033420762,0.7070959,0.70710176,0,534.66095,8.321,-0.00061,0,0
105.575,2000,0,91.24,0.000002697398,0.000002697398,0.000002697398,0.99999994,0,0,0,0,0,0,0.8031496,0,0,0,0,false,false,false,0,147.66,17.01,-0.0033366815,0.0033420762,0.7070959,0.70710176,0,541.68097,8.321,-0.00061,0,0
105.583336,2000,0,91.24,0.000002697398,0.000002697398,0.000002697398,0.99999994,0,0,0,0,0,0,0.8031496,0,0,0,0,false,false,false,0,152.17,17.01,-0.0033366815,0.0033420762,0.7070959,0.70710176,0,548.66095,8.321,-0.00061,0,0
105.59167,2000,0,91.24,0.000002697398,0.000002697398,0.000002697398,0.99999994,0,0,0,0,0,0,0.8031496,0,0,0,0,false,false,false,0,156.73999,17.01,-0.0033366815,0.0033420762,0.7070959,0.70710176,0,555.59094,8.321,-0.00061,0,0
105.6,2000,0,91.24,0.000002697398,0.000002697398,0.000002697398,0.99999994,0,0,0,0,0,0,0.8031496,0,0,0,0,false,false,false,0,161.37,17.01,-0.0033366815,0.0033420762,0.7070959,0.70710176,0,562.47095,8.321,-0.00061,0,0
105.60833,2000,0,91.24,0.000002697398,0.000002697398,0.000002697398,0.99999994,0,0,0,0,0,0,0.8031496,0,0,0,0,false,false,false,0,166.06,17.01,-0.0033366815,0.0033420762,0.7070959,0.70710176,0,569.30096,8.321,-0.00061,0,0
105.61667,2000,0,91.24,0.000002697398,0.000002697398,0.000002697398,0.99999994,0,0,0,0,0,0,0.8031496,0,0,0,0,false,false,false,0,170.8,17.01,-0.0033366815,0.0033420762,0.7070959,0.70710176,0,576.09094,8.321,-0.00061,0,0
105.625,2000,0,91.24,0.000002697398,0.000002697398,0.000002697398,0.99999994,0,0,0,0,0,0,0.8031496,0,0,0,0,false,false,false,0,175.59999,17.01,-0.0033366815,0.0033420762,0.7070959,0.70710176,0,582.831,8.321,-0.00061,0,0
105.63333,2000,0,91.24,0.000002697398,0.000002697398,0.000002697398,0.99999994,0,0,0,0,0,0,0.8031496,0,0,0,0,false,false,false,0,180.45999,17.01,-0.0033366815,0.0033420762,0.7070959,0.70710176,0,589.52094,8.321,-0.00071,0,0
105.64167,2000,0,91.24,0.000002697398,0.000002697398,0.000002697398,0.99999994,0,0,0,0,0,0,0.8031496,0,0,0,0,false,false,false,0,185.37,17.01,-0.0033366815,0.0033420762,0.7070959,0.70710176,0,596.17096,8.321,-0.00071,0,0
105.65,2000,0,91.24,0.000002697398,0.000002697398,0.000002697398,0.99999994,0,0,0,0,0,0,0.8031496,0,0,0,0,false,false,false,0,190.34,17.01,-0.0033366815,0.0033420762,0.7070959,0.70710176,0,602.77094,8.321,-0.00071,0,0
105.65833,2000,0,91.24,0.000002697398,0.000002697398,0.000002697398,0.99999994,0,0,0,0,0,0,0.8031496,0,0,0,0,false,false,false,0,195.36,17.01,-0.0033366815,0.0033420762,0.7070959,0.70710176,0,609.33093,8.321,-0.00071,0,0
105.666664,2000,0,91.24,0.000002697398,0.000002697398,0.000002697398,0.99999994,0,0,0,0,0,0,0.8031496,0,0,0,0,false,false,false,0,200.44,17.01,-0.0033366815,0.0033420762,0.7070959,0.70710176,0,615.84094,8.321,-0.00071,0,0
105.675,2000,0,91.24,0.000002697398,0.000002697398,0.000002697398,0.99999994,0,0,0,0,0,0,0.8031496,0,0,0,0,false,false,false,0,205.56999,17.01,-0.0033366815,0.0033420762,0.7070959,0.70710176,0,622.311,8.321,-0.00071,0,0
105.683334,2000,0,91.24,0.000002697398,0.000002697398,0.000002697398,0.99999994,0,0,0,0,0,0,0.8031496,0,0,0,0,false,false,false,0,210.76,17.01,-0.0033366815,0.0033420762,0.7070959,0.70710176,0,628.73096,8.321,-0.00071,0,0
105.691666,2000,0,91.24,0.000002697398,0.000002697398,0.000002697398,0.99999994,0,0,0,0,0,0,0.8031496,0,0,0,0,false,false,false,0,216,17.01,-0.0033366815,0.0033420762,0.7070959,0.70710176,0,635.11096,8.321,-0.00071,0,0
105.7,2000,0,91.24,0.000002697398,0.000002697398,0.000002697398,0.99999994,0,0,0,0,0,0,0.8031496,0,0,0,0,false,false,false,0,221.29,17.01,-0.0033366815,0.0033420762,0.7070959,0.70710176,0,641.441,8.321,-0.00071,0,0
105.708336,2000,0,91.24,0.000002697398,0.000002697398,0.000002697398,0.99999994,0,0,0,0,0,0,0.8031496,0,0,0,0,false,false,false,0,226.64,17.01,-0.0033366815,0.0033420762,0.7070959,0.70710176,0,647.73096,8.321,-0.00071,0,0
105.71667,2000,0,91.24,0.000002697398,0.000002697398,0.000002697398,0.99999994,0,0,0,0,0,0,0.8031496,0,0,0,0,false,false,false,0,232.04,17.01,-0.0033366815,0.0033420762,0.7070959,0.70710176,0,653.98096,8.321,-0.00071,0,0
105.725,2000,0,91.24,0.000002697398,0.000002697398,0.000002697398,0.99999994,0,0,0,0,0,0,0.8031496,0,0,0,0,false,false,false,0,237.48999,17.01,-0.0033366815,0.0033420762,0.7070959,0.70710176,0,660.18097,8.321,-0.00071,0,0
105.73333,2000,0,91.24,0.000002697398,0.000002697398,0.000002697398,0.99999994,0,0,0,0,0,0,0.8031496,0,0,0,0,false,false,false,0,242.98999,17.01,-0.0033366815,0.0033420762,0.7070959,0.70710176,0,666.34094,8.321,-0.00071,0,0
105.74167,2000,0,91.24,0.000002697398,0.000002697398,0.000002697398,0.99999994,0,0,0,0,0,0,0.8031496,0,0,0,0,false,false,false,0,248.54,17.01,-0.0033366815,0.0033420762,0.7070959,0.70710176,0,672.46094,8.321,-0.00071,0,0
105.75,2000,0,91.24,0.000002697398,0.000002697398,0.000002697398,0.99999994,0,0,0,0,0,0,0.8031496,0,0,0,0,false,false,false,0,254.14,17.01,-0.0033366815,0.0033420762,0.7070959,0.70710176,0,678.54095,8.321,-0.00071,0,0
105.75833,2000,0,91.24,0.000002697398,0.000002697398,0.000002697398,0.99999994,0,0,0,0,0,0,0.8031496,0,0,0,0,false,false,false,0,259.79,17.01,-0.0033366815,0.0033420762,0.7070959,0.70710176,0,684.571,8.321,-0.00071,0,0
105.76667,2000,0,91.24,0.000002697398,0.000002697398,0.000002697398,0.99999994,0,0,0,0,0,0,0.8031496,0,0,0,0,false,false,false,0,265.49,17.01,-0.0033366815,0.0033420762,0.7070959,0.70710176,0,690.561,8.321,-0.00071,0,0
105.775,2000,0,91.24,0.000002697398,0.000002697398,0.000002697398,0.99999994,0,0,0,0,0,0,0.8031496,0,0,0,0,false,false,false,0,271.24,17.01,-0.0033366815,0.0033420762,0.7070959,0.70710176,0,696.511,8.321,-0.00071,0,0
105.78333,2000,0,91.24,0.000002697398,0.000002697398,0.000002697398,0.99999994,0,0,0,0,0,0,0.8031496,0,0,0,0,false,false,false,0,277.04,17.01,-0.0033366815,0.0033420762,0.7070959,0.70710176,0,702.42096,8.321,-0.00081,0,0
105.791664,2000,0,91.24,0.000002697398,0.000002697398,0.000002697398,0.99999994,0,0,0,0,0,0,0.8031496,0,0,0,0,false,false,false,0,282.88998,17.01,-0.0033366815,0.0033420762,0.7070959,0.70710176,0,708.29095,8.321,-0.00081,0,0
105.8,2000,0,91.24,0.000002697398,0.000002697398,0.000002697398,0.99999994,0,0,0,0,0,0,0.8031496,0,0,0,0,false,false,false,0,288.79,17.01,-0.0033366815,0.0033420762,0.7070959,0.70710176,0,714.121,8.321,-0.00081,0,0
105.808334,2000,0,91.24,0.000002697398,0.000002697398,0.000002697398,0.99999994,0,0,0,0,0,0,0.8031496,0,0,0,0,false,false,false,0,294.74,17.01,-0.0033366815,0.0033420762,0.7070959,0.70710176,0,719.91095,8.321,-0.00081,0,0
105.816666,2000,0,91.24,0.000002697398,0.000002697398,0.000002697398,0.99999994,0,0,0,0,0,0,0.8031496,0,0,0,0,false,false,false,0,300.74,17.01,-0.0033366815,0.0033420762,0.7070959,0.70710176,0,725.66095,8.321,-0.00081,0,0
105.825,2000,0,91.24,0.000002697398,0.000002697398,0.000002697398,0.99999994,0,0,0,0,0,0,0.8031496,0,0,0,0,false,false,false,0,306.78998,17.01,-0.0033366815,0.0033420762,0.7070959,0.70710176,0,731.371,8.321,-0.00081,0,0
105.833336,2000,0,91.24,0.000002697398,0.000002697398,0.000002697398,0.99999994,0,0,0,0,0,0,0.8031496,0,0,0,0,false,false,false,0,312.88,17.01,-0.0033366815,0.0033420762,0.7070959,0.70710176,0,737.04095,8.321,-0.00081,0,0
105.84167,2000,0,91.24,0.000002697398,0.000002697398,0.000002697398,0.99999994,0,0,0,0,0,0,0.8031496,0,0,0,0,false,false,false,0,319.02,17.01,-0.0033366815,0.0033420762,0.7070959,0.70710176,0,742.67096,8.321,-0.00081,0,0
105.85,2000,0,91.24,0.000002697398,0.000002697398,0.000002697398,0.99999994,0,0,0,0,0,0,0.8031496,0,0,0,0,false,false,false,0,325.21,17.01,-0.0033366815,0.0033420762,0.7070959,0.70710176,0,748.261,8.321,-0.00081,0,0
105.85833,2000,0,91.24,0.000002697398,0.000002697398,0.000002697398,0.99999994,0,0,0,0,0,0,0.8031496,0,0,0,0,false,false,false,0,331.44998,17.01,-0.0033366815,0.0033420762,0.7070959,0.70710176,0,753.811,8.321,-0.00081,0,0
105.86667,2000,0,91.24,0.000002697398,0.000002697398,0.000002697398,0.99999994,0,0,0,0,0,0,0.8031496,0,0,0,0,false,false,false,0,337.72998,17.01,-0.0033366815,0.0033420762,0.7070959,0.70710176,0,759.33093,8.321,-0.00081,0,0
105.875,2000,0,91.24,0.000002697398,0.000002697398,0.000002697398,0.99999994,0,0,0,0,0,0,0.8031496,0,0,0,0,false,false,false,0,344.06,17.01,-0.0033366815,0.0033420762,0.7070959,0.70710176,0,764.811,8.321,-0.00081,0,0
105.88333,2000,0,91.24,0.000002697398,0.000002697398,0.000002697398,0.99999994,0,0,0,0,0,0,0.8031496,0,0,0,0,false,false,false,0,350.43,17.01,-0.0033366815,0.0033420762,0.7070959,0.70710176,0,770.251,8.321,-0.00081,0,0
105.89167,2000,0,91.24,0.000002697398,0.000002697398,0.000002697398,0.99999994,0,0,0,0,0,0,0.8031496,0,0,0,0,false,false,false,0,356.85,17.01,-0.0033366815,0.0033420762,0.7070959,0.70710176,0,775.65094,8.321,-0.00081,0,0
105.9,2000,0,91.24,0.000002697398,0.000002697398,0.000002697398,0.99999994,0,0,0,0,0,0,0.8031496,0,0,0,0,false,false,false,0,363.31,17.01,-0.0033366815,0.0033420762,0.7070959,0.70710176,0,781.02094,8.321,-0.00081,0,0
105.90833,2000,0,91.24,0.000002697398,0.000002697398,0.000002697398,0.99999994,0,0,0,0,0,0,0.8031496,0,0,0,0,false,false,false,0,369.81998,17.01,-0.0033366815,0.0033420762,0.7070959,0.70710176,0,786.35095,8.321,-0.00081,0,0
105.916664,2000,0,91.24,0.000002697398,0.000002697398,0.000002697398,0.99999994,0,0,0,0,0,0,0.8031496,0,0,0,0,false,false,false,0,376.37,17.01,-0.0033366815,0.0033420762,0.7070959,0.70710176,0,791.6409,8.321,-0.00081,0,0
105.925,2000,0,91.24,0.000002697398,0.000002697398,0.000002697398,0.99999994,0,0,0,0,0,0,0.8031496,0,0,0,0,false,false,false,0,382.97,17.01,-0.0033366815,0.0033420762,0.7070959,0.70710176,0,796.90094,8.321,-0.00081,0,0
105.933334,2000,0,91.24,0.000002697398,0.000002697398,0.000002697398,0.99999994,0,0,0,0,0,0,0.8031496,0,0,0,0,false,false,false,0,389.61,17.01,-0.0033366815,0.0033420762,0.7070959,0.70710176,0,802.121,8.321,-0.00081,0,0
105.941666,2000,0,91.24,0.000002697398,0.000002697398,0.000002697398,0.99999994,0,0,0,0,0,0,1,1,0,0,0,false,false,true,0,396.28998,17.01,-0.0033366815,0.0033420762,0.7070959,0.70710176,-13.991,805.121,8.351,-0.00081,0.00361,0.38481
105.95,2000,0,91.24,0.000002697398,0.000002697398,0.000002697398,0.99999994,0,0,0,0,0,0,1,1,0,0,0,false,false,true,-0.12,403,17.01,-0.0033312866,0.003347471,0.7082275,0.7059684,-24.321,808.85095,8.361,-0.00081,0.00471,0.66151
105.958336,2000,0,91.24,0.000002697398,0.000002697398,0.000002697398,0.99999994,0,0,0,0,0,0,1,1,0,0,0,false,false,true,-0.32,409.74,17.01,-0.0033312866,0.0033528658,0.7101688,0.7040155,-33.781,812.65094,8.361,-0.00081,0.00491,0.89961
105.96667,2000,0,91.24,0.000002697398,0.000002697398,0.000002697398,0.99999994,0,0,0,0,0,0,1,1,0,0,0,false,false,true,-0.59999996,416.50998,17.01,-0.0033312866,0.0033582605,0.71280086,0.70135045,-42.720997,816.441,8.361,-0.00081,0.00461,1.10481
105.975,2000,0,91.24,0.000002697398,0.000002697398,0.000002697398,0.99999994,0,0,0,0,0,0,1,1,0,0,0,false,false,true,-0.96,423.31,17.01,-0.003336681,0.00335826,0.71602386,0.69805956,-51.371,820.16095,8.361,-0.00081,0.00401,1.28231
105.98333,2000,0,91.24,0.000002697398,0.000002697398,0.000002697398,0.99999994,0,0,0,0,0,0,1,1,0,0,0,false,false,true,-1.39,430.13998,17.01,-0.0033474711,0.003352866,0.71974343,0.69422394,-59.911,823.761,8.361,-0.00071,0.00321,1.43651
105.99167,2000,0,91.24,0.000002697398,0.000002697398,0.000002697398,0.99999994,0,0,0,0,0,0,1,1,0,0,0,false,false,true,-1.89,437,17.01,-0.0033582605,0.0033420762,0.7238866,0.6899026,-68.440994,827.21094,8.361,-0.00071,0.00241,1.57121
106,2000,0,91.24,0.000002697398,0.000002697398,0.000002697398,0.99999994,0,0,0,0,0,0,1,1,0,0,0,false,false,true,-2.46,443.88998,17.01,-0.003374445,0.0033312866,0.72838664,0.6851498,-77.031,830.46094,8.361,-0.00071,0.0017099999,1.68961
106.00833,2000,0,91.24,0.000002697398,0.000002697398,0.000002697398,0.99999994,0,0,0,0,0,0,1,1,0,0,0,false,false,true,-3.1,450.81,17.01,-0.0033960242,0.0033151023,0.7331937,0.68000317,-85.721,833.501,8.361,-0.00061,0.0010099999,1.79441
106.01667,2000,0,91.24,0.000002697398,0.000002697398,0.000002697398,0.99999994,0,0,0,0,0,0,1,1,0,0,0,false,false,true,-3.81,457.75998,17.01,-0.0034176034,0.003293523,0.7382591,0.67450047,-94.510994,836.30096,8.361,-0.00051,0.00040999998,1.88781
106.025,2000,0,91.24,0.000002697398,0.000002697398,0.000002697398,0.99999994,0,0,0,0,0,0,1,1,0,0,0,false,false,true,-4.6,464.72998,17.01,-0.0034445773,0.003271944,0.7435404,0.668674,-103.381,838.85095,8.351,-0.00051,0,1.9715099
106.03333,2000,0,91.24,0.000002697398,0.000002697398,0.000002697398,0.99999994,0,0,0,0,0,0,1,1,0,0,0,false,false,true,-5.46,471.72,17.01,-0.0034715512,0.0032449698,0.74900645,0.6625455,-112.311,841.1409,8.351,-0.00040999998,-0.00030999997,2.04701
106.041664,2000,0,91.24,0.000002697398,0.000002697398,0.000002697398,0.99999994,0,0,0,0,0,0,1,1,0,0,0,false,false,true,-6.3999996,478.72998,17.01,-0.0034985254,0.0032179959,0.7546319,0.6561311,-121.251,843.18097,8.351,-0.00030999997,-0.00061,2.1154099
106.05,2000,0,91.24,0.000002697398,0.000002697398,0.000002697398,0.99999994,0,0,0,0,0,0,1,1,0,0,0,false,false,true,-7.41,485.75998,17.01,-0.0035308942,0.003185627,0.7603874,0.64945227,-130.16101,844.97095,8.351,-0.00021,-0.00091,2.17761
106.058334,2000,0,91.24,0.000002697398,0.000002697398,0.000002697398,0.99999994,0,0,0,0,0,0,1,1,0,0,0,false,false,true,-8.49,492.8,17.01,-0.0035632628,0.0031532582,0.76624954,0.6425254,-138.97101,846.53094,8.351,-0.00021,-0.00111,2.23441
106.066666,2000,0,91.24,0.000002697398,0.000002697398,0.000002697398,0.99999994,0,0,0,0,0,0,1,1,0,0,0,false,false,true,-9.65,499.84998,17.01,-0.0035956316,0.0031154947,0.7722004,0.6353611,-147.621,847.871,8.351,-0.00010999999,-0.0012099999,2.28631
106.075,2000,0,91.24,0.000002697398,0.000002697398,0.000002697398,0.99999994,0,0,0,0,0,0,1,1,0,0,0,false,false,true,-10.88,506.91998,17.01,-0.0036280004,0.0030777312,0.77821845,0.6279755,-156.041,849.03094,8.351,-0.00010999999,-0.00131,2.3338099
106.083336,2000,0,91.24,0.000002697398,0.000002697398,0.000002697398,0.99999994,0,0,0,0,0,0,1,1,0,0,0,false,false,true,-12.179999,514,17.01,-0.0036603692,0.0030399675,0.78428715,0.6203796,-164.151,850.04095,8.351,-0.00010999999,-0.00131,2.37731
106.09167,2000,0,91.24,0.000002697398,0.000002697398,0.000002697398,0.99999994,0,0,0,0,0,0,1,1,0,0,0,false,false,true,-13.549999,521.08,17.01,-0.003692738,0.003002204,0.79039514,0.61257875,-171.871,850.9509,8.351,0,-0.0014099999,2.41701
106.1,2000,0,91.24,0.000002697398,0.000002697398,0.000002697398,0.99999994,0,0,0,0,0,0,1,1,0,0,0,false,false,true,-14.98,528.17,17.01,-0.0037251068,0.0029590456,0.7965233,0.604589,-179.121,851.80096,8.341001,0,-0.0014099999,2.4530098
106.10833,2000,0,91.24,0.000002697398,0.000002697398,0.000002697398,0.99999994,0,0,0,0,0,0,1,1,0,0,0,false,false,true,-16.47,535.26996,17.01,-0.0037574752,0.0029158872,0.80266136,0.5964158,-185.811,852.67096,8.341001,0,-0.0014099999,2.48561
106.11667,2000,0,91.24,0.000002697398,0.000002697398,0.000002697398,0.99999994,0,0,0,0,0,0,1,1,0,0,0,false,false,true,-18.02,542.38,17.01,-0.0037898442,0.002872729,0.8087959,0.5880701,-191.841,853.621,8.341001,0,-0.0014099999,2.51471
106.125,2000,0,91.24,0.000002697398,0.000002697398,0.000002697398,0.99999994,0,0,0,0,0,0,1,1,0,0,0,false,false,true,-19.619999,549.49,17.01,-0.003822213,0.0028295706,0.81491387,0.5795624,-197.131,854.74097,8.331,0,-0.0014099999,2.54051
106.13333,2000,0,91.24,0.000002697398,0.000002697398,0.000002697398,0.99999994,0,0,0,0,0,0,1,1,0,0,0,false,false,true,-21.26,556.61,17.01,-0.0038545814,0.002786412,0.8210031,0.5709037,-201.571,856.121,8.331,0,-0.0014099999,2.5629098
106.14167,2000,0,91.24,0.000002697398,0.000002697398,0.000002697398,0.99999994,0,0,0,0,0,0,1,1,0,0,0,false,false,true,-22.939999,563.74,17.01,-0.0038869507,0.0027432537,0.8270523,0.56210476,-206.211,857.35095,8.331,0,-0.0014099999,2.58501
106.15,2000,0,91.24,0.000002697398,0.000002697398,0.000002697398,0.99999994,0,0,0,0,0,0,1,1,0,0,0,false,false,true,-24.66,570.88,17.01,-0.0039193192,0.0027000955,0.83305764,0.5531656,-211.041,858.42096,8.331,0,-0.00131,2.6068099
106.15833,2000,0,91.24,0.000002697398,0.000002697398,0.000002697398,0.99999994,0,0,0,0,0,0,1,1,0,0,0,false,false,true,-26.42,578.02997,17.01,-0.003951688,0.002656937,0.8390158,0.54408616,-216.061,859.321,8.331,0,-0.00131,2.6284099
106.166664,2000,0,91.24,0.000002697398,0.000002697398,0.000002697398,0.99999994,0,0,0,0,0,0,1,1,0,0,0,false,false,true,-28.22,585.19,17.01,-0.003984057,0.0026083838,0.84492314,0.5348664,-221.251,860.04095,8.331,0,-0.0012099999,2.6498098
106.175,2000,0,91.24,0.000002697398,0.000002697398,0.000002697398,0.99999994,0,0,0,0,0,0,1,1,0,0,0,false,false,true,-30.06,592.36,17.01,-0.004016426,0.002559831,0.85077626,0.52550644,-226.61101,860.58093,8.331,0,-0.00111,2.67091
106.183334,2000,0,91.24,0.000002697398,0.000002697398,0.000002697398,0.99999994,0,0,0,0,0,0,1,1,0,0,0,false,false,true,-31.949999,599.52997,17.01,-0.0040487945,0.0025112776,0.8565716,0.51600605,-232.131,860.941,8.331,0,-0.0010099999,2.69181
106.191666,2000,0,91.24,0.000002697398,0.000002697398,0.000002697398,0.99999994,0,0,0,0,0,0,1,1,0,0,0,false,false,true,-33.88,606.7,17.01,-0.004081163,0.0024627245,0.86230564,0.5063656,-237.801,861.11096,8.331,0,-0.00091,2.7125099
106.2,2000,0,91.24,0.000002697398,0.000002697398,0.000002697398,0.99999994,0,0,0,0,0,0,1,1,0,0,0,false,false,true,-35.86,613.88,17.01,-0.0041135317,0.0024141711,0.86797196,0.49659014,-243.61101,861.09094,8.331,0,-0.00081,2.73301
106.208336,2000,0,91.24,0.000002697398,0.000002697398,0.000002697398,0.99999994,0,0,0,0,0,0,1,1,0,0,0,false,false,true,-37.89,621.06,17.01,-0.0041459007,0.002365618,0.87357026,0.48667452,-249.561,860.871,8.331,0,-0.00071,2.75331
106.21667,2000,0,91.24,0.000002697398,0.000002697398,0.000002697398,0.99999994,0,0,0,0,0,0,1,1,0,0,0,false,false,true,-39.969997,628.23,17.01,-0.0041728746,0.002317065,0.87909716,0.47661862,-255.641,860.46094,8.331,0,-0.00061,2.7734098
106.225,2000,0,91.24,0.000002697398,0.000002697398,0.000002697398,0.99999994,0,0,0,0,0,0,1,1,0,0,0,false,false,true,-42.1,635.39996,17.01,-0.004199849,0.002268512,0.8845464,0.46642777,-261.841,859.84094,8.331,0,-0.00051,2.79331
106.23333,2000,0,91.24,0.000002697398,0.000002697398,0.000002697398,0.99999994,0,0,0,0,0,0,1,1,0,0,0,false,false,true,-44.28,642.57,17.01,-0.0042268224,0.0022199585,0.8899146,0.4561021,-268.151,859.02094,8.331,0.00010999999,-0.00040999998,2.81301
106.24167,2000,0,91.24,0.000002697398,0.000002697398,0.000002697398,0.99999994,0,0,0,0,0,0,1,1,0,0,0,false,false,true,-46.51,649.73,17.01,-0.0042537972,0.0021714056,0.8951987,0.44564155,-274.561,857.99097,8.331,0.00010999999,-0.00040999998,2.83251
106.25,2000,0,91.24,0.000002697398,0.000002697398,0.000002697398,0.99999994,0,0,0,0,0,0,1,1,0,0,0,false,false,true,-48.8,656.88,17.01,-0.00428077,0.002117457,0.90039533,0.43504608,-281.061,856.761,8.331,0.00010999999,-0.00040999998,2.85181
106.25833,2000,0,91.24,0.000002697398,0.000002697398,0.000002697398,0.99999994,0,0,0,0,0,0,1,1,0,0,0,false,false,true,-51.14,664.01996,17.01,-0.0043077446,0.0020635095,0.9055016,0.4243158,-287.651,855.321,8.331,0.00010999999,-0.00030999997,2.87091
106.26667,2000,0,91.24,0.000002697398,0.000002697398,0.000002697398,0.99999994,0,0,0,0,0,0,1,1,0,0,0,false,false,true,-53.539997,671.14996,17.01,-0.004334719,0.0020095618,0.9105115,0.4134561,-294.321,853.66095,8.331,0.00010999999,-0.00021,2.8898098
106.275,2000,0,91.24,0.000002697398,0.000002697398,0.000002697398,0.99999994,0,0,0,0,0,0,1,1,0,0,0,false,false,true,-55.989998,678.26,17.01,-0.0043616924,0.0019556135,0.9154244,0.4024614,-301.061,851.79095,8.331,0.00010999999,-0.00021,2.90851
106.28333,2000,0,91.24,0.000002697398,0.000002697398,0.000002697398,0.99999994,0,0,0,0,0,0,1,1,0,0,0,false,false,true,-58.5,685.36,17.01,-0.004383271,0.0019016655,0.92023474,0.3913373,-307.861,849.71094,8.331,0.00010999999,-0.00010999999,2.9270098
106.291664,2000,0,91.24,0.000002697398,0.000002697398,0.000002697398,0.99999994,0,0,0,0,0,0,1,1,0,0,0,false,false,true,-61.07,692.44,17.01,-0.004404851,0.0018477177,0.9249397,0.3800837,-314.711,847.42096,8.331,0.00010999999,-0.00010999999,2.9453099
106.3,2000,0,91.24,0.000002697398,0.000002697398,0.000002697398,0.99999994,0,0,0,0,0,0,1,1,0,0,0,false,false,true,-63.69,699.5,17.01,-0.0044264304,0.0017937699,0.9295337,0.3687061,-321.611,844.91095,8.331,0.00010999999,-0.00010999999,2.96341
106.308334,2000,0,91.24,0.000002697398,0.000002697398,0.000002697398,0.99999994,0,0,0,0,0,0,1,1,0,0,0,false,false,true,-66.369995,706.54,17.01,-0.004448009,0.0017398217,0.93401605,0.3571989,-328.551,842.191,8.331,0.00010999999,-0.00010999999,2.98141
106.316666,2000,0,91.24,0.000002697398,0.000002697398,0.000002697398,0.99999994,0,0,0,0,0,0,1,1,0,0,0,false,false,true,-69.11,713.56,17.01,-0.004469589,0.001685874,0.9383816,0.34556773,-335.521,839.261,8.331,0.00010999999,-0.00010999999,2.99921
106.325,2000,0,91.24,0.000002697398,0.000002697398,0.000002697398,0.99999994,0,0,0,0,0,0,1,1,0,0,0,false,false,true,-71.909996,720.55,17.01,-0.0044911676,0.0016319258,0.9426274,0.33381236,-342.511,836.121,8.331,0.00010999999,-0.00010999999,3.01681
106.333336,2000,0,91.24,0.000002697398,0.000002697398,0.000002697398,0.99999994,0,0,0,0,0,0,1,1,0,0,0,false,false,true,-74.76,727.51996,17.01,-0.004512747,0.0015725831,0.9467485,0.32193843,-349.521,832.77094,8.331,0.00021,-0.00010999999,3.03421
106.34167,2000,0,91.24,0.000002697398,0.000002697398,0.000002697398,0.99999994,0,0,0,0,0,0,1,1,0,0,0,false,false,true,-77.67,734.45996,17.01,-0.004534326,0.0015132403,0.9507422,0.3099457,-356.541,829.21094,8.331,0.00021,0,3.05141
106.35,2000,0,91.24,0.000002697398,0.000002697398,0.000002697398,0.99999994,0,0,0,0,0,0,1,1,0,0,0,false,false,true,-80.64,741.37,17.01,-0.0045505106,0.0014538976,0.9546056,0.2978343,-363.561,825.4509,8.331,0.00021,0,3.0685098
106.35833,2000,0,91.24,0.000002697398,0.000002697398,0.000002697398,0.99999994,0,0,0,0,0,0,1,1,0,0,0,false,false,true,-83.67,748.25,17.01,-0.0045666946,0.0013945547,0.95833564,0.2856043,-370.57098,821.48096,8.331,0.00021,0,3.0854099
106.36667,2000,0,91.24,0.000002697398,0.000002697398,0.000002697398,0.99999994,0,0,0,0,0,0,1,1,0,0,0,false,false,true,-86.759995,755.1,17.01,-0.0045828796,0.0013352121,0.96192807,0.27326095,-377.57098,817.311,8.331,0.00021,0,3.10211
106.375,2000,0,91.24,0.000002697398,0.000002697398,0.000002697398,0.99999994,0,0,0,0,0,0,1,1,0,0,0,false,false,true,-89.909996,761.91,17.01,-0.0045990637,0.0012758692,0.96537983,0.26080433,-384.561,812.941,8.331,0.00021,0,3.11871
106.38333,2000,0,91.24,0.000002697398,0.000002697398,0.000002697398,0.99999994,0,0,0,0,0,0,1,1,0,0,0,false,false,true,-93.11,768.68,17.01,-0.004615248,0.0012165265,0.9686868,0.24823977,-391.521,808.371,8.331,0.00021,0,3.13511
106.39167,2000,0,91.24,0.000002697398,0.000002697398,0.000002697398,0.99999994,0,0,0,0,0,0,1,1,0,0,0,false,false,true,-96.369995,775.42,17.01,-0.0046314327,0.0011571839,0.9718463,0.23556742,-398.461,803.61096,8.331,0.00021,0,3.15131
106.4,2000,0,91.24,0.000002697398,0.000002697398,0.000002697398,0.99999994,0,0,0,0,0,0,1,1,0,0,0,false,false,true,-99.689995,782.12,17.01,-0.0046476168,0.001097841,0.97485536,0.22278704,-405.361,798.66095,8.331,0.00021,0,3.16741
106.40833,2000,0,91.24,0.000002697398,0.000002697398,0.000002697398,0.99999994,0,0,0,0,0,0,1,1,0,0,0,false,false,true,-103.07,788.77997,17.01,-0.0046638013,0.0010331034,0.97771025,0.20990418,-412.221,793.52094,8.331,0.00021,0,3.18331
106.416664,2000,0,91.24,0.000002697398,0.000002697398,0.000002697398,0.99999994,0,0,0,0,0,0,1,1,0,0,0,false,false,true,-106.509995,795.38995,17.01,-0.004674591,0.000968366,0.98040813,0.19691892,-419.041,788.191,8.331,0.00021,0,3.19901
106.425,2000,0,91.24,0.000002697398,0.000002697398,0.000002697398,0.99999994,0,0,0,0,0,0,1,1,0,0,0,false,false,true,-110,801.95996,17.01,-0.0046853805,0.00090362836,0.9829452,0.18383645,-425.811,782.68097,8.331,0.00010999999,0,3.2146099
106.433334,2000,0,91.24,0.000002697398,0.000002697398,0.000002697398,0.99999994,0,0,0,0,0,0,1,1,0,0,0,false,false,true,-113.549995,808.48,17.01,-0.00469617,0.0008388908,0.9853189,0.17065695,-432.531,776.99097,8.331,0.00010999999,0,3.23001
106.441666,2000,0,91.24,0.000002697398,0.000002697398,0.000002697398,0.99999994,0,0,0,0,0,0,1,1,0,0,0,false,false,true,-117.149994,814.95,17.01,-0.00470696,0.0007741533,0.98752654,0.1573803,-439.191,771.131,8.331,0.00010999999,0,3.2453098
106.45,2000,0,91.24,0.000002697398,0.000002697398,0.000002697398,0.99999994,0,0,0,0,0,0,1,1,0,0,0,false,false,true,-120.81,821.38,17.01,-0.0047177486,0.00070941565,0.9895643,0.14401196,-445.791,765.10095,8.331,0,0,3.2604098
106.458336,2000,0,91.24,0.000002697398,0.000002697398,0.000002697398,0.99999994,0,0,0,0,0,0,1,1,0,0,0,false,false,true,-124.52,827.76,17.01,-0.004728539,0.0006446782,0.99142927,0.13055728,-452.32098,758.90094,8.331,0,0,3.27541
106.46667,2000,0,91.24,0.000002697398,0.000002697398,0.000002697398,0.99999994,0,0,0,0,0,0,1,1,0,0,0,false,false,true,-128.29,834.07996,17.01,-0.0047393288,0.0005799406,0.9931185,0.117016256,-458.781,752.54095,8.331,0,0,3.29021
106.475,2000,0,91.24,0.000002697398,0.000002697398,0.000002697398,0.99999994,0,0,0,0,0,0,1,1,0,0,0,false,false,true,-132.11,840.35,17.01,-0.004744723,0.000515203,0.9946295,0.103388995,-465.171,746.02094,8.331,0,0,3.30491
106.48333,2000,0,91.24,0.000002697398,0.000002697398,0.000002697398,0.99999994,0,0,0,0,0,0,1,1,0,0,0,false,false,true,-135.98999,846.57,17.01,-0.004750117,0.00045046542,0.995959,0.089680724,-471.491,739.34094,8.331,0,0,3.3194098
106.49167,2000,0,91.24,0.000002697398,0.000002697398,0.000002697398,0.99999994,0,0,0,0,0,0,1,1,0,0,0,false,false,true,-139.92,852.73,17.01,-0.0047555123,0.00038572788,0.9971041,0.07589693,-477.741,732.511,8.331,0,0,3.3338099
106.5,2000,0,91.24,0.000002697398,0.000002697398,0.000002697398,0.99999994,0,0,0,0,0,0,1,1,0,0,0,false,false,true,-143.9,858.82996,17.01,-0.004760907,0.00032099034,0.99806225,0.062037703,-483.911,725.53094,8.331,0,0,3.3480098
106.50833,2000,0,91.24,0.000002697398,0.000002697398,0.000002697398,0.99999994,0,0,0,0,0,0,1,1,0,0,0,false,false,true,-147.93,864.88,17.01,-0.004766302,0.0002562528,0.9988307,0.04810826,-490.001,718.40094,8.331,0,0,3.36211
106.51667,2000,0,91.24,0.000002697398,0.000002697398,0.000002697398,0.99999994,0,0,0,0,0,0,1,1,0,0,0,false,false,true,-152.01,870.87,17.01,-0.004771697,0.00019151527,0.99940646,0.03411416,-496.011,711.131,8.331,0,0.00010999999,3.3761098
106.525,2000,0,91.24,0.000002697398,0.000002697398,0.000002697398,0.99999994,0,0,0,0,0,0,1,1,0,0,0,false,false,true,-156.14,876.8,17.01,-0.0047716964,0.00012677768,0.99978745,0.020049842,-501.941,703.72095,8.331,0,0.00010999999,3.38991
106.53333,2000,0,91.24,0.000002697398,0.000002697398,0.000002697398,0.99999994,0,0,0,0,0,0,1,1,0,0,0,false,false,true,-160.31999,882.66,17.01,-0.0047716973,0.00006204016,0.99997103,0.005926184,-507.791,696.17096,8.331,0,0.00010999999,3.40361
106.541664,2000,0,91.24,0.000002697398,0.000002697398,0.000002697398,0.99999994,0,0,0,0,0,0,1,1,0,0,0,false,false,true,-164.55,888.45996,17.01,-0.004771697,-0.000008092194,0.99995446,-0.008256777,-513.55096,688.49097,8.331,0,0.00010999999,3.41711
106.55,2000,0,91.24,0.000002697398,0.000002697398,0.000002697398,0.99999994,0,0,0,0,0,0,1,1,0,0,0,false,false,true,-168.83,894.19995,17.01,-0.004771697,-0.00007822454,0.99973553,-0.022493687,-519.23096,680.68097,8.331,0,0.00010999999,3.43051
106.558334,2000,0,91.24,0.000002697398,0.000002697398,0.000002697398,0.99999994,0,0,0,0,0,0,1,1,0,0,0,false,false,true,-173.16,899.87,17.01,-0.004771697,-0.00014835689,0.999312,-0.036779147,-524.831,672.74097,8.331,0,0.00021,3.44381
106.566666,2000,0,91.24,0.000002697398,0.000002697398,0.000002697398,0.99999994,0,0,0,0,0,0,1,1,0,0,0,false,false,true,-177.53,905.48,17.01,-0.004766302,-0.00021848925,0.9986814,-0.051113207,-530.34094,664.67096,8.331,0,0.00021,3.45691
106.575,2000,0,91.24,0.000002697398,0.000002697398,0.000002697398,0.99999994,0,0,0,0,0,0,1,1,0,0,0,false,false,true,-181.95,911.01996,17.01,-0.004760907,-0.00028862155,0.99784166,-0.06549037,-535.77094,656.48096,8.331,0,0.00021,3.46991
106.583336,2000,0,91.24,0.000002697398,0.000002697398,0.000002697398,0.99999994,0,0,0,0,0,0,1,1,0,0,0,false,false,true,-186.40999,916.49,17.01,-0.0047555123,-0.0003587539,0.99679047,-0.0799107,-541.121,648.16095,8.331,0,0.00021,3.48271
106.59167,2000,0,91.24,0.000002697398,0.000002697398,0.000002697398,0.99999994,0,0,0,0,0,0,1,1,0,0,0,false,false,true,-190.92,921.88995,17.01,-0.004750117,-0.00042888624,0.9955257,-0.094368845,-546.391,639.72095,8.331,0,0.00021,3.49541
106.6,2000,0,91.24,0.000002697398,0.000002697398,0.000002697398,0.99999994,0,0,0,0,0,0,1,1,0,0,0,false,false,true,-195.47,927.22,17.01,-0.004744723,-0.00049901864,0.9940457,-0.108859316,-551.571,631.16095,8.331,0,0.00021,3.50791
106.60833,2000,0,91.24,0.000002697398,0.000002697398,0.000002697398,0.99999994,0,0,0,0,0,0,1,1,0,0,0,false,false,true,-200.06999,932.48,17.01,-0.004733934,-0.000569151,0.99234843,-0.123376764,-556.67096,622.48096,8.331,0,0.00021,3.52031
106.61667,2000,0,91.24,0.000002697398,0.000002697398,0.000002697398,0.99999994,0,0,0,0,0,0,1,1,0,0,0,false,false,true,-204.70999,937.67,17.01,-0.0047231433,-0.0006392833,0.9904316,-0.13792114,-561.691,613.67096,8.331,0,0.00021,3.53251
106.625,2000,0,91.24,0.000002697398,0.000002697398,0.000002697398,0.99999994,0,0,0,0,0,0,1,1,0,0,0,false,false,true,-209.39,942.77997,17.01,-0.0047123544,-0.0007094157,0.9882947,-0.1524818,-566.641,604.74097,8.331,-0.00010999999,0.00021,3.54451
106.63333,2000,0,91.24,0.000002697398,0.000002697398,0.000002697398,0.99999994,0,0,0,0,0,0,1,1,0,0,0,false,false,true,-214.11,947.82,17.01,-0.0047015646,-0.000779548,0.9859354,-0.16705859,-571.511,595.691,8.331,-0.00010999999,0.00021,3.5564098
106.64167,2000,0,91.24,0.000002697398,0.000002697398,0.000002697398,0.99999994,0,0,0,0,0,0,1,1,0,0,0,false,false,true,-218.87,952.77997,17.01,-0.004690775,-0.0008496804,0.98335135,-0.18165155,-576.30096,586.511,8.331,-0.00010999999,0.00021,3.56811
106.65,2000,0,91.24,0.000002697398,0.000002697398,0.000002697398,0.99999994,0,0,0,0,0,0,1,1,0,0,0,false,false,true,-223.67,957.67,17.01,-0.0046745907,-0.00091981277,0.98054224,-0.19624995,-581.02094,577.21094,8.331,-0.00021,0.00021,3.5796099
106.65833,2000,0,91.24,0.000002697398,0.000002697398,0.000002697398,0.99999994,0,0,0,0,0,0,1,1,0,0,0,false,false,true,-228.51,962.48,17.01,-0.0046584057,-0.0009899449,0.97750586,-0.21085368,-585.66095,567.78094,8.331,-0.00021,0.00021,3.59091
106.666664,2000,0,91.24,0.000002697398,0.000002697398,0.000002697398,0.99999994,0,0,0,0,0,0,1,1,0,0,0,false,false,true,-233.39,967.20996,17.01,-0.004642222,-0.0010600775,0.9742413,-0.22545746,-590.131,558.21094,8.331,-0.00030999997,0.00021,3.60461
106.675,2000,0,91.24,0.000002697398,0.000002697398,0.000002697398,0.99999994,0,0,0,0,0,0,1,1,0,0,0,false,false,true,-238.31,971.86,17.01,-0.004626037,-0.0011302097,0.9707459,-0.24006124,-594.43097,548.501,8.331,-0.00030999997,0.00010999999,3.62071
106.683334,2000,0,91.24,0.000002697398,0.000002697398,0.000002697398,0.99999994,0,0,0,0,0,0,1,1,0,0,0,false,false,true,-243.26,976.43,17.01,-0.004609853,-0.0012003421,0.9670147,-0.2546758,-598.561,538.65094,8.331,-0.00030999997,0.00010999999,3.6391098
106.691666,2000,0,91.24,0.000002697398,0.000002697398,0.000002697398,0.99999994,0,0,0,0,0,0,1,1,0,0,0,false,false,true,-248.25,980.92,17.01,-0.004588274,-0.0012704745,0.9630427,-0.26930654,-602.52094,528.67096,8.331,-0.00040999998,0.00010999999,3.6598098
106.7,2000,0,91.24,0.000002697398,0.000002697398,0.000002697398,0.99999994,0,0,0,0,0,0,1,1,0,0,0,false,false,true,-253.26999,985.32996,17.01,-0.0045666946,-0.0013406068,0.9588246,-0.28395888,-606.311,518.561,8.331,-0.00040999998,0,3.6828098
106.708336,2000,0,91.24,0.000002697398,0.000002697398,0.000002697398,0.99999994,0,0,0,0,0,0,1,1,0,0,0,false,false,true,-258.32,989.64996,17.01,-0.004545116,-0.0014107393,0.9543545,-0.2986382,-609.93097,508.32098,8.331,-0.00040999998,0,3.7081099
106.71667,2000,0,91.24,0.000002697398,0.000002697398,0.000002697398,0.99999994,0,0,0,0,0,0,1,1,0,0,0,false,false,true,-263.4,993.88995,17.01,-0.004523536,-0.0014808716,0.9496258,-0.3133498,-613.381,497.961,8.331,-0.00040999998,0,3.73571
106.725,2000,0,91.24,0.000002697398,0.000002697398,0.000002697398,0.99999994,0,0,0,0,0,0,1,1,0,0,0,false,false,true,-268.50998,998.04,17.01,-0.0045019574,-0.0015510039,0.94463307,-0.3280939,-616.66095,487.481,8.331,-0.00040999998,0,3.7655098
106.73333,2000,0,91.24,0.000002697398,0.000002697398,0.000002697398,0.99999994,0,0,0,0,0,0,1,1,0,0,0,false,false,true,-273.65,1002.1,17.01,-0.004474983,-0.0016211362,0.93936867,-0.34287566,-619.77094,476.88098,8.331,-0.00051,0,3.7976098
106.74167,2000,0,91.24,0.000002697398,0.000002697398,0.000002697398,0.99999994,0,0,0,0,0,0,1,1,0,0,0,false,false,true,-278.81,1006.07,17.01,-0.004448009,-0.0016912686,0.9338262,-0.35769522,-622.71094,466.161,8.331,-0.00051,-0.00010999999,3.83191
106.75,2000,0,91.24,0.000002697398,0.000002697398,0.000002697398,0.99999994,0,0,0,0,0,0,1,1,0,0,0,false,false,true,-284,1009.94995,17.01,-0.0044210353,-0.001761401,0.92799664,-0.37255797,-625.48096,455.32098,8.331,-0.00051,-0.00010999999,3.86851
106.75833,2000,0,91.24,0.000002697398,0.000002697398,0.000002697398,0.99999994,0,0,0,0,0,0,1,1,0,0,0,false,false,true,-289.21,1013.74,17.01,-0.0043940614,-0.0018315333,0.9218703,-0.38746923,-628.071,444.361,8.331,-0.00051,-0.00021,3.90731
106.76667,2000,0,91.24,0.000002697398,0.000002697398,0.000002697398,0.99999994,0,0,0,0,0,0,1,1,0,0,0,false,false,true,-294.44,1017.44,17.01,-0.004361693,-0.0019016658,0.91544116,-0.40242368,-630.451,433.291,8.331,-0.00051,-0.00021,3.94871
106.775,2000,0,91.24,0.000002697398,0.000002697398,0.000002697398,0.99999994,0,0,0,0,0,0,1,1,0,0,0,false,false,true,-299.69,1021.05,17.01,-0.004329324,-0.0019717978,0.90869564,-0.41743204,-632.511,422.111,8.331,-0.00051,-0.00030999997,3.9925098
106.78333,2000,0,91.24,0.000002697398,0.000002697398,0.000002697398,0.99999994,0,0,0,0,0,0,1,1,0,0,0,false,false,true,-304.96,1024.57,17.01,-0.004296955,-0.0020419303,0.9016266,-0.43248898,-634.16095,410.801,8.331,-0.00051,-0.00030999997,4.03761
106.791664,2000,0,91.24,0.000002697398,0.000002697398,0.000002697398,0.99999994,0,0,0,0,0,0,1,1,0,0,0,false,false,true,-310.24,1027.99,17.01,-0.004264586,-0.0021120626,0.8942239,-0.44759443,-635.40094,399.371,8.331,-0.00040999998,-0.00030999997,4.08401
106.8,2000,0,91.24,0.000002697398,0.000002697398,0.000002697398,0.99999994,0,0,0,0,0,0,1,1,0,0,0,false,false,true,-315.53,1031.32,17.01,-0.0042268224,-0.002182195,0.88647956,-0.4627431,-636.22095,387.851,8.331,-0.00040999998,-0.00030999997,4.13161
106.808334,2000,0,91.24,0.000002697398,0.000002697398,0.000002697398,0.99999994,0,0,0,0,0,0,1,1,0,0,0,false,false,true,-320.83,1034.5499,17.01,-0.0041890587,-0.002252327,0.8783822,-0.47793487,-636.631,376.251,8.331,-0.00030999997,-0.00030999997,4.18031
106.816666,2000,0,91.24,0.000002697398,0.000002697398,0.000002697398,0.99999994,0,0,0,0,0,0,1,1,0,0,0,false,false,true,-326.13998,1037.69,17.01,-0.0041512954,-0.0023224596,0.8699261,-0.49315906,-636.621,364.591,8.331,-0.00021,-0.00030999997,4.2301097
106.825,2000,0,91.24,0.000002697398,0.000002697398,0.000002697398,0.99999994,0,0,0,0,0,0,1,1,0,0,0,false,false,true,-331.44998,1040.73,17.01,-0.004108137,-0.002392592,0.86109865,-0.5084156,-636.16095,353.041,8.331,-0.00010999999,-0.00030999997,4.27981
106.833336,2000,0,91.24,0.000002697398,0.000002697398,0.000002697398,0.99999994,0,0,0,0,0,0,1,1,0,0,0,false,false,true,-336.75,1043.6699,17.01,-0.0040649786,-0.0024627245,0.8518965,-0.5236884,-635.261,341.671,8.331,0,-0.00030999997,4.32891
106.84167,2000,0,91.24,0.000002697398,0.000002697398,0.000002697398,0.99999994,0,0,0,0,0,0,1,1,0,0,0,false,false,true,-342.03998,1046.52,17.01,-0.00402182,-0.0025328568,0.8423137,-0.5389665,-633.93097,330.491,8.331,0,-0.00030999997,4.37731
106.85,2000,0,91.24,0.000002697398,0.000002697398,0.000002697398,0.99999994,0,0,0,0,0,0,1,1,0,0,0,false,false,true,-347.32,1049.27,17.01,-0.0039786627,-0.0026029893,0.8323438,-0.5542392,-632.18097,319.531,8.331,0,-0.00021,4.4250097
106.85833,2000,0,91.24,0.000002697398,0.000002697398,0.000002697398,0.99999994,0,0,0,0,0,0,1,1,0,0,0,false,false,true,-352.59,1051.9299,17.01,-0.003930109,-0.0026731216,0.82198423,-0.5694904,-630.04095,308.801,8.331,0.00010999999,-0.00010999999,4.47201
106.86667,2000,0,91.24,0.000002697398,0.000002697398,0.000002697398,0.99999994,0,0,0,0,0,0,1,1,0,0,0,false,false,true,-357.84,1054.5,17.01,-0.0038815557,-0.0027486486,0.81122893,-0.5847091,-627.53094,298.321,8.331,0.00021,0,4.51831
106.875,2000,0,91.24,0.000002697398,0.000002697398,0.000002697398,0.99999994,0,0,0,0,0,0,1,1,0,0,0,false,false,true,-363.06998,1056.99,17.01,-0.003827608,-0.0028241756,0.80007625,-0.5998793,-624.66095,288.111,8.331,0.00021,0,4.56391
106.88333,2000,0,91.24,0.000002697398,0.000002697398,0.000002697398,0.99999994,0,0,0,0,0,0,1,1,0,0,0,false,false,true,-368.28,1059.39,17.01,-0.00377366,-0.0028997029,0.7885245,-0.6149848,-621.46094,278.171,8.331,0.00021,0,4.60871
106.89167,2000,0,91.24,0.000002697398,0.000002697398,0.000002697398,0.99999994,0,0,0,0,0,0,1,1,0,0,0,false,false,true,-373.46,1061.71,17.01,-0.003719712,-0.0029698352,0.7765685,-0.6300148,-617.951,268.521,8.331,0.00021,0,4.65271
106.9,2000,0,91.24,0.000002697398,0.000002697398,0.000002697398,0.99999994,0,0,0,0,0,0,1,1,0,0,0,false,false,true,-378.61,1063.95,17.01,-0.0036603692,-0.0030399675,0.7642119,-0.6449476,-614.16095,259.171,8.331,0.00021,0,4.69591
106.90833,2000,0,91.24,0.000002697398,0.000002697398,0.000002697398,0.99999994,0,0,0,0,0,0,1,1,0,0,0,false,false,true,-383.72998,1066.11,17.01,-0.0036010265,-0.0031101,0.7514454,-0.659778,-610.05096,250.141,8.331,0.00030999997,0.00010999999,4.7368097
106.916664,2000,0,91.24,0.000002697398,0.000002697398,0.000002697398,0.99999994,0,0,0,0,0,0,1,1,0,0,0,false,false,true,-388.81,1068.19,17.01,-0.0035416838,-0.0031802324,0.73827875,-0.6744788,-605.58093,241.451,8.331,0.00030999997,0.00021,4.77391
106.925,2000,0,91.24,0.000002697398,0.000002697398,0.000002697398,0.99999994,0,0,0,0,0,0,1,1,0,0,0,false,false,true,-393.86,1070.2,17.01,-0.0034769461,-0.0032503647,0.72471833,-0.6890287,-600.78094,233.121,8.331,0.00030999997,0.00030999997,4.80711
106.933334,2000,0,91.24,0.000002697398,0.000002697398,0.000002697398,0.99999994,0,0,0,0,0,0,1,1,0,0,0,false,false,true,-398.87,1072.14,17.01,-0.0034122085,-0.003320497,0.7107724,-0.70340586,-595.691,225.161,8.331,0.00030999997,0.00040999998,4.83641
106.941666,2000,0,91.24,0.000002697398,0.000002697398,0.000002697398,0.99999994,0,0,0,0,0,0,1,1,0,0,0,false,false,true,-403.83,1074.02,17.01,0.0033420757,0.0033906288,-0.6964519,0.7175875,-590.331,217.58101,8.331,0.00030999997,0.00051,4.8618097
106.95,2000,0,91.24,0.000002697398,0.000002697398,0.000002697398,0.99999994,0,0,0,0,0,0,1,1,0,0,0,false,false,true,-408.75,1075.83,17.01,0.003271944,0.0034607616,-0.68177265,0.7315485,-584.74097,210.381,8.331,0.00030999997,0.00061,4.8832097
106.958336,2000,0,91.24,0.000002697398,0.000002697398,0.000002697398,0.99999994,0,0,0,0,0,0,1,1,0,0,0,false,false,true,-413.62,1077.58,17.01,0.0032018116,0.0035308942,-0.66674805,0.7452678,-578.951,203.561,8.331,0.00030999997,0.00061,4.90071
106.96667,2000,0,91.24,0.000002697398,0.000002697398,0.000002697398,0.99999994,0,0,0,0,0,0,1,1,0,0,0,false,false,true,-418.44,1079.28,17.01,0.0031262843,0.0036010265,-0.6513944,0.7587242,-572.99097,197.121,8.331,0.00021,0.00071,4.91421
106.975,2000,0,91.24,0.000002697398,0.000002697398,0.000002697398,0.99999994,0,0,0,0,0,0,1,1,0,0,0,false,false,true,-423.21,1080.9199,17.01,0.003050757,0.003665764,-0.6357225,0.77190286,-566.90094,191.05101,8.331,0.00021,0.00071,4.92371
106.98333,2000,0,91.24,0.000002697398,0.000002697398,0.000002697398,0.99999994,0,0,0,0,0,0,1,1,0,0,0,false,false,true,-427.93,1082.51,17.01,0.00297523,0.0037305015,-0.61975384,0.78478163,-560.71094,185.351,8.321,0.00021,0.00071,4.92911
106.99167,2000,0,91.24,0.000002697398,0.000002697398,0.000002697398,0.99999994,0,0,0,0,0,0,1,1,0,0,0,false,false,true,-432.59998,1084.0499,17.01,0.0028943084,0.0037952394,-0.60350466,0.79734516,-554.451,180.011,8.321,0.00010999999,0.00081,4.93041
107,2000,0,91.24,0.000002697398,0.000002697398,0.000002697398,0.99999994,0,0,0,0,0,0,1,1,0,0,0,false,false,true,-437.22,1085.5499,17.01,0.0028133863,0.0038545819,-0.5869965,0.8095753,-548.15094,175.021,8.321,0.00010999999,0.00081,4.92751
107.00833,2000,0,91.24,0.000002697398,0.000002697398,0.000002697398,0.99999994,0,0,0,0,0,0,1,1,0,0,0,false,false,true,-441.78998,1087.01,17.01,0.002732464,0.0039139246,-0.570251,0.82145655,-541.85095,170.36101,8.321,0.00010999999,0.00081,4.9204097
107.01667,2000,0,91.24,0.000002697398,0.000002697398,0.000002697398,0.99999994,0,0,0,0,0,0,1,1,0,0,0,false,false,true,-446.31,1088.4299,17.01,0.0026515422,0.003973267,-0.55328965,0.83297515,-535.571,166.011,8.321,0,0.00081,4.90901
107.025,2000,0,91.24,0.000002697398,0.000002697398,0.000002697398,0.99999994,0,0,0,0,0,0,1,1,0,0,0,false,false,true,-450.77,1089.8099,17.01,0.0025652256,0.0040272153,-0.53613955,0.8441158,-529.331,161.951,8.321,0,0.00091,4.89321
107.03333,2000,0,91.24,0.000002697398,0.000002697398,0.000002697398,0.99999994,0,0,0,0,0,0,1,1,0,0,0,false,false,true,-455.18,1091.16,17.01,0.0024789087,0.004081163,-0.5188168,0.854872,-523.10095,158.11101,8.321,0,0.00091,4.87281
107.041664,2000,0,91.24,0.000002697398,0.000002697398,0.000002697398,0.99999994,0,0,0,0,0,0,1,1,0,0,0,false,false,true,-459.53998,1092.48,17.01,0.002392592,0.004135111,-0.5013538,0.86522907,-516.90094,154.491,8.321,0,0.00091,4.84801
107.05,2000,0,91.24,0.000002697398,0.000002697398,0.000002697398,0.99999994,0,0,0,0,0,0,1,1,0,0,0,false,false,true,-463.84998,1093.77,17.01,0.0023062753,0.0041836645,-0.4837775,0.8751779,-510.751,151.061,8.321,0,0.00081,4.81881
107.058334,2000,0,91.24,0.000002697398,0.000002697398,0.000002697398,0.99999994,0,0,0,0,0,0,1,1,0,0,0,false,false,true,-468.11,1095.03,17.01,0.0022199585,0.0042322176,-0.46610945,0.88471407,-504.651,147.811,8.311,0,0.00081,4.78551
107.066666,2000,0,91.24,0.000002697398,0.000002697398,0.000002697398,0.99999994,0,0,0,0,0,0,1,1,0,0,0,false,false,true,-472.31998,1096.26,17.01,0.0021336419,0.0042807707,-0.4483767,0.89383185,-498.501,144.671,8.311,-0.00010999999,0.00071,4.75131
107.075,2000,0,91.24,0.000002697398,0.000002697398,0.000002697398,0.99999994,0,0,0,0,0,0,1,1,0,0,0,false,false,true,-476.47,1097.47,17.01,0.002047325,0.004323929,-0.4305954,0.90253234,-492.32098,141.641,8.311,-0.00021,0.00061,4.7161098
107.083336,2000,0,91.24,0.000002697398,0.000002697398,0.000002697398,0.99999994,0,0,0,0,0,0,1,1,0,0,0,false,false,true,-480.56998,1098.65,17.01,0.0019610086,0.004367088,-0.41277635,0.91081977,-486.111,138.731,8.311,-0.00030999997,0.00051,4.68011
107.09167,2000,0,91.24,0.000002697398,0.000002697398,0.000002697398,0.99999994,0,0,0,0,0,0,1,1,0,0,0,false,false,true,-484.62,1099.8099,17.01,0.0018746917,0.004404851,-0.39493567,0.9186962,-479.871,135.94101,8.311,-0.00040999998,0.00040999998,4.64351
107.1,2000,0,91.24,0.000002697398,0.000002697398,0.000002697398,0.99999994,0,0,0,0,0,0,1,1,0,0,0,false,false,true,-488.62,1100.94,17.01,0.001788375,0.0044426145,-0.3770896,0.9261643,-473.60098,133.261,8.311,-0.00040999998,0.00030999997,4.6065097
107.10833,2000,0,91.24,0.000002697398,0.000002697398,0.000002697398,0.99999994,0,0,0,0,0,0,1,1,0,0,0,false,false,true,-492.56998,1102.0499,17.01,0.0017020582,0.0044749836,-0.35924354,0.93323153,-467.301,130.701,8.311,-0.00051,0.00021,4.56941
107.11667,2000,0,91.24,0.000002697398,0.000002697398,0.000002697398,0.99999994,0,0,0,0,0,0,1,1,0,0,0,false,false,true,-496.46,1103.14,17.01,0.0016157414,0.004507352,-0.34141368,0.9399009,-460.971,128.261,8.311,-0.00051,0.00021,4.5324097
107.125,2000,0,91.24,0.000002697398,0.000002697398,0.000002697398,0.99999994,0,0,0,0,0,0,1,1,0,0,0,false,false,true,-500.3,1104.21,17.01,0.0015294247,0.0045397207,-0.32360536,0.9461799,-454.611,125.931,8.311,-0.00051,0.00010999999,4.4956098
107.13333,2000,0,91.24,0.000002697398,0.000002697398,0.000002697398,0.99999994,0,0,0,0,0,0,1,1,0,0,0,false,false,true,-504.09,1105.26,17.01,0.0014431081,0.004566695,-0.3058241,0.95207596,-448.211,123.72099,8.311,-0.00051,0,4.45931
107.14167,2000,0,91.24,0.000002697398,0.000002697398,0.000002697398,0.99999994,0,0,0,0,0,0,1,1,0,0,0,false,false,true,-507.83,1106.2899,17.01,0.0013567912,0.004593669,-0.2880805,0.95759416,-441.781,121.620995,8.311,-0.00051,0,4.42371
107.15,2000,0,91.24,0.000002697398,0.000002697398,0.000002697398,0.99999994,0,0,0,0,0,0,1,1,0,0,0,false,false,true,-511.50998,1107.2999,17.01,0.0012704744,0.0046152477,-0.27038005,0.9627416,-435.311,119.641,8.311,-0.00051,0,4.38891
107.15833,2000,0,91.24,0.000002697398,0.000002697398,0.000002697398,0.99999994,0,0,0,0,0,0,1,1,0,0,0,false,false,true,-515.14,1108.2999,17.01,0.0011841578,0.0046368274,-0.2527283,0.9675254,-428.801,117.770996,8.311,-0.00051,0,4.3551097
107.166664,2000,0,91.24,0.000002697398,0.000002697398,0.000002697398,0.99999994,0,0,0,0,0,0,1,1,0,0,0,false,false,true,-518.70996,1109.28,17.01,0.001097841,0.004658406,-0.23513038,0.971952,-422.251,116.020996,8.311,-0.00051,-0.00010999999,4.32251
107.175,2000,0,91.24,0.000002697398,0.000002697398,0.000002697398,0.99999994,0,0,0,0,0,0,1,1,0,0,0,false,false,true,-522.23,1110.25,17.01,0.0010115242,0.0046745907,-0.21758646,0.9760293,-415.661,114.391,8.301001,-0.00051,-0.00021,4.29131
107.183334,2000,0,91.24,0.000002697398,0.000002697398,0.000002697398,0.99999994,0,0,0,0,0,0,1,1,0,0,0,false,false,true,-525.69,1111.2,17.01,0.00092520757,0.004690775,-0.20010184,0.9797634,-409.021,112.881,8.301001,-0.00040999998,-0.00021,4.26161
