time,ball_loc_x,ball_loc_y,ball_loc_z,ball_rot_x,ball_rot_y,ball_rot_z,ball_rot_w,ball_vel_x,ball_vel_y,ball_vel_z,ball_ang_x,ball_ang_y,ball_ang_z,player0_throttle,player0_steer,player0_pitch,player0_yaw,player0_roll,player0_jump,player0_boost,player0_handbrake,player0_loc_x,player0_loc_y,player0_loc_z,player0_rot_x,player0_rot_y,player0_rot_z,player0_rot_w,player0_vel_x,player0_vel_y,player0_vel_z,player0_ang_x,player0_ang_y,player0_ang_z
224.14166,2000,0,73,0.000002697398,0.000002697398,0.000002697398,0.99999994,0,0,0,0,0,0,0,0,0,0,0,false,false,false,0,0,16.94,0.0000026973983,0.0000026973983,0.70710677,0.70710677,0,0,2.041,-0.050809998,0,0
224.15,2000,0,87.6,0.000002697398,0.000002697398,0.000002697398,0.99999994,0,0,0,0,0,0,1,0,0,0,0,false,true,false,0,0.07,16.89,-0.00014835689,0.00015375168,0.7071067,0.7071067,0,21.521,3.8809998,-0.085609995,0,0
224.15834,2000,0,90.52,0.000002697398,0.000002697398,0.000002697398,0.99999994,0,0,0,0,0,0,1,0,0,0,0,false,true,false,0,0.32,16.85,-0.00040191234,0.00040730715,0.70710653,0.70710677,0,42.861,5.481,-0.107209995,0,0
224.16667,2000,0,91.1,0.000002697398,0.000002697398,0.000002697398,0.99999994,0,0,0,0,0,0,1,0,0,0,0,false,true,false,0,0.75,16.83,-0.00072020525,0.00072560005,0.7071067,0.707106,0,64.011,6.7809997,-0.11630999,0,0
224.175,2000,0,91.22,0.000002697398,0.000002697398,0.000002697398,0.99999994,0,0,0,0,0,0,1,0,0,0,0,false,true,false,0,1.35,16.82,-0.0010654721,0.001070867,0.70710516,0.7071067,0,84.980995,7.7209997,-0.114609994,0,0
224.18333,2000,0,91.24,0.000002697398,0.000002697398,0.000002697398,0.99999994,0,0,0,0,0,0,1,0,0,0,0,false,true,false,0,2.1299999,16.82,-0.0014053443,0.0014107391,0.7071067,0.70710397,0,105.770996,8.401,-0.10651,0,0
224.19167,2000,0,91.24,0.000002697398,0.000002697398,0.000002697398,0.99999994,0,0,0,0,0,0,1,0,0,0,0,false,true,false,0,3.08,16.82,-0.0017182427,0.0017236375,0.707108,0.70710135,0,126.391,8.8810005,-0.09501,0,0
224.2,2000,0,91.24,0.000002697398,0.000002697398,0.000002697398,0.99999994,0,0,0,0,0,0,1,0,0,0,0,false,true,false,0,4.2,16.83,-0.001998772,0.0020041666,0.70710653,0.7071013,0,146.83101,9.231,-0.08221,0,0
224.20833,2000,0,91.24,0.000002697398,0.000002697398,0.000002697398,0.99999994,0,0,0,0,0,0,1,0,0,0,0,false,true,false,0,5.49,16.84,-0.0022415377,0.0022469326,0.70710504,0.7071013,0,167.091,9.451,-0.069409996,0,0
224.21666,2000,0,91.24,0.000002697398,0.000002697398,0.000002697398,0.99999994,0,0,0,0,0,0,1,0,0,0,0,false,true,false,0,6.95,16.85,-0.00244654,0.0024519349,0.70710367,0.7071013,0,187.181,9.591001,-0.057309996,0,0
224.225,2000,0,91.24,0.000002697398,0.000002697398,0.000002697398,0.99999994,0,0,0,0,0,0,1,0,0,0,0,false,true,false,0,8.58,16.859999,-0.0026137787,0.0026191734,0.7071025,0.7071013,0,207.101,9.6710005,-0.046409998,0,0
224.23334,2000,0,91.24,0.000002697398,0.000002697398,0.000002697398,0.99999994,0,0,0,0,0,0,1,0,0,0,0,false,true,false,0,10.37,16.869999,-0.0027486486,0.0027540433,0.70710146,0.7071013,0,226.851,9.711,-0.03701,0,0
224.24167,2000,0,91.24,0.000002697398,0.000002697398,0.000002697398,0.99999994,0,0,0,0,0,0,1,0,0,0,0,false,true,false,0,12.33,16.88,-0.0028565445,0.0028619394,0.70710063,0.7071013,0,246.431,9.721,-0.02911,0,0
224.25,2000,0,91.24,0.000002697398,0.000002697398,0.000002697398,0.99999994,0,0,0,0,0,0,1,0,0,0,0,false,true,false,0,14.45,16.89,-0.0029428613,0.002948256,0.7071013,0.7070999,0,265.841,9.701,-0.02261,0,0
224.25833,2000,0,91.24,0.000002697398,0.000002697398,0.000002697398,0.99999994,0,0,0,0,0,0,1,0,0,0,0,false,true,false,0,16.73,16.9,-0.003007599,0.0030129936,0.7070993,0.7071013,0,285.081,9.641,-0.01791,0,0
224.26666,2000,0,91.24,0.000002697398,0.000002697398,0.000002697398,0.99999994,0,0,0,0,0,0,1,0,0,0,0,false,true,false,0,19.17,16.91,-0.0030615467,0.0030669416,0.7071013,0.7070989,0,304.161,9.561,-0.014409999,0,0
224.275,2000,0,91.24,0.000002697398,0.000002697398,0.000002697398,0.99999994,0,0,0,0,0,0,1,0,0,0,0,false,true,false,0,21.77,16.92,-0.0031047051,0.0031101,0.7070985,0.7071013,0,323.081,9.471,-0.011809999,0,0
224.28334,2000,0,91.24,0.000002697398,0.000002697398,0.000002697398,0.99999994,0,0,0,0,0,0,1,0,0,0,0,false,true,false,0,24.529999,16.93,-0.003137074,0.0031424686,0.7070959,0.7071036,0,341.831,9.371,-0.00981,0,0
224.29167,2000,0,91.24,0.000002697398,0.000002697398,0.000002697398,0.99999994,0,0,0,0,0,0,1,0,0,0,0,false,true,false,0,27.449999,16.94,-0.003164048,0.003169443,0.707096,0.7071034,0,360.421,9.271,-0.0083099995,0,0
224.3,2000,0,91.24,0.000002697398,0.000002697398,0.000002697398,0.99999994,0,0,0,0,0,0,1,0,0,0,0,false,true,false,0,30.519999,16.949999,-0.003191022,0.0031964167,0.7070959,0.70710313,0,378.851,9.161,-0.00711,0,0
224.30833,2000,0,91.24,0.000002697398,0.000002697398,0.000002697398,0.99999994,0,0,0,0,0,0,1,0,0,0,0,false,true,false,0,33.75,16.96,-0.0032126014,0.003217996,0.707096,0.70710295,0,397.131,9.051001,-0.00601,0,0
224.31667,2000,0,91.24,0.000002697398,0.000002697398,0.000002697398,0.99999994,0,0,0,0,0,0,1,0,0,0,0,false,true,false,0,37.13,16.97,-0.0032287855,0.0032341804,0.7070959,0.7071028,0,415.251,8.941,-0.00521,0,0
224.325,2000,0,91.24,0.000002697398,0.000002697398,0.000002697398,0.99999994,0,0,0,0,0,0,1,0,0,0,0,false,true,false,0,40.66,16.98,-0.00324497,0.003250365,0.707096,0.70710266,0,433.211,8.831,-0.00451,0,0
224.33333,2000,0,91.24,0.000002697398,0.000002697398,0.000002697398,0.99999994,0,0,0,0,0,0,1,0,0,0,0,false,true,false,0,44.34,16.99,-0.0032557594,0.0032611543,0.7070959,0.70710254,0,451.021,8.721001,-0.00391,0,0
224.34166,2000,0,91.24,0.000002697398,0.000002697398,0.000002697398,0.99999994,0,0,0,0,0,0,1,0,0,0,0,false,true,false,0,48.17,16.99,-0.003266549,0.003271944,0.7070959,0.7071024,0,468.681,8.601,-0.00341,0,0
224.35,2000,0,91.24,0.000002697398,0.000002697398,0.000002697398,0.99999994,0,0,0,0,0,0,1,0,0,0,0,false,true,false,0,52.14,16.99,-0.0032773386,0.0032827335,0.7070959,0.7071023,0,486.191,8.531,-0.00301,0,0
224.35834,2000,0,91.24,0.000002697398,0.000002697398,0.000002697398,0.99999994,0,0,0,0,0,0,1,0,0,0,0,false,true,false,0,56.26,16.99,-0.0032881282,0.003293523,0.7070959,0.70710224,0,503.541,8.481,-0.00271,0,0
224.36667,2000,0,91.24,0.000002697398,0.000002697398,0.000002697398,0.99999994,0,0,0,0,0,0,1,0,0,0,0,false,true,false,0,60.53,16.99,-0.0032935233,0.003298918,0.707096,0.7071022,0,520.751,8.451,-0.00241,0,0
224.375,2000,0,91.24,0.000002697398,0.000002697398,0.000002697398,0.99999994,0,0,0,0,0,0,1,0,0,0,0,false,true,false,0,64.939995,16.99,-0.0032989178,0.0033043127,0.7070959,0.7071021,0,537.811,8.431,-0.00211,0,0
224.38333,2000,0,91.24,0.000002697398,0.000002697398,0.000002697398,0.99999994,0,0,0,0,0,0,1,0,0,0,0,false,true,false,0,69.49,16.99,-0.0033043127,0.0033097074,0.7070959,0.70710206,0,554.72095,8.4210005,-0.0019099999,0,0
224.39166,2000,0,91.24,0.000002697398,0.000002697398,0.000002697398,0.99999994,0,0,0,0,0,0,1,0,0,0,0,false,true,false,0,74.18,16.99,-0.0033097074,0.0033151023,0.7070959,0.707102,0,571.49097,8.411,-0.0017099999,0,0
224.4,2000,0,91.24,0.000002697398,0.000002697398,0.000002697398,0.99999994,0,0,0,0,0,0,1,0,0,0,0,false,true,false,0,79.009995,16.99,-0.0033151023,0.003320497,0.7070959,0.707102,0,588.11096,8.411,-0.00151,0,0
224.40834,2000,0,91.24,0.000002697398,0.000002697398,0.000002697398,0.99999994,0,0,0,0,0,0,1,0,0,0,0,false,true,false,0,83.979996,16.99,-0.0033204972,0.0033258921,0.707096,0.70710194,0,604.59094,8.411,-0.0014099999,0,0
224.41667,2000,0,91.24,0.000002697398,0.000002697398,0.000002697398,0.99999994,0,0,0,0,0,0,1,0,0,0,0,false,true,false,0,89.09,16.99,-0.003325892,0.0033312866,0.7070959,0.7071019,0,620.93097,8.411,-0.0012099999,0,0
224.43333,2000,0,91.24,0.000002697398,0.000002697398,0.000002697398,0.99999994,0,0,0,0,0,0,1,0,0,0,0,false,true,false,0,99.71,16.99,-0.0033366815,0.0033420762,0.7070959,0.70710176,0,653.191,8.411,-0.00091,0,0
224.44167,2000,0,91.24,0.000002697398,0.000002697398,0.000002697398,0.99999994,0,0,0,0,0,0,1,0,0,0,0,false,true,false,0,105.22,16.99,-0.0033366818,0.0033474711,0.707096,0.70710176,0,669.11096,8.411,-0.00081,0,0
224.45,2000,0,91.24,0.000002697398,0.000002697398,0.000002697398,0.99999994,0,0,0,0,0,0,1,0,0,0,0,false,true,false,0,110.86,16.99,-0.0033366818,0.0033474711,0.707096,0.70710176,0,684.90094,8.411,-0.00071,0,0
224.45833,2000,0,91.24,0.000002697398,0.000002697398,0.000002697398,0.99999994,0,0,0,0,0,0,1,0,0,0,0,false,true,false,0,116.64,16.99,-0.0033366818,0.0033474711,0.707096,0.70710176,0,700.55096,8.411,-0.00061,0,0
224.46666,2000,0,91.24,0.000002697398,0.000002697398,0.000002697398,0.99999994,0,0,0,0,0,0,1,0,0,0,0,false,true,false,0,122.549995,16.99,-0.0033366818,0.0033474711,0.707096,0.70710176,0,716.071,8.411,-0.00061,0,0
224.475,2000,0,91.24,0.000002697398,0.000002697398,0.000002697398,0.99999994,0,0,0,0,0,0,1,0,0,0,0,false,true,false,0,128.59,16.99,-0.0033366818,0.0033474711,0.707096,0.70710176,0,731.451,8.411,-0.00061,0,0
224.48334,2000,0,91.24,0.000002697398,0.000002697398,0.000002697398,0.99999994,0,0,0,0,0,0,1,0,0,0,0,false,true,false,0,134.75,16.99,-0.0033366818,0.0033474711,0.707096,0.70710176,0,746.701,8.411,-0.00061,0,0
224.49167,2000,0,91.24,0.000002697398,0.000002697398,0.000002697398,0.99999994,0,0,0,0,0,0,1,0,0,0,0,false,true,false,0,141.04,16.99,-0.0033366818,0.0033474711,0.707096,0.70710176,0,761.821,8.411,-0.00061,0,0
224.5,2000,0,91.24,0.000002697398,0.000002697398,0.000002697398,0.99999994,0,0,0,0,0,0,1,0,0,0,0,false,true,false,0,147.45999,16.99,-0.0033366818,0.0033474711,0.707096,0.70710176,0,776.811,8.411,-0.00061,0,0
224.50833,2000,0,91.24,0.000002697398,0.000002697398,0.000002697398,0.99999994,0,0,0,0,0,0,1,0,0,0,0,false,true,false,0,154,16.99,-0.0033366818,0.0033474711,0.707096,0.70710176,0,791.67096,8.411,-0.00061,0,0
224.51666,2000,0,91.24,0.000002697398,0.000002697398,0.000002697398,0.99999994,0,0,0,0,0,0,1,0,0,0,0,false,true,false,0,160.67,16.99,-0.0033366818,0.0033474711,0.707096,0.70710176,0,806.41095,8.411,-0.00061,0,0
224.525,2000,0,91.24,0.000002697398,0.000002697398,0.000002697398,0.99999994,0,0,0,0,0,0,1,0,0,0,0,false,true,false,0,167.45999,16.99,-0.0033366818,0.0033474711,0.707096,0.70710176,0,821.02094,8.411,-0.00061,0,0
224.53334,2000,0,91.24,0.000002697398,0.000002697398,0.000002697398,0.99999994,0,0,0,0,0,0,1,0,0,0,0,false,true,false,0,174.37,16.99,-0.0033366818,0.0033474711,0.707096,0.70710176,0,835.501,8.411,-0.00061,0,0
224.54167,2000,0,91.24,0.000002697398,0.000002697398,0.000002697398,0.99999994,0,0,0,0,0,0,1,0,0,0,0,false,true,false,0,181.4,16.99,-0.0033366818,0.0033474711,0.707096,0.70710176,0,849.86096,8.411,-0.00071,0,0
224.55,2000,0,91.24,0.000002697398,0.000002697398,0.000002697398,0.99999994,0,0,0,0,0,0,1,0,0,0,0,false,true,false,0,188.55,16.99,-0.0033366818,0.0033474711,0.707096,0.70710176,0,864.10095,8.411,-0.00071,0,0
224.55833,2000,0,91.24,0.000002697398,0.000002697398,0.000002697398,0.99999994,0,0,0,0,0,0,1,0,0,0,0,false,true,false,0,195.81999,16.99,-0.0033366818,0.0033474711,0.707096,0.70710176,0,878.22095,8.411,-0.00071,0,0
224.56667,2000,0,91.24,0.000002697398,0.000002697398,0.000002697398,0.99999994,0,0,0,0,0,0,1,0,0,0,0,false,true,false,0,203.20999,16.99,-0.0033366818,0.0033474711,0.707096,0.70710176,0,892.21094,8.411,-0.00071,0,0
224.575,2000,0,91.24,0.000002697398,0.000002697398,0.000002697398,0.99999994,0,0,0,0,0,0,1,0,0,0,0,false,true,false,0,210.70999,16.99,-0.0033366818,0.0033474711,0.707096,0.70710176,0,906.08093,8.411,-0.00071,0,0
224.58333,2000,0,91.24,0.000002697398,0.000002697398,0.000002697398,0.99999994,0,0,0,0,0,0,1,0,0,0,0,false,true,false,0,218.33,16.99,-0.0033366818,0.0033474711,0.707096,0.70710176,0,919.84094,8.411,-0.00071,0,0
224.59166,2000,0,91.24,0.000002697398,0.000002697398,0.000002697398,0.99999994,0,0,0,0,0,0,1,0,0,0,0,false,true,false,0,226.06,16.99,-0.0033366818,0.0033474711,0.707096,0.70710176,0,933.48096,8.411,-0.00081,0,0
224.6,2000,0,91.24,0.000002697398,0.000002697398,0.000002697398,0.99999994,0,0,0,0,0,0,1,0,0,0,0,false,true,false,0,233.90999,16.99,-0.0033366818,0.0033474711,0.707096,0.70710176,0,947.001,8.411,-0.00081,0,0
224.60834,2000,0,91.24,0.000002697398,0.000002697398,0.000002697398,0.99999994,0,0,0,0,0,0,1,0,0,0,0,false,true,false,0,241.87,16.99,-0.0033366818,0.0033474711,0.707096,0.70710176,0,960.41095,8.411,-0.00081,0,0
224.61667,2000,0,91.24,0.000002697398,0.000002697398,0.000002697398,0.99999994,0,0,0,0,0,0,1,0,0,0,0,false,true,false,0,249.93999,16.99,-0.0033366818,0.0033474711,0.707096,0.70710176,0,973.7009,8.411,-0.00081,0,0
224.625,2000,0,91.24,0.000002697398,0.000002697398,0.000002697398,0.99999994,0,0,0,0,0,0,1,0,0,0,0,false,true,false,0,258.12,16.99,-0.0033366818,0.0033474711,0.707096,0.70710176,0,986.881,8.411,-0.00081,0,0
224.63333,2000,0,91.24,0.000002697398,0.000002697398,0.000002697398,0.99999994,0,0,0,0,0,0,1,0,0,0,0,false,true,false,0,266.41,16.99,-0.0033366818,0.0033474711,0.707096,0.70710176,0,999.941,8.411,-0.00081,0,0
224.64166,2000,0,91.24,0.000002697398,0.000002697398,0.000002697398,0.99999994,0,0,0,0,0,0,1,0,0,0,0,false,true,false,0,274.81,16.99,-0.0033366818,0.0033474711,0.707096,0.70710176,0,1012.8909,8.411,-0.00081,0,0
224.65,2000,0,91.24,0.000002697398,0.000002697398,0.000002697398,0.99999994,0,0,0,0,0,0,1,0,0,0,0,false,true,false,0,283.32,16.99,-0.0033366818,0.0033474711,0.707096,0.70710176,0,1025.731,8.411,-0.00091,0,0
224.65834,2000,0,91.24,0.000002697398,0.000002697398,0.000002697398,0.99999994,0,0,0,0,0,0,1,0,0,0,0,false,true,false,0,291.94,16.99,-0.0033366815,0.0033528658,0.7070959,0.7071017,0,1038.4609,8.411,-0.00091,0,0
224.66667,2000,0,91.24,0.000002697398,0.000002697398,0.000002697398,0.99999994,0,0,0,0,0,0,1,0,0,0,0,false,true,false,0,300.66,16.99,-0.0033366815,0.0033582605,0.7070959,0.7071017,0,1051.0809,8.411,-0.00091,0,0
224.675,2000,0,91.24,0.000002697398,0.000002697398,0.000002697398,0.99999994,0,0,0,0,0,0,1,0,0,0,0,false,true,false,0,309.49,16.99,-0.0033366815,0.0033636554,0.7070959,0.70710164,0,1063.591,8.411,-0.00081,-0.00010999999,0
224.68333,2000,0,91.24,0.000002697398,0.000002697398,0.000002697398,0.99999994,0,0,0,0,0,0,1,0,0,0,0,false,true,false,0,318.41998,16.99,-0.0033366815,0.0033636554,0.7070959,0.70710164,0,1076.001,8.411,-0.00081,-0.00021,0
224.69167,2000,0,91.24,0.000002697398,0.000002697398,0.000002697398,0.99999994,0,0,0,0,0,0,1,0,0,0,0,false,true,false,0,327.46,16.99,-0.0033420762,0.0033636554,0.7070959,0.70710164,0,1088.3009,8.411,-0.00081,-0.00021,0
224.7,2000,0,91.24,0.000002697398,0.000002697398,0.000002697398,0.99999994,0,0,0,0,0,0,1,0,0,0,0,false,true,false,0,336.6,16.99,-0.0033474711,0.0033636556,0.707096,0.70710164,0,1100.491,8.411,-0.00071,-0.00021,0
224.70833,2000,0,91.24,0.000002697398,0.000002697398,0.000002697398,0.99999994,0,0,0,0,0,0,1,0,0,0,0,false,true,false,0,345.84,16.99,-0.0033474711,0.0033636556,0.707096,0.70710164,0,1112.5809,8.411,-0.00061,-0.00021,0
224.71666,2000,0,91.24,0.000002697398,0.000002697398,0.000002697398,0.99999994,0,0,0,0,0,0,1,0,0,0,0,false,true,false,0,355.18,16.99,-0.0033474711,0.0033636556,0.707096,0.70710164,0,1124.5709,8.411,-0.00061,-0.00021,0
224.725,2000,0,91.24,0.000002697398,0.000002697398,0.000002697398,0.99999994,0,0,0,0,0,0,1,0,0,0,0,false,true,false,0,364.62,16.99,-0.0033474711,0.0033636556,0.707096,0.70710164,0,1136.4509,8.411,-0.00061,-0.00021,0
224.73334,2000,0,91.24,0.000002697398,0.000002697398,0.000002697398,0.99999994,0,0,0,0,0,0,1,0,0,0,0,false,true,false,0,374.16,16.99,-0.0033474711,0.0033636556,0.707096,0.70710164,0,1148.231,8.411,-0.00061,-0.00021,0
224.74167,2000,0,91.24,0.000002697398,0.000002697398,0.000002697398,0.99999994,0,0,0,0,0,0,1,0,0,0,0,false,true,false,0,383.8,16.99,-0.0033474711,0.0033636556,0.707096,0.70710164,0,1159.911,8.411,-0.00061,-0.00021,0
224.75,2000,0,91.24,0.000002697398,0.000002697398,0.000002697398,0.99999994,0,0,0,0,0,0,1,0,0,0,0,false,true,false,0,393.53,16.99,-0.0033474711,0.0033636556,0.707096,0.70710164,0,1171.491,8.411,-0.00061,-0.00021,0
224.75833,2000,0,91.24,0.000002697398,0.000002697398,0.000002697398,0.99999994,0,0,0,0,0,0,1,0,0,0,0,false,true,false,0,403.36,16.99,-0.0033474711,0.0033636556,0.707096,0.70710164,0,1182.971,8.411,-0.00061,-0.00021,0
224.76666,2000,0,91.24,0.000002697398,0.000002697398,0.000002697398,0.99999994,0,0,0,0,0,0,1,0,0,0,0,false,true,false,0,413.28998,16.99,-0.0033474711,0.0033636556,0.707096,0.70710164,0,1194.351,8.411,-0.00061,-0.00021,0
224.775,2000,0,91.24,0.000002697398,0.000002697398,0.000002697398,0.99999994,0,0,0,0,0,0,1,0,0,0,0,false,true,false,0,423.31,16.99,-0.0033474711,0.0033636556,0.707096,0.70710164,0,1205.641,8.411,-0.00061,-0.00021,0
224.78334,2000,0,91.24,0.000002697398,0.000002697398,0.000002697398,0.99999994,0,0,0,0,0,0,1,0,0,0,0,false,true,false,0,433.43,16.99,-0.0033474711,0.0033636556,0.707096,0.70710164,0,1216.8309,8.411,-0.00061,-0.00021,0
224.79167,2000,0,91.24,0.000002697398,0.000002697398,0.000002697398,0.99999994,0,0,0,0,0,0,1,0,0,0,0,false,true,false,0,443.63998,16.99,-0.0033474711,0.0033636556,0.707096,0.70710164,0,1227.9209,8.411,-0.00071,-0.00021,0
224.8,2000,0,91.24,0.000002697398,0.000002697398,0.000002697398,0.99999994,0,0,0,0,0,0,1,0,0,0,0,false,true,false,0,453.94,16.99,-0.0033474711,0.0033636556,0.707096,0.70710164,0,1238.9209,8.411,-0.00071,-0.00021,0
224.80833,2000,0,91.24,0.000002697398,0.000002697398,0.000002697398,0.99999994,0,0,0,0,0,0,1,0,0,0,0,false,true,false,0,464.33,16.99,-0.0033474711,0.0033636556,0.707096,0.70710164,0,1249.8209,8.411,-0.00071,-0.00021,0
224.81667,2000,0,91.24,0.000002697398,0.000002697398,0.000002697398,0.99999994,0,0,0,0,0,0,1,0,0,0,0,false,true,false,0,474.81,16.99,-0.0033474711,0.0033636556,0.707096,0.70710164,0,1260.631,8.411,-0.00071,-0.00021,0
224.825,2000,0,91.24,0.000002697398,0.000002697398,0.000002697398,0.99999994,0,0,0,0,0,0,1,0,0,0,0,false,true,false,0,485.37997,16.99,-0.0033474711,0.0033636556,0.707096,0.70710164,0,1271.351,8.411,-0.00071,-0.00021,0
224.83333,2000,0,91.24,0.000002697398,0.000002697398,0.000002697398,0.99999994,0,0,0,0,0,0,1,0,0,0,0,false,true,false,0,496.03998,16.99,-0.0033474711,0.0033636556,0.707096,0.70710164,0,1281.981,8.411,-0.00071,-0.00021,0
224.84166,2000,0,91.24,0.000002697398,0.000002697398,0.000002697398,0.99999994,0,0,0,0,0,0,1,0,0,0,0,false,true,false,0,506.78998,16.99,-0.0033474711,0.0033636556,0.707096,0.70710164,0,1292.511,8.411,-0.00071,-0.00021,0
224.85,2000,0,91.24,0.000002697398,0.000002697398,0.000002697398,0.99999994,0,0,0,0,0,0,1,0,0,0,0,false,true,false,0,517.63,16.99,-0.0033474711,0.0033636556,0.707096,0.70710164,0,1302.9509,8.411,-0.00071,-0.00021,0
224.85834,2000,0,91.24,0.000002697398,0.000002697398,0.000002697398,0.99999994,0,0,0,0,0,0,1,0,0,0,0,false,true,false,0,528.56,16.99,-0.0033474711,0.0033636556,0.707096,0.70710164,0,1313.3009,8.411,-0.00081,-0.00021,0
224.86667,2000,0,91.24,0.000002697398,0.000002697398,0.000002697398,0.99999994,0,0,0,0,0,0,1,0,0,0,0,false,true,false,0,539.57,16.99,-0.0033528658,0.0033636554,0.7070959,0.7071016,0,1323.5709,8.411,-0.00081,-0.00021,0
224.875,2000,0,91.24,0.000002697398,0.000002697398,0.000002697398,0.99999994,0,0,0,0,0,0,1,0,0,0,0,false,true,false,0,550.67,16.99,-0.0033582605,0.0033636554,0.7070959,0.7071016,0,1333.751,8.411,-0.00081,-0.00010999999,0
224.88333,2000,0,91.24,0.000002697398,0.000002697398,0.000002697398,0.99999994,0,0,0,0,0,0,1,0,0,0,0,false,true,false,0,561.85,16.99,-0.0033582605,0.0033636554,0.7070959,0.7071016,0,1343.841,8.411,-0.00071,0,0
224.89166,2000,0,91.24,0.000002697398,0.000002697398,0.000002697398,0.99999994,0,0,0,0,0,0,1,0,0,0,0,false,true,false,0,573.12,16.99,-0.0033582605,0.0033636554,0.7070959,0.7071016,0,1353.841,8.411,-0.00071,0,0
224.9,2000,0,91.24,0.000002697398,0.000002697398,0.000002697398,0.99999994,0,0,0,0,0,0,1,0,0,0,0,false,true,false,0,584.47,16.99,-0.0033582605,0.0033636554,0.7070959,0.7071016,0,1363.761,8.411,-0.00071,0,0
224.90834,2000,0,91.24,0.000002697398,0.000002697398,0.000002697398,0.99999994,0,0,0,0,0,0,1,0,0,0,0,false,true,false,0,595.89996,16.99,-0.0033582605,0.0033636554,0.7070959,0.7071016,0,1373.591,8.411,-0.00071,0,0
224.91667,2000,0,91.24,0.000002697398,0.000002697398,0.000002697398,0.99999994,0,0,0,0,0,0,1,0,0,0,0,false,true,false,0,607.42,16.99,-0.0033582605,0.0033636554,0.7070959,0.7071016,0,1383.341,8.411,-0.00071,0,0
224.925,2000,0,91.24,0.000002697398,0.000002697398,0.000002697398,0.99999994,0,0,0,0,0,0,1,0,0,0,0,false,true,false,0,619.01996,16.99,-0.0033582605,0.0033636554,0.7070959,0.7071016,0,1393.011,8.411,-0.00071,0,0
224.93333,2000,0,91.24,0.000002697398,0.000002697398,0.000002697398,0.99999994,0,0,0,0,0,0,1,0,0,0,0,false,true,false,0,630.7,16.99,-0.0033582605,0.0033636554,0.7070959,0.7071016,0,1402.4409,8.411,-0.00071,0,0
224.94167,2000,0,91.24,0.000002697398,0.000002697398,0.000002697398,0.99999994,0,0,0,0,0,0,1,0,0,0,0,false,true,false,0,642.45996,16.99,-0.0033582605,0.0033636554,0.7070959,0.7071016,0,1410.7009,8.411,-0.00081,0,0
224.95,2000,0,91.24,0.000002697398,0.000002697398,0.000002697398,0.99999994,0,0,0,0,0,0,1,0,0,0,0,false,true,false,0,654.27997,16.99,-0.0033582605,0.0033636554,0.7070959,0.7071016,0,1418.9609,8.411,-0.00091,0,0
224.95833,2000,0,91.24,0.000002697398,0.000002697398,0.000002697398,0.99999994,0,0,0,0,0,0,1,0,0,0,0,false,true,false,0,666.17,16.99,-0.0033582605,0.00336905,0.7070959,0.7071016,0,1427.221,8.411,-0.00091,0,0
224.96666,2000,0,91.24,0.000002697398,0.000002697398,0.000002697398,0.99999994,0,0,0,0,0,0,1,0,0,0,0,false,true,false,0,678.13,16.99,-0.0033582605,0.003374445,0.7070959,0.7071015,0,1435.481,8.411,-0.00091,0,0
224.975,2000,0,91.24,0.000002697398,0.000002697398,0.000002697398,0.99999994,0,0,0,0,0,0,1,0,0,0,0,false,true,false,0,690.16,16.99,-0.0033582605,0.0033798397,0.7070959,0.70710146,0,1443.741,8.411,-0.00081,0,0
224.98334,2000,0,91.24,0.000002697398,0.000002697398,0.000002697398,0.99999994,0,0,0,0,0,0,1,0,0,0,0,false,true,false,0,702.26,16.99,-0.0033582605,0.0033798397,0.7070959,0.70710146,0,1452.001,8.411,-0.00071,-0.00010999999,0
224.99167,2000,0,91.24,0.000002697398,0.000002697398,0.000002697398,0.99999994,0,0,0,0,0,0,1,0,0,0,0,false,true,false,0,714.43,16.99,-0.0033582605,0.0033798397,0.7070959,0.70710146,0,1460.261,8.411,-0.00071,-0.00010999999,0
225,2000,0,91.24,0.000002697398,0.000002697398,0.000002697398,0.99999994,0,0,0,0,0,0,1,0,0,0,0,false,true,false,0,726.67,16.99,-0.0033582605,0.0033798397,0.7070959,0.70710146,0,1468.521,8.411,-0.00071,-0.00010999999,0
225.00833,2000,0,91.24,0.000002697398,0.000002697398,0.000002697398,0.99999994,0,0,0,0,0,0,1,0,0,0,0,false,true,false,0,738.98,16.99,-0.0033582605,0.0033798397,0.7070959,0.70710146,0,1476.7809,8.411,-0.00071,-0.00010999999,0
225.01666,2000,0,91.24,0.000002697398,0.000002697398,0.000002697398,0.99999994,0,0,0,0,0,0,1,0,0,0,0,false,true,false,0,751.36,16.99,-0.0033582605,0.0033798397,0.7070959,0.70710146,0,1485.0409,8.411,-0.00071,-0.00010999999,0
225.025,2000,0,91.24,0.000002697398,0.000002697398,0.000002697398,0.99999994,0,0,0,0,0,0,1,0,0,0,0,false,true,false,0,763.8,16.99,-0.0033582605,0.0033798397,0.7070959,0.70710146,0,1493.3009,8.411,-0.00071,-0.00010999999,0
225.03334,2000,0,91.24,0.000002697398,0.000002697398,0.000002697398,0.99999994,0,0,0,0,0,0,1,0,0,0,0,false,true,false,0,776.31,16.99,-0.0033582605,0.0033798397,0.7070959,0.70710146,0,1501.5609,8.411,-0.00071,-0.00010999999,0
225.04167,2000,0,91.24,0.000002697398,0.000002697398,0.000002697398,0.99999994,0,0,0,0,0,0,1,0,0,0,0,false,true,false,0,788.88995,16.99,-0.0033582605,0.0033798397,0.7070959,0.70710146,0,1509.8209,8.411,-0.00071,-0.00010999999,0
225.05,2000,0,91.24,0.000002697398,0.000002697398,0.000002697398,0.99999994,0,0,0,0,0,0,1,0,0,0,0,false,true,false,0,801.54,16.99,-0.0033582605,0.0033798397,0.7070959,0.70710146,0,1518.0809,8.411,-0.00071,-0.00010999999,0
225.05833,2000,0,91.24,0.000002697398,0.000002697398,0.000002697398,0.99999994,0,0,0,0,0,0,1,0,0,0,0,false,true,false,0,814.26,16.99,-0.0033582605,0.0033798397,0.7070959,0.70710146,0,1526.341,8.411,-0.00071,-0.00010999999,0
225.06667,2000,0,91.24,0.000002697398,0.000002697398,0.000002697398,0.99999994,0,0,0,0,0,0,1,0,0,0,0,false,true,false,0,827.05,16.99,-0.0033582605,0.0033798397,0.7070959,0.70710146,0,1534.601,8.411,-0.00071,-0.00010999999,0
225.075,2000,0,91.24,0.000002697398,0.000002697398,0.000002697398,0.99999994,0,0,0,0,0,0,1,0,0,0,0,false,true,false,0,839.91,16.99,-0.0033582605,0.0033798397,0.7070959,0.70710146,0,1542.861,8.411,-0.00071,-0.00010999999,0
225.08333,2000,0,91.24,0.000002697398,0.000002697398,0.000002697398,0.99999994,0,0,0,0,0,0,1,0,0,0,0,false,true,false,0,852.83997,16.99,-0.0033582605,0.0033798397,0.7070959,0.70710146,0,1551.121,8.411,-0.00071,-0.00010999999,0
225.09166,2000,0,91.24,0.000002697398,0.000002697398,0.000002697398,0.99999994,0,0,0,0,0,0,1,0,0,0,0,false,true,false,0,865.82996,16.99,-0.0033582605,0.0033798397,0.7070959,0.70710146,0,1559.381,8.411,-0.00071,-0.00010999999,0
225.1,2000,0,91.24,0.000002697398,0.000002697398,0.000002697398,0.99999994,0,0,0,0,0,0,1,0,0,0,0,false,true,false,0,878.88995,16.99,-0.0033582605,0.0033798397,0.7070959,0.70710146,0,1567.641,8.411,-0.00071,-0.00010999999,0
225.10834,2000,0,91.24,0.000002697398,0.000002697398,0.000002697398,0.99999994,0,0,0,0,0,0,1,0,0,0,0,false,true,false,0,892.01996,16.99,-0.0033582605,0.0033798397,0.7070959,0.70710146,0,1575.901,8.411,-0.00071,-0.00010999999,0
225.11667,2000,0,91.24,0.000002697398,0.000002697398,0.000002697398,0.99999994,0,0,0,0,0,0,1,0,0,0,0,false,true,false,0,905.22,16.99,-0.0033582605,0.0033798397,0.7070959,0.70710146,0,1584.1609,8.411,-0.00071,-0.00010999999,0
225.125,2000,0,91.24,0.000002697398,0.000002697398,0.000002697398,0.99999994,0,0,0,0,0,0,1,0,0,0,0,false,true,false,0,918.49,16.99,-0.0033582605,0.0033798397,0.7070959,0.70710146,0,1592.4209,8.411,-0.00071,-0.00010999999,0
225.13333,2000,0,91.24,0.000002697398,0.000002697398,0.000002697398,0.99999994,0,0,0,0,0,0,1,0,0,0,0,false,true,false,0,931.82996,16.99,-0.0033582605,0.0033798397,0.7070959,0.70710146,0,1600.6809,8.411,-0.00071,-0.00010999999,0
225.14166,2000,0,91.24,0.000002697398,0.000002697398,0.000002697398,0.99999994,0,0,0,0,0,0,1,0,0,0,0,false,true,false,0,945.24,16.99,-0.0033582605,0.0033798397,0.7070959,0.70710146,0,1608.9409,8.411,-0.00071,-0.00010999999,0
225.15,2000,0,91.24,0.000002697398,0.000002697398,0.000002697398,0.99999994,0,0,0,0,0,0,1,0,0,0,0,false,true,false,0,958.72,16.99,-0.0033582605,0.0033798397,0.7070959,0.70710146,0,1617.2009,8.411,-0.00071,-0.00010999999,0
225.15834,2000,0,91.24,0.000002697398,0.000002697398,0.000002697398,0.99999994,0,0,0,0,0,0,1,0,0,0,0,false,true,false,0,972.26996,16.99,-0.0033582605,0.0033798397,0.7070959,0.70710146,0,1625.4609,8.411,-0.00071,-0.00010999999,0
225.16667,2000,0,91.24,0.000002697398,0.000002697398,0.000002697398,0.99999994,0,0,0,0,0,0,1,0,0,0,0,false,true,false,0,985.88,16.99,-0.0033582605,0.0033798397,0.7070959,0.70710146,0,1633.721,8.411,-0.00071,-0.00010999999,0
225.175,2000,0,91.24,0.000002697398,0.000002697398,0.000002697398,0.99999994,0,0,0,0,0,0,1,0,0,0,0,false,true,false,0,999.56,16.99,-0.0033582605,0.0033798397,0.7070959,0.70710146,0,1641.981,8.411,-0.00071,-0.00010999999,0
225.18333,2000,0,91.24,0.000002697398,0.000002697398,0.000002697398,0.99999994,0,0,0,0,0,0,1,0,0,0,0,false,true,false,0,1013.31,16.99,-0.0033582605,0.0033798397,0.7070959,0.70710146,0,1650.241,8.411,-0.00071,-0.00010999999,0
225.19167,2000,0,91.24,0.000002697398,0.000002697398,0.000002697398,0.99999994,0,0,0,0,0,0,1,0,0,0,0,false,true,false,0,1027.13,16.99,-0.0033582605,0.0033798397,0.7070959,0.70710146,0,1658.501,8.411,-0.00071,-0.00010999999,0
225.2,2000,0,91.24,0.000002697398,0.000002697398,0.000002697398,0.99999994,0,0,0,0,0,0,1,0,0,0,0,false,true,false,0,1041.02,16.99,-0.0033582605,0.0033798397,0.7070959,0.70710146,0,1666.761,8.411,-0.00071,-0.00010999999,0
225.20833,2000,0,91.24,0.000002697398,0.000002697398,0.000002697398,0.99999994,0,0,0,0,0,0,1,0,0,0,0,false,true,false,0,1054.98,16.99,-0.0033582605,0.0033798397,0.7070959,0.70710146,0,1675.021,8.411,-0.00071,-0.00010999999,0
225.21666,2000,0,91.24,0.000002697398,0.000002697398,0.000002697398,0.99999994,0,0,0,0,0,0,1,0,0,0,0,false,true,false,0,1069.01,16.99,-0.0033582605,0.0033798397,0.7070959,0.70710146,0,1683.2809,8.411,-0.00071,-0.00010999999,0
225.225,2000,0,91.24,0.000002697398,0.000002697398,0.000002697398,0.99999994,0,0,0,0,0,0,1,0,0,0,0,false,true,false,0,1083.11,16.99,-0.0033582605,0.0033798397,0.7070959,0.70710146,0,1691.5409,8.411,-0.00071,-0.00010999999,0
225.23334,2000,0,91.24,0.000002697398,0.000002697398,0.000002697398,0.99999994,0,0,0,0,0,0,1,0,0,0,0,false,true,false,0,1097.28,16.99,-0.0033582605,0.0033798397,0.7070959,0.70710146,0,1699.8009,8.411,-0.00071,-0.00010999999,0
225.24167,2000,0,91.24,0.000002697398,0.000002697398,0.000002697398,0.99999994,0,0,0,0,0,0,1,0,0,0,0,false,true,false,0,1111.51,16.99,-0.0033582605,0.0033798397,0.7070959,0.70710146,0,1708.0609,8.411,-0.00071,-0.00010999999,0
225.25,2000,0,91.24,0.000002697398,0.000002697398,0.000002697398,0.99999994,0,0,0,0,0,0,1,0,0,0,0,false,true,false,0,1125.8099,16.99,-0.0033582605,0.0033798397,0.7070959,0.70710146,0,1716.3209,8.411,-0.00071,-0.00010999999,0
225.25833,2000,0,91.24,0.000002697398,0.000002697398,0.000002697398,0.99999994,0,0,0,0,0,0,1,0,0,0,0,false,true,false,0,1140.1799,16.99,-0.0033582605,0.0033798397,0.7070959,0.70710146,0,1724.5809,8.411,-0.00071,-0.00010999999,0
225.26666,2000,0,91.24,0.000002697398,0.000002697398,0.000002697398,0.99999994,0,0,0,0,0,0,1,0,0,0,0,false,true,false,0,1154.62,16.99,-0.0033582605,0.0033798397,0.7070959,0.70710146,0,1732.841,8.411,-0.00071,-0.00010999999,0
225.275,2000,0,91.24,0.000002697398,0.000002697398,0.000002697398,0.99999994,0,0,0,0,0,0,1,0,0,0,0,false,true,false,0,1169.13,16.99,-0.0033582605,0.0033798397,0.7070959,0.70710146,0,1741.101,8.411,-0.00071,-0.00010999999,0
225.28334,2000,0,91.24,0.000002697398,0.000002697398,0.000002697398,0.99999994,0,0,0,0,0,0,1,0,0,0,0,false,true,false,0,1183.71,16.99,-0.0033582605,0.0033798397,0.7070959,0.70710146,0,1749.361,8.411,-0.00071,-0.00010999999,0
225.29167,2000,0,91.24,0.000002697398,0.000002697398,0.000002697398,0.99999994,0,0,0,0,0,0,1,0,0,0,0,false,true,false,0,1198.36,16.99,-0.0033582605,0.0033798397,0.7070959,0.70710146,0,1757.621,8.411,-0.00071,-0.00010999999,0
225.3,2000,0,91.24,0.000002697398,0.000002697398,0.000002697398,0.99999994,0,0,0,0,0,0,1,0,0,0,0,false,true,false,0,1213.08,16.99,-0.0033582605,0.0033798397,0.7070959,0.70710146,0,1765.881,8.411,-0.00071,-0.00010999999,0
225.30833,2000,0,91.24,0.000002697398,0.000002697398,0.000002697398,0.99999994,0,0,0,0,0,0,1,0,0,0,0,false,true,false,0,1227.86,16.99,-0.0033582605,0.0033798397,0.7070959,0.70710146,0,1774.141,8.411,-0.00071,-0.00010999999,0
225.31667,2000,0,91.24,0.000002697398,0.000002697398,0.000002697398,0.99999994,0,0,0,0,0,0,1,0,0,0,0,false,true,false,0,1242.71,16.99,-0.0033582605,0.0033798397,0.7070959,0.70710146,0,1782.4009,8.411,-0.00071,-0.00010999999,0
225.325,2000,0,91.24,0.000002697398,0.000002697398,0.000002697398,0.99999994,0,0,0,0,0,0,1,0,0,0,0,false,true,false,0,1257.63,16.99,-0.0033582605,0.0033798397,0.7070959,0.70710146,0,1790.6609,8.411,-0.00071,-0.00010999999,0
225.33333,2000,0,91.24,0.000002697398,0.000002697398,0.000002697398,0.99999994,0,0,0,0,0,0,1,0,0,0,0,false,true,false,0,1272.62,16.99,-0.0033582605,0.0033798397,0.7070959,0.70710146,0,1798.9209,8.411,-0.00071,-0.00010999999,0
225.34166,2000,0,91.24,0.000002697398,0.000002697398,0.000002697398,0.99999994,0,0,0,0,0,0,1,0,0,0,0,false,true,false,0,1287.6799,16.99,-0.0033582605,0.0033798397,0.7070959,0.70710146,0,1807.1809,8.411,-0.00071,-0.00010999999,0
225.35,2000,0,91.24,0.000002697398,0.000002697398,0.000002697398,0.99999994,0,0,0,0,0,0,1,1,0,0,0,false,false,true,0,1302.8099,16.99,-0.0033582605,0.0033798397,0.7070959,0.70710146,0,1815.4409,8.411,-0.00071,-0.00010999999,0
225.35834,2000,0,91.24,0.000002697398,0.000002697398,0.000002697398,0.99999994,0,0,0,0,0,0,0,1,0,0,0,false,false,true,0,1317.94,16.99,-0.0033582605,0.0033798397,0.7070959,0.70710146,-10.9210005,1814.481,8.471001,-0.00071,0.00271,0.30411002
225.36667,2000,0,91.24,0.000002697398,0.000002697398,0.000002697398,0.99999994,0,0,0,0,0,0,0,1,0,0,0,false,false,true,-0.089999996,1333.0599,16.99,-0.0033582605,0.0033852346,0.70799047,0.7062058,-20.390999,1813.611,8.501,-0.00071,0.00381,0.55111
225.375,2000,0,91.24,0.000002697398,0.000002697398,0.000002697398,0.99999994,0,0,0,0,0,0,0,1,0,0,0,false,false,true,-0.26,1348.1699,16.99,-0.0033582605,0.0033906293,0.70961183,0.70457655,-29.841,1812.7109,8.521,-0.00061,0.00421,0.76901
225.38333,2000,0,91.24,0.000002697398,0.000002697398,0.000002697398,0.99999994,0,0,0,0,0,0,0,1,0,0,0,false,false,true,-0.51,1363.28,16.99,-0.0033582605,0.0033960242,0.711865,0.70229995,-39.690998,1811.741,8.531,-0.00051,0.00401,0.96310997
225.39166,2000,0,91.24,0.000002697398,0.000002697398,0.000002697398,0.99999994,0,0,0,0,0,0,0,1,0,0,0,false,false,true,-0.84,1378.38,16.99,-0.0033636554,0.0033960242,0.71467984,0.6994353,-50.190998,1810.6509,8.541,-0.00051,0.00361,1.13771
225.4,2000,0,91.24,0.000002697398,0.000002697398,0.000002697398,0.99999994,0,0,0,0,0,0,0,1,0,0,0,false,false,true,-1.26,1393.47,16.99,-0.0033690496,0.0033906288,0.71798515,0.6960418,-61.470997,1809.4009,8.551001,-0.00040999998,0.00311,1.29611
225.40834,2000,0,91.24,0.000002697398,0.000002697398,0.000002697398,0.99999994,0,0,0,0,0,0,0,1,0,0,0,false,false,true,-1.77,1408.5499,16.99,-0.0033798397,0.0033852346,0.72173554,0.69215226,-73.581,1807.9509,8.561,-0.00040999998,0.00251,1.44101
225.41667,2000,0,91.24,0.000002697398,0.000002697398,0.000002697398,0.99999994,0,0,0,0,0,0,0,1,0,0,0,false,false,true,-2.3799999,1423.62,16.99,-0.0033960242,0.003374445,0.7258805,0.68780404,-86.510994,1806.261,8.561,-0.00030999997,0.0019099999,1.57451
225.425,2000,0,91.24,0.000002697398,0.000002697398,0.000002697398,0.99999994,0,0,0,0,0,0,0,1,0,0,0,false,false,true,-3.1,1438.6699,16.99,-0.003412208,0.00335826,0.7303748,0.6830296,-100.201,1804.2909,8.561,-0.00021,0.00131,1.69821
225.43333,2000,0,91.24,0.000002697398,0.000002697398,0.000002697398,0.99999994,0,0,0,0,0,0,0,1,0,0,0,false,false,true,-3.9399998,1453.71,16.99,-0.0034337877,0.0033366815,0.7351889,0.67784524,-114.561,1802.021,8.561,-0.00021,0.00081,1.8134099
225.44167,2000,0,91.24,0.000002697398,0.000002697398,0.000002697398,0.99999994,0,0,0,0,0,0,0,1,0,0,0,false,false,true,-4.89,1468.73,16.99,-0.003455367,0.0033151023,0.7402883,0.6722723,-129.47101,1799.4209,8.571,-0.00021,0.00040999998,1.92091
225.45,2000,0,91.24,0.000002697398,0.000002697398,0.000002697398,0.99999994,0,0,0,0,0,0,0,1,0,0,0,false,false,true,-5.97,1483.73,16.99,-0.0034823408,0.0032881282,0.7456439,0.6663273,-144.80101,1796.481,8.571,-0.00010999999,0.00010999999,2.02151
225.45833,2000,0,91.24,0.000002697398,0.000002697398,0.000002697398,0.99999994,0,0,0,0,0,0,0,1,0,0,0,false,false,true,-7.18,1498.7,16.99,-0.003509315,0.0032611543,0.75123197,0.66002077,-160.41101,1793.2009,8.571,-0.00010999999,-0.00010999999,2.11561
225.46666,2000,0,91.24,0.000002697398,0.000002697398,0.000002697398,0.99999994,0,0,0,0,0,0,0,1,0,0,0,false,false,true,-8.5199995,1513.64,16.99,-0.0035362889,0.0032287855,0.7570197,0.6533744,-176.141,1789.5809,8.571,0,-0.00030999997,2.20361
225.475,2000,0,91.24,0.000002697398,0.000002697398,0.000002697398,0.99999994,0,0,0,0,0,0,0,1,0,0,0,false,false,true,-9.99,1528.5499,16.99,-0.0035686577,0.0031964167,0.7629891,0.6463934,-191.811,1785.6509,8.571,0,-0.00051,2.28561
225.48334,2000,0,91.24,0.000002697398,0.000002697398,0.000002697398,0.99999994,0,0,0,0,0,0,0,1,0,0,0,false,false,true,-11.59,1543.4299,16.99,-0.0036010265,0.0031586532,0.7691089,0.63909966,-207.251,1781.4309,8.571,0,-0.00061,2.36181
225.49167,2000,0,91.24,0.000002697398,0.000002697398,0.000002697398,0.99999994,0,0,0,0,0,0,0,1,0,0,0,false,false,true,-13.32,1558.2799,16.99,-0.0036333953,0.0031208897,0.7753623,0.6314984,-222.261,1776.981,8.571,0,-0.00071,2.43211
225.5,2000,0,91.24,0.000002697398,0.000002697398,0.000002697398,0.99999994,0,0,0,0,0,0,0,1,0,0,0,false,false,true,-15.17,1573.09,16.99,-0.003665764,0.003083126,0.78172,0.6236111,-236.651,1772.371,8.571,0,-0.00081,2.49641
225.50833,2000,0,91.24,0.000002697398,0.000002697398,0.000002697398,0.99999994,0,0,0,0,0,0,0,1,0,0,0,false,false,true,-17.14,1587.86,16.99,-0.0036981327,0.0030453624,0.78816223,0.6154488,-250.211,1767.6809,8.571,0,-0.00091,2.55461
225.51666,2000,0,91.24,0.000002697398,0.000002697398,0.000002697398,0.99999994,0,0,0,0,0,0,0,1,0,0,0,false,false,true,-19.23,1602.59,16.99,-0.0037358964,0.003002204,0.79467046,0.60702205,-262.741,1763.021,8.571,0,-0.00111,2.60641
225.525,2000,0,91.24,0.000002697398,0.000002697398,0.000002697398,0.99999994,0,0,0,0,0,0,0,1,0,0,0,false,false,true,-21.42,1617.2799,16.99,-0.0037736602,0.0029590458,0.80121446,0.59835804,-274.021,1758.511,8.571,0.00010999999,-0.0012099999,2.65151
225.53334,2000,0,91.24,0.000002697398,0.000002697398,0.000002697398,0.99999994,0,0,0,0,0,0,0,1,0,0,0,false,false,true,-23.699999,1631.9299,16.99,-0.0038114237,0.0029158876,0.8077779,0.5894674,-283.831,1754.3109,8.571,0.00021,-0.0012099999,2.68961
225.54167,2000,0,91.24,0.000002697398,0.000002697398,0.000002697398,0.99999994,0,0,0,0,0,0,0,1,0,0,0,false,false,true,-26.07,1646.5499,16.99,-0.0038491872,0.002867334,0.8143336,0.58037704,-291.941,1750.591,8.571,0.00030999997,-0.00131,2.72031
225.55,2000,0,91.24,0.000002697398,0.000002697398,0.000002697398,0.99999994,0,0,0,0,0,0,0,1,0,0,0,false,false,true,-28.5,1661.14,16.99,-0.0038869507,0.002818781,0.82086027,0.57110876,-298.141,1747.5609,8.561,0.00040999998,-0.00131,2.7432098
225.55833,2000,0,91.24,0.000002697398,0.000002697398,0.000002697398,0.99999994,0,0,0,0,0,0,0,1,0,0,0,false,false,true,-30.98,1675.7,16.99,-0.003924714,0.0027702278,0.82733417,0.5616894,-304.601,1744.231,8.561,0.00051,-0.00131,2.76531
225.56667,2000,0,91.24,0.000002697398,0.000002697398,0.000002697398,0.99999994,0,0,0,0,0,0,0,1,0,0,0,false,false,true,-33.52,1690.24,16.99,-0.003957083,0.0027216745,0.8337514,0.552119,-311.301,1740.5809,8.561,0.00051,-0.0012099999,2.78691
225.575,2000,0,91.24,0.000002697398,0.000002697398,0.000002697398,0.99999994,0,0,0,0,0,0,0,1,0,0,0,false,false,true,-36.11,1704.74,16.99,-0.003989452,0.0026731216,0.84010816,0.5423976,-318.221,1736.601,8.561,0.00051,-0.00111,2.8080099
225.58333,2000,0,91.24,0.000002697398,0.000002697398,0.000002697398,0.99999994,0,0,0,0,0,0,0,1,0,0,0,false,false,true,-38.76,1719.21,16.99,-0.00402182,0.0026245683,0.84639716,0.5325304,-325.331,1732.2809,8.561,0.00051,-0.00111,2.82861
225.59166,2000,0,91.24,0.000002697398,0.000002697398,0.000002697398,0.99999994,0,0,0,0,0,0,0,1,0,0,0,false,false,true,-41.469997,1733.6499,16.99,-0.004054189,0.0025706203,0.8526148,0.5225177,-332.611,1727.621,8.561,0.00051,-0.0010099999,2.84871
225.6,2000,0,91.24,0.000002697398,0.000002697398,0.000002697398,0.99999994,0,0,0,0,0,0,0,1,0,0,0,false,false,true,-44.239998,1748.0499,16.99,-0.004086558,0.0025166722,0.8587578,0.5123592,-340.041,1722.621,8.561,0.00051,-0.00091,2.86831
225.60834,2000,0,91.24,0.000002697398,0.000002697398,0.000002697398,0.99999994,0,0,0,0,0,0,0,1,0,0,0,false,false,true,-47.07,1762.4099,16.99,-0.0041189273,0.0024627247,0.8648191,0.5020606,-347.591,1717.271,8.561,0.00051,-0.00081,2.88741
225.61667,2000,0,91.24,0.000002697398,0.000002697398,0.000002697398,0.99999994,0,0,0,0,0,0,0,1,0,0,0,false,false,true,-49.969997,1776.72,16.99,-0.0041512954,0.0024087764,0.87079567,0.49162155,-355.231,1711.5709,8.561,0.00040999998,-0.00071,2.90591
225.625,2000,0,91.24,0.000002697398,0.000002697398,0.000002697398,0.99999994,0,0,0,0,0,0,0,1,0,0,0,false,false,true,-52.93,1790.98,16.99,-0.0041836645,0.0023548284,0.8766841,0.48104236,-362.951,1705.521,8.561,0.00040999998,-0.00061,2.92381
225.63333,2000,0,91.24,0.000002697398,0.000002697398,0.000002697398,0.99999994,0,0,0,0,0,0,0,1,0,0,0,false,false,true,-55.949997,1805.19,16.99,-0.0042160335,0.0023008806,0.8824785,0.4703282,-370.711,1699.121,8.561,0.00040999998,-0.00051,2.94121
225.64166,2000,0,91.24,0.000002697398,0.000002697398,0.000002697398,0.99999994,0,0,0,0,0,0,0,1,0,0,0,false,false,true,-59.039997,1819.35,16.99,-0.0042430074,0.0022469328,0.8881755,0.45947927,-378.491,1692.371,8.561,0.00040999998,-0.00040999998,2.9579098
225.65,2000,0,91.24,0.000002697398,0.000002697398,0.000002697398,0.99999994,0,0,0,0,0,0,0,1,0,0,0,false,false,true,-62.19,1833.45,16.99,-0.004269981,0.0021929846,0.89376944,0.44850075,-386.271,1685.271,8.561,0.00040999998,-0.00040999998,2.97401
225.65834,2000,0,91.24,0.000002697398,0.000002697398,0.000002697398,0.99999994,0,0,0,0,0,0,0,1,0,0,0,false,false,true,-65.409996,1847.49,16.99,-0.0042969557,0.0021390368,0.89925766,0.43739292,-394.021,1677.8309,8.561,0.00040999998,-0.00040999998,2.98941
225.66667,2000,0,91.24,0.000002697398,0.000002697398,0.000002697398,0.99999994,0,0,0,0,0,0,0,1,0,0,0,false,false,true,-68.689995,1861.47,16.99,-0.004323929,0.0020850885,0.9046346,0.4261608,-401.721,1670.0509,8.561,0.00040999998,-0.00040999998,3.0041099
225.675,2000,0,91.24,0.000002697398,0.000002697398,0.000002697398,0.99999994,0,0,0,0,0,0,0,1,0,0,0,false,false,true,-72.04,1875.39,16.99,-0.004350903,0.0020311407,0.9098977,0.4148048,-409.351,1661.9409,8.561,0.00040999998,-0.00040999998,3.01811
225.68333,2000,0,91.24,0.000002697398,0.000002697398,0.000002697398,0.99999994,0,0,0,0,0,0,0,1,0,0,0,false,false,true,-75.45,1889.24,16.99,-0.004377877,0.0019717978,0.9150419,0.40332997,-416.881,1653.511,8.561,0.00040999998,-0.00040999998,3.0313098
225.69167,2000,0,91.24,0.000002697398,0.000002697398,0.000002697398,0.99999994,0,0,0,0,0,0,0,1,0,0,0,false,false,true,-78.92,1903.0199,16.99,-0.004404851,0.0019124552,0.92006254,0.39174193,-424.291,1644.761,8.561,0.00040999998,-0.00030999997,3.04371
225.7,2000,0,91.24,0.000002697398,0.000002697398,0.000002697398,0.99999994,0,0,0,0,0,0,0,1,0,0,0,false,false,true,-82.46,1916.73,16.99,-0.004431825,0.0018531126,0.92495733,0.38004056,-431.561,1635.7109,8.561,0.00040999998,-0.00021,3.0552099
225.70833,2000,0,91.24,0.000002697398,0.000002697398,0.000002697398,0.99999994,0,0,0,0,0,0,0,1,0,0,0,false,false,true,-86.06,1930.36,16.99,-0.0044534043,0.0017937699,0.9297196,0.36823675,-438.671,1626.371,8.561,0.00030999997,-0.00010999999,3.0659099
225.71666,2000,0,91.24,0.000002697398,0.000002697398,0.000002697398,0.99999994,0,0,0,0,0,0,0,1,0,0,0,false,false,true,-89.72,1943.9099,16.99,-0.004474983,0.001734427,0.9343476,0.35633034,-445.60098,1616.761,8.561,0.00030999997,-0.00010999999,3.07561
225.725,2000,0,91.24,0.000002697398,0.000002697398,0.000002697398,0.99999994,0,0,0,0,0,0,0,1,0,0,0,false,false,true,-93.43,1957.38,16.99,-0.004496562,0.001675084,0.9388374,0.34432688,-452.331,1606.891,8.561,0.00021,-0.00010999999,3.08441
225.73334,2000,0,91.24,0.000002697398,0.000002697398,0.000002697398,0.99999994,0,0,0,0,0,0,0,1,0,0,0,false,false,true,-97.2,1970.7699,16.99,-0.004518141,0.0016157413,0.94318545,0.33223167,-458.841,1596.771,8.561,0.00021,-0.00010999999,3.09211
225.74167,2000,0,91.24,0.000002697398,0.000002697398,0.000002697398,0.99999994,0,0,0,0,0,0,0,1,0,0,0,false,false,true,-101.02,1984.08,16.99,-0.004539721,0.0015563988,0.9473884,0.32005018,-465.121,1586.4309,8.561,0.00021,-0.00010999999,3.09881
225.75,2000,0,91.24,0.000002697398,0.000002697398,0.000002697398,0.99999994,0,0,0,0,0,0,0,1,0,0,0,false,false,true,-104.899994,1997.2999,16.99,-0.0045613,0.0014970559,0.9514411,0.30779317,-471.151,1575.881,8.561,0.00021,-0.00010999999,3.10441
225.75833,2000,0,91.24,0.000002697398,0.000002697398,0.000002697398,0.99999994,0,0,0,0,0,0,0,1,0,0,0,false,false,true,-108.829994,2010.4299,16.99,-0.0045828796,0.0014377133,0.9553428,0.2954606,-476.911,1565.141,8.561,0.00021,-0.00010999999,3.10881
225.76666,2000,0,91.24,0.000002697398,0.000002697398,0.000002697398,0.99999994,0,0,0,0,0,0,0,1,0,0,0,false,false,true,-112.799995,2023.47,16.99,-0.004599063,0.0013783703,0.95908904,0.28306332,-482.391,1554.231,8.561,0.00021,0,3.11201
225.775,2000,0,91.24,0.000002697398,0.000002697398,0.000002697398,0.99999994,0,0,0,0,0,0,0,1,0,0,0,false,false,true,-116.82,2036.4199,16.99,-0.0046152477,0.0013190275,0.9626794,0.27060124,-487.581,1543.1709,8.561,0.00021,0,3.1140099
225.78334,2000,0,91.24,0.000002697398,0.000002697398,0.000002697398,0.99999994,0,0,0,0,0,0,0,1,0,0,0,false,false,true,-120.88,2049.28,16.99,-0.0046314322,0.0012596849,0.9661087,0.25809073,-492.471,1531.981,8.561,0.00021,0,3.11461
225.79167,2000,0,91.24,0.000002697398,0.000002697398,0.000002697398,0.99999994,0,0,0,0,0,0,0,1,0,0,0,false,false,true,-124.979996,2062.05,16.99,-0.0046476163,0.001200342,0.96937656,0.24553156,-497.051,1520.6809,8.561,0.00030999997,0,3.11391
225.8,2000,0,91.24,0.000002697398,0.000002697398,0.000002697398,0.99999994,0,0,0,0,0,0,0,1,0,0,0,false,false,true,-129.12,2074.72,16.99,-0.004663801,0.0011409993,0.97248036,0.23293471,-501.32098,1509.3009,8.561,0.00030999997,0,3.11181
225.80833,2000,0,91.24,0.000002697398,0.000002697398,0.000002697398,0.99999994,0,0,0,0,0,0,0,1,0,0,0,false,false,true,-133.3,2087.3,16.99,-0.0046799853,0.0010816565,0.97541904,0.22030544,-505.271,1497.861,8.561,0.00040999998,0,3.1082098
225.81667,2000,0,91.24,0.000002697398,0.000002697398,0.000002697398,0.99999994,0,0,0,0,0,0,0,1,0,0,0,false,false,true,-137.51,2099.78,16.99,-0.004690775,0.001016919,0.97819036,0.20765455,-508.891,1486.391,8.561,0.00040999998,0,3.1031098
225.825,2000,0,91.24,0.000002697398,0.000002697398,0.000002697398,0.99999994,0,0,0,0,0,0,0,1,0,0,0,false,false,true,-141.75,2112.17,16.99,-0.004701564,0.0009521814,0.98079383,0.19498755,-512.18097,1474.9109,8.561,0.00040999998,0,3.09651
225.83333,2000,0,91.24,0.000002697398,0.000002697398,0.000002697398,0.99999994,0,0,0,0,0,0,0,1,0,0,0,false,false,true,-146.02,2124.46,16.99,-0.0047123544,0.00088744395,0.9832284,0.18231511,-515.141,1463.4409,8.561,0.00040999998,0,3.0882099
225.84166,2000,0,91.24,0.000002697398,0.000002697398,0.000002697398,0.99999994,0,0,0,0,0,0,0,1,0,0,0,false,false,true,-150.31,2136.66,16.99,-0.0047231433,0.0008227063,0.9854929,0.16964811,-517.77094,1452.011,8.561,0.00040999998,-0.00010999999,3.07831
225.85,2000,0,91.24,0.000002697398,0.000002697398,0.000002697398,0.99999994,0,0,0,0,0,0,0,1,0,0,0,false,false,true,-154.62,2148.76,16.99,-0.0047339336,0.00075796887,0.98758817,0.15699185,-520.081,1440.641,8.561,0.00040999998,-0.00010999999,3.0666099
225.85834,2000,0,91.24,0.000002697398,0.000002697398,0.000002697398,0.99999994,0,0,0,0,0,0,0,1,0,0,0,false,false,true,-158.95,2160.77,16.99,-0.004744723,0.0006932313,0.98951316,0.14436263,-522.071,1429.361,8.561,0.00040999998,-0.00010999999,3.05321
225.86667,2000,0,91.24,0.000002697398,0.000002697398,0.000002697398,0.99999994,0,0,0,0,0,0,0,1,0,0,0,false,false,true,-163.3,2172.68,16.99,-0.004755513,0.0006284937,0.99126923,0.1317657,-523.74097,1418.1909,8.561,0.00030999997,-0.00010999999,3.03791
225.875,2000,0,91.24,0.000002697398,0.000002697398,0.000002697398,0.99999994,0,0,0,0,0,0,0,1,0,0,0,false,false,true,-167.66,2184.5,16.99,-0.004760907,0.0005691509,0.99285775,0.11920652,-525.11096,1407.151,8.561,0.00030999997,-0.00010999999,3.02071
225.88333,2000,0,91.24,0.000002697398,0.000002697398,0.000002697398,0.99999994,0,0,0,0,0,0,0,1,0,0,0,false,false,true,-172.04,2196.23,16.99,-0.004766302,0.0005098082,0.9942795,0.1067014,-526.18097,1396.271,8.561,0.00030999997,-0.00010999999,3.00161
225.89166,2000,0,91.24,0.000002697398,0.000002697398,0.000002697398,0.99999994,0,0,0,0,0,0,0,1,0,0,0,false,false,true,-176.42,2207.8699,16.99,-0.0047716973,0.0004504655,0.99553597,0.094260916,-526.96094,1385.5609,8.561,0.00030999997,-0.00010999999,2.98051
225.9,2000,0,91.24,0.000002697398,0.000002697398,0.000002697398,0.99999994,0,0,0,0,0,0,0,1,0,0,0,false,false,true,-180.81,2219.42,16.99,-0.0047770925,0.00039112274,0.9966298,0.08189065,-527.47095,1375.0509,8.561,0.00030999997,-0.00010999999,2.95731
225.90834,2000,0,91.24,0.000002697398,0.000002697398,0.000002697398,0.99999994,0,0,0,0,0,0,0,1,0,0,0,false,false,true,-185.20999,2230.88,16.99,-0.0047824867,0.00033177997,0.99756294,0.06960661,-527.72095,1364.761,8.561,0.00040999998,-0.00010999999,2.93201
225.91667,2000,0,91.24,0.000002697398,0.000002697398,0.000002697398,0.99999994,0,0,0,0,0,0,0,1,0,0,0,false,false,true,-189.61,2242.25,16.99,-0.004787882,0.00027243723,0.9983389,0.057414375,-527.72095,1354.7109,8.561,0.00040999998,-0.00010999999,2.90451
225.925,2000,0,91.24,0.000002697398,0.000002697398,0.000002697398,0.99999994,0,0,0,0,0,0,0,1,0,0,0,false,false,true,-194.01,2253.54,16.99,-0.004793276,0.00021309445,0.9989605,0.045329943,-527.49097,1344.9209,8.561,0.00051,-0.00010999999,2.8747098
225.93333,2000,0,91.24,0.000002697398,0.000002697398,0.000002697398,0.99999994,0,0,0,0,0,0,0,1,0,0,0,false,false,true,-198.40999,2264.75,16.99,-0.004793276,0.00015375168,0.9994319,0.03335889,-527.05096,1335.401,8.561,0.00051,0,2.84261
225.94167,2000,0,91.24,0.000002697398,0.000002697398,0.000002697398,0.99999994,0,0,0,0,0,0,0,1,0,0,0,false,false,true,-202.8,2275.88,16.99,-0.004793276,0.00009440893,0.99975693,0.021517228,-526.42096,1326.1709,8.561,0.00051,0,2.80811
225.95,2000,0,91.24,0.000002697398,0.000002697398,0.000002697398,0.99999994,0,0,0,0,0,0,0,1,0,0,0,false,false,true,-207.19,2286.93,16.99,-0.0047932765,0.000035066176,0.99994034,0.009815833,-525.61096,1317.241,8.561,0.00051,0,2.77111
225.95833,2000,0,91.24,0.000002697398,0.000002697398,0.000002697398,0.99999994,0,0,0,0,0,0,0,1,0,0,0,false,false,true,-211.56999,2297.91,16.99,-0.0047932765,-0.000024276584,0.999987,-0.0017290323,-524.65094,1308.631,8.561,0.00051,0,2.73151
225.96666,2000,0,91.24,0.000002697398,0.000002697398,0.000002697398,0.99999994,0,0,0,0,0,0,0,1,0,0,0,false,false,true,-215.94,2308.82,16.99,-0.004793276,-0.000083619336,0.9999025,-0.013112094,-523.561,1300.361,8.561,0.00051,0,2.6893098
225.975,2000,0,91.24,0.000002697398,0.000002697398,0.000002697398,0.99999994,0,0,0,0,0,0,0,1,0,0,0,false,false,true,-220.29999,2319.66,16.99,-0.004793276,-0.0001375673,0.99969274,-0.024317129,-522.35095,1292.4309,8.561,0.00051,0,2.64431
225.98334,2000,0,91.24,0.000002697398,0.000002697398,0.000002697398,0.99999994,0,0,0,0,0,0,0,1,0,0,0,false,false,true,-224.65,2330.43,16.99,-0.004793276,-0.00019151527,0.9993642,-0.03532795,-520.99097,1284.7009,8.561,0.00051,0,2.60181
225.99167,2000,0,91.24,0.000002697398,0.000002697398,0.000002697398,0.99999994,0,0,0,0,0,0,0,1,0,0,0,false,false,true,-228.98999,2341.14,16.99,-0.004793276,-0.00024546322,0.99892247,-0.046160743,-519.48096,1277.1809,8.561,0.00051,0,2.5615098
226,2000,0,91.24,0.000002697398,0.000002697398,0.000002697398,0.99999994,0,0,0,0,0,0,0,1,0,0,0,false,false,true,-233.31999,2351.78,16.99,-0.004787882,-0.00029941121,0.99837285,-0.056820907,-517.85095,1269.891,8.561,0.00040999998,0,2.52331
226.00833,2000,0,91.24,0.000002697398,0.000002697398,0.000002697398,0.99999994,0,0,0,0,0,0,0,1,0,0,0,false,false,true,-237.64,2362.3599,16.99,-0.004782487,-0.00035335918,0.9977203,-0.06731383,-516.09094,1262.8109,8.561,0.00030999997,0,2.48771
226.01666,2000,0,91.24,0.000002697398,0.000002697398,0.000002697398,0.99999994,0,0,0,0,0,0,0,1,0,0,0,false,false,true,-241.93999,2372.88,16.99,-0.0047770925,-0.00040191234,0.9969691,-0.0776503,-514.121,1255.771,8.561,0.00021,0,2.4588099
226.025,2000,0,91.24,0.000002697398,0.000002697398,0.000002697398,0.99999994,0,0,0,0,0,0,0,1,0,0,0,false,false,true,-246.22,2383.3398,16.99,-0.0047716973,-0.0004504655,0.99612105,-0.08786269,-511.951,1248.8009,8.561,0,0,2.43641
226.03334,2000,0,91.24,0.000002697398,0.000002697398,0.000002697398,0.99999994,0,0,0,0,0,0,0,1,0,0,0,false,false,true,-250.48999,2393.75,16.99,-0.0047663026,-0.0004990187,0.99517757,-0.09797258,-509.591,1241.9209,8.561,0,0,2.42021
226.04167,2000,0,91.24,0.000002697398,0.000002697398,0.000002697398,0.99999994,0,0,0,0,0,0,0,1,0,0,0,false,false,true,-254.73999,2404.0999,16.99,-0.0047609075,-0.0005475718,0.99413913,-0.108001545,-507.051,1235.141,8.561,-0.00010999999,0,2.4100099
226.05,2000,0,91.24,0.000002697398,0.000002697398,0.000002697398,0.99999994,0,0,0,0,0,0,0,1,0,0,0,false,false,true,-258.97,2414.39,16.99,-0.0047555123,-0.0005961249,0.9930047,-0.11797655,-504.341,1228.491,8.561,-0.00021,-0.00010999999,2.4056098
226.05833,2000,0,91.24,0.000002697398,0.000002697398,0.000002697398,0.99999994,0,0,0,0,0,0,0,1,0,0,0,false,false,true,-263.16998,2424.63,16.99,-0.0047501177,-0.00064467813,0.99177223,-0.1279246,-501.471,1221.981,8.561,-0.00030999997,-0.00010999999,2.40691
226.06667,2000,0,91.24,0.000002697398,0.000002697398,0.000002697398,0.99999994,0,0,0,0,0,0,0,1,0,0,0,false,false,true,-267.35,2434.81,16.99,-0.0047447234,-0.00069323136,0.99043983,-0.13786183,-498.451,1215.631,8.561,-0.00040999998,-0.00010999999,2.4137099
226.075,2000,0,91.24,0.000002697398,0.000002697398,0.000002697398,0.99999994,0,0,0,0,0,0,0,1,0,0,0,false,false,true,-271.5,2444.94,16.99,-0.0047393283,-0.00074178446,0.9890033,-0.14781526,-495.301,1209.4509,8.561,-0.00061,-0.00021,2.42601
226.08333,2000,0,91.24,0.000002697398,0.000002697398,0.000002697398,0.99999994,0,0,0,0,0,0,0,1,0,0,0,false,false,true,-275.63,2455.02,16.99,-0.0047339336,-0.0007849428,0.98745835,-0.15780647,-492.021,1203.4609,8.561,-0.00071,-0.00021,2.44361
226.09166,2000,0,91.24,0.000002697398,0.000002697398,0.000002697398,0.99999994,0,0,0,0,0,0,0,1,0,0,0,false,false,true,-279.72998,2465.05,16.99,-0.0047285384,-0.0008281012,0.9858005,-0.16785161,-488.63098,1197.6809,8.561,-0.00081,-0.00021,2.46651
226.1,2000,0,91.24,0.000002697398,0.000002697398,0.000002697398,0.99999994,0,0,0,0,0,0,0,1,0,0,0,false,false,true,-283.8,2475.03,16.99,-0.004717749,-0.0008712596,0.98402375,-0.1779723,-485.13098,1192.0809,8.561,-0.00091,-0.00021,2.49371
226.10834,2000,0,91.24,0.000002697398,0.000002697398,0.000002697398,0.99999994,0,0,0,0,0,0,0,1,0,0,0,false,false,true,-287.84,2484.96,16.99,-0.0047069597,-0.00091441796,0.9821219,-0.1881847,-481.461,1186.511,8.561,-0.00091,-0.00021,2.5220098
226.11667,2000,0,91.24,0.000002697398,0.000002697398,0.000002697398,0.99999994,0,0,0,0,0,0,0,1,0,0,0,false,false,true,-291.85,2494.8499,16.99,-0.00469617,-0.0009575763,0.9800903,-0.1984942,-477.641,1180.981,8.561,-0.00081,-0.00030999997,2.5515099
226.125,2000,0,91.24,0.000002697398,0.000002697398,0.000002697398,0.99999994,0,0,0,0,0,0,0,1,0,0,0,false,false,true,-295.83,2504.69,16.99,-0.00468538,-0.0010061293,0.97792494,-0.20890076,-473.691,1175.511,8.561,-0.00071,-0.00030999997,2.58201
226.13333,2000,0,91.24,0.000002697398,0.000002697398,0.000002697398,0.99999994,0,0,0,0,0,0,0,1,0,0,0,false,false,true,-299.78,2514.49,16.99,-0.004674591,-0.0010546828,0.975621,-0.21940991,-469.63098,1170.121,8.561,-0.00071,-0.00030999997,2.6133099
226.14166,2000,0,91.24,0.000002697398,0.000002697398,0.000002697398,0.99999994,0,0,0,0,0,0,0,1,0,0,0,false,false,true,-303.69,2524.24,16.99,-0.0046638013,-0.0011032358,0.9731737,-0.2300215,-465.461,1164.8309,8.561,-0.00071,-0.00030999997,2.64551
226.15,2000,0,91.24,0.000002697398,0.000002697398,0.000002697398,0.99999994,0,0,0,0,0,0,0,1,0,0,0,false,false,true,-307.57,2533.95,16.99,-0.0046530114,-0.001151789,0.97057885,-0.24073562,-461.10098,1159.471,8.561,-0.00061,-0.00030999997,2.6749098
226.15834,2000,0,91.24,0.000002697398,0.000002697398,0.000002697398,0.99999994,0,0,0,0,0,0,0,1,0,0,0,false,false,true,-311.41,2543.6099,16.99,-0.0046422225,-0.0012003422,0.967836,-0.25153604,-456.551,1154.0509,8.561,-0.00051,-0.00030999997,2.70131
226.16667,2000,0,91.24,0.000002697398,0.000002697398,0.000002697398,0.99999994,0,0,0,0,0,0,0,1,0,0,0,false,false,true,-315.21,2553.23,16.99,-0.0046314322,-0.0012488953,0.96494395,-0.26241198,-451.801,1148.5809,8.561,-0.00040999998,-0.00030999997,2.72471
226.175,2000,0,91.24,0.000002697398,0.000002697398,0.000002697398,0.99999994,0,0,0,0,0,0,0,1,0,0,0,false,false,true,-318.97,2562.8,16.99,-0.004615248,-0.0012974484,0.9619034,-0.27334726,-446.861,1143.091,8.561,-0.00030999997,-0.00021,2.74521
226.18333,2000,0,91.24,0.000002697398,0.000002697398,0.000002697398,0.99999994,0,0,0,0,0,0,0,1,0,0,0,false,false,true,-322.69,2572.3298,16.99,-0.004599064,-0.0013460018,0.9587141,-0.28433114,-441.731,1137.591,8.561,-0.00021,-0.00010999999,2.76281
226.19167,2000,0,91.24,0.000002697398,0.000002697398,0.000002697398,0.99999994,0,0,0,0,0,0,0,1,0,0,0,false,false,true,-326.37,2581.81,16.99,-0.004582879,-0.0013999495,0.9553779,-0.29534733,-436.421,1132.101,8.561,0,-0.00010999999,2.7776098
226.2,2000,0,91.24,0.000002697398,0.000002697398,0.000002697398,0.99999994,0,0,0,0,0,0,0,1,0,0,0,false,false,true,-330.00998,2591.24,16.99,-0.004566695,-0.0014538977,0.95189553,-0.30638516,-430.941,1126.631,8.561,0,0,2.78961
226.20833,2000,0,91.24,0.000002697398,0.000002697398,0.000002697398,0.99999994,0,0,0,0,0,0,0,1,0,0,0,false,false,true,-333.6,2600.63,16.99,-0.0045505106,-0.0015078455,0.9482701,-0.31742832,-425.291,1121.2109,8.561,0,0,2.79891
226.21666,2000,0,91.24,0.000002697398,0.000002697398,0.000002697398,0.99999994,0,0,0,0,0,0,0,1,0,0,0,false,false,true,-337.13998,2609.97,16.99,-0.0045343265,-0.0015617936,0.94450355,-0.32846615,-419.491,1115.841,8.561,0,0,2.80551
226.225,2000,0,91.24,0.000002697398,0.000002697398,0.000002697398,0.99999994,0,0,0,0,0,0,0,1,0,0,0,false,false,true,-340.63998,2619.27,16.99,-0.004518141,-0.0016157413,0.94060004,-0.3394823,-413.541,1110.5509,8.561,0,0,2.80951
226.23334,2000,0,91.24,0.000002697398,0.000002697398,0.000002697398,0.99999994,0,0,0,0,0,0,0,1,0,0,0,false,false,true,-344.09,2628.52,16.99,-0.004496562,-0.0016696892,0.9365609,-0.35047156,-407.461,1105.351,8.561,0,0,2.81091
226.24167,2000,0,91.24,0.000002697398,0.000002697398,0.000002697398,0.99999994,0,0,0,0,0,0,0,1,0,0,0,false,false,true,-347.49,2637.73,16.99,-0.004474983,-0.0017236373,0.93239164,-0.36141762,-401.251,1100.251,8.561,0,0,2.80981
226.25,2000,0,91.24,0.000002697398,0.000002697398,0.000002697398,0.99999994,0,0,0,0,0,0,0,1,0,0,0,false,false,true,-350.83,2646.9,16.99,-0.004453404,-0.0017775854,0.92809606,-0.3723098,-394.931,1095.261,8.561,0.00010999999,0,2.80631
226.25833,2000,0,91.24,0.000002697398,0.000002697398,0.000002697398,0.99999994,0,0,0,0,0,0,0,1,0,0,0,false,false,true,-354.12,2656.03,16.99,-0.0044318247,-0.0018315333,0.92367893,-0.38313717,-388.511,1090.401,8.561,0.00010999999,0,2.80041
226.26666,2000,0,91.24,0.000002697398,0.000002697398,0.000002697398,0.99999994,0,0,0,0,0,0,0,1,0,0,0,false,false,true,-357.36,2665.1199,16.99,-0.0044102455,-0.0018854813,0.9191454,-0.39388907,-382.001,1085.6709,8.561,0.00010999999,0,2.79211
226.275,2000,0,91.24,0.000002697398,0.000002697398,0.000002697398,0.99999994,0,0,0,0,0,0,0,1,0,0,0,false,false,true,-360.53998,2674.17,16.99,-0.0043886667,-0.0019394292,0.9145012,-0.40455458,-375.421,1081.091,8.561,0.00010999999,0,2.7815099
226.28334,2000,0,91.24,0.000002697398,0.000002697398,0.000002697398,0.99999994,0,0,0,0,0,0,0,1,0,0,0,false,false,true,-363.66998,2683.18,16.99,-0.004367088,-0.0019879825,0.9097501,-0.4151285,-368.791,1076.661,8.561,0.00010999999,0.00010999999,2.76871
226.29167,2000,0,91.24,0.000002697398,0.000002697398,0.000002697398,0.99999994,0,0,0,0,0,0,0,1,0,0,0,false,false,true,-366.74,2692.15,16.99,-0.0043455088,-0.0020365356,0.90490127,-0.4255944,-362.121,1072.391,8.561,0.00010999999,0.00021,2.75361
226.3,2000,0,91.24,0.000002697398,0.000002697398,0.000002697398,0.99999994,0,0,0,0,0,0,0,1,0,0,0,false,false,true,-369.75998,2701.0898,16.99,-0.0043239295,-0.0020850888,0.89995944,-0.4359471,-355.421,1068.2909,8.561,0.00010999999,0.00030999997,2.73641
226.30833,2000,0,91.24,0.000002697398,0.000002697398,0.000002697398,0.99999994,0,0,0,0,0,0,0,1,0,0,0,false,false,true,-372.72,2709.99,16.99,-0.004296955,-0.0021336419,0.8949298,-0.446181,-348.711,1064.361,8.561,0.00021,0.00040999998,2.71701
226.31667,2000,0,91.24,0.000002697398,0.000002697398,0.000002697398,0.99999994,0,0,0,0,0,0,0,1,0,0,0,false,false,true,-375.63,2718.8599,16.99,-0.004269981,-0.002182195,0.8898204,-0.45628554,-342.001,1060.611,8.561,0.00021,0.00040999998,2.69561
