time,ball_loc_x,ball_loc_y,ball_loc_z,ball_rot_x,ball_rot_y,ball_rot_z,ball_rot_w,ball_vel_x,ball_vel_y,ball_vel_z,ball_ang_x,ball_ang_y,ball_ang_z,player0_throttle,player0_steer,player0_pitch,player0_yaw,player0_roll,player0_jump,player0_boost,player0_handbrake,player0_loc_x,player0_loc_y,player0_loc_z,player0_rot_x,player0_rot_y,player0_rot_z,player0_rot_w,player0_vel_x,player0_vel_y,player0_vel_z,player0_ang_x,player0_ang_y,player0_ang_z
153.85,2000,0,91.24,0.000002697398,0.000002697398,0.000002697398,0.99999994,0,0,0,0,0,0,1,0,0,0,0,false,false,false,0,-3938.7998,17.01,-0.003347471,0.0033528658,0.70708513,0.70711243,0,1201.351,8.321,-0.00081,0,0
153.85834,2000,0,91.24,0.000002697398,0.000002697398,0.000002697398,0.99999994,0,0,0,0,0,0,1,1,0,0,0,false,false,true,0,-3928.7898,17.01,-0.003347471,0.0033528658,0.70708513,0.70711243,0,1204.381,8.321,-0.00081,0,0
153.86667,2000,0,91.24,0.000002697398,0.000002697398,0.000002697398,0.99999994,0,0,0,0,0,0,1,1,0,0,0,false,false,true,0,-3918.75,17.01,-0.003347471,0.0033528658,0.70708513,0.70711243,-13.1310005,1205.281,8.341001,-0.00081,0.00341,0.36441
153.875,2000,0,91.24,0.000002697398,0.000002697398,0.000002697398,0.99999994,0,0,0,0,0,0,1,1,0,0,0,false,false,true,-0.11,-3908.71,17.01,-0.003347471,0.0033582605,0.7081574,0.70603853,-23.560999,1206.501,8.341001,-0.00081,0.00461,0.64141
153.88333,2000,0,91.24,0.000002697398,0.000002697398,0.000002697398,0.99999994,0,0,0,0,0,0,1,1,0,0,0,false,false,true,-0.31,-3898.66,17.01,-0.003347471,0.0033636554,0.7100403,0.70414495,-33.431,1207.731,8.341001,-0.00081,0.00491,0.88120997
153.89166,2000,0,91.24,0.000002697398,0.000002697398,0.000002697398,0.99999994,0,0,0,0,0,0,1,1,0,0,0,false,false,true,-0.59,-3888.5999,17.01,-0.003347471,0.00336905,0.71262014,0.7015339,-43.141,1208.901,8.341001,-0.00081,0.00471,1.0900099
153.9,2000,0,91.24,0.000002697398,0.000002697398,0.000002697398,0.99999994,0,0,0,0,0,0,1,1,0,0,0,false,false,true,-0.95,-3878.53,17.01,-0.0033528658,0.00336905,0.71579754,0.6982916,-52.950996,1209.9609,8.341001,-0.00071,0.00411,1.27311
153.90834,2000,0,91.24,0.000002697398,0.000002697398,0.000002697398,0.99999994,0,0,0,0,0,0,1,1,0,0,0,false,false,true,-1.39,-3868.45,17.01,-0.0033582605,0.0033636554,0.7194935,0.6944828,-63.021,1210.861,8.341001,-0.00071,0.00341,1.4349099
153.91667,2000,0,91.24,0.000002697398,0.000002697398,0.000002697398,0.99999994,0,0,0,0,0,0,1,1,0,0,0,false,false,true,-1.92,-3858.3599,17.01,-0.00336905,0.0033528658,0.7236345,0.69016695,-73.431,1211.5709,8.341001,-0.00071,0.00271,1.57891
153.925,2000,0,91.24,0.000002697398,0.000002697398,0.000002697398,0.99999994,0,0,0,0,0,0,1,1,0,0,0,false,false,true,-2.53,-3848.26,17.01,-0.0033852346,0.0033420762,0.7281581,0.68539256,-84.201,1212.0609,8.341001,-0.00071,0.00201,1.70811
153.93333,2000,0,91.24,0.000002697398,0.000002697398,0.000002697398,0.99999994,0,0,0,0,0,0,1,1,0,0,0,false,false,true,-3.23,-3838.16,17.01,-0.0034068138,0.003325892,0.7330184,0.680192,-95.33099,1212.2909,8.341001,-0.00061,0.00131,1.8248099
153.94167,2000,0,91.24,0.000002697398,0.000002697398,0.000002697398,0.99999994,0,0,0,0,0,0,1,1,0,0,0,false,false,true,-4.02,-3828.0598,17.01,-0.003428393,0.0033043127,0.73817027,0.67459756,-106.781,1212.251,8.341001,-0.00051,0.00071,1.93081
153.95,2000,0,91.24,0.000002697398,0.000002697398,0.000002697398,0.99999994,0,0,0,0,0,0,1,1,0,0,0,false,false,true,-4.91,-3817.96,17.01,-0.003455367,0.0032827335,0.74357426,0.66863626,-118.480995,1211.9309,8.341001,-0.00040999998,0.00021,2.02761
153.95833,2000,0,91.24,0.000002697398,0.000002697398,0.000002697398,0.99999994,0,0,0,0,0,0,1,1,0,0,0,false,false,true,-5.9,-3807.8599,17.01,-0.0034823408,0.0032557594,0.7491972,0.66232973,-130.36101,1211.3209,8.341001,-0.00030999997,-0.00010999999,2.11631
153.96666,2000,0,91.24,0.000002697398,0.000002697398,0.000002697398,0.99999994,0,0,0,0,0,0,1,1,0,0,0,false,false,true,-6.99,-3797.77,17.01,-0.0035147092,0.0032233906,0.75500673,0.6556995,-142.321,1210.4209,8.341001,-0.00030999997,-0.00040999998,2.19781
153.975,2000,0,91.24,0.000002697398,0.000002697398,0.000002697398,0.99999994,0,0,0,0,0,0,1,1,0,0,0,false,false,true,-8.179999,-3787.68,17.01,-0.0035470785,0.003191022,0.76098114,0.6487563,-154.271,1209.251,8.341001,-0.00021,-0.00061,2.27281
153.98334,2000,0,91.24,0.000002697398,0.000002697398,0.000002697398,0.99999994,0,0,0,0,0,0,1,1,0,0,0,false,false,true,-9.469999,-3777.5999,17.01,-0.0035794475,0.0031586534,0.7670898,0.641522,-166.101,1207.8209,8.341001,-0.00010999999,-0.00081,2.34181
153.99167,2000,0,91.24,0.000002697398,0.000002697398,0.000002697398,0.99999994,0,0,0,0,0,0,1,1,0,0,0,false,false,true,-10.849999,-3767.53,17.01,-0.003611816,0.0031208897,0.7733125,0.634007,-177.69101,1206.1709,8.341001,0,-0.00091,2.40521
154,2000,0,91.24,0.000002697398,0.000002697398,0.000002697398,0.99999994,0,0,0,0,0,0,1,1,0,0,0,false,false,true,-12.33,-3757.48,17.01,-0.0036441844,0.0030831257,0.7796256,0.6262275,-188.921,1204.351,8.341001,0,-0.0010099999,2.46331
154.00833,2000,0,91.24,0.000002697398,0.000002697398,0.000002697398,0.99999994,0,0,0,0,0,0,1,1,0,0,0,false,false,true,-13.9,-3747.44,17.01,-0.0036765537,0.0030453627,0.7860104,0.6181948,-199.671,1202.401,8.341001,0,-0.00111,2.5162098
154.01666,2000,0,91.24,0.000002697398,0.000002697398,0.000002697398,0.99999994,0,0,0,0,0,0,1,1,0,0,0,false,false,true,-15.559999,-3737.42,17.01,-0.0037143172,0.003002204,0.7924492,0.60991913,-209.821,1200.401,8.341001,0,-0.0012099999,2.56391
154.025,2000,0,91.24,0.000002697398,0.000002697398,0.000002697398,0.99999994,0,0,0,0,0,0,1,1,0,0,0,false,false,true,-17.31,-3727.42,17.01,-0.0037520807,0.0029590456,0.79892105,0.6014168,-219.22101,1198.4309,8.341001,0,-0.0012099999,2.60661
154.03334,2000,0,91.24,0.000002697398,0.000002697398,0.000002697398,0.99999994,0,0,0,0,0,0,1,1,0,0,0,false,false,true,-19.14,-3717.43,17.01,-0.0037898445,0.0029158876,0.8054059,0.5927043,-227.751,1196.5809,8.341001,0,-0.0012099999,2.64411
154.04167,2000,0,91.24,0.000002697398,0.000002697398,0.000002697398,0.99999994,0,0,0,0,0,0,1,1,0,0,0,false,false,true,-21.039999,-3707.46,17.01,-0.003827608,0.002872729,0.81188524,0.58379734,-235.261,1194.9609,8.341001,0.00010999999,-0.0012099999,2.67641
154.05,2000,0,91.24,0.000002697398,0.000002697398,0.000002697398,0.99999994,0,0,0,0,0,0,1,1,0,0,0,false,false,true,-23,-3697.5,17.01,-0.0038653717,0.0028241759,0.81834507,0.57470715,-241.621,1193.7109,8.341001,0.00021,-0.0012099999,2.70341
154.05833,2000,0,91.24,0.000002697398,0.000002697398,0.000002697398,0.99999994,0,0,0,0,0,0,1,1,0,0,0,false,false,true,-25.01,-3687.5498,17.01,-0.0039031352,0.0027756228,0.82476515,0.5654551,-246.681,1192.9609,8.341001,0.00030999997,-0.0012099999,2.72501
154.06667,2000,0,91.24,0.000002697398,0.000002697398,0.000002697398,0.99999994,0,0,0,0,0,0,1,1,0,0,0,false,false,true,-27.07,-3677.6099,17.01,-0.003935504,0.0027270694,0.8311337,0.5560518,-251.961,1192.011,8.341001,0.00040999998,-0.00111,2.74611
154.075,2000,0,91.24,0.000002697398,0.000002697398,0.000002697398,0.99999994,0,0,0,0,0,0,1,1,0,0,0,false,false,true,-29.17,-3667.68,17.01,-0.0039678724,0.0026785163,0.83744335,0.546503,-257.451,1190.851,8.341001,0.00040999998,-0.0010099999,2.76681
154.08333,2000,0,91.24,0.000002697398,0.000002697398,0.000002697398,0.99999994,0,0,0,0,0,0,1,1,0,0,0,false,false,true,-31.32,-3657.76,17.01,-0.004000241,0.002629963,0.843687,0.5368139,-263.141,1189.471,8.341001,0.00040999998,-0.0010099999,2.78721
154.09166,2000,0,91.24,0.000002697398,0.000002697398,0.000002697398,0.99999994,0,0,0,0,0,0,1,1,0,0,0,false,false,true,-33.51,-3647.8499,17.01,-0.00403261,0.0025814099,0.8498646,0.52697915,-269.011,1187.871,8.341001,0.00040999998,-0.00091,2.8073099
154.1,2000,0,91.24,0.000002697398,0.000002697398,0.000002697398,0.99999994,0,0,0,0,0,0,1,1,0,0,0,false,false,true,-35.75,-3637.95,17.01,-0.0040649786,0.0025328568,0.8559694,0.51700413,-275.051,1186.0509,8.341001,0.00040999998,-0.00081,2.82701
154.10834,2000,0,91.24,0.000002697398,0.000002697398,0.000002697398,0.99999994,0,0,0,0,0,0,1,1,0,0,0,false,false,true,-38.04,-3628.0698,17.01,-0.004097348,0.002484304,0.8620012,0.50688356,-281.251,1184.001,8.341001,0.00040999998,-0.00081,2.84641
154.11667,2000,0,91.24,0.000002697398,0.000002697398,0.000002697398,0.99999994,0,0,0,0,0,0,1,1,0,0,0,false,false,true,-40.379997,-3618.2,17.01,-0.004129716,0.0024303556,0.86795336,0.4966225,-287.601,1181.721,8.341001,0.00040999998,-0.00071,2.86551
154.125,2000,0,91.24,0.000002697398,0.000002697398,0.000002697398,0.99999994,0,0,0,0,0,0,1,1,0,0,0,false,false,true,-42.78,-3608.3499,17.01,-0.0041620852,0.0023764076,0.8738195,0.48622674,-294.081,1179.2109,8.341001,0.00040999998,-0.00061,2.88431
154.13333,2000,0,91.24,0.000002697398,0.000002697398,0.000002697398,0.99999994,0,0,0,0,0,0,1,1,0,0,0,false,false,true,-45.23,-3598.52,17.01,-0.0041890587,0.0023224594,0.87959945,0.47569063,-300.681,1176.471,8.341001,0.00040999998,-0.00051,2.9028099
154.14166,2000,0,91.24,0.000002697398,0.000002697398,0.000002697398,0.99999994,0,0,0,0,0,0,1,1,0,0,0,false,false,true,-47.739998,-3588.72,17.01,-0.004216033,0.0022685118,0.8852873,0.4650197,-307.391,1173.501,8.341001,0.00040999998,-0.00040999998,2.92101
154.15,2000,0,91.24,0.000002697398,0.000002697398,0.000002697398,0.99999994,0,0,0,0,0,0,1,1,0,0,0,false,false,true,-50.3,-3578.94,17.01,-0.0042430074,0.002214564,0.8908825,0.45420858,-314.201,1170.2909,8.341001,0.00030999997,-0.00040999998,2.93891
154.15834,2000,0,91.24,0.000002697398,0.000002697398,0.000002697398,0.99999994,0,0,0,0,0,0,1,1,0,0,0,false,false,true,-52.92,-3569.19,17.01,-0.004269981,0.0021606158,0.8963764,0.44326782,-321.091,1166.851,8.341001,0.00030999997,-0.00040999998,2.9565098
154.16667,2000,0,91.24,0.000002697398,0.000002697398,0.000002697398,0.99999994,0,0,0,0,0,0,1,1,0,0,0,false,false,true,-55.6,-3559.47,17.01,-0.004296955,0.0021066677,0.9017687,0.4321923,-328.061,1163.1809,8.341001,0.00030999997,-0.00030999997,2.97381
154.175,2000,0,91.24,0.000002697398,0.000002697398,0.000002697398,0.99999994,0,0,0,0,0,0,1,1,0,0,0,false,false,true,-58.329998,-3549.78,17.01,-0.0043239295,0.0020527202,0.9070539,0.42098725,-335.091,1159.271,8.341001,0.00030999997,-0.00030999997,2.99081
154.18333,2000,0,91.24,0.000002697398,0.000002697398,0.000002697398,0.99999994,0,0,0,0,0,0,1,1,0,0,0,false,false,true,-61.12,-3540.1199,17.01,-0.004350903,0.001998772,0.9122289,0.40965274,-342.171,1155.141,8.341001,0.00030999997,-0.00030999997,3.0076098
154.19167,2000,0,91.24,0.000002697398,0.000002697398,0.000002697398,0.99999994,0,0,0,0,0,0,1,1,0,0,0,false,false,true,-63.969997,-3530.49,17.01,-0.0043778773,0.0019448241,0.917291,0.39818874,-349.291,1150.781,8.341001,0.00030999997,-0.00021,3.0241098
154.2,2000,0,91.24,0.000002697398,0.000002697398,0.000002697398,0.99999994,0,0,0,0,0,0,1,1,0,0,0,false,false,true,-66.88,-3520.9,17.01,-0.0044048512,0.0018854814,0.9222347,0.38660064,-356.451,1146.1909,8.341001,0.00030999997,-0.00010999999,3.04031
154.20833,2000,0,91.24,0.000002697398,0.000002697398,0.000002697398,0.99999994,0,0,0,0,0,0,1,1,0,0,0,false,false,true,-69.85,-3511.3499,17.01,-0.00442643,0.0018261385,0.92705745,0.3748885,-363.631,1141.381,8.341001,0.00030999997,0,3.05621
154.21666,2000,0,91.24,0.000002697398,0.000002697398,0.000002697398,0.99999994,0,0,0,0,0,0,1,1,0,0,0,false,false,true,-72.88,-3501.8398,17.01,-0.004448009,0.0017667958,0.93175644,0.36305225,-370.82098,1136.351,8.341001,0.00030999997,0,3.07181
154.225,2000,0,91.24,0.000002697398,0.000002697398,0.000002697398,0.99999994,0,0,0,0,0,0,1,1,0,0,0,false,false,true,-75.97,-3492.3699,17.01,-0.004469588,0.0017074527,0.93632656,0.35109735,-378.011,1131.111,8.341001,0.00021,0,3.08711
154.23334,2000,0,91.24,0.000002697398,0.000002697398,0.000002697398,0.99999994,0,0,0,0,0,0,1,1,0,0,0,false,false,true,-79.119995,-3482.94,17.01,-0.004491168,0.0016481103,0.9407656,0.33902377,-385.191,1125.661,8.341001,0.00021,0,3.10211
154.24167,2000,0,91.24,0.000002697398,0.000002697398,0.000002697398,0.99999994,0,0,0,0,0,0,1,1,0,0,0,false,false,true,-82.33,-3473.5598,17.01,-0.004512747,0.0015887675,0.9450686,0.32683688,-392.361,1120.001,8.341001,0.00021,0,3.1168098
154.25,2000,0,91.24,0.000002697398,0.000002697398,0.000002697398,0.99999994,0,0,0,0,0,0,1,1,0,0,0,false,false,true,-85.6,-3464.23,17.01,-0.0045343265,0.0015294248,0.94923323,0.3145367,-399.511,1114.141,8.341001,0.00021,0,3.13131
154.25833,2000,0,91.24,0.000002697398,0.000002697398,0.000002697398,0.99999994,0,0,0,0,0,0,1,1,0,0,0,false,false,true,-88.93,-3454.95,17.01,-0.0045559052,0.001470082,0.9532568,0.30212325,-406.631,1108.091,8.341001,0.00021,0,3.14551
154.26666,2000,0,91.24,0.000002697398,0.000002697398,0.000002697398,0.99999994,0,0,0,0,0,0,1,1,0,0,0,false,false,true,-92.32,-3445.72,17.01,-0.0045720898,0.0014107391,0.9571352,0.28960183,-413.711,1101.851,8.341001,0.00021,0,3.15941
154.275,2000,0,91.24,0.000002697398,0.000002697398,0.000002697398,0.99999994,0,0,0,0,0,0,1,1,0,0,0,false,false,true,-95.77,-3436.54,17.01,-0.004588274,0.0013513964,0.9608643,0.27697802,-420.751,1095.4209,8.341001,0.00021,0,3.1730099
154.28334,2000,0,91.24,0.000002697398,0.000002697398,0.000002697398,0.99999994,0,0,0,0,0,0,1,1,0,0,0,false,false,true,-99.28,-3427.41,17.01,-0.0046044583,0.0012920536,0.96444184,0.2642516,-427.741,1088.8209,8.341001,0.00021,0,3.1863098
154.29167,2000,0,91.24,0.000002697398,0.000002697398,0.000002697398,0.99999994,0,0,0,0,0,0,1,1,0,0,0,false,false,true,-102.84,-3418.3398,17.01,-0.004620643,0.0012273161,0.9678655,0.2514227,-434.681,1082.0409,8.341001,0.00021,0,3.1993098
154.3,2000,0,91.24,0.000002697398,0.000002697398,0.000002697398,0.99999994,0,0,0,0,0,0,1,1,0,0,0,false,false,true,-106.46,-3409.3198,17.01,-0.0046368274,0.0011625787,0.9711315,0.2384968,-441.561,1075.101,8.341001,0.00021,0,3.21201
154.30833,2000,0,91.24,0.000002697398,0.000002697398,0.000002697398,0.99999994,0,0,0,0,0,0,1,1,0,0,0,false,false,true,-110.14,-3400.3599,17.01,-0.0046530114,0.001097841,0.97423625,0.22547905,-448.371,1068.001,8.341001,0.00021,0,3.2244098
154.31667,2000,0,91.24,0.000002697398,0.000002697398,0.000002697398,0.99999994,0,0,0,0,0,0,1,1,0,0,0,false,false,true,-113.88,-3391.46,17.01,-0.004669196,0.0010331034,0.9771776,0.2123697,-455.121,1060.751,8.341001,0.00010999999,0,3.23651
154.325,2000,0,91.24,0.000002697398,0.000002697398,0.000002697398,0.99999994,0,0,0,0,0,0,1,1,0,0,0,false,false,true,-117.67,-3382.6199,17.01,-0.0046799853,0.00096836593,0.97995245,0.19917393,-461.801,1053.351,8.341001,0.00010999999,0,3.2483099
154.33333,2000,0,91.24,0.000002697398,0.000002697398,0.000002697398,0.99999994,0,0,0,0,0,0,1,1,0,0,0,false,false,true,-121.52,-3373.8398,17.01,-0.004690775,0.00090362836,0.98255855,0.18589187,-468.401,1045.8109,8.341001,0,0,3.25981
154.34166,2000,0,91.24,0.000002697398,0.000002697398,0.000002697398,0.99999994,0,0,0,0,0,0,1,1,0,0,0,false,false,true,-125.42,-3365.1199,17.01,-0.0047015646,0.0008388908,0.9849928,0.17252895,-474.931,1038.141,8.341001,0,0,3.27101
154.35,2000,0,91.24,0.000002697398,0.000002697398,0.000002697398,0.99999994,0,0,0,0,0,0,1,1,0,0,0,false,false,true,-129.37999,-3356.47,17.01,-0.0047123544,0.0007741532,0.9872524,0.15909043,-481.38098,1030.341,8.341001,0,0,3.28191
154.35834,2000,0,91.24,0.000002697398,0.000002697398,0.000002697398,0.99999994,0,0,0,0,0,0,1,1,0,0,0,false,false,true,-133.39,-3347.88,17.01,-0.0047231438,0.0007094157,0.9893354,0.14557646,-487.761,1022.42096,8.341001,0,0,3.29251
154.36667,2000,0,91.24,0.000002697398,0.000002697398,0.000002697398,0.99999994,0,0,0,0,0,0,1,1,0,0,0,false,false,true,-137.45,-3339.3599,17.01,-0.004733933,0.0006446781,0.9912391,0.13199227,-494.061,1014.3909,8.341001,0,0,3.30281
154.375,2000,0,91.24,0.000002697398,0.000002697398,0.000002697398,0.99999994,0,0,0,0,0,0,1,1,0,0,0,false,false,true,-141.56999,-3330.91,17.01,-0.0047447234,0.0005799406,0.9929618,0.11833798,-500.281,1006.251,8.341001,0,0.00010999999,3.31281
154.38333,2000,0,91.24,0.000002697398,0.000002697398,0.000002697398,0.99999994,0,0,0,0,0,0,1,1,0,0,0,false,false,true,-145.73999,-3322.52,17.01,-0.004750118,0.00051520305,0.9945009,0.10461901,-506.431,998.0109,8.341001,0,0.00010999999,3.3224099
154.39166,2000,0,91.24,0.000002697398,0.000002697398,0.000002697398,0.99999994,0,0,0,0,0,0,1,1,0,0,0,false,false,true,-149.95999,-3314.2,17.01,-0.004755513,0.00045046548,0.99585396,0.09084061,-512.501,989.67096,8.341001,0,0.00010999999,3.3317099
154.4,2000,0,91.24,0.000002697398,0.000002697398,0.000002697398,0.99999994,0,0,0,0,0,0,1,1,0,0,0,false,false,true,-154.23,-3305.95,17.01,-0.0047609075,0.0003857279,0.99701893,0.07700827,-518.501,981.24097,8.341001,0,0.00010999999,3.34071
154.40834,2000,0,91.24,0.000002697398,0.000002697398,0.000002697398,0.99999994,0,0,0,0,0,0,1,1,0,0,0,false,false,true,-158.55,-3297.77,17.01,-0.0047663026,0.0003209904,0.99799436,0.06312207,-524.43097,972.73096,8.341001,0,0.00010999999,3.3494098
154.41667,2000,0,91.24,0.000002697398,0.000002697398,0.000002697398,0.99999994,0,0,0,0,0,0,1,1,0,0,0,false,false,true,-162.92,-3289.66,17.01,-0.0047716973,0.00025625282,0.9987781,0.049187224,-530.29095,964.131,8.341001,0,0.00021,3.35781
154.425,2000,0,91.24,0.000002697398,0.000002697398,0.000002697398,0.99999994,0,0,0,0,0,0,1,1,0,0,0,false,false,true,-167.34,-3281.63,17.01,-0.004771697,0.00019151527,0.9993685,0.035209306,-536.09094,955.46094,8.341001,0,0.00021,3.36581
154.43333,2000,0,91.24,0.000002697398,0.000002697398,0.000002697398,0.99999994,0,0,0,0,0,0,1,1,0,0,0,false,false,true,-171.81,-3273.67,17.01,-0.004771697,0.0001267777,0.99976397,0.02119354,-541.821,946.71094,8.341001,0,0.00021,3.37351
154.44167,2000,0,91.24,0.000002697398,0.000002697398,0.000002697398,0.99999994,0,0,0,0,0,0,1,1,0,0,0,false,false,true,-176.33,-3265.78,17.01,-0.0047716973,0.00006204016,0.9999631,0.0071400134,-547.501,937.8909,8.341001,0,0.00021,3.38091
154.45,2000,0,91.24,0.000002697398,0.000002697398,0.000002697398,0.99999994,0,0,0,0,0,0,1,1,0,0,0,false,false,true,-180.89,-3257.96,17.01,-0.0047716973,-0.0000026973983,0.9999645,-0.006945843,-553.131,929.001,8.341001,0.00010999999,0.00021,3.38791
154.45833,2000,0,91.24,0.000002697398,0.000002697398,0.000002697398,0.99999994,0,0,0,0,0,0,1,1,0,0,0,false,false,true,-185.5,-3250.22,17.01,-0.0047716964,-0.00007282974,0.9997667,-0.02105867,-558.71094,920.05096,8.341001,0.00010999999,0.00021,3.39461
154.46666,2000,0,91.24,0.000002697398,0.000002697398,0.000002697398,0.99999994,0,0,0,0,0,0,1,1,0,0,0,false,false,true,-190.15999,-3242.55,17.01,-0.004771697,-0.00014296209,0.9993689,-0.035198472,-564.24097,911.03094,8.341001,0.00010999999,0.00021,3.40091
154.475,2000,0,91.24,0.000002697398,0.000002697398,0.000002697398,0.99999994,0,0,0,0,0,0,1,1,0,0,0,false,false,true,-194.86,-3234.96,17.01,-0.004766302,-0.00021309445,0.9987699,-0.04935446,-569.74097,901.9509,8.341001,0.00010999999,0.00030999997,3.40681
154.48334,2000,0,91.24,0.000002697398,0.000002697398,0.000002697398,0.99999994,0,0,0,0,0,0,1,1,0,0,0,false,false,true,-199.61,-3227.44,17.01,-0.0047609075,-0.00028322678,0.9979687,-0.063526675,-575.21094,892.80096,8.341001,0.00010999999,0.00030999997,3.41231
154.49167,2000,0,91.24,0.000002697398,0.000002697398,0.000002697398,0.99999994,0,0,0,0,0,0,1,1,0,0,0,false,false,true,-204.4,-3220,17.01,-0.0047555123,-0.00035335912,0.99696445,-0.07770963,-580.65094,883.59094,8.341001,0,0.00030999997,3.41741
154.5,2000,0,91.24,0.000002697398,0.000002697398,0.000002697398,0.99999994,0,0,0,0,0,0,1,1,0,0,0,false,false,true,-209.23999,-3212.64,17.01,-0.0047501177,-0.0004234915,0.9957569,-0.091897994,-586.071,874.321,8.341001,0,0.00030999997,3.4221098
154.50833,2000,0,91.24,0.000002697398,0.000002697398,0.000002697398,0.99999994,0,0,0,0,0,0,1,1,0,0,0,false,false,true,-214.12,-3205.3499,17.01,-0.004744723,-0.00049362384,0.9943454,-0.10608639,-591.48096,864.98096,8.341001,0,0.00030999997,3.42641
154.51666,2000,0,91.24,0.000002697398,0.000002697398,0.000002697398,0.99999994,0,0,0,0,0,0,1,1,0,0,0,false,false,true,-219.04999,-3198.14,17.01,-0.0047339336,-0.00056375616,0.9927298,-0.12026935,-596.881,855.571,8.341001,0,0.00040999998,3.4302099
154.525,2000,0,91.24,0.000002697398,0.000002697398,0.000002697398,0.99999994,0,0,0,0,0,0,1,1,0,0,0,false,false,true,-224.01999,-3191.01,17.01,-0.0047231438,-0.0006338885,0.9909093,-0.13444692,-602.22095,846.05096,8.331,-0.00010999999,0.00040999998,3.4356098
154.53334,2000,0,91.24,0.000002697398,0.000002697398,0.000002697398,0.99999994,0,0,0,0,0,0,1,1,0,0,0,false,false,true,-229.04,-3183.96,17.01,-0.004712355,-0.00069862616,0.988883,-0.1486191,-607.451,836.41095,8.331,-0.00021,0.00030999997,3.44411
154.54167,2000,0,91.24,0.000002697398,0.000002697398,0.000002697398,0.99999994,0,0,0,0,0,0,1,1,0,0,0,false,false,true,-234.09999,-3176.99,17.01,-0.0047015646,-0.00076336367,0.9866481,-0.16279669,-612.58093,826.6409,8.331,-0.00021,0.00030999997,3.45571
154.55,2000,0,91.24,0.000002697398,0.000002697398,0.000002697398,0.99999994,0,0,0,0,0,0,1,1,0,0,0,false,false,true,-239.2,-3170.0999,17.01,-0.0046907756,-0.00082810124,0.98420197,-0.17698507,-617.61096,816.751,8.331,-0.00021,0.00021,3.47031
154.55833,2000,0,91.24,0.000002697398,0.000002697398,0.000002697398,0.99999994,0,0,0,0,0,0,1,1,0,0,0,false,false,true,-244.34999,-3163.29,17.01,-0.0046745907,-0.00089283875,0.9815405,-0.19119498,-622.54095,806.74097,8.331,-0.00021,0.00021,3.48791
154.56667,2000,0,91.24,0.000002697398,0.000002697398,0.000002697398,0.99999994,0,0,0,0,0,0,1,1,0,0,0,false,false,true,-249.54,-3156.5698,17.01,-0.004658406,-0.0009575763,0.9786587,-0.20543733,-627.371,796.621,8.331,-0.00021,0.00010999999,3.5085099
154.575,2000,0,91.24,0.000002697398,0.000002697398,0.000002697398,0.99999994,0,0,0,0,0,0,1,1,0,0,0,false,false,true,-254.76999,-3149.93,17.01,-0.004642222,-0.0010223138,0.9755507,-0.21972279,-632.11096,786.381,8.331,-0.00021,0.00010999999,3.5320098
154.58333,2000,0,91.24,0.000002697398,0.000002697398,0.000002697398,0.99999994,0,0,0,0,0,0,1,1,0,0,0,false,false,true,-260.04,-3143.38,17.01,-0.0046260376,-0.0010870514,0.97221124,-0.23405682,-636.761,776.03094,8.331,-0.00021,0,3.55841
154.59166,2000,0,91.24,0.000002697398,0.000002697398,0.000002697398,0.99999994,0,0,0,0,0,0,1,1,0,0,0,false,false,true,-265.35,-3136.91,17.01,-0.0046098535,-0.0011571839,0.96863437,-0.2484448,-641.27094,765.54095,8.331,-0.00021,0,3.58841
154.6,2000,0,91.24,0.000002697398,0.000002697398,0.000002697398,0.99999994,0,0,0,0,0,0,1,1,0,0,0,false,false,true,-270.69,-3130.53,17.01,-0.0045936694,-0.0012273162,0.96481204,-0.26289755,-645.55096,754.8909,8.331,-0.00021,0,3.62301
154.60834,2000,0,91.24,0.000002697398,0.000002697398,0.000002697398,0.99999994,0,0,0,0,0,0,1,1,0,0,0,false,false,true,-276.07,-3124.24,17.01,-0.0045720898,-0.0012974484,0.9607337,-0.27743113,-649.61096,744.09094,8.331,-0.00021,0,3.66201
154.61667,2000,0,91.24,0.000002697398,0.000002697398,0.000002697398,0.99999994,0,0,0,0,0,0,1,1,0,0,0,false,false,true,-281.47998,-3118.04,17.01,-0.00455051,-0.0013675807,0.9563891,-0.29205644,-653.451,733.16095,8.331,-0.00030999997,-0.00010999999,3.70541
154.625,2000,0,91.24,0.000002697398,0.000002697398,0.000002697398,0.99999994,0,0,0,0,0,0,1,1,0,0,0,false,false,true,-286.93,-3111.93,17.01,-0.004528931,-0.001437713,0.951767,-0.3067843,-657.071,722.10095,8.331,-0.00040999998,-0.00021,3.7532098
154.63333,2000,0,91.24,0.000002697398,0.000002697398,0.000002697398,0.99999994,0,0,0,0,0,0,1,1,0,0,0,false,false,true,-292.41,-3105.91,17.01,-0.0045073517,-0.0015078454,0.94685304,-0.32163084,-660.47095,710.92096,8.331,-0.00040999998,-0.00030999997,3.8052099
154.64166,2000,0,91.24,0.000002697398,0.000002697398,0.000002697398,0.99999994,0,0,0,0,0,0,1,1,0,0,0,false,false,true,-297.91,-3099.99,17.01,-0.004485773,-0.0015779779,0.94163513,-0.33660147,-663.54095,699.54095,8.331,-0.00040999998,-0.00040999998,3.8596098
154.65,2000,0,91.24,0.000002697398,0.000002697398,0.000002697398,0.99999994,0,0,0,0,0,0,1,1,0,0,0,false,false,true,-303.44,-3094.16,17.01,-0.0044587995,-0.0016481103,0.93610007,-0.35170162,-666.24097,687.96094,8.331,-0.00040999998,-0.00040999998,3.91571
154.65834,2000,0,91.24,0.000002697398,0.000002697398,0.000002697398,0.99999994,0,0,0,0,0,0,1,1,0,0,0,false,false,true,-308.99,-3088.43,17.01,-0.0044318247,-0.0017182425,0.930238,-0.36692575,-668.571,676.201,8.331,-0.00040999998,-0.00051,3.97361
154.66667,2000,0,91.24,0.000002697398,0.000002697398,0.000002697398,0.99999994,0,0,0,0,0,0,1,1,0,0,0,false,false,true,-314.56,-3082.79,17.01,-0.0044048512,-0.0017883751,0.92403674,-0.38227403,-670.49097,664.33093,8.331,-0.00040999998,-0.00051,4.03271
154.675,2000,0,91.24,0.000002697398,0.000002697398,0.000002697398,0.99999994,0,0,0,0,0,0,1,1,0,0,0,false,false,true,-320.15,-3077.25,17.01,-0.004377877,-0.0018585073,0.91748303,-0.39774635,-671.90094,652.571,8.331,-0.00030999997,-0.00051,4.09131
154.68333,2000,0,91.24,0.000002697398,0.000002697398,0.000002697398,0.99999994,0,0,0,0,0,0,1,1,0,0,0,false,false,true,-325.75,-3071.8098,17.01,-0.0043455083,-0.0019286396,0.9105704,-0.4133266,-672.821,640.941,8.331,-0.00021,-0.00040999998,4.14921
154.69167,2000,0,91.24,0.000002697398,0.000002697398,0.000002697398,0.99999994,0,0,0,0,0,0,1,1,0,0,0,false,false,true,-331.36,-3066.47,17.01,-0.0043131392,-0.0020041666,0.90329003,-0.42900392,-673.27094,629.47095,8.331,-0.00010999999,-0.00040999998,4.20641
154.7,2000,0,91.24,0.000002697398,0.000002697398,0.000002697398,0.99999994,0,0,0,0,0,0,1,1,0,0,0,false,false,true,-336.97,-3061.22,17.01,-0.004280771,-0.002079694,0.89563334,-0.4447676,-673.261,618.191,8.331,0,-0.00030999997,4.26301
154.70833,2000,0,91.24,0.000002697398,0.000002697398,0.000002697398,0.99999994,0,0,0,0,0,0,1,1,0,0,0,false,false,true,-342.58,-3056.0698,17.01,-0.004243007,-0.002155221,0.8875915,-0.46060678,-672.821,607.11096,8.331,0,-0.00021,4.31891
154.71666,2000,0,91.24,0.000002697398,0.000002697398,0.000002697398,0.99999994,0,0,0,0,0,0,1,1,0,0,0,false,false,true,-348.19,-3051.01,17.01,-0.0042052437,-0.0022307483,0.8791587,-0.4765053,-671.96094,596.261,8.331,0,-0.00021,4.37421
154.725,2000,0,91.24,0.000002697398,0.000002697398,0.000002697398,0.99999994,0,0,0,0,0,0,1,1,0,0,0,false,false,true,-353.78998,-3046.04,17.01,-0.0041620852,-0.0023062753,0.8703294,-0.49244693,-670.71094,585.66095,8.331,0,-0.00021,4.42891
154.73334,2000,0,91.24,0.000002697398,0.000002697398,0.000002697398,0.99999994,0,0,0,0,0,0,1,1,0,0,0,false,false,true,-359.38,-3041.16,17.01,-0.004118927,-0.0023818025,0.86109537,-0.508421,-668.93097,575.29095,8.331,0.00010999999,-0.00010999999,4.47921
154.74167,2000,0,91.24,0.000002697398,0.000002697398,0.000002697398,0.99999994,0,0,0,0,0,0,1,1,0,0,0,false,false,true,-364.94998,-3036.3699,17.01,-0.0040757684,-0.0024573295,0.8514584,-0.5244005,-666.641,565.18097,8.331,0.00021,0,4.52491
154.75,2000,0,91.24,0.000002697398,0.000002697398,0.000002697398,0.99999994,0,0,0,0,0,0,1,1,0,0,0,false,false,true,-370.50998,-3031.66,17.01,-0.0040272153,-0.0025328568,0.8414215,-0.5403583,-663.86096,555.35095,8.331,0.00030999997,0,4.56601
154.75833,2000,0,91.24,0.000002697398,0.000002697398,0.000002697398,0.99999994,0,0,0,0,0,0,1,1,0,0,0,false,false,true,-376.03998,-3027.03,17.01,-0.003978662,-0.0026083838,0.8309895,-0.5562676,-660.621,545.831,8.331,0.00040999998,0,4.60251
154.76666,2000,0,91.24,0.000002697398,0.000002697398,0.000002697398,0.99999994,0,0,0,0,0,0,1,1,0,0,0,false,false,true,-381.55,-3022.48,17.01,-0.0039301086,-0.002683911,0.820169,-0.5721014,-656.96094,536.641,8.331,0.00040999998,0.00010999999,4.63441
154.775,2000,0,91.24,0.000002697398,0.000002697398,0.000002697398,0.99999994,0,0,0,0,0,0,1,1,0,0,0,false,false,true,-387.02,-3018.01,17.01,-0.003876161,-0.0027594382,0.8089684,-0.5878327,-652.91095,527.80096,8.331,0.00040999998,0.00021,4.66171
154.78334,2000,0,91.24,0.000002697398,0.000002697398,0.000002697398,0.99999994,0,0,0,0,0,0,1,1,0,0,0,false,false,true,-392.46,-3013.6099,17.01,-0.003822213,-0.0028349652,0.79739827,-0.6034345,-648.511,519.321,8.331,0.00051,0.00030999997,4.68441
154.79167,2000,0,91.24,0.000002697398,0.000002697398,0.000002697398,0.99999994,0,0,0,0,0,0,1,1,0,0,0,false,false,true,-397.86,-3009.28,17.01,-0.0037682652,-0.0029104925,0.78547114,-0.61887985,-643.79095,511.221,8.331,0.00051,0.00040999998,4.70261
154.8,2000,0,91.24,0.000002697398,0.000002697398,0.000002697398,0.99999994,0,0,0,0,0,0,1,1,0,0,0,false,false,true,-403.22,-3005.02,17.01,-0.0037089225,-0.00298602,0.7731932,-0.63415265,-638.80096,503.511,8.331,0.00051,0.00051,4.71631
154.80833,2000,0,91.24,0.000002697398,0.000002697398,0.000002697398,0.99999994,0,0,0,0,0,0,1,1,0,0,0,false,false,true,-408.53998,-3000.8198,17.01,-0.0036495796,-0.0030615467,0.7605808,-0.6492257,-633.58093,496.181,8.331,0.00051,0.00061,4.72561
154.81667,2000,0,91.24,0.000002697398,0.000002697398,0.000002697398,0.99999994,0,0,0,0,0,0,1,1,0,0,0,false,false,true,-413.81998,-2996.68,17.01,-0.0035902371,-0.0031370742,0.7476531,-0.66407233,-628.16095,489.241,8.331,0.00051,0.00071,4.73041
154.825,2000,0,91.24,0.000002697398,0.000002697398,0.000002697398,0.99999994,0,0,0,0,0,0,1,1,0,0,0,false,false,true,-419.05,-2992.5999,17.01,-0.0035254995,-0.0032126014,0.7344222,-0.67867607,-622.59094,482.691,8.331,0.00040999998,0.00081,4.7308097
154.83333,2000,0,91.24,0.000002697398,0.000002697398,0.000002697398,0.99999994,0,0,0,0,0,0,1,1,0,0,0,false,false,true,-424.24,-2988.5798,17.01,-0.0034607616,-0.0032827335,0.7209016,-0.6930209,-616.91095,476.521,8.331,0.00030999997,0.00091,4.72681
154.84166,2000,0,91.24,0.000002697398,0.000002697398,0.000002697398,0.99999994,0,0,0,0,0,0,1,1,0,0,0,false,false,true,-429.38,-2984.6099,17.01,-0.0033960242,-0.0033528658,0.7071122,-0.70708513,-611.15094,470.731,8.331,0.00030999997,0.00091,4.71841
154.85,2000,0,91.24,0.000002697398,0.000002697398,0.000002697398,0.99999994,0,0,0,0,0,0,1,1,0,0,0,false,false,true,-434.47,-2980.69,17.01,0.0033258921,0.0034229984,-0.6930749,0.72084975,-605.35095,465.301,8.331,0.00021,0.0010099999,4.70571
154.85834,2000,0,91.24,0.000002697398,0.000002697398,0.000002697398,0.99999994,0,0,0,0,0,0,1,1,0,0,0,false,false,true,-439.50998,-2976.8098,17.01,0.0032557594,0.0034931304,-0.6788109,0.73429745,-599.55096,460.211,8.331,0.00021,0.0010099999,4.68861
154.86667,2000,0,91.24,0.000002697398,0.000002697398,0.000002697398,0.99999994,0,0,0,0,0,0,1,1,0,0,0,false,false,true,-444.50998,-2972.97,17.01,0.003185627,0.003557868,-0.6643366,0.74741817,-593.79095,455.441,8.321,0.00010999999,0.0010099999,4.66711
154.875,2000,0,91.24,0.000002697398,0.000002697398,0.000002697398,0.99999994,0,0,0,0,0,0,1,1,0,0,0,false,false,true,-449.46,-2969.17,17.01,0.0031154947,0.0036226057,-0.6496789,0.76019365,-588.09094,450.981,8.321,0.00010999999,0.00111,4.64121
154.88333,2000,0,91.24,0.000002697398,0.000002697398,0.000002697398,0.99999994,0,0,0,0,0,0,1,1,0,0,0,false,false,true,-454.36,-2965.41,17.01,0.0030399675,0.003687343,-0.6348593,0.77261287,-582.49097,446.791,8.321,0,0.00111,4.61091
154.89166,2000,0,91.24,0.000002697398,0.000002697398,0.000002697398,0.99999994,0,0,0,0,0,0,1,1,0,0,0,false,false,true,-459.21,-2961.69,17.01,0.0029644405,0.003746686,-0.6198995,0.78466654,-577.011,442.861,8.321,0,0.00111,4.57611
154.9,2000,0,91.24,0.000002697398,0.000002697398,0.000002697398,0.99999994,0,0,0,0,0,0,1,1,0,0,0,false,false,true,-464.02,-2958,17.01,0.0028889133,0.0038060287,-0.6048264,0.7963429,-571.67096,439.131,8.321,0,0.00111,4.53681
154.90834,2000,0,91.24,0.000002697398,0.000002697398,0.000002697398,0.99999994,0,0,0,0,0,0,1,1,0,0,0,false,false,true,-468.78,-2954.3398,17.01,0.0028133865,0.0038653717,-0.58966696,0.8076323,-566.451,435.561,8.321,0,0.00111,4.49301
154.91667,2000,0,91.24,0.000002697398,0.000002697398,0.000002697398,0.99999994,0,0,0,0,0,0,1,1,0,0,0,false,false,true,-473.5,-2950.71,17.01,0.002737859,0.0039193192,-0.57444274,0.8185307,-561.371,432.121,8.311,0,0.00111,4.4450097
154.925,2000,0,91.24,0.000002697398,0.000002697398,0.000002697398,0.99999994,0,0,0,0,0,0,1,1,0,0,0,false,false,true,-478.18,-2947.1099,17.01,0.0026623318,0.003973267,-0.5591862,0.8290282,-556.40094,428.761,8.311,0,0.0010099999,4.39431
154.93333,2000,0,91.24,0.000002697398,0.000002697398,0.000002697398,0.99999994,0,0,0,0,0,0,1,1,0,0,0,false,false,true,-482.81998,-2943.54,17.01,0.0025868046,0.004027215,-0.5439134,0.8391275,-551.52094,425.451,8.311,-0.00010999999,0.00091,4.34191
154.94167,2000,0,91.24,0.000002697398,0.000002697398,0.000002697398,0.99999994,0,0,0,0,0,0,1,1,0,0,0,false,false,true,-487.41998,-2939.99,17.01,0.0025112776,0.0040757684,-0.5286462,0.8488287,-546.72095,422.191,8.311,-0.00021,0.00081,4.28821
154.95833,2000,0,91.24,0.000002697398,0.000002697398,0.000002697398,0.99999994,0,0,0,0,0,0,1,1,0,0,0,false,false,true,-496.5,-2932.98,17.01,0.0023602233,0.00416748,-0.49817625,0.8670625,-537.35095,415.761,8.311,-0.00040999998,0.00061,4.17811
154.96666,2000,0,91.24,0.000002697398,0.000002697398,0.000002697398,0.99999994,0,0,0,0,0,0,1,1,0,0,0,false,false,true,-500.97998,-2929.52,17.01,0.0022846963,0.004210639,-0.4830061,0.87560385,-532.761,412.581,8.311,-0.00040999998,0.00051,4.12241
154.975,2000,0,91.24,0.000002697398,0.000002697398,0.000002697398,0.99999994,0,0,0,0,0,0,1,1,0,0,0,false,false,true,-505.41998,-2926.0798,17.01,0.0022091689,0.0042484016,-0.46789515,0.88377094,-528.23096,409.421,8.311,-0.00051,0.00040999998,4.06661
154.98334,2000,0,91.24,0.000002697398,0.000002697398,0.000002697398,0.99999994,0,0,0,0,0,0,1,1,0,0,0,false,false,true,-509.81998,-2922.67,17.01,0.0021336419,0.0042861653,-0.4528544,0.8915716,-523.761,406.271,8.311,-0.00051,0.00040999998,4.0110097
154.99167,2000,0,91.24,0.000002697398,0.000002697398,0.000002697398,0.99999994,0,0,0,0,0,0,1,1,0,0,0,false,false,true,-514.18,-2919.28,17.01,0.0020581146,0.004323929,-0.4378892,0.89901614,-519.331,403.121,8.311,-0.00051,0.00030999997,3.9558098
155,2000,0,91.24,0.000002697398,0.000002697398,0.000002697398,0.99999994,0,0,0,0,0,0,1,1,0,0,0,false,false,true,-518.51,-2915.92,17.01,0.0019825874,0.0043562977,-0.42301026,0.9061122,-514.941,399.961,8.301001,-0.00051,0.00021,3.90131
155.00833,2000,0,91.24,0.000002697398,0.000002697398,0.000002697398,0.99999994,0,0,0,0,0,0,1,1,0,0,0,false,false,true,-522.8,-2912.5898,17.01,0.0019070605,0.0043886667,-0.4082231,0.9128696,-510.581,396.791,8.301001,-0.00051,0.00010999999,3.84771
155.01666,2000,0,91.24,0.000002697398,0.000002697398,0.000002697398,0.99999994,0,0,0,0,0,0,1,1,0,0,0,false,false,true,-527.05,-2909.28,17.01,0.0018369282,0.004415641,-0.39353845,0.91929567,-506.251,393.601,8.301001,-0.00040999998,0,3.79521
155.025,2000,0,91.24,0.000002697398,0.000002697398,0.000002697398,0.99999994,0,0,0,0,0,0,1,1,0,0,0,false,false,true,-531.26996,-2906,17.01,0.0017667955,0.004442614,-0.37895077,0.9254043,-501.931,390.401,8.301001,-0.00040999998,0,3.74401
155.03334,2000,0,91.24,0.000002697398,0.000002697398,0.000002697398,0.99999994,0,0,0,0,0,0,1,1,0,0,0,false,false,true,-535.45,-2902.75,17.01,0.0016966634,0.0044695884,-0.3644711,0.93120235,-497.621,387.171,8.301001,-0.00030999997,0,3.69431
155.04167,2000,0,91.24,0.000002697398,0.000002697398,0.000002697398,0.99999994,0,0,0,0,0,0,1,1,0,0,0,false,false,true,-539.6,-2899.52,17.01,0.0016265311,0.0044965628,-0.35009396,0.9367024,-493.311,383.921,8.301001,-0.00030999997,0,3.6463099
155.05,2000,0,91.24,0.000002697398,0.000002697398,0.000002697398,0.99999994,0,0,0,0,0,0,1,1,0,0,0,false,false,true,-543.70996,-2896.3198,17.01,0.0015563987,0.0045181415,-0.3358246,0.94191235,-489.001,380.651,8.301001,-0.00030999997,-0.00010999999,3.60021
155.05833,2000,0,91.24,0.000002697398,0.000002697398,0.000002697398,0.99999994,0,0,0,0,0,0,1,1,0,0,0,false,false,true,-547.77997,-2893.15,17.01,0.0014862664,0.0045397207,-0.32165784,0.94684386,-484.681,377.351,8.301001,-0.00021,-0.00010999999,3.55611
155.06667,2000,0,91.24,0.000002697398,0.000002697398,0.000002697398,0.99999994,0,0,0,0,0,0,1,1,0,0,0,false,false,true,-551.82,-2890,17.01,0.001416134,0.0045613,-0.30759355,0.9515058,-480.341,374.031,8.301001,-0.00010999999,-0.00021,3.51421
155.075,2000,0,91.24,0.000002697398,0.000002697398,0.000002697398,0.99999994,0,0,0,0,0,0,1,1,0,0,0,false,false,true,-555.82,-2886.88,17.01,0.0013513964,0.004582879,-0.2936264,0.95590824,-475.971,370.681,8.301001,-0.00010999999,-0.00021,3.4746099
155.08333,2000,0,91.24,0.000002697398,0.000002697398,0.000002697398,0.99999994,0,0,0,0,0,0,1,1,0,0,0,false,false,true,-559.79,-2883.79,17.01,0.0012866588,0.0045990637,-0.27975628,0.9600591,-471.57098,367.311,8.301001,-0.00010999999,-0.00030999997,3.4374099
155.09166,2000,0,91.24,0.000002697398,0.000002697398,0.000002697398,0.99999994,0,0,0,0,0,0,1,1,0,0,0,false,false,true,-563.72,-2880.73,17.01,0.0012219212,0.0046152477,-0.26597792,0.96396714,-467.13098,363.911,8.301001,0,-0.00030999997,3.4028099
155.1,2000,0,91.24,0.000002697398,0.000002697398,0.000002697398,0.99999994,0,0,0,0,0,0,1,1,0,0,0,false,false,true,-567.61,-2877.7,17.01,0.0011571837,0.004631432,-0.25228587,0.9676408,-462.651,360.491,8.301001,0,-0.00040999998,3.37091
155.10834,2000,0,91.24,0.000002697398,0.000002697398,0.000002697398,0.99999994,0,0,0,0,0,0,1,1,0,0,0,false,false,true,-571.47,-2874.7,17.01,0.0010924462,0.0046476168,-0.23866941,0.97108907,-458.121,357.061,8.301001,0,-0.00040999998,3.34191
155.11667,2000,0,91.24,0.000002697398,0.000002697398,0.000002697398,0.99999994,0,0,0,0,0,0,1,1,0,0,0,false,false,true,-575.29,-2871.72,17.01,0.0010277086,0.004658406,-0.22512299,0.9743186,-453.541,353.611,8.301001,0,-0.00051,3.31581
155.125,2000,0,91.24,0.000002697398,0.000002697398,0.000002697398,0.99999994,0,0,0,0,0,0,1,1,0,0,0,false,false,true,-579.07,-2868.77,17.01,0.0009629711,0.004669196,-0.21164136,0.9773357,-448.861,350.141,8.301001,0,-0.00051,3.29321
155.13333,2000,0,91.24,0.000002697398,0.000002697398,0.000002697398,0.99999994,0,0,0,0,0,0,1,1,0,0,0,false,false,true,-582.81,-2865.8499,17.01,0.0008982336,0.004679986,-0.19821368,0.98014724,-444.021,346.641,8.301001,0.00010999999,-0.00051,3.2736099
155.14166,2000,0,91.24,0.000002697398,0.000002697398,0.000002697398,0.99999994,0,0,0,0,0,0,1,1,0,0,0,false,false,true,-586.51,-2862.96,17.01,0.000833496,0.004690775,-0.18482374,0.9827601,-439.021,343.131,8.301001,0.00021,-0.00051,3.25701
155.15,2000,0,91.24,0.000002697398,0.000002697398,0.000002697398,0.99999994,0,0,0,0,0,0,1,1,0,0,0,false,false,true,-590.17,-2860.0999,17.01,0.00076875853,0.004701565,-0.17147158,0.9851775,-433.841,339.641,8.301001,0.00030999997,-0.00051,3.2434099
155.15834,2000,0,91.24,0.000002697398,0.000002697398,0.000002697398,0.99999994,0,0,0,0,0,0,1,1,0,0,0,false,false,true,-593.79,-2857.27,17.01,0.0007094157,0.0047123544,-0.15814094,0.987405,-428.481,336.181,8.301001,0.00040999998,-0.00051,3.23271
155.16667,2000,0,91.24,0.000002697398,0.000002697398,0.000002697398,0.99999994,0,0,0,0,0,0,1,1,0,0,0,false,false,true,-597.36,-2854.47,17.01,0.0006500729,0.0047177486,-0.14482653,0.98944545,-422.931,332.771,8.301001,0.00040999998,-0.00051,3.22491
155.175,2000,0,91.24,0.000002697398,0.000002697398,0.000002697398,0.99999994,0,0,0,0,0,0,1,1,0,0,0,false,false,true,-600.88,-2851.7,17.01,0.00059073017,0.0047231438,-0.13151754,0.9913024,-417.191,329.431,8.301001,0.00040999998,-0.00051,3.22001
155.18333,2000,0,91.24,0.000002697398,0.000002697398,0.000002697398,0.99999994,0,0,0,0,0,0,1,1,0,0,0,false,false,true,-604.36,-2848.95,17.01,0.00053138746,0.004728539,-0.11820855,0.9929774,-411.251,326.191,8.301001,0.00040999998,-0.00040999998,3.21801
155.19167,2000,0,91.24,0.000002697398,0.000002697398,0.000002697398,0.99999994,0,0,0,0,0,0,1,1,0,0,0,false,false,true,-607.79,-2846.23,17.01,0.00047204466,0.0047339336,-0.104883306,0.9944731,-405.101,323.061,8.301001,0.00040999998,-0.00040999998,3.21891
155.2,2000,0,91.24,0.000002697398,0.000002697398,0.000002697398,0.99999994,0,0,0,0,0,0,1,1,0,0,0,false,false,true,-611.17,-2843.54,17.01,0.0004127019,0.0047393283,-0.09153654,0.9957903,-398.751,320.061,8.301001,0.00040999998,-0.00030999997,3.22271
155.20833,2000,0,91.24,0.000002697398,0.000002697398,0.000002697398,0.99999994,0,0,0,0,0,0,1,1,0,0,0,false,false,true,-614.49,-2840.8699,17.01,0.00035335918,0.0047447234,-0.07815741,0.99692965,-392.191,317.211,8.301001,0.00040999998,-0.00030999997,3.22941
155.21666,2000,0,91.24,0.000002697398,0.000002697398,0.000002697398,0.99999994,0,0,0,0,0,0,1,1,0,0,0,false,false,true,-617.76,-2838.23,17.01,0.00029401638,0.0047501177,-0.06473511,0.99789107,-385.421,314.531,8.301001,0.00040999998,-0.00030999997,3.23911
155.225,2000,0,91.24,0.000002697398,0.000002697398,0.000002697398,0.99999994,0,0,0,0,0,0,1,1,0,0,0,false,false,true,-620.97,-2835.6099,17.01,0.00022927884,0.0047501177,-0.05126426,0.99867374,-378.441,312.051,8.301001,0.00040999998,-0.00030999997,3.25191
155.23334,2000,0,91.24,0.000002697398,0.000002697398,0.000002697398,0.99999994,0,0,0,0,0,0,1,1,0,0,0,false,false,true,-624.12,-2833.01,17.01,0.00016454128,0.0047501177,-0.037728634,0.99927664,-371.261,309.791,8.301001,0.00040999998,-0.00030999997,3.2678099
155.24167,2000,0,91.24,0.000002697398,0.000002697398,0.000002697398,0.99999994,0,0,0,0,0,0,1,1,0,0,0,false,false,true,-627.20996,-2830.43,17.01,0.000099803736,0.004750118,-0.024117522,0.9996978,-363.871,307.771,8.301001,0.00040999998,-0.00030999997,3.28701
155.25,2000,0,91.24,0.000002697398,0.000002697398,0.000002697398,0.99999994,0,0,0,0,0,0,1,1,0,0,0,false,false,true,-630.24,-2827.8599,17.01,0.000035066176,0.004750118,-0.010425487,0.9999343,-356.281,306.011,8.301001,0.00040999998,-0.00021,3.30951
155.25833,2000,0,91.24,0.000002697398,0.000002697398,0.000002697398,0.99999994,0,0,0,0,0,0,1,1,0,0,0,false,false,true,-633.20996,-2825.31,17.01,-0.00002967138,0.004750118,0.0033636556,0.999983,-348.491,304.541,8.301001,0.00051,-0.00021,3.33551
155.26666,2000,0,91.24,0.000002697398,0.000002697398,0.000002697398,0.99999994,0,0,0,0,0,0,1,1,0,0,0,false,false,true,-636.11,-2822.77,17.01,-0.00009440894,0.004750118,0.017260736,0.9998397,-340.501,303.391,8.301001,0.00061,-0.00021,3.3652098
155.275,2000,0,91.24,0.000002697398,0.000002697398,0.000002697398,0.99999994,0,0,0,0,0,0,1,1,0,0,0,false,false,true,-638.95,-2820.24,17.01,-0.0001591465,0.004750118,0.031276416,0.99949944,-332.321,302.581,8.301001,0.00061,-0.00021,3.39871
155.28334,2000,0,91.24,0.000002697398,0.000002697398,0.000002697398,0.99999994,0,0,0,0,0,0,1,1,0,0,0,false,false,true,-641.72,-2817.72,17.01,-0.00022388405,0.0047447234,0.045427054,0.9989563,-323.961,302.151,8.301001,0.00071,-0.00021,3.4363098
155.29167,2000,0,91.24,0.000002697398,0.000002697398,0.000002697398,0.99999994,0,0,0,0,0,0,1,1,0,0,0,false,false,true,-644.42,-2815.2,17.01,-0.00028862158,0.0047393283,0.059723344,0.99820364,-315.431,302.121,8.301001,0.00071,-0.00021,3.47821
155.3,2000,0,91.24,0.000002697398,0.000002697398,0.000002697398,0.99999994,0,0,0,0,0,0,1,1,0,0,0,false,false,true,-647.05,-2812.68,17.01,-0.00035335918,0.004733934,0.0741814,0.99723345,-306.731,302.501,8.301001,0.00071,-0.00021,3.52371
155.30833,2000,0,91.24,0.000002697398,0.000002697398,0.000002697398,0.99999994,0,0,0,0,0,0,1,1,0,0,0,false,false,true,-649.61,-2810.16,17.01,-0.00041809672,0.004728539,0.08881217,0.99603707,-297.871,303.171,8.301001,0.00071,-0.00010999999,3.5685098
155.31667,2000,0,91.24,0.000002697398,0.000002697398,0.000002697398,0.99999994,0,0,0,0,0,0,1,1,0,0,0,false,false,true,-652.08997,-2807.63,17.01,-0.0004828343,0.004723144,0.10361019,0.9946066,-288.851,304.161,8.301001,0.00071,-0.00010999999,3.61281
155.325,2000,0,91.24,0.000002697398,0.000002697398,0.000002697398,0.99999994,0,0,0,0,0,0,1,1,0,0,0,false,false,true,-654.5,-2805.0999,17.01,-0.0005529666,0.0047123544,0.11856995,0.9929343,-279.681,305.501,8.301001,0.00061,-0.00010999999,3.65671
155.33333,2000,0,91.24,0.000002697398,0.000002697398,0.000002697398,0.99999994,0,0,0,0,0,0,1,1,0,0,0,false,false,true,-656.82996,-2802.55,17.01,-0.000623099,0.004701565,0.13368626,0.99101233,-270.371,307.231,8.301001,0.00051,0,3.70051
155.34166,2000,0,91.24,0.000002697398,0.000002697398,0.000002697398,0.99999994,0,0,0,0,0,0,1,1,0,0,0,false,false,true,-659.07996,-2799.99,17.01,-0.00069323124,0.0046907747,0.1489482,0.9888335,-260.921,309.391,8.301001,0.00051,0,3.74431
155.35,2000,0,91.24,0.000002697398,0.000002697398,0.000002697398,0.99999994,0,0,0,0,0,0,1,1,0,0,0,false,false,true,-661.25,-2797.41,17.01,-0.0007633636,0.004679985,0.16435574,0.9863896,-251.351,312.031,8.301001,0.00051,0,3.7883098
155.35834,2000,0,91.24,0.000002697398,0.000002697398,0.000002697398,0.99999994,0,0,0,0,0,0,1,1,0,0,0,false,false,true,-663.33997,-2794.81,17.01,-0.000833496,0.004669196,0.17990364,0.98367274,-241.661,315.191,8.301001,0.00040999998,0,3.83261
155.36667,2000,0,91.24,0.000002697398,0.000002697398,0.000002697398,0.99999994,0,0,0,0,0,0,1,1,0,0,0,false,false,true,-665.35,-2792.18,17.01,-0.00090362824,0.004653011,0.19558638,0.98067486,-231.881,318.841,8.301001,0.00030999997,0,3.8763099
155.375,2000,0,91.24,0.000002697398,0.000002697398,0.000002697398,0.99999994,0,0,0,0,0,0,1,1,0,0,0,false,false,true,-667.27997,-2789.52,17.01,-0.0009791554,0.004636827,0.21139863,0.9773884,-222.131,322.701,8.301001,0.00021,0,3.9170098
155.38333,2000,0,91.24,0.000002697398,0.000002697398,0.000002697398,0.99999994,0,0,0,0,0,0,1,1,0,0,0,false,false,true,-669.13,-2786.8298,17.01,-0.0010546827,0.004620643,0.22732407,0.9738076,-212.401,326.801,8.301001,0.00021,0.00010999999,3.95481
155.39166,2000,0,91.24,0.000002697398,0.000002697398,0.000002697398,0.99999994,0,0,0,0,0,0,1,1,0,0,0,false,false,true,-670.89996,-2784.1099,17.01,-0.0011302098,0.0046044583,0.2433413,0.9699291,-202.711,331.191,8.301001,0.00021,0.00010999999,3.98981
155.4,2000,0,91.24,0.000002697398,0.000002697398,0.000002697398,0.99999994,0,0,0,0,0,0,1,1,0,0,0,false,false,true,-672.58997,-2781.3499,17.01,-0.0012057368,0.0045828787,0.25942862,0.9657505,-193.061,335.891,8.301001,0.00021,0.00010999999,4.0219097
155.40834,2000,0,91.24,0.000002697398,0.000002697398,0.000002697398,0.99999994,0,0,0,0,0,0,1,1,0,0,0,false,false,true,-674.2,-2778.55,17.01,-0.001281264,0.0045613,0.27557528,0.96126777,-183.601,340.791,8.301001,0.00021,0.00021,4.04981
155.41667,2000,0,91.24,0.000002697398,0.000002697398,0.000002697398,0.99999994,0,0,0,0,0,0,1,1,0,0,0,false,false,true,-675.73,-2775.71,17.01,-0.0013567912,0.0045397207,0.29175436,0.95648146,-174.421,345.831,8.301001,0.00010999999,0.00030999997,4.07271
155.425,2000,0,91.24,0.000002697398,0.000002697398,0.000002697398,0.99999994,0,0,0,0,0,0,1,1,0,0,0,false,false,true,-677.18,-2772.8298,17.01,-0.0014323184,0.0045181415,0.30794424,0.95139253,-165.521,351.031,8.301001,0,0.00030999997,4.0907097
155.43333,2000,0,91.24,0.000002697398,0.000002697398,0.000002697398,0.99999994,0,0,0,0,0,0,1,1,0,0,0,false,false,true,-678.56,-2769.9,17.01,-0.0015078455,0.0044965623,0.3241125,0.9460066,-156.901,356.401,8.301001,0,0.00030999997,4.10381
155.44167,2000,0,91.24,0.000002697398,0.000002697398,0.000002697398,0.99999994,0,0,0,0,0,0,1,1,0,0,0,false,false,true,-679.87,-2766.93,17.01,-0.0015833727,0.0044695884,0.34024295,0.94032556,-148.561,361.961,8.301001,0,0.00030999997,4.1118097
155.45,2000,0,91.24,0.000002697398,0.000002697398,0.000002697398,0.99999994,0,0,0,0,0,0,1,1,0,0,0,false,false,true,-681.11,-2763.91,17.01,-0.0016588998,0.0044426145,0.35630336,0.93435824,-140.511,367.731,8.301001,0,0.00030999997,4.11471
155.45833,2000,0,91.24,0.000002697398,0.000002697398,0.000002697398,0.99999994,0,0,0,0,0,0,1,1,0,0,0,false,false,true,-682.27997,-2760.8499,17.01,-0.001734427,0.0044156406,0.37227204,0.9281115,-132.811,373.441,8.301001,-0.00010999999,0.00030999997,4.11891
155.46666,2000,0,91.24,0.000002697398,0.000002697398,0.000002697398,0.99999994,0,0,0,0,0,0,1,1,0,0,0,false,false,true,-683.39,-2757.74,17.01,-0.0018099542,0.004388667,0.38814363,0.92158663,-125.451,379.131,8.301001,-0.00010999999,0.00021,4.12391
155.475,2000,0,91.24,0.000002697398,0.000002697398,0.000002697398,0.99999994,0,0,0,0,0,0,1,1,0,0,0,false,false,true,-684.44,-2754.5798,17.01,-0.0018854813,0.0043562977,0.4039234,0.91478044,-118.421,384.801,8.301001,-0.00010999999,0.00010999999,4.12941
155.48334,2000,0,91.24,0.000002697398,0.000002697398,0.000002697398,0.99999994,0,0,0,0,0,0,1,1,0,0,0,false,false,true,-685.43,-2751.3699,17.01,-0.0019610086,0.0043239295,0.41960078,0.9076963,-111.730995,390.471,8.301001,-0.00010999999,0.00010999999,4.13511
155.49167,2000,0,91.24,0.000002697398,0.000002697398,0.000002697398,0.99999994,0,0,0,0,0,0,1,1,0,0,0,false,false,true,-686.36,-2748.1199,17.01,-0.0020365354,0.00429156,0.43517563,0.900333,-105.370995,396.151,8.301001,-0.00010999999,0,4.1409097
155.5,2000,0,91.24,0.000002697398,0.000002697398,0.000002697398,0.99999994,0,0,0,0,0,0,1,1,0,0,0,false,false,true,-687.24,-2744.8198,17.01,-0.0021120626,0.004253797,0.4506425,0.8926918,-99.351,401.841,8.301001,-0.00010999999,0,4.14661
155.50833,2000,0,91.24,0.000002697398,0.000002697398,0.000002697398,0.99999994,0,0,0,0,0,0,1,1,0,0,0,false,false,true,-688.07,-2741.47,17.01,-0.0021875896,0.004216033,0.46599618,0.8847739,-93.671,407.541,8.301001,-0.00010999999,0,4.15211
155.51666,2000,0,91.24,0.000002697398,0.000002697398,0.000002697398,0.99999994,0,0,0,0,0,0,1,1,0,0,0,false,false,true,-688.85,-2738.0698,17.01,-0.002263117,0.0041782698,0.48123118,0.87658083,-88.340996,413.261,8.301001,-0.00010999999,0,4.15731
155.525,2000,0,91.24,0.000002697398,0.000002697398,0.000002697398,0.99999994,0,0,0,0,0,0,1,1,0,0,0,false,false,true,-689.58997,-2734.63,17.01,-0.0023332492,0.004140506,0.49634197,0.868114,-83.361,418.991,8.301001,-0.00010999999,0,4.16211
155.53334,2000,0,91.24,0.000002697398,0.000002697398,0.000002697398,0.99999994,0,0,0,0,0,0,1,1,0,0,0,false,false,true,-690.27997,-2731.14,17.01,-0.0024033817,0.004097348,0.51132345,0.8593752,-78.751,424.731,8.301001,-0.00010999999,0,4.16651
155.54167,2000,0,91.24,0.000002697398,0.000002697398,0.000002697398,0.99999994,0,0,0,0,0,0,1,1,0,0,0,false,false,true,-690.94,-2727.5999,17.01,-0.0024735143,0.0040541897,0.5261646,0.85036945,-74.501,430.481,8.301001,-0.00010999999,0,4.17031
155.55,2000,0,91.24,0.000002697398,0.000002697398,0.000002697398,0.99999994,0,0,0,0,0,0,1,1,0,0,0,false,false,true,-691.56,-2724.01,17.01,-0.0025436466,0.0040110312,0.54086006,0.84109914,-70.631,436.231,8.301001,-0.00021,0,4.1736097
155.55833,2000,0,91.24,0.000002697398,0.000002697398,0.000002697398,0.99999994,0,0,0,0,0,0,1,1,0,0,0,false,false,true,-692.14996,-2720.3699,17.01,-0.0026137787,0.0039678724,0.5554044,0.8315667,-67.151,441.971,8.301001,-0.00021,0,4.17621
155.56667,2000,0,91.24,0.000002697398,0.000002697398,0.000002697398,0.99999994,0,0,0,0,0,0,1,1,0,0,0,false,false,true,-692.70996,-2716.69,17.01,-0.002683911,0.003924714,0.569787,0.82177854,-64.061,447.691,8.301001,-0.00021,-0.00010999999,4.17821
155.575,2000,0,91.24,0.000002697398,0.000002697398,0.000002697398,0.99999994,0,0,0,0,0,0,1,1,0,0,0,false,false,true,-693.24,-2712.96,17.01,-0.0027540433,0.003876161,0.58400774,0.8117341,-61.371,453.381,8.301001,-0.00021,-0.00021,4.17941
155.58333,2000,0,91.24,0.000002697398,0.000002697398,0.000002697398,0.99999994,0,0,0,0,0,0,1,1,0,0,0,false,false,true,-693.75,-2709.18,17.01,-0.0028241756,0.003827608,0.5980559,0.8014402,-59.091,459.021,8.301001,-0.00021,-0.00021,4.17981
155.59166,2000,0,91.24,0.000002697398,0.000002697398,0.000002697398,0.99999994,0,0,0,0,0,0,1,1,0,0,0,false,false,true,-694.24,-2705.3499,17.01,-0.0028889135,0.0037790549,0.61192065,0.7909048,-57.220997,464.60098,8.301001,-0.00010999999,-0.00021,4.17941
155.6,2000,0,91.24,0.000002697398,0.000002697398,0.000002697398,0.99999994,0,0,0,0,0,0,1,1,0,0,0,false,false,true,-694.72,-2701.48,17.01,-0.0029536507,0.003730501,0.6256017,0.78012794,-55.771,470.10098,8.301001,-0.00010999999,-0.00030999997,4.17811
155.60834,2000,0,91.24,0.000002697398,0.000002697398,0.000002697398,0.99999994,0,0,0,0,0,0,1,1,0,0,0,false,false,true,-695.18,-2697.56,17.01,-0.0030183885,0.0036765535,0.63908887,0.7691181,-54.751,475.511,8.301001,-0.00010999999,-0.00040999998,4.17591
155.61667,2000,0,91.24,0.000002697398,0.000002697398,0.000002697398,0.99999994,0,0,0,0,0,0,1,1,0,0,0,false,false,true,-695.64,-2693.5999,17.01,-0.003083126,0.0036226057,0.65237635,0.75788015,-54.161,480.82098,8.301001,-0.00010999999,-0.00040999998,4.17261
155.625,2000,0,91.24,0.000002697398,0.000002697398,0.000002697398,0.99999994,0,0,0,0,0,0,1,1,0,0,0,false,false,true,-696.08997,-2689.5898,17.01,-0.0031478636,0.0035686577,0.6654533,0.7464242,-53.981,486.111,8.301001,-0.00010999999,-0.00040999998,4.1676097
155.63333,2000,0,91.24,0.000002697398,0.000002697398,0.000002697398,0.99999994,0,0,0,0,0,0,1,1,0,0,0,false,false,true,-696.54,-2685.54,17.01,-0.0032126012,0.0035147096,0.67831457,0.7347561,-54.200996,491.371,8.301001,-0.00010999999,-0.00040999998,4.16161
155.64166,2000,0,91.24,0.000002697398,0.000002697398,0.000002697398,0.99999994,0,0,0,0,0,0,1,1,0,0,0,false,false,true,-696.99,-2681.45,17.01,-0.0032719441,0.0034553672,0.6909547,0.7228824,-54.810997,496.57098,8.301001,-0.00010999999,-0.00040999998,4.15491
155.65,2000,0,91.24,0.000002697398,0.000002697398,0.000002697398,0.99999994,0,0,0,0,0,0,1,1,0,0,0,false,false,true,-697.45,-2677.31,17.01,-0.0033312866,0.0033960242,0.7033627,0.71081513,-55.810997,501.691,8.301001,-0.00010999999,-0.00040999998,4.14781
155.65834,2000,0,91.24,0.000002697398,0.000002697398,0.000002697398,0.99999994,0,0,0,0,0,0,1,1,0,0,0,false,false,true,-697.92,-2673.13,17.01,-0.0033906293,0.0033366815,0.7155395,0.69855595,-57.190998,506.701,8.301001,-0.00021,-0.00040999998,4.14041
155.66667,2000,0,91.24,0.000002697398,0.000002697398,0.000002697398,0.99999994,0,0,0,0,0,0,1,1,0,0,0,false,false,true,-698.39996,-2668.91,17.01,-0.0034499723,0.0032773386,0.7274821,0.6861101,-58.950996,511.581,8.301001,-0.00021,-0.00040999998,4.13301
155.675,2000,0,91.24,0.000002697398,0.000002697398,0.000002697398,0.99999994,0,0,0,0,0,0,1,1,0,0,0,false,false,true,-698.89,-2664.65,17.01,-0.0035093152,0.003217996,0.7391893,0.6734808,-61.071,516.311,8.301001,-0.00021,-0.00040999998,4.12571
155.68333,2000,0,91.24,0.000002697398,0.000002697398,0.000002697398,0.99999994,0,0,0,0,0,0,1,1,0,0,0,false,false,true,-699.39996,-2660.3499,17.01,-0.0035632628,0.0031586532,0.75065815,0.6606735,-63.551,520.86096,8.301001,-0.00021,-0.00040999998,4.1188097
155.69167,2000,0,91.24,0.000002697398,0.000002697398,0.000002697398,0.99999994,0,0,0,0,0,0,1,1,0,0,0,false,false,true,-699.93,-2656.01,17.01,-0.003617211,0.0030939158,0.76188594,0.64769363,-66.381,525.24097,8.301001,-0.00021,-0.00040999998,4.11271
155.7,2000,0,91.24,0.000002697398,0.000002697398,0.000002697398,0.99999994,0,0,0,0,0,0,1,1,0,0,0,false,false,true,-700.48,-2651.63,17.01,-0.0036711588,0.003029178,0.7728744,0.63454103,-69.561,529.441,8.301001,-0.00030999997,-0.00040999998,4.10801
155.70833,2000,0,91.24,0.000002697398,0.000002697398,0.000002697398,0.99999994,0,0,0,0,0,0,1,1,0,0,0,false,false,true,-701.06,-2647.22,17.01,-0.0037251068,0.0029644405,0.7836207,0.6212212,-73.071,533.46094,8.301001,-0.00030999997,-0.00030999997,4.1048098
155.71666,2000,0,91.24,0.000002697398,0.000002697398,0.000002697398,0.99999994,0,0,0,0,0,0,1,1,0,0,0,false,false,true,-701.67,-2642.77,17.01,-0.0037790546,0.0028997029,0.7941302,0.60772884,-76.901,537.27094,8.301001,-0.00030999997,-0.00030999997,4.10311
155.725,2000,0,91.24,0.000002697398,0.000002697398,0.000002697398,0.99999994,0,0,0,0,0,0,1,1,0,0,0,false,false,true,-702.31,-2638.29,17.01,-0.003827608,0.0028349652,0.8044038,0.5940637,-81.050995,540.881,8.301001,-0.00030999997,-0.00021,4.10271
155.73334,2000,0,91.24,0.000002697398,0.000002697398,0.000002697398,0.99999994,0,0,0,0,0,0,1,1,0,0,0,false,false,true,-702.99,-2633.78,17.01,-0.0038761613,0.002770228,0.8144415,0.58022606,-85.520996,544.311,8.301001,-0.00030999997,-0.00021,4.10341
155.74167,2000,0,91.24,0.000002697398,0.000002697398,0.000002697398,0.99999994,0,0,0,0,0,0,1,1,0,0,0,false,false,true,-703.7,-2629.24,17.01,-0.003924714,0.0027054902,0.82424325,0.5662157,-90.291,547.54095,8.311,-0.00030999997,-0.00021,4.1051097
155.75,2000,0,91.24,0.000002697398,0.000002697398,0.000002697398,0.99999994,0,0,0,0,0,0,1,1,0,0,0,false,false,true,-704.45,-2624.68,17.01,-0.003973267,0.0026407526,0.8338087,0.5520327,-95.351,550.561,8.311,-0.00021,-0.00010999999,4.10771
155.75833,2000,0,91.24,0.000002697398,0.000002697398,0.000002697398,0.99999994,0,0,0,0,0,0,1,1,0,0,0,false,false,true,-705.24,-2620.0898,17.01,-0.0040164255,0.0025706203,0.8431338,0.5376825,-100.681,553.36096,8.311,-0.00021,-0.00010999999,4.1111097
155.76666,2000,0,91.24,0.000002697398,0.000002697398,0.000002697398,0.99999994,0,0,0,0,0,0,1,1,0,0,0,false,false,true,-706.07996,-2615.48,17.01,-0.004059584,0.002500488,0.85222125,0.5231597,-106.260994,555.93097,8.311,-0.00021,-0.00010999999,4.11521
155.775,2000,0,91.24,0.000002697398,0.000002697398,0.000002697398,0.99999994,0,0,0,0,0,0,1,1,0,0,0,false,false,true,-706.97,-2610.8499,17.01,-0.0041027423,0.0024303556,0.8610667,0.5084695,-112.08099,558.251,8.311,-0.00021,-0.00010999999,4.12001
155.78334,2000,0,91.24,0.000002697398,0.000002697398,0.000002697398,0.99999994,0,0,0,0,0,0,1,1,0,0,0,false,false,true,-707.89996,-2606.2,17.01,-0.0041459007,0.0023602233,0.86966896,0.49361223,-118.131,560.331,8.311,-0.00021,0,4.1255097
155.79167,2000,0,91.24,0.000002697398,0.000002697398,0.000002697398,0.99999994,0,0,0,0,0,0,1,1,0,0,0,false,false,true,-708.88,-2601.53,17.01,-0.0041836645,0.0022900908,0.87802374,0.4785931,-124.391,562.15094,8.311,-0.00021,0,4.13151
155.8,2000,0,91.24,0.000002697398,0.000002697398,0.000002697398,0.99999994,0,0,0,0,0,0,1,1,0,0,0,false,false,true,-709.92,-2596.8499,17.01,-0.0042214273,0.0022199582,0.8861327,0.46340662,-130.841,563.71094,8.311,-0.00021,0,4.1381097
155.80833,2000,0,91.24,0.000002697398,0.000002697398,0.000002697398,0.99999994,0,0,0,0,0,0,1,1,0,0,0,false,false,true,-711.01,-2592.15,17.01,-0.0042591915,0.0021498261,0.8939915,0.4480584,-137.47101,565.001,8.311,-0.00010999999,0,4.14521
155.81667,2000,0,91.24,0.000002697398,0.000002697398,0.000002697398,0.99999994,0,0,0,0,0,0,1,1,0,0,0,false,false,true,-712.16,-2587.44,17.01,-0.0042969557,0.0020742991,0.9015955,0.43255377,-144.27101,566.02094,8.311,-0.00010999999,0,4.15271
155.825,2000,0,91.24,0.000002697398,0.000002697398,0.000002697398,0.99999994,0,0,0,0,0,0,1,1,0,0,0,false,false,true,-713.36,-2582.72,17.01,-0.0043347185,0.001998772,0.9089457,0.41688716,-151.22101,566.761,8.311,-0.00010999999,0,4.1606097
155.83333,2000,0,91.24,0.000002697398,0.000002697398,0.000002697398,0.99999994,0,0,0,0,0,0,1,1,0,0,0,false,false,true,-714.62,-2578,17.01,-0.0043670875,0.0019232448,0.9160351,0.40106955,-158.311,567.22095,8.311,-0.00010999999,0,4.16891
155.84166,2000,0,91.24,0.000002697398,0.000002697398,0.000002697398,0.99999994,0,0,0,0,0,0,1,1,0,0,0,false,false,true,-715.94,-2573.27,17.01,-0.004399456,0.0018477177,0.9228643,0.38509548,-165.521,567.40094,8.311,-0.00010999999,0,4.17761
155.85,2000,0,91.24,0.000002697398,0.000002697398,0.000002697398,0.99999994,0,0,0,0,0,0,1,1,0,0,0,false,false,true,-717.32,-2568.54,17.01,-0.0044318247,0.0017721906,0.92942667,0.36897582,-172.841,567.29095,8.311,-0.00010999999,0,4.18671
155.85834,2000,0,91.24,0.000002697398,0.000002697398,0.000002697398,0.99999994,0,0,0,0,0,0,1,1,0,0,0,false,false,true,-718.76,-2563.81,17.01,-0.0044641932,0.0016966632,0.93572223,0.352705,-180.261,566.891,8.311,-0.00010999999,0,4.19611
155.86667,2000,0,91.24,0.000002697398,0.000002697398,0.000002697398,0.99999994,0,0,0,0,0,0,1,1,0,0,0,false,false,true,-720.26,-2559.0898,17.01,-0.004491168,0.0016211363,0.9417449,0.336294,-187.771,566.21094,8.311,0,0,4.20581
155.875,2000,0,91.24,0.000002697398,0.000002697398,0.000002697398,0.99999994,0,0,0,0,0,0,1,1,0,0,0,false,false,true,-721.82,-2554.3699,17.01,-0.004518142,0.0015402144,0.9474942,0.3197373,-195.351,565.24097,8.311,0,0,4.21581
155.88333,2000,0,91.24,0.000002697398,0.000002697398,0.000002697398,0.99999994,0,0,0,0,0,0,1,1,0,0,0,false,false,true,-723.45,-2549.66,17.01,-0.004545116,0.0014592925,0.952964,0.30304578,-202.991,563.98096,8.311,0,0,4.22601
155.89166,2000,0,91.24,0.000002697398,0.000002697398,0.000002697398,0.99999994,0,0,0,0,0,0,1,1,0,0,0,false,false,true,-725.13995,-2544.96,17.01,-0.0045720898,0.0013783704,0.9581522,0.2862193,-210.681,562.43097,8.311,0,0,4.23651
