time,ball_loc_x,ball_loc_y,ball_loc_z,ball_rot_x,ball_rot_y,ball_rot_z,ball_rot_w,ball_vel_x,ball_vel_y,ball_vel_z,ball_ang_x,ball_ang_y,ball_ang_z,player0_throttle,player0_steer,player0_pitch,player0_yaw,player0_roll,player0_jump,player0_boost,player0_handbrake,player0_loc_x,player0_loc_y,player0_loc_z,player0_rot_x,player0_rot_y,player0_rot_z,player0_rot_w,player0_vel_x,player0_vel_y,player0_vel_z,player0_ang_x,player0_ang_y,player0_ang_z
242.86667,2000,0,91.24,0.000002697398,0.000002697398,0.000002697398,0.99999994,0,0,0,0,0,0,0,0,0,0,0,false,false,false,0,0.14,17.01,-0.00336905,0.0033798397,0.7071014,0.7070959,0,0.011,8.321,-0.00051,0,0
242.875,2000,0,73,0.000002697398,0.000002697398,0.000002697398,0.99999994,0,0,0,0,0,0,1,0,0,0,0,false,true,false,0,0.07,16.94,0.0000026973983,0.0000026973983,0.70710677,0.70710677,0,21.521,2.041,-0.050809998,0,0
242.88333,2000,0,87.6,0.000002697398,0.000002697398,0.000002697398,0.99999994,0,0,0,0,0,0,1,0,0,0,0,false,true,false,0,0.32,16.89,-0.00014835689,0.00015375168,0.7071067,0.7071067,0,42.861,3.8809998,-0.085609995,0,0
242.89166,2000,0,90.52,0.000002697398,0.000002697398,0.000002697398,0.99999994,0,0,0,0,0,0,1,0,0,0,0,false,true,false,0,0.75,16.85,-0.00040191234,0.00040730715,0.70710653,0.70710677,0,64.011,5.481,-0.107209995,0,0
242.9,2000,0,91.1,0.000002697398,0.000002697398,0.000002697398,0.99999994,0,0,0,0,0,0,1,0,0,0,0,false,true,false,0,1.35,16.83,-0.00072020525,0.00072560005,0.7071067,0.707106,0,84.980995,6.7809997,-0.11630999,0,0
242.90834,2000,0,91.22,0.000002697398,0.000002697398,0.000002697398,0.99999994,0,0,0,0,0,0,1,0,0,0,0,false,true,false,0,2.1299999,16.82,-0.0010654721,0.001070867,0.70710516,0.7071067,0,105.770996,7.7209997,-0.114609994,0,0
242.91667,2000,0,91.24,0.000002697398,0.000002697398,0.000002697398,0.99999994,0,0,0,0,0,0,1,0,0,0,0,false,true,false,0,3.08,16.82,-0.0014053443,0.0014107391,0.7071067,0.70710397,0,126.391,8.401,-0.10651,0,0
242.925,2000,0,91.24,0.000002697398,0.000002697398,0.000002697398,0.99999994,0,0,0,0,0,0,1,0,0,0,0,false,true,false,0,4.2,16.82,-0.0017182427,0.0017236375,0.707108,0.70710135,0,146.83101,8.8810005,-0.09501,0,0
242.93333,2000,0,91.24,0.000002697398,0.000002697398,0.000002697398,0.99999994,0,0,0,0,0,0,1,0,0,0,0,false,true,false,0,5.49,16.83,-0.001998772,0.0020041666,0.70710653,0.7071013,0,167.091,9.231,-0.08221,0,0
242.94167,2000,0,91.24,0.000002697398,0.000002697398,0.000002697398,0.99999994,0,0,0,0,0,0,1,0,0,0,0,false,true,false,0,6.95,16.84,-0.0022415377,0.0022469326,0.70710504,0.7071013,0,187.181,9.451,-0.069409996,0,0
242.95,2000,0,91.24,0.000002697398,0.000002697398,0.000002697398,0.99999994,0,0,0,0,0,0,1,0,0,0,0,false,true,false,0,8.58,16.85,-0.00244654,0.0024519349,0.70710367,0.7071013,0,207.101,9.591001,-0.057309996,0,0
242.95833,2000,0,91.24,0.000002697398,0.000002697398,0.000002697398,0.99999994,0,0,0,0,0,0,1,0,0,0,0,false,true,false,0,10.37,16.859999,-0.0026137787,0.0026191734,0.7071025,0.7071013,0,226.851,9.6710005,-0.046509996,0,0
242.96666,2000,0,91.24,0.000002697398,0.000002697398,0.000002697398,0.99999994,0,0,0,0,0,0,1,0,0,0,0,false,true,false,0,12.33,16.869999,-0.0027486486,0.0027540433,0.70710146,0.7071013,0,246.431,9.711,-0.037109997,0,0
242.975,2000,0,91.24,0.000002697398,0.000002697398,0.000002697398,0.99999994,0,0,0,0,0,0,1,0,0,0,0,false,true,false,0,14.45,16.88,-0.0028565445,0.0028619394,0.70710063,0.7071013,0,265.841,9.721,-0.02911,0,0
242.98334,2000,0,91.24,0.000002697398,0.000002697398,0.000002697398,0.99999994,0,0,0,0,0,0,1,0,0,0,0,false,true,false,0,16.73,16.89,-0.0029428613,0.002948256,0.7071013,0.7070999,0,285.081,9.701,-0.02261,0,0
242.99167,2000,0,91.24,0.000002697398,0.000002697398,0.000002697398,0.99999994,0,0,0,0,0,0,1,0,0,0,0,false,true,false,0,19.17,16.9,-0.003007599,0.0030129936,0.7070993,0.7071013,0,304.161,9.641,-0.01791,0,0
243,2000,0,91.24,0.000002697398,0.000002697398,0.000002697398,0.99999994,0,0,0,0,0,0,1,0,0,0,0,false,true,false,0,21.77,16.91,-0.0030615467,0.0030669416,0.7071013,0.7070989,0,323.081,9.561,-0.014409999,0,0
243.00833,2000,0,91.24,0.000002697398,0.000002697398,0.000002697398,0.99999994,0,0,0,0,0,0,1,0,0,0,0,false,true,false,0,24.529999,16.92,-0.0031047051,0.0031101,0.7070985,0.7071013,0,341.831,9.471,-0.011809999,0,0
243.01666,2000,0,91.24,0.000002697398,0.000002697398,0.000002697398,0.99999994,0,0,0,0,0,0,1,0,0,0,0,false,true,false,0,27.449999,16.93,-0.003137074,0.0031424686,0.7070959,0.7071036,0,360.421,9.371,-0.00981,0,0
243.025,2000,0,91.24,0.000002697398,0.000002697398,0.000002697398,0.99999994,0,0,0,0,0,0,1,0,0,0,0,false,true,false,0,30.519999,16.94,-0.003164048,0.003169443,0.707096,0.7071034,0,378.851,9.271,-0.0083099995,0,0
243.03334,2000,0,91.24,0.000002697398,0.000002697398,0.000002697398,0.99999994,0,0,0,0,0,0,1,0,0,0,0,false,true,false,0,33.75,16.949999,-0.003191022,0.0031964167,0.7070959,0.70710313,0,397.131,9.161,-0.00711,0,0
243.04167,2000,0,91.24,0.000002697398,0.000002697398,0.000002697398,0.99999994,0,0,0,0,0,0,1,0,0,0,0,false,true,false,0,37.13,16.96,-0.0032126014,0.003217996,0.707096,0.70710295,0,415.251,9.051001,-0.00611,0,0
243.05,2000,0,91.24,0.000002697398,0.000002697398,0.000002697398,0.99999994,0,0,0,0,0,0,1,0,0,0,0,false,true,false,0,40.66,16.97,-0.0032287855,0.0032341804,0.7070959,0.7071028,0,433.211,8.941,-0.00521,0,0
243.05833,2000,0,91.24,0.000002697398,0.000002697398,0.000002697398,0.99999994,0,0,0,0,0,0,1,0,0,0,0,false,true,false,0,44.34,16.98,-0.00324497,0.003250365,0.707096,0.70710266,0,451.021,8.831,-0.00451,0,0
243.06667,2000,0,91.24,0.000002697398,0.000002697398,0.000002697398,0.99999994,0,0,0,0,0,0,1,0,0,0,0,false,true,false,0,48.17,16.99,-0.0032557594,0.0032611543,0.7070959,0.70710254,0,468.681,8.721001,-0.00391,0,0
243.075,2000,0,91.24,0.000002697398,0.000002697398,0.000002697398,0.99999994,0,0,0,0,0,0,1,0,0,0,0,false,true,false,0,52.14,16.99,-0.003266549,0.003271944,0.7070959,0.7071024,0,486.191,8.601,-0.00341,0,0
243.08333,2000,0,91.24,0.000002697398,0.000002697398,0.000002697398,0.99999994,0,0,0,0,0,0,1,0,0,0,0,false,true,false,0,56.26,16.99,-0.0032773386,0.0032827335,0.7070959,0.7071023,0,503.541,8.531,-0.00301,0,0
243.09166,2000,0,91.24,0.000002697398,0.000002697398,0.000002697398,0.99999994,0,0,0,0,0,0,1,0,0,0,0,false,true,false,0,60.53,16.99,-0.0032881282,0.003293523,0.7070959,0.70710224,0,520.751,8.481,-0.00271,0,0
243.1,2000,0,91.24,0.000002697398,0.000002697398,0.000002697398,0.99999994,0,0,0,0,0,0,1,0,0,0,0,false,true,false,0,64.939995,16.99,-0.0032935233,0.003298918,0.707096,0.7071022,0,537.811,8.451,-0.00241,0,0
243.10834,2000,0,91.24,0.000002697398,0.000002697398,0.000002697398,0.99999994,0,0,0,0,0,0,1,0,0,0,0,false,true,false,0,69.49,16.99,-0.0032989178,0.0033043127,0.7070959,0.7071021,0,554.72095,8.431,-0.00211,0,0
243.11667,2000,0,91.24,0.000002697398,0.000002697398,0.000002697398,0.99999994,0,0,0,0,0,0,1,0,0,0,0,false,true,false,0,74.18,16.99,-0.0033043127,0.0033097074,0.7070959,0.70710206,0,571.49097,8.4210005,-0.0019099999,0,0
243.125,2000,0,91.24,0.000002697398,0.000002697398,0.000002697398,0.99999994,0,0,0,0,0,0,1,0,0,0,0,false,true,false,0,79.009995,16.99,-0.0033097074,0.0033151023,0.7070959,0.707102,0,588.11096,8.411,-0.0017099999,0,0
243.13333,2000,0,91.24,0.000002697398,0.000002697398,0.000002697398,0.99999994,0,0,0,0,0,0,1,0,0,0,0,false,true,false,0,83.979996,16.99,-0.0033151023,0.003320497,0.7070959,0.707102,0,604.59094,8.411,-0.00151,0,0
243.14166,2000,0,91.24,0.000002697398,0.000002697398,0.000002697398,0.99999994,0,0,0,0,0,0,1,0,0,0,0,false,true,false,0,89.09,16.99,-0.0033204972,0.0033258921,0.707096,0.70710194,0,620.93097,8.411,-0.0014099999,0,0
243.15,2000,0,91.24,0.000002697398,0.000002697398,0.000002697398,0.99999994,0,0,0,0,0,0,1,0,0,0,0,false,true,false,0,94.329994,16.99,-0.003325892,0.0033312866,0.7070959,0.7071019,0,637.131,8.411,-0.0012099999,0,0
243.15834,2000,0,91.24,0.000002697398,0.000002697398,0.000002697398,0.99999994,0,0,0,0,0,0,1,0,0,0,0,false,true,false,0,99.71,16.99,-0.0033312866,0.0033366815,0.7070959,0.7071018,0,653.191,8.411,-0.00111,0,0
243.16667,2000,0,91.24,0.000002697398,0.000002697398,0.000002697398,0.99999994,0,0,0,0,0,0,1,0,0,0,0,false,true,false,0,105.22,16.99,-0.0033366815,0.0033420762,0.7070959,0.70710176,0,669.11096,8.411,-0.00091,0,0
243.175,2000,0,91.24,0.000002697398,0.000002697398,0.000002697398,0.99999994,0,0,0,0,0,0,1,0,0,0,0,false,true,false,0,110.86,16.99,-0.0033366818,0.0033474711,0.707096,0.70710176,0,684.90094,8.411,-0.00081,0,0
243.18333,2000,0,91.24,0.000002697398,0.000002697398,0.000002697398,0.99999994,0,0,0,0,0,0,1,0,0,0,0,false,true,false,0,116.64,16.99,-0.0033366818,0.0033474711,0.707096,0.70710176,0,700.55096,8.411,-0.00071,0,0
243.19167,2000,0,91.24,0.000002697398,0.000002697398,0.000002697398,0.99999994,0,0,0,0,0,0,1,0,0,0,0,false,true,false,0,122.549995,16.99,-0.0033366818,0.0033474711,0.707096,0.70710176,0,716.071,8.411,-0.00061,0,0
243.2,2000,0,91.24,0.000002697398,0.000002697398,0.000002697398,0.99999994,0,0,0,0,0,0,1,0,0,0,0,false,true,false,0,128.59,16.99,-0.0033366818,0.0033474711,0.707096,0.70710176,0,731.451,8.411,-0.00061,0,0
243.20833,2000,0,91.24,0.000002697398,0.000002697398,0.000002697398,0.99999994,0,0,0,0,0,0,1,0,0,0,0,false,true,false,0,134.75,16.99,-0.0033366818,0.0033474711,0.707096,0.70710176,0,746.701,8.411,-0.00061,0,0
243.21666,2000,0,91.24,0.000002697398,0.000002697398,0.000002697398,0.99999994,0,0,0,0,0,0,1,0,0,0,0,false,true,false,0,141.04,16.99,-0.0033366818,0.0033474711,0.707096,0.70710176,0,761.821,8.411,-0.00061,0,0
243.225,2000,0,91.24,0.000002697398,0.000002697398,0.000002697398,0.99999994,0,0,0,0,0,0,1,0,0,0,0,false,true,false,0,147.45999,16.99,-0.0033366818,0.0033474711,0.707096,0.70710176,0,776.811,8.411,-0.00061,0,0
243.23334,2000,0,91.24,0.000002697398,0.000002697398,0.000002697398,0.99999994,0,0,0,0,0,0,1,0,0,0,0,false,true,false,0,154,16.99,-0.0033366818,0.0033474711,0.707096,0.70710176,0,791.67096,8.411,-0.00061,0,0
243.24167,2000,0,91.24,0.000002697398,0.000002697398,0.000002697398,0.99999994,0,0,0,0,0,0,1,0,0,0,0,false,true,false,0,160.67,16.99,-0.0033366818,0.0033474711,0.707096,0.70710176,0,806.41095,8.411,-0.00061,0,0
243.25,2000,0,91.24,0.000002697398,0.000002697398,0.000002697398,0.99999994,0,0,0,0,0,0,1,0,0,0,0,false,true,false,0,167.45999,16.99,-0.0033366818,0.0033474711,0.707096,0.70710176,0,821.02094,8.411,-0.00061,0,0
243.25833,2000,0,91.24,0.000002697398,0.000002697398,0.000002697398,0.99999994,0,0,0,0,0,0,1,0,0,0,0,false,true,false,0,174.37,16.99,-0.0033366818,0.0033474711,0.707096,0.70710176,0,835.501,8.411,-0.00061,0,0
243.26666,2000,0,91.24,0.000002697398,0.000002697398,0.000002697398,0.99999994,0,0,0,0,0,0,1,0,0,0,0,false,true,false,0,181.4,16.99,-0.0033366818,0.0033474711,0.707096,0.70710176,0,849.86096,8.411,-0.00071,0,0
243.275,2000,0,91.24,0.000002697398,0.000002697398,0.000002697398,0.99999994,0,0,0,0,0,0,1,0,0,0,0,false,true,false,0,188.55,16.99,-0.0033366818,0.0033474711,0.707096,0.70710176,0,864.10095,8.411,-0.00071,0,0
243.28334,2000,0,91.24,0.000002697398,0.000002697398,0.000002697398,0.99999994,0,0,0,0,0,0,1,0,0,0,0,false,true,false,0,195.81999,16.99,-0.0033366818,0.0033474711,0.707096,0.70710176,0,878.22095,8.411,-0.00071,0,0
243.29167,2000,0,91.24,0.000002697398,0.000002697398,0.000002697398,0.99999994,0,0,0,0,0,0,1,0,0,0,0,false,true,false,0,203.20999,16.99,-0.0033366818,0.0033474711,0.707096,0.70710176,0,892.21094,8.411,-0.00071,0,0
243.3,2000,0,91.24,0.000002697398,0.000002697398,0.000002697398,0.99999994,0,0,0,0,0,0,1,0,0,0,0,false,true,false,0,210.70999,16.99,-0.0033366818,0.0033474711,0.707096,0.70710176,0,906.08093,8.411,-0.00071,0,0
243.30833,2000,0,91.24,0.000002697398,0.000002697398,0.000002697398,0.99999994,0,0,0,0,0,0,1,0,0,0,0,false,true,false,0,218.33,16.99,-0.0033366818,0.0033474711,0.707096,0.70710176,0,919.84094,8.411,-0.00071,0,0
243.31667,2000,0,91.24,0.000002697398,0.000002697398,0.000002697398,0.99999994,0,0,0,0,0,0,1,0,0,0,0,false,true,false,0,226.06,16.99,-0.0033366818,0.0033474711,0.707096,0.70710176,0,933.48096,8.411,-0.00081,0,0
243.325,2000,0,91.24,0.000002697398,0.000002697398,0.000002697398,0.99999994,0,0,0,0,0,0,1,0,0,0,0,false,true,false,0,233.90999,16.99,-0.0033366818,0.0033474711,0.707096,0.70710176,0,947.001,8.411,-0.00081,0,0
243.33333,2000,0,91.24,0.000002697398,0.000002697398,0.000002697398,0.99999994,0,0,0,0,0,0,1,0,0,0,0,false,true,false,0,241.87,16.99,-0.0033366818,0.0033474711,0.707096,0.70710176,0,960.41095,8.411,-0.00081,0,0
243.34166,2000,0,91.24,0.000002697398,0.000002697398,0.000002697398,0.99999994,0,0,0,0,0,0,1,0,0,0,0,false,true,false,0,249.93999,16.99,-0.0033366818,0.0033474711,0.707096,0.70710176,0,973.7009,8.411,-0.00081,0,0
243.35,2000,0,91.24,0.000002697398,0.000002697398,0.000002697398,0.99999994,0,0,0,0,0,0,1,0,0,0,0,false,true,false,0,258.12,16.99,-0.0033366818,0.0033474711,0.707096,0.70710176,0,986.881,8.411,-0.00081,0,0
243.35834,2000,0,91.24,0.000002697398,0.000002697398,0.000002697398,0.99999994,0,0,0,0,0,0,1,0,0,0,0,false,true,false,0,266.41,16.99,-0.0033366818,0.0033474711,0.707096,0.70710176,0,999.941,8.411,-0.00081,0,0
243.36667,2000,0,91.24,0.000002697398,0.000002697398,0.000002697398,0.99999994,0,0,0,0,0,0,1,0,0,0,0,false,true,false,0,274.81,16.99,-0.0033366818,0.0033474711,0.707096,0.70710176,0,1012.8909,8.411,-0.00081,0,0
243.375,2000,0,91.24,0.000002697398,0.000002697398,0.000002697398,0.99999994,0,0,0,0,0,0,1,0,0,0,0,false,true,false,0,283.32,16.99,-0.0033366818,0.0033474711,0.707096,0.70710176,0,1025.731,8.411,-0.00091,0,0
243.38333,2000,0,91.24,0.000002697398,0.000002697398,0.000002697398,0.99999994,0,0,0,0,0,0,1,0,0,0,0,false,true,false,0,291.94,16.99,-0.0033366815,0.0033528658,0.7070959,0.7071017,0,1038.4609,8.411,-0.00091,0,0
243.39166,2000,0,91.24,0.000002697398,0.000002697398,0.000002697398,0.99999994,0,0,0,0,0,0,1,0,0,0,0,false,true,false,0,300.66,16.99,-0.0033366815,0.0033582605,0.7070959,0.7071017,0,1051.0809,8.411,-0.00091,0,0
243.4,2000,0,91.24,0.000002697398,0.000002697398,0.000002697398,0.99999994,0,0,0,0,0,0,1,0,0,0,0,false,true,false,0,309.49,16.99,-0.0033366815,0.0033636554,0.7070959,0.70710164,0,1063.591,8.411,-0.00081,-0.00010999999,0
243.40834,2000,0,91.24,0.000002697398,0.000002697398,0.000002697398,0.99999994,0,0,0,0,0,0,1,0,0,0,0,false,true,false,0,318.41998,16.99,-0.0033366815,0.0033636554,0.7070959,0.70710164,0,1076.001,8.411,-0.00081,-0.00021,0
243.41667,2000,0,91.24,0.000002697398,0.000002697398,0.000002697398,0.99999994,0,0,0,0,0,0,1,0,0,0,0,false,true,false,0,327.46,16.99,-0.0033420762,0.0033636554,0.7070959,0.70710164,0,1088.3009,8.411,-0.00081,-0.00021,0
243.425,2000,0,91.24,0.000002697398,0.000002697398,0.000002697398,0.99999994,0,0,0,0,0,0,1,0,0,0,0,false,true,false,0,336.6,16.99,-0.0033474711,0.0033636556,0.707096,0.70710164,0,1100.491,8.411,-0.00071,-0.00021,0
243.43333,2000,0,91.24,0.000002697398,0.000002697398,0.000002697398,0.99999994,0,0,0,0,0,0,1,0,0,0,0,false,true,false,0,345.84,16.99,-0.0033474711,0.0033636556,0.707096,0.70710164,0,1112.5809,8.411,-0.00061,-0.00021,0
243.44167,2000,0,91.24,0.000002697398,0.000002697398,0.000002697398,0.99999994,0,0,0,0,0,0,1,0,0,0,0,false,true,false,0,355.18,16.99,-0.0033474711,0.0033636556,0.707096,0.70710164,0,1124.5709,8.411,-0.00061,-0.00021,0
243.45,2000,0,91.24,0.000002697398,0.000002697398,0.000002697398,0.99999994,0,0,0,0,0,0,1,0,0,0,0,false,true,false,0,364.62,16.99,-0.0033474711,0.0033636556,0.707096,0.70710164,0,1136.4509,8.411,-0.00061,-0.00021,0
243.45833,2000,0,91.24,0.000002697398,0.000002697398,0.000002697398,0.99999994,0,0,0,0,0,0,1,0,0,0,0,false,true,false,0,374.16,16.99,-0.0033474711,0.0033636556,0.707096,0.70710164,0,1148.231,8.411,-0.00061,-0.00021,0
243.46666,2000,0,91.24,0.000002697398,0.000002697398,0.000002697398,0.99999994,0,0,0,0,0,0,1,0,0,0,0,false,true,false,0,383.8,16.99,-0.0033474711,0.0033636556,0.707096,0.70710164,0,1159.911,8.411,-0.00061,-0.00021,0
243.475,2000,0,91.24,0.000002697398,0.000002697398,0.000002697398,0.99999994,0,0,0,0,0,0,1,0,0,0,0,false,true,false,0,393.53,16.99,-0.0033474711,0.0033636556,0.707096,0.70710164,0,1171.491,8.411,-0.00061,-0.00021,0
243.48334,2000,0,91.24,0.000002697398,0.000002697398,0.000002697398,0.99999994,0,0,0,0,0,0,1,0,0,0,0,false,true,false,0,403.36,16.99,-0.0033474711,0.0033636556,0.707096,0.70710164,0,1182.971,8.411,-0.00061,-0.00021,0
243.49167,2000,0,91.24,0.000002697398,0.000002697398,0.000002697398,0.99999994,0,0,0,0,0,0,1,0,0,0,0,false,true,false,0,413.28998,16.99,-0.0033474711,0.0033636556,0.707096,0.70710164,0,1194.351,8.411,-0.00061,-0.00021,0
243.5,2000,0,91.24,0.000002697398,0.000002697398,0.000002697398,0.99999994,0,0,0,0,0,0,1,0,0,0,0,false,true,false,0,423.31,16.99,-0.0033474711,0.0033636556,0.707096,0.70710164,0,1205.641,8.411,-0.00061,-0.00021,0
243.50833,2000,0,91.24,0.000002697398,0.000002697398,0.000002697398,0.99999994,0,0,0,0,0,0,1,0,0,0,0,false,true,false,0,433.43,16.99,-0.0033474711,0.0033636556,0.707096,0.70710164,0,1216.8309,8.411,-0.00061,-0.00021,0
243.51666,2000,0,91.24,0.000002697398,0.000002697398,0.000002697398,0.99999994,0,0,0,0,0,0,1,0,0,0,0,false,true,false,0,443.63998,16.99,-0.0033474711,0.0033636556,0.707096,0.70710164,0,1227.9209,8.411,-0.00071,-0.00021,0
243.525,2000,0,91.24,0.000002697398,0.000002697398,0.000002697398,0.99999994,0,0,0,0,0,0,1,0,0,0,0,false,true,false,0,453.94,16.99,-0.0033474711,0.0033636556,0.707096,0.70710164,0,1238.9209,8.411,-0.00071,-0.00021,0
243.53334,2000,0,91.24,0.000002697398,0.000002697398,0.000002697398,0.99999994,0,0,0,0,0,0,1,0,0,0,0,false,true,false,0,464.33,16.99,-0.0033474711,0.0033636556,0.707096,0.70710164,0,1249.8209,8.411,-0.00071,-0.00021,0
243.54167,2000,0,91.24,0.000002697398,0.000002697398,0.000002697398,0.99999994,0,0,0,0,0,0,1,0,0,0,0,false,true,false,0,474.81,16.99,-0.0033474711,0.0033636556,0.707096,0.70710164,0,1260.631,8.411,-0.00071,-0.00021,0
243.55,2000,0,91.24,0.000002697398,0.000002697398,0.000002697398,0.99999994,0,0,0,0,0,0,1,0,0,0,0,false,true,false,0,485.37997,16.99,-0.0033474711,0.0033636556,0.707096,0.70710164,0,1271.351,8.411,-0.00071,-0.00021,0
243.55833,2000,0,91.24,0.000002697398,0.000002697398,0.000002697398,0.99999994,0,0,0,0,0,0,1,0,0,0,0,false,true,false,0,496.03998,16.99,-0.0033474711,0.0033636556,0.707096,0.70710164,0,1281.981,8.411,-0.00071,-0.00021,0
243.56667,2000,0,91.24,0.000002697398,0.000002697398,0.000002697398,0.99999994,0,0,0,0,0,0,1,0,0,0,0,false,true,false,0,506.78998,16.99,-0.0033474711,0.0033636556,0.707096,0.70710164,0,1292.511,8.411,-0.00071,-0.00021,0
243.575,2000,0,91.24,0.000002697398,0.000002697398,0.000002697398,0.99999994,0,0,0,0,0,0,1,0,0,0,0,false,true,false,0,517.63,16.99,-0.0033474711,0.0033636556,0.707096,0.70710164,0,1302.9509,8.411,-0.00071,-0.00021,0
243.58333,2000,0,91.24,0.000002697398,0.000002697398,0.000002697398,0.99999994,0,0,0,0,0,0,1,0,0,0,0,false,true,false,0,528.56,16.99,-0.0033474711,0.0033636556,0.707096,0.70710164,0,1313.3009,8.411,-0.00081,-0.00021,0
243.59166,2000,0,91.24,0.000002697398,0.000002697398,0.000002697398,0.99999994,0,0,0,0,0,0,1,0,0,0,0,false,true,false,0,539.57,16.99,-0.0033528658,0.0033636554,0.7070959,0.7071016,0,1323.5709,8.411,-0.00081,-0.00021,0
243.6,2000,0,91.24,0.000002697398,0.000002697398,0.000002697398,0.99999994,0,0,0,0,0,0,1,0,0,0,0,false,true,false,0,550.67,16.99,-0.0033582605,0.0033636554,0.7070959,0.7071016,0,1333.751,8.411,-0.00081,-0.00010999999,0
243.60834,2000,0,91.24,0.000002697398,0.000002697398,0.000002697398,0.99999994,0,0,0,0,0,0,1,0,0,0,0,false,true,false,0,561.85,16.99,-0.0033582605,0.0033636554,0.7070959,0.7071016,0,1343.841,8.411,-0.00071,0,0
243.61667,2000,0,91.24,0.000002697398,0.000002697398,0.000002697398,0.99999994,0,0,0,0,0,0,1,0,0,0,0,false,true,false,0,573.12,16.99,-0.0033582605,0.0033636554,0.7070959,0.7071016,0,1353.841,8.411,-0.00071,0,0
243.625,2000,0,91.24,0.000002697398,0.000002697398,0.000002697398,0.99999994,0,0,0,0,0,0,1,0,0,0,0,false,true,false,0,584.47,16.99,-0.0033582605,0.0033636554,0.7070959,0.7071016,0,1363.761,8.411,-0.00071,0,0
243.63333,2000,0,91.24,0.000002697398,0.000002697398,0.000002697398,0.99999994,0,0,0,0,0,0,1,0,0,0,0,false,true,false,0,595.89996,16.99,-0.0033582605,0.0033636554,0.7070959,0.7071016,0,1373.591,8.411,-0.00071,0,0
243.64166,2000,0,91.24,0.000002697398,0.000002697398,0.000002697398,0.99999994,0,0,0,0,0,0,1,0,0,0,0,false,true,false,0,607.42,16.99,-0.0033582605,0.0033636554,0.7070959,0.7071016,0,1383.341,8.411,-0.00071,0,0
243.65,2000,0,91.24,0.000002697398,0.000002697398,0.000002697398,0.99999994,0,0,0,0,0,0,1,0,0,0,0,false,true,false,0,619.01996,16.99,-0.0033582605,0.0033636554,0.7070959,0.7071016,0,1393.011,8.411,-0.00071,0,0
243.65834,2000,0,91.24,0.000002697398,0.000002697398,0.000002697398,0.99999994,0,0,0,0,0,0,1,0,0,0,0,false,true,false,0,630.7,16.99,-0.0033582605,0.0033636554,0.7070959,0.7071016,0,1402.4409,8.411,-0.00071,0,0
243.66667,2000,0,91.24,0.000002697398,0.000002697398,0.000002697398,0.99999994,0,0,0,0,0,0,1,0,0,0,0,false,true,false,0,642.45996,16.99,-0.0033582605,0.0033636554,0.7070959,0.7071016,0,1410.7009,8.411,-0.00081,0,0
243.675,2000,0,91.24,0.000002697398,0.000002697398,0.000002697398,0.99999994,0,0,0,0,0,0,1,0,0,0,0,false,true,false,0,654.27997,16.99,-0.0033582605,0.0033636554,0.7070959,0.7071016,0,1418.9609,8.411,-0.00091,0,0
243.68333,2000,0,91.24,0.000002697398,0.000002697398,0.000002697398,0.99999994,0,0,0,0,0,0,1,0,0,0,0,false,true,false,0,666.17,16.99,-0.0033582605,0.00336905,0.7070959,0.7071016,0,1427.221,8.411,-0.00091,0,0
243.69167,2000,0,91.24,0.000002697398,0.000002697398,0.000002697398,0.99999994,0,0,0,0,0,0,1,0,0,0,0,false,true,false,0,678.13,16.99,-0.0033582605,0.003374445,0.7070959,0.7071015,0,1435.481,8.411,-0.00091,0,0
243.7,2000,0,91.24,0.000002697398,0.000002697398,0.000002697398,0.99999994,0,0,0,0,0,0,1,0,0,0,0,false,true,false,0,690.16,16.99,-0.0033582605,0.0033798397,0.7070959,0.70710146,0,1443.741,8.411,-0.00081,0,0
243.70833,2000,0,91.24,0.000002697398,0.000002697398,0.000002697398,0.99999994,0,0,0,0,0,0,1,0,0,0,0,false,true,false,0,702.26,16.99,-0.0033582605,0.0033798397,0.7070959,0.70710146,0,1452.001,8.411,-0.00071,-0.00010999999,0
243.71666,2000,0,91.24,0.000002697398,0.000002697398,0.000002697398,0.99999994,0,0,0,0,0,0,1,0,0,0,0,false,true,false,0,714.43,16.99,-0.0033582605,0.0033798397,0.7070959,0.70710146,0,1460.261,8.411,-0.00071,-0.00010999999,0
243.725,2000,0,91.24,0.000002697398,0.000002697398,0.000002697398,0.99999994,0,0,0,0,0,0,1,0,0,0,0,false,true,false,0,726.67,16.99,-0.0033582605,0.0033798397,0.7070959,0.70710146,0,1468.521,8.411,-0.00071,-0.00010999999,0
243.73334,2000,0,91.24,0.000002697398,0.000002697398,0.000002697398,0.99999994,0,0,0,0,0,0,1,0,0,0,0,false,true,false,0,738.98,16.99,-0.0033582605,0.0033798397,0.7070959,0.70710146,0,1476.7809,8.411,-0.00071,-0.00010999999,0
243.74167,2000,0,91.24,0.000002697398,0.000002697398,0.000002697398,0.99999994,0,0,0,0,0,0,1,0,0,0,0,false,true,false,0,751.36,16.99,-0.0033582605,0.0033798397,0.7070959,0.70710146,0,1485.0409,8.411,-0.00071,-0.00010999999,0
243.75,2000,0,91.24,0.000002697398,0.000002697398,0.000002697398,0.99999994,0,0,0,0,0,0,1,0,0,0,0,false,true,false,0,763.8,16.99,-0.0033582605,0.0033798397,0.7070959,0.70710146,0,1493.3009,8.411,-0.00071,-0.00010999999,0
243.75833,2000,0,91.24,0.000002697398,0.000002697398,0.000002697398,0.99999994,0,0,0,0,0,0,1,0,0,0,0,false,true,false,0,776.31,16.99,-0.0033582605,0.0033798397,0.7070959,0.70710146,0,1501.5609,8.411,-0.00071,-0.00010999999,0
243.76666,2000,0,91.24,0.000002697398,0.000002697398,0.000002697398,0.99999994,0,0,0,0,0,0,1,0,0,0,0,false,true,false,0,788.88995,16.99,-0.0033582605,0.0033798397,0.7070959,0.70710146,0,1509.8209,8.411,-0.00071,-0.00010999999,0
243.775,2000,0,91.24,0.000002697398,0.000002697398,0.000002697398,0.99999994,0,0,0,0,0,0,1,0,0,0,0,false,true,false,0,801.54,16.99,-0.0033582605,0.0033798397,0.7070959,0.70710146,0,1518.0809,8.411,-0.00071,-0.00010999999,0
243.78334,2000,0,91.24,0.000002697398,0.000002697398,0.000002697398,0.99999994,0,0,0,0,0,0,1,0,0,0,0,false,true,false,0,814.26,16.99,-0.0033582605,0.0033798397,0.7070959,0.70710146,0,1526.341,8.411,-0.00071,-0.00010999999,0
243.79167,2000,0,91.24,0.000002697398,0.000002697398,0.000002697398,0.99999994,0,0,0,0,0,0,1,0,0,0,0,false,true,false,0,827.05,16.99,-0.0033582605,0.0033798397,0.7070959,0.70710146,0,1534.601,8.411,-0.00071,-0.00010999999,0
243.8,2000,0,91.24,0.000002697398,0.000002697398,0.000002697398,0.99999994,0,0,0,0,0,0,1,0,0,0,0,false,true,false,0,839.91,16.99,-0.0033582605,0.0033798397,0.7070959,0.70710146,0,1542.861,8.411,-0.00071,-0.00010999999,0
243.80833,2000,0,91.24,0.000002697398,0.000002697398,0.000002697398,0.99999994,0,0,0,0,0,0,1,0,0,0,0,false,true,false,0,852.83997,16.99,-0.0033582605,0.0033798397,0.7070959,0.70710146,0,1551.121,8.411,-0.00071,-0.00010999999,0
243.81667,2000,0,91.24,0.000002697398,0.000002697398,0.000002697398,0.99999994,0,0,0,0,0,0,1,0,0,0,0,false,true,false,0,865.82996,16.99,-0.0033582605,0.0033798397,0.7070959,0.70710146,0,1559.381,8.411,-0.00071,-0.00010999999,0
243.825,2000,0,91.24,0.000002697398,0.000002697398,0.000002697398,0.99999994,0,0,0,0,0,0,1,0,0,0,0,false,true,false,0,878.88995,16.99,-0.0033582605,0.0033798397,0.7070959,0.70710146,0,1567.641,8.411,-0.00071,-0.00010999999,0
243.83333,2000,0,91.24,0.000002697398,0.000002697398,0.000002697398,0.99999994,0,0,0,0,0,0,1,0,0,0,0,false,true,false,0,892.01996,16.99,-0.0033582605,0.0033798397,0.7070959,0.70710146,0,1575.901,8.411,-0.00071,-0.00010999999,0
243.84166,2000,0,91.24,0.000002697398,0.000002697398,0.000002697398,0.99999994,0,0,0,0,0,0,1,0,0,0,0,false,true,false,0,905.22,16.99,-0.0033582605,0.0033798397,0.7070959,0.70710146,0,1584.1609,8.411,-0.00071,-0.00010999999,0
243.85,2000,0,91.24,0.000002697398,0.000002697398,0.000002697398,0.99999994,0,0,0,0,0,0,1,0,0,0,0,false,true,false,0,918.49,16.99,-0.0033582605,0.0033798397,0.7070959,0.70710146,0,1592.4209,8.411,-0.00071,-0.00010999999,0
243.85834,2000,0,91.24,0.000002697398,0.000002697398,0.000002697398,0.99999994,0,0,0,0,0,0,1,0,0,0,0,false,true,false,0,931.82996,16.99,-0.0033582605,0.0033798397,0.7070959,0.70710146,0,1600.6809,8.411,-0.00071,-0.00010999999,0
243.86667,2000,0,91.24,0.000002697398,0.000002697398,0.000002697398,0.99999994,0,0,0,0,0,0,1,0,0,0,0,false,true,false,0,945.24,16.99,-0.0033582605,0.0033798397,0.7070959,0.70710146,0,1608.9409,8.411,-0.00071,-0.00010999999,0
243.875,2000,0,91.24,0.000002697398,0.000002697398,0.000002697398,0.99999994,0,0,0,0,0,0,1,0,0,0,0,false,true,false,0,958.72,16.99,-0.0033582605,0.0033798397,0.7070959,0.70710146,0,1617.2009,8.411,-0.00071,-0.00010999999,0
243.88333,2000,0,91.24,0.000002697398,0.000002697398,0.000002697398,0.99999994,0,0,0,0,0,0,1,0,0,0,0,false,true,false,0,972.26996,16.99,-0.0033582605,0.0033798397,0.7070959,0.70710146,0,1625.4609,8.411,-0.00071,-0.00010999999,0
243.89166,2000,0,91.24,0.000002697398,0.000002697398,0.000002697398,0.99999994,0,0,0,0,0,0,1,0,0,0,0,false,true,false,0,985.88,16.99,-0.0033582605,0.0033798397,0.7070959,0.70710146,0,1633.721,8.411,-0.00071,-0.00010999999,0
243.9,2000,0,91.24,0.000002697398,0.000002697398,0.000002697398,0.99999994,0,0,0,0,0,0,1,0,0,0,0,false,true,false,0,999.56,16.99,-0.0033582605,0.0033798397,0.7070959,0.70710146,0,1641.981,8.411,-0.00071,-0.00010999999,0
243.90834,2000,0,91.24,0.000002697398,0.000002697398,0.000002697398,0.99999994,0,0,0,0,0,0,1,0,0,0,0,false,true,false,0,1013.31,16.99,-0.0033582605,0.0033798397,0.7070959,0.70710146,0,1650.241,8.411,-0.00071,-0.00010999999,0
243.91667,2000,0,91.24,0.000002697398,0.000002697398,0.000002697398,0.99999994,0,0,0,0,0,0,1,0,0,0,0,false,true,false,0,1027.13,16.99,-0.0033582605,0.0033798397,0.7070959,0.70710146,0,1658.501,8.411,-0.00071,-0.00010999999,0
243.925,2000,0,91.24,0.000002697398,0.000002697398,0.000002697398,0.99999994,0,0,0,0,0,0,1,0,0,0,0,false,true,false,0,1041.02,16.99,-0.0033582605,0.0033798397,0.7070959,0.70710146,0,1666.761,8.411,-0.00071,-0.00010999999,0
243.93333,2000,0,91.24,0.000002697398,0.000002697398,0.000002697398,0.99999994,0,0,0,0,0,0,1,0,0,0,0,false,true,false,0,1054.98,16.99,-0.0033582605,0.0033798397,0.7070959,0.70710146,0,1675.021,8.411,-0.00071,-0.00010999999,0
243.94167,2000,0,91.24,0.000002697398,0.000002697398,0.000002697398,0.99999994,0,0,0,0,0,0,1,0,0,0,0,false,true,false,0,1069.01,16.99,-0.0033582605,0.0033798397,0.7070959,0.70710146,0,1683.2809,8.411,-0.00071,-0.00010999999,0
243.95,2000,0,91.24,0.000002697398,0.000002697398,0.000002697398,0.99999994,0,0,0,0,0,0,1,0,0,0,0,false,true,false,0,1083.11,16.99,-0.0033582605,0.0033798397,0.7070959,0.70710146,0,1691.5409,8.411,-0.00071,-0.00010999999,0
243.95833,2000,0,91.24,0.000002697398,0.000002697398,0.000002697398,0.99999994,0,0,0,0,0,0,1,0,0,0,0,false,true,false,0,1097.28,16.99,-0.0033582605,0.0033798397,0.7070959,0.70710146,0,1699.8009,8.411,-0.00071,-0.00010999999,0
243.96666,2000,0,91.24,0.000002697398,0.000002697398,0.000002697398,0.99999994,0,0,0,0,0,0,1,0,0,0,0,false,true,false,0,1111.51,16.99,-0.0033582605,0.0033798397,0.7070959,0.70710146,0,1708.0609,8.411,-0.00071,-0.00010999999,0
243.975,2000,0,91.24,0.000002697398,0.000002697398,0.000002697398,0.99999994,0,0,0,0,0,0,1,0,0,0,0,false,true,false,0,1125.8099,16.99,-0.0033582605,0.0033798397,0.7070959,0.70710146,0,1716.3209,8.411,-0.00071,-0.00010999999,0
243.98334,2000,0,91.24,0.000002697398,0.000002697398,0.000002697398,0.99999994,0,0,0,0,0,0,1,0,0,0,0,false,true,false,0,1140.1799,16.99,-0.0033582605,0.0033798397,0.7070959,0.70710146,0,1724.5809,8.411,-0.00071,-0.00010999999,0
243.99167,2000,0,91.24,0.000002697398,0.000002697398,0.000002697398,0.99999994,0,0,0,0,0,0,1,0,0,0,0,false,true,false,0,1154.62,16.99,-0.0033582605,0.0033798397,0.7070959,0.70710146,0,1732.841,8.411,-0.00071,-0.00010999999,0
244,2000,0,91.24,0.000002697398,0.000002697398,0.000002697398,0.99999994,0,0,0,0,0,0,1,0,0,0,0,false,true,false,0,1169.13,16.99,-0.0033582605,0.0033798397,0.7070959,0.70710146,0,1741.101,8.411,-0.00071,-0.00010999999,0
244.00833,2000,0,91.24,0.000002697398,0.000002697398,0.000002697398,0.99999994,0,0,0,0,0,0,1,0,0,0,0,false,true,false,0,1183.71,16.99,-0.0033582605,0.0033798397,0.7070959,0.70710146,0,1749.361,8.411,-0.00071,-0.00010999999,0
244.01666,2000,0,91.24,0.000002697398,0.000002697398,0.000002697398,0.99999994,0,0,0,0,0,0,1,0,0,0,0,false,true,false,0,1198.36,16.99,-0.0033582605,0.0033798397,0.7070959,0.70710146,0,1757.621,8.411,-0.00071,-0.00010999999,0
244.025,2000,0,91.24,0.000002697398,0.000002697398,0.000002697398,0.99999994,0,0,0,0,0,0,1,0,0,0,0,false,true,false,0,1213.08,16.99,-0.0033582605,0.0033798397,0.7070959,0.70710146,0,1765.881,8.411,-0.00071,-0.00010999999,0
244.03334,2000,0,91.24,0.000002697398,0.000002697398,0.000002697398,0.99999994,0,0,0,0,0,0,1,0,0,0,0,false,true,false,0,1227.86,16.99,-0.0033582605,0.0033798397,0.7070959,0.70710146,0,1774.141,8.411,-0.00071,-0.00010999999,0
244.04167,2000,0,91.24,0.000002697398,0.000002697398,0.000002697398,0.99999994,0,0,0,0,0,0,1,0,0,0,0,false,true,false,0,1242.71,16.99,-0.0033582605,0.0033798397,0.7070959,0.70710146,0,1782.4009,8.411,-0.00071,-0.00010999999,0
244.05,2000,0,91.24,0.000002697398,0.000002697398,0.000002697398,0.99999994,0,0,0,0,0,0,1,0,0,0,0,false,true,false,0,1257.63,16.99,-0.0033582605,0.0033798397,0.7070959,0.70710146,0,1790.6609,8.411,-0.00071,-0.00010999999,0
244.05833,2000,0,91.24,0.000002697398,0.000002697398,0.000002697398,0.99999994,0,0,0,0,0,0,1,0,0,0,0,false,true,false,0,1272.62,16.99,-0.0033582605,0.0033798397,0.7070959,0.70710146,0,1798.9209,8.411,-0.00071,-0.00010999999,0
244.06667,2000,0,91.24,0.000002697398,0.000002697398,0.000002697398,0.99999994,0,0,0,0,0,0,1,0,0,0,0,false,true,false,0,1287.6799,16.99,-0.0033582605,0.0033798397,0.7070959,0.70710146,0,1807.1809,8.411,-0.00071,-0.00010999999,0
244.075,2000,0,91.24,0.000002697398,0.000002697398,0.000002697398,0.99999994,0,0,0,0,0,0,1,0,0,0,0,false,true,false,0,1302.8099,16.99,-0.0033582605,0.0033798397,0.7070959,0.70710146,0,1815.4409,8.411,-0.00071,-0.00010999999,0
244.08333,2000,0,91.24,0.000002697398,0.000002697398,0.000002697398,0.99999994,0,0,0,0,0,0,1,0,0,0,0,false,true,false,0,1318.01,16.99,-0.0033582605,0.0033798397,0.7070959,0.70710146,0,1823.7009,8.411,-0.00071,-0.00010999999,0
244.09166,2000,0,91.24,0.000002697398,0.000002697398,0.000002697398,0.99999994,0,0,0,0,0,0,1,0,0,0,0,false,true,false,0,1333.28,16.99,-0.0033582605,0.0033798397,0.7070959,0.70710146,0,1831.9609,8.411,-0.00071,-0.00010999999,0
244.1,2000,0,91.24,0.000002697398,0.000002697398,0.000002697398,0.99999994,0,0,0,0,0,0,1,0,0,0,0,false,true,false,0,1348.62,16.99,-0.0033582605,0.0033798397,0.7070959,0.70710146,0,1840.221,8.411,-0.00071,-0.00010999999,0
244.10834,2000,0,91.24,0.000002697398,0.000002697398,0.000002697398,0.99999994,0,0,0,0,0,0,1,0,0,0,0,false,true,false,0,1364.02,16.99,-0.0033582605,0.0033798397,0.7070959,0.70710146,0,1848.481,8.411,-0.00071,-0.00010999999,0
244.11667,2000,0,91.24,0.000002697398,0.000002697398,0.000002697398,0.99999994,0,0,0,0,0,0,1,0,0,0,0,false,true,false,0,1379.49,16.99,-0.0033582605,0.0033798397,0.7070959,0.70710146,0,1856.741,8.411,-0.00071,-0.00010999999,0
244.125,2000,0,91.24,0.000002697398,0.000002697398,0.000002697398,0.99999994,0,0,0,0,0,0,1,0,0,0,0,false,true,false,0,1395.03,16.99,-0.0033582605,0.0033798397,0.7070959,0.70710146,0,1865.001,8.411,-0.00071,-0.00010999999,0
244.13333,2000,0,91.24,0.000002697398,0.000002697398,0.000002697398,0.99999994,0,0,0,0,0,0,1,0,0,0,0,false,true,false,0,1410.64,16.99,-0.0033582605,0.0033798397,0.7070959,0.70710146,0,1873.261,8.411,-0.00071,-0.00010999999,0
244.14166,2000,0,91.24,0.000002697398,0.000002697398,0.000002697398,0.99999994,0,0,0,0,0,0,1,0,0,0,0,false,true,false,0,1426.32,16.99,-0.0033582605,0.0033798397,0.7070959,0.70710146,0,1881.5209,8.411,-0.00071,-0.00010999999,0
244.15,2000,0,91.24,0.000002697398,0.000002697398,0.000002697398,0.99999994,0,0,0,0,0,0,1,0,0,0,0,false,true,false,0,1442.07,16.99,-0.0033582605,0.0033798397,0.7070959,0.70710146,0,1889.7809,8.411,-0.00071,-0.00010999999,0
244.15834,2000,0,91.24,0.000002697398,0.000002697398,0.000002697398,0.99999994,0,0,0,0,0,0,1,0,0,0,0,false,true,false,0,1457.89,16.99,-0.0033582605,0.0033798397,0.7070959,0.70710146,0,1898.0409,8.411,-0.00071,-0.00010999999,0
244.16667,2000,0,91.24,0.000002697398,0.000002697398,0.000002697398,0.99999994,0,0,0,0,0,0,1,0,0,0,0,false,true,false,0,1473.7799,16.99,-0.0033582605,0.0033798397,0.7070959,0.70710146,0,1906.3009,8.411,-0.00071,-0.00010999999,0
244.175,2000,0,91.24,0.000002697398,0.000002697398,0.000002697398,0.99999994,0,0,0,0,0,0,1,1,0,0,0,false,false,true,0,1489.6699,16.99,-0.0033582605,0.0033798397,0.7070959,0.70710146,-10.951,1905.381,8.471001,-0.00071,0.00271,0.30511
244.18333,2000,0,91.24,0.000002697398,0.000002697398,0.000002697398,0.99999994,0,0,0,0,0,0,1,1,0,0,0,false,false,true,-0.089999996,1505.5499,16.99,-0.0033582605,0.0033852346,0.7079959,0.70620036,-20.501,1904.5409,8.501,-0.00071,0.00391,0.55341
244.19167,2000,0,91.24,0.000002697398,0.000002697398,0.000002697398,0.99999994,0,0,0,0,0,0,1,1,0,0,0,false,false,true,-0.26,1521.4199,16.99,-0.0033582605,0.0033906293,0.70962256,0.70456576,-30.081,1903.6709,8.521,-0.00061,0.00421,0.77221
244.2,2000,0,91.24,0.000002697398,0.000002697398,0.000002697398,0.99999994,0,0,0,0,0,0,1,1,0,0,0,false,false,true,-0.51,1537.2799,16.99,-0.0033582605,0.0033960242,0.71188635,0.7022784,-40.121,1902.731,8.531,-0.00051,0.00411,0.96711
244.20833,2000,0,91.24,0.000002697398,0.000002697398,0.000002697398,0.99999994,0,0,0,0,0,0,1,1,0,0,0,false,false,true,-0.84,1553.14,16.99,-0.0033636554,0.0033960242,0.71471155,0.6994029,-50.880997,1901.6709,8.541,-0.00051,0.00361,1.14231
244.21666,2000,0,91.24,0.000002697398,0.000002697398,0.000002697398,0.99999994,0,0,0,0,0,0,1,1,0,0,0,false,false,true,-1.26,1568.99,16.99,-0.00336905,0.0033906293,0.7180322,0.69599336,-62.501,1900.4409,8.551001,-0.00040999998,0.00311,1.3012099
244.225,2000,0,91.24,0.000002697398,0.000002697398,0.000002697398,0.99999994,0,0,0,0,0,0,1,1,0,0,0,false,false,true,-1.78,1584.83,16.99,-0.0033798397,0.0033852346,0.72179765,0.69208753,-75.020996,1899.001,8.561,-0.00040999998,0.00251,1.44661
244.23334,2000,0,91.24,0.000002697398,0.000002697398,0.000002697398,0.99999994,0,0,0,0,0,0,1,1,0,0,0,false,false,true,-2.4099998,1600.6599,16.99,-0.0033960242,0.003374445,0.7259572,0.6877231,-88.421,1897.3109,8.561,-0.00030999997,0.0019099999,1.5806099
244.24167,2000,0,91.24,0.000002697398,0.000002697398,0.000002697398,0.99999994,0,0,0,0,0,0,1,1,0,0,0,false,false,true,-3.1499999,1616.47,16.99,-0.0034122085,0.0033582605,0.7304707,0.68292713,-102.641,1895.3309,8.561,-0.00021,0.00131,1.70481
244.25,2000,0,91.24,0.000002697398,0.000002697398,0.000002697398,0.99999994,0,0,0,0,0,0,1,1,0,0,0,false,false,true,-4.0099998,1632.26,16.99,-0.0034337877,0.0033366815,0.7353033,0.67772114,-117.58099,1893.0309,8.561,-0.00021,0.00081,1.82041
244.25833,2000,0,91.24,0.000002697398,0.000002697398,0.000002697398,0.99999994,0,0,0,0,0,0,1,1,0,0,0,false,false,true,-4.99,1648.0399,16.99,-0.0034553665,0.0033151018,0.7404206,0.6721266,-133.121,1890.391,8.571,-0.00021,0.00040999998,1.9283099
244.26666,2000,0,91.24,0.000002697398,0.000002697398,0.000002697398,0.99999994,0,0,0,0,0,0,1,1,0,0,0,false,false,true,-6.1,1663.7899,16.99,-0.0034823404,0.0032881277,0.7457982,0.66615456,-149.121,1887.391,8.571,-0.00010999999,0.00010999999,2.02931
244.275,2000,0,91.24,0.000002697398,0.000002697398,0.000002697398,0.99999994,0,0,0,0,0,0,1,1,0,0,0,false,false,true,-7.3399997,1679.52,16.99,-0.003509315,0.0032611543,0.7514026,0.6598265,-165.431,1884.0309,8.571,-0.00010999999,-0.00010999999,2.12391
244.28334,2000,0,91.24,0.000002697398,0.000002697398,0.000002697398,0.99999994,0,0,0,0,0,0,1,1,0,0,0,false,false,true,-8.72,1695.22,16.99,-0.0035362889,0.0032287855,0.75721055,0.6531532,-181.871,1880.3209,8.571,0,-0.00030999997,2.21241
244.29167,2000,0,91.24,0.000002697398,0.000002697398,0.000002697398,0.99999994,0,0,0,0,0,0,1,1,0,0,0,false,false,true,-10.24,1710.89,16.99,-0.0035686577,0.0031964167,0.7631993,0.6461453,-198.261,1876.2709,8.571,0,-0.00051,2.2950099
244.3,2000,0,91.24,0.000002697398,0.000002697398,0.000002697398,0.99999994,0,0,0,0,0,0,1,1,0,0,0,false,false,true,-11.889999,1726.5299,16.99,-0.0036010265,0.0031586532,0.76934195,0.6388191,-214.421,1871.9209,8.571,0,-0.00071,2.37171
244.30833,2000,0,91.24,0.000002697398,0.000002697398,0.000002697398,0.99999994,0,0,0,0,0,0,1,1,0,0,0,false,false,true,-13.679999,1742.13,16.99,-0.0036333953,0.0031208897,0.77561706,0.6311855,-230.141,1867.3309,8.571,0,-0.00081,2.44261
244.31667,2000,0,91.24,0.000002697398,0.000002697398,0.000002697398,0.99999994,0,0,0,0,0,0,1,1,0,0,0,false,false,true,-15.599999,1757.69,16.99,-0.003665764,0.003083126,0.7819996,0.62326044,-245.22101,1862.5609,8.571,0,-0.00091,2.50751
244.325,2000,0,91.24,0.000002697398,0.000002697398,0.000002697398,0.99999994,0,0,0,0,0,0,1,1,0,0,0,false,false,true,-17.64,1773.21,16.99,-0.0036981327,0.0030399675,0.7884696,0.61505497,-259.451,1857.7009,8.571,0,-0.0010099999,2.56631
244.33333,2000,0,91.24,0.000002697398,0.000002697398,0.000002697398,0.99999994,0,0,0,0,0,0,1,1,0,0,0,false,false,true,-19.8,1788.69,16.99,-0.0037358964,0.0029968093,0.79499996,0.60659045,-272.601,1852.861,8.571,0,-0.00111,2.61871
244.34166,2000,0,91.24,0.000002697398,0.000002697398,0.000002697398,0.99999994,0,0,0,0,0,0,1,1,0,0,0,false,false,true,-22.07,1804.13,16.99,-0.00377366,0.002953651,0.8015728,0.59787786,-284.441,1848.1809,8.571,0,-0.0012099999,2.6644099
244.35,2000,0,91.24,0.000002697398,0.000002697398,0.000002697398,0.99999994,0,0,0,0,0,0,1,1,0,0,0,false,false,true,-24.439999,1819.5299,16.99,-0.0038114234,0.0029104925,0.8081595,0.5889441,-294.741,1843.8109,8.571,0.00010999999,-0.0012099999,2.7030098
244.35834,2000,0,91.24,0.000002697398,0.000002697398,0.000002697398,0.99999994,0,0,0,0,0,0,1,1,0,0,0,false,false,true,-26.9,1834.89,16.99,-0.0038491874,0.0028619396,0.81474096,0.57980525,-303.261,1839.9409,8.571,0.00021,-0.00131,2.7341099
244.36667,2000,0,91.24,0.000002697398,0.000002697398,0.000002697398,0.99999994,0,0,0,0,0,0,1,1,0,0,0,false,false,true,-29.429998,1850.22,16.99,-0.0038869507,0.0028133863,0.82129157,0.5704884,-309.771,1836.7809,8.561,0.00030999997,-0.00131,2.75731
244.375,2000,0,91.24,0.000002697398,0.000002697398,0.000002697398,0.99999994,0,0,0,0,0,0,1,1,0,0,0,false,false,true,-32.01,1865.5299,16.99,-0.003924714,0.002764833,0.82779163,0.561015,-316.561,1833.3009,8.561,0.00040999998,-0.00131,2.77981
244.38333,2000,0,91.24,0.000002697398,0.000002697398,0.000002697398,0.99999994,0,0,0,0,0,0,1,1,0,0,0,false,false,true,-34.649998,1880.8099,16.99,-0.0039624777,0.0027162798,0.8342332,0.5513907,-323.611,1829.481,8.561,0.00040999998,-0.0012099999,2.80191
244.39166,2000,0,91.24,0.000002697398,0.000002697398,0.000002697398,0.99999994,0,0,0,0,0,0,1,1,0,0,0,false,false,true,-37.35,1896.0599,16.99,-0.0039948463,0.0026677267,0.8406126,0.54161537,-330.891,1825.3209,8.561,0.00051,-0.00111,2.82351
244.4,2000,0,91.24,0.000002697398,0.000002697398,0.000002697398,0.99999994,0,0,0,0,0,0,1,1,0,0,0,false,false,true,-40.11,1911.2699,16.99,-0.0040272158,0.002613779,0.8469261,0.53168887,-338.381,1820.8109,8.561,0.00051,-0.0010099999,2.84461
244.40834,2000,0,91.24,0.000002697398,0.000002697398,0.000002697398,0.99999994,0,0,0,0,0,0,1,1,0,0,0,false,false,true,-42.93,1926.44,16.99,-0.0040595843,0.002559831,0.8531697,0.5216114,-346.051,1815.9309,8.561,0.00051,-0.00091,2.86531
244.41667,2000,0,91.24,0.000002697398,0.000002697398,0.000002697398,0.99999994,0,0,0,0,0,0,1,1,0,0,0,false,false,true,-45.809998,1941.57,16.99,-0.0040919525,0.0025058826,0.8593364,0.5113881,-353.871,1810.6909,8.561,0.00040999998,-0.00081,2.88551
244.425,2000,0,91.24,0.000002697398,0.000002697398,0.000002697398,0.99999994,0,0,0,0,0,0,1,1,0,0,0,false,false,true,-48.76,1956.6599,16.99,-0.004124321,0.0024519346,0.8654226,0.5010193,-361.82098,1805.0809,8.561,0.00040999998,-0.00071,2.90521
244.43333,2000,0,91.24,0.000002697398,0.000002697398,0.000002697398,0.99999994,0,0,0,0,0,0,1,1,0,0,0,false,false,true,-51.78,1971.7,16.99,-0.00415669,0.0023979868,0.8714252,0.49050483,-369.871,1799.101,8.561,0.00040999998,-0.00061,2.9244099
244.44167,2000,0,91.24,0.000002697398,0.000002697398,0.000002697398,0.99999994,0,0,0,0,0,0,1,1,0,0,0,false,false,true,-54.86,1986.69,16.99,-0.004189059,0.0023440388,0.8773373,0.47985008,-378.001,1792.741,8.561,0.00030999997,-0.00051,2.9430099
244.45,2000,0,91.24,0.000002697398,0.000002697398,0.000002697398,0.99999994,0,0,0,0,0,0,1,1,0,0,0,false,false,true,-58.01,2001.63,16.99,-0.004216033,0.0022900908,0.8831558,0.46905503,-386.171,1786.011,8.561,0.00030999997,-0.00040999998,2.96101
244.45833,2000,0,91.24,0.000002697398,0.000002697398,0.000002697398,0.99999994,0,0,0,0,0,0,1,1,0,0,0,false,false,true,-61.23,2016.51,16.99,-0.0042430065,0.0022361428,0.8888746,0.4581251,-394.371,1778.9109,8.561,0.00030999997,-0.00040999998,2.97841
244.46666,2000,0,91.24,0.000002697398,0.000002697398,0.000002697398,0.99999994,0,0,0,0,0,0,1,1,0,0,0,false,false,true,-64.52,2031.33,16.99,-0.0042699804,0.0021821947,0.8944908,0.4470603,-402.561,1771.4409,8.561,0.00030999997,-0.00040999998,2.99521
244.475,2000,0,91.24,0.000002697398,0.000002697398,0.000002697398,0.99999994,0,0,0,0,0,0,1,1,0,0,0,false,false,true,-67.869995,2046.09,16.99,-0.0042969547,0.0021282467,0.90000117,0.4358607,-410.721,1763.611,8.561,0.00021,-0.00040999998,3.0113099
244.48334,2000,0,91.24,0.000002697398,0.000002697398,0.000002697398,0.99999994,0,0,0,0,0,0,1,1,0,0,0,false,false,true,-71.29,2060.79,16.99,-0.004323929,0.002074299,0.90540034,0.4245316,-418.831,1755.4209,8.561,0.00021,-0.00040999998,3.02671
244.49167,2000,0,91.24,0.000002697398,0.000002697398,0.000002697398,0.99999994,0,0,0,0,0,0,1,1,0,0,0,false,false,true,-74.78,2075.42,16.99,-0.004350903,0.0020203511,0.91068274,0.41307846,-426.861,1746.881,8.561,0.00021,-0.00040999998,3.04141
244.5,2000,0,91.24,0.000002697398,0.000002697398,0.000002697398,0.99999994,0,0,0,0,0,0,1,1,0,0,0,false,false,true,-78.34,2089.98,16.99,-0.0043778773,0.0019610086,0.91584355,0.40150654,-434.791,1738.001,8.561,0.00021,-0.00040999998,3.05531
244.50833,2000,0,91.24,0.000002697398,0.000002697398,0.000002697398,0.99999994,0,0,0,0,0,0,1,1,0,0,0,false,false,true,-81.96,2104.46,16.99,-0.004404851,0.0019016657,0.9208802,0.389816,-442.591,1728.7909,8.561,0.00021,-0.00030999997,3.06841
244.51666,2000,0,91.24,0.000002697398,0.000002697398,0.000002697398,0.99999994,0,0,0,0,0,0,1,1,0,0,0,false,false,true,-85.65,2118.8699,16.99,-0.0044318247,0.0018423229,0.92578816,0.3780121,-450.241,1719.261,8.561,0.00021,-0.00030999997,3.08061
244.525,2000,0,91.24,0.000002697398,0.000002697398,0.000002697398,0.99999994,0,0,0,0,0,0,1,1,0,0,0,false,false,true,-89.4,2133.2,16.99,-0.0044534043,0.0017829803,0.930563,0.36610043,-457.711,1709.4209,8.561,0.00021,-0.00021,3.09191
244.53334,2000,0,91.24,0.000002697398,0.000002697398,0.000002697398,0.99999994,0,0,0,0,0,0,1,1,0,0,0,false,false,true,-93.21,2147.45,16.99,-0.004474983,0.0017236373,0.9352025,0.3540807,-464.991,1699.2909,8.561,0.00021,-0.00021,3.10231
244.54167,2000,0,91.24,0.000002697398,0.000002697398,0.000002697398,0.99999994,0,0,0,0,0,0,1,1,0,0,0,false,false,true,-97.079994,2161.6099,16.99,-0.004496562,0.0016642944,0.9397007,0.34196386,-472.061,1688.881,8.561,0.00021,-0.00021,3.1117098
244.55,2000,0,91.24,0.000002697398,0.000002697398,0.000002697398,0.99999994,0,0,0,0,0,0,1,1,0,0,0,false,false,true,-101.009995,2175.68,16.99,-0.0045181415,0.0016049518,0.94405603,0.3297501,-478.891,1678.221,8.561,0.00021,-0.00021,3.12001
244.55833,2000,0,91.24,0.000002697398,0.000002697398,0.000002697398,0.99999994,0,0,0,0,0,0,1,1,0,0,0,false,false,true,-105,2189.67,16.99,-0.0045397207,0.0015456091,0.9482629,0.31744987,-486.301,1667.7909,8.561,0.00021,-0.00010999999,3.13041
244.56667,2000,0,91.24,0.000002697398,0.000002697398,0.000002697398,0.99999994,0,0,0,0,0,0,1,1,0,0,0,false,false,true,-109.049995,2203.57,16.99,-0.0045612995,0.0014862663,0.95232326,0.30505258,-493.60098,1657.2009,8.561,0.00021,0,3.14021
244.575,2000,0,91.24,0.000002697398,0.000002697398,0.000002697398,0.99999994,0,0,0,0,0,0,1,1,0,0,0,false,false,true,-113.159996,2217.38,16.99,-0.0045774844,0.0014269236,0.9562323,0.29256898,-500.791,1646.4509,8.561,0.00021,0,3.14951
244.58333,2000,0,91.24,0.000002697398,0.000002697398,0.000002697398,0.99999994,0,0,0,0,0,0,1,1,0,0,0,false,false,true,-117.329994,2231.0999,16.99,-0.0045936694,0.001367581,0.95998985,0.27999374,-507.861,1635.5709,8.561,0.00021,0,3.15821
244.59166,2000,0,91.24,0.000002697398,0.000002697398,0.000002697398,0.99999994,0,0,0,0,0,0,1,1,0,0,0,false,false,true,-121.56,2244.73,16.99,-0.0046098535,0.0013082381,0.96359104,0.26733744,-514.811,1624.5609,8.561,0.00021,0,3.1663098
244.6,2000,0,91.24,0.000002697398,0.000002697398,0.000002697398,0.99999994,0,0,0,0,0,0,1,1,0,0,0,false,false,true,-125.85,2258.27,16.99,-0.0046260376,0.0012488953,0.96703446,0.25460032,-521.631,1613.4409,8.561,0.00021,0,3.17381
244.60834,2000,0,91.24,0.000002697398,0.000002697398,0.000002697398,0.99999994,0,0,0,0,0,0,1,1,0,0,0,false,false,true,-130.2,2271.72,16.99,-0.004642222,0.0011841577,0.9703173,0.2417876,-528.331,1602.221,8.561,0.00030999997,0,3.1807098
244.61667,2000,0,91.24,0.000002697398,0.000002697398,0.000002697398,0.99999994,0,0,0,0,0,0,1,1,0,0,0,false,false,true,-134.59999,2285.07,16.99,-0.0046584057,0.00111942,0.9734369,0.22890471,-534.90094,1590.9209,8.561,0.00030999997,0,3.18691
244.625,2000,0,91.24,0.000002697398,0.000002697398,0.000002697398,0.99999994,0,0,0,0,0,0,1,1,0,0,0,false,false,true,-139.06,2298.3298,16.99,-0.004674591,0.0010546828,0.976391,0.21595724,-541.34094,1579.5409,8.561,0.00030999997,0,3.19241
244.63333,2000,0,91.24,0.000002697398,0.000002697398,0.000002697398,0.99999994,0,0,0,0,0,0,1,1,0,0,0,false,false,true,-143.56999,2311.49,16.99,-0.0046853805,0.000989945,0.9791773,0.20295028,-547.65094,1568.111,8.561,0.00030999997,0,3.19731
244.64166,2000,0,91.24,0.000002697398,0.000002697398,0.000002697398,0.99999994,0,0,0,0,0,0,1,1,0,0,0,false,false,true,-148.12999,2324.56,16.99,-0.00469617,0.00092520757,0.98179376,0.18988949,-553.831,1556.631,8.561,0.00030999997,0,3.20151
244.65,2000,0,91.24,0.000002697398,0.000002697398,0.000002697398,0.99999994,0,0,0,0,0,0,1,1,0,0,0,false,false,true,-152.75,2337.53,16.99,-0.00470696,0.00086047006,0.9842397,0.17677467,-559.891,1545.121,8.561,0.00030999997,0,3.20491
244.65834,2000,0,91.24,0.000002697398,0.000002697398,0.000002697398,0.99999994,0,0,0,0,0,0,1,1,0,0,0,false,false,true,-157.42,2350.41,16.99,-0.0047177495,0.0007957325,0.98651236,0.16361667,-565.831,1533.591,8.561,0.00021,0,3.20761
244.66667,2000,0,91.24,0.000002697398,0.000002697398,0.000002697398,0.99999994,0,0,0,0,0,0,1,1,0,0,0,false,false,true,-162.14,2363.19,16.99,-0.0047285384,0.00073099486,0.9886112,0.1504156,-571.65094,1522.0509,8.561,0.00021,0,3.2095098
244.675,2000,0,91.24,0.000002697398,0.000002697398,0.000002697398,0.99999994,0,0,0,0,0,0,1,1,0,0,0,false,false,true,-166.9,2375.8699,16.99,-0.0047393283,0.0006662573,0.99053425,0.13718207,-577.36096,1510.511,8.561,0.00021,0,3.21071
244.68333,2000,0,91.24,0.000002697398,0.000002697398,0.000002697398,0.99999994,0,0,0,0,0,0,1,1,0,0,0,false,false,true,-171.70999,2388.46,16.99,-0.004750117,0.0006015197,0.99228096,0.12391626,-582.97095,1498.991,8.561,0.00021,0.00010999999,3.2111099
244.69167,2000,0,91.24,0.000002697398,0.000002697398,0.000002697398,0.99999994,0,0,0,0,0,0,1,1,0,0,0,false,false,true,-176.56999,2400.95,16.99,-0.004755513,0.0005367822,0.99385023,0.110628806,-588.49097,1487.491,8.561,0.00021,0.00021,3.21061
244.7,2000,0,91.24,0.000002697398,0.000002697398,0.000002697398,0.99999994,0,0,0,0,0,0,1,1,0,0,0,false,false,true,-181.47,2413.3499,16.99,-0.0047609075,0.00047204466,0.9952411,0.09732515,-593.92096,1476.0309,8.561,0.00021,0.00021,3.2093098
244.70833,2000,0,91.24,0.000002697398,0.000002697398,0.000002697398,0.99999994,0,0,0,0,0,0,1,1,0,0,0,false,false,true,-186.42,2425.65,16.99,-0.004766302,0.00040730712,0.9964533,0.0840108,-599.28094,1464.611,8.561,0.00021,0.00021,3.2072098
244.71666,2000,0,91.24,0.000002697398,0.000002697398,0.000002697398,0.99999994,0,0,0,0,0,0,1,1,0,0,0,false,false,true,-191.40999,2437.8599,16.99,-0.004771697,0.00034256955,0.9974871,0.070685565,-604.58093,1453.241,8.561,0.00010999999,0.00021,3.20421
244.725,2000,0,91.24,0.000002697398,0.000002697398,0.000002697398,0.99999994,0,0,0,0,0,0,1,1,0,0,0,false,false,true,-196.45,2449.97,16.99,-0.0047770925,0.00027783203,0.99834204,0.057360426,-609.821,1441.9309,8.561,0.00010999999,0.00021,3.20031
244.73334,2000,0,91.24,0.000002697398,0.000002697398,0.000002697398,0.99999994,0,0,0,0,0,0,1,1,0,0,0,false,false,true,-201.53,2461.99,16.99,-0.0047770925,0.00021309446,0.99901825,0.04404059,-615.02094,1430.6809,8.561,0.00010999999,0.00030999997,3.19551
244.74167,2000,0,91.24,0.000002697398,0.000002697398,0.000002697398,0.99999994,0,0,0,0,0,0,1,1,0,0,0,false,false,true,-206.65999,2473.91,16.99,-0.0047770916,0.00014835688,0.99951595,0.030736933,-620.201,1419.501,8.561,0.00010999999,0.00030999997,3.18971
244.75,2000,0,91.24,0.000002697398,0.000002697398,0.000002697398,0.99999994,0,0,0,0,0,0,1,1,0,0,0,false,false,true,-211.83,2485.74,16.99,-0.0047770925,0.00008361934,0.9998363,0.017449554,-625.36096,1408.391,8.561,0.00010999999,0.00030999997,3.1830099
244.75833,2000,0,91.24,0.000002697398,0.000002697398,0.000002697398,0.99999994,0,0,0,0,0,0,1,1,0,0,0,false,false,true,-217.04,2497.48,16.99,-0.0047770925,0.000018881788,0.9999798,0.0041890596,-630.52094,1397.361,8.561,0.00010999999,0.00030999997,3.17531
244.76666,2000,0,91.24,0.000002697398,0.000002697398,0.000002697398,0.99999994,0,0,0,0,0,0,1,1,0,0,0,false,false,true,-222.29,2509.1199,16.99,-0.004777092,-0.000045855766,0.99994767,-0.009039023,-635.701,1386.4109,8.561,0,0.00030999997,3.1665099
244.775,2000,0,91.24,0.000002697398,0.000002697398,0.000002697398,0.99999994,0,0,0,0,0,0,1,1,0,0,0,false,false,true,-227.59,2520.67,16.99,-0.004777092,-0.00011059332,0.99974144,-0.022229342,-640.90094,1375.5409,8.561,0,0.00030999997,3.15661
244.78334,2000,0,91.24,0.000002697398,0.000002697398,0.000002697398,0.99999994,0,0,0,0,0,0,1,1,0,0,0,false,false,true,-232.93,2532.13,16.99,-0.004771697,-0.00017533088,0.9993626,-0.0353765,-646.15094,1364.751,8.561,0,0.00040999998,3.1456099
244.79167,2000,0,91.24,0.000002697398,0.000002697398,0.000002697398,0.99999994,0,0,0,0,0,0,1,1,0,0,0,false,false,true,-238.31,2543.5,16.99,-0.004766302,-0.00024006843,0.9988132,-0.048469715,-651.46094,1354.0409,8.561,0,0.00040999998,3.1335099
244.8,2000,0,91.24,0.000002697398,0.000002697398,0.000002697398,0.99999994,0,0,0,0,0,0,1,1,0,0,0,false,false,true,-243.73999,2554.78,16.99,-0.0047609075,-0.000304806,0.9980954,-0.061503626,-656.811,1343.381,8.561,0,0.00040999998,3.12141
244.80833,2000,0,91.24,0.000002697398,0.000002697398,0.000002697398,0.99999994,0,0,0,0,0,0,1,1,0,0,0,false,false,true,-249.20999,2565.97,16.99,-0.0047555123,-0.0003641487,0.9972111,-0.07447814,-662.131,1332.6609,8.561,0,0.00040999998,3.11371
244.81667,2000,0,91.24,0.000002697398,0.000002697398,0.000002697398,0.99999994,0,0,0,0,0,0,1,1,0,0,0,false,false,true,-254.73,2577.0798,16.99,-0.0047501177,-0.0004234915,0.996161,-0.08740952,-667.42096,1321.891,8.561,-0.00010999999,0.00040999998,3.11021
244.825,2000,0,91.24,0.000002697398,0.000002697398,0.000002697398,0.99999994,0,0,0,0,0,0,1,1,0,0,0,false,false,true,-260.29,2588.0999,16.99,-0.004744723,-0.00048283426,0.99494433,-0.10031392,-672.691,1311.0809,8.561,-0.00010999999,0.00040999998,3.11071
244.83333,2000,0,91.24,0.000002697398,0.000002697398,0.000002697398,0.99999994,0,0,0,0,0,0,1,1,0,0,0,false,false,true,-265.9,2599.03,16.99,-0.0047339336,-0.000542177,0.9935605,-0.113202125,-677.951,1300.231,8.561,-0.00010999999,0.00040999998,3.1152098
244.84166,2000,0,91.24,0.000002697398,0.000002697398,0.000002697398,0.99999994,0,0,0,0,0,0,1,1,0,0,0,false,false,true,-271.55,2609.8699,16.99,-0.0047231433,-0.0006015197,0.9920072,-0.12609032,-683.10095,1289.251,8.561,-0.00021,0.00030999997,3.12581
244.85,2000,0,91.24,0.000002697398,0.000002697398,0.000002697398,0.99999994,0,0,0,0,0,0,1,1,0,0,0,false,false,true,-277.24,2620.6099,16.99,-0.0047123544,-0.00066086254,0.99028087,-0.13900016,-688.08093,1278.0809,8.561,-0.00030999997,0.00021,3.14391
244.85834,2000,0,91.24,0.000002697398,0.000002697398,0.000002697398,0.99999994,0,0,0,0,0,0,1,1,0,0,0,false,false,true,-282.97,2631.26,16.99,-0.0047015646,-0.00072020525,0.98837537,-0.15195851,-692.891,1266.741,8.561,-0.00040999998,0.00010999999,3.1693099
244.86667,2000,0,91.24,0.000002697398,0.000002697398,0.000002697398,0.99999994,0,0,0,0,0,0,1,1,0,0,0,false,false,true,-288.74,2641.8198,16.99,-0.0046907747,-0.00077954796,0.98628235,-0.16499776,-697.53094,1255.251,8.561,-0.00051,0,3.20181
244.875,2000,0,91.24,0.000002697398,0.000002697398,0.000002697398,0.99999994,0,0,0,0,0,0,1,1,0,0,0,false,false,true,-294.55,2652.28,16.99,-0.0046799853,-0.0008388908,0.9839937,-0.17813954,-702.001,1243.621,8.561,-0.00061,-0.00010999999,3.24131
244.88333,2000,0,91.24,0.000002697398,0.000002697398,0.000002697398,0.99999994,0,0,0,0,0,0,1,1,0,0,0,false,false,true,-300.4,2662.64,16.99,-0.0046691964,-0.0008982336,0.9814985,-0.1914108,-706.311,1231.861,8.561,-0.00071,-0.00021,3.2876098
244.89166,2000,0,91.24,0.000002697398,0.000002697398,0.000002697398,0.99999994,0,0,0,0,0,0,1,1,0,0,0,false,false,true,-306.28998,2672.91,16.99,-0.0046584057,-0.0009575762,0.9787841,-0.2048385,-710.46094,1219.981,8.561,-0.00081,-0.00030999997,3.34071
244.9,2000,0,91.24,0.000002697398,0.000002697398,0.000002697398,0.99999994,0,0,0,0,0,0,1,1,0,0,0,false,false,true,-312.21,2683.0798,16.99,-0.0046476163,-0.0010169189,0.9758377,-0.2184442,-714.46094,1208.001,8.561,-0.00081,-0.00030999997,3.40041
244.90834,2000,0,91.24,0.000002697398,0.000002697398,0.000002697398,0.99999994,0,0,0,0,0,0,1,1,0,0,0,false,false,true,-318.16,2693.15,16.99,-0.0046314322,-0.0010816565,0.9726445,-0.23224956,-718.321,1195.9309,8.561,-0.00081,-0.00040999998,3.46681
244.91667,2000,0,91.24,0.000002697398,0.000002697398,0.000002697398,0.99999994,0,0,0,0,0,0,1,1,0,0,0,false,false,true,-324.15,2703.1199,16.99,-0.0046152477,-0.0011463941,0.9691879,-0.24627604,-722.04095,1183.771,8.561,-0.00091,-0.00051,3.5397098
244.925,2000,0,91.24,0.000002697398,0.000002697398,0.000002697398,0.99999994,0,0,0,0,0,0,1,1,0,0,0,false,false,true,-330.16998,2712.98,16.99,-0.004599064,-0.0012111318,0.96544987,-0.2605454,-725.46094,1171.351,8.561,-0.00091,-0.00061,3.61551
244.93333,2000,0,91.24,0.000002697398,0.000002697398,0.000002697398,0.99999994,0,0,0,0,0,0,1,1,0,0,0,false,false,true,-336.22,2722.74,16.99,-0.0045828787,-0.0012758691,0.9614159,-0.2750574,-728.53094,1158.7109,8.561,-0.00091,-0.00061,3.69361
244.94167,2000,0,91.24,0.000002697398,0.000002697398,0.000002697398,0.99999994,0,0,0,0,0,0,1,1,0,0,0,false,false,true,-342.28998,2732.4,16.99,-0.004566695,-0.001340607,0.9570684,-0.28982306,-731.001,1146.151,8.561,-0.00081,-0.00061,3.7713099
244.95,2000,0,91.24,0.000002697398,0.000002697398,0.000002697398,0.99999994,0,0,0,0,0,0,1,1,0,0,0,false,false,true,-348.38,2741.95,16.99,-0.0045451154,-0.0014107391,0.9523961,-0.30482602,-732.90094,1133.721,8.561,-0.00071,-0.00061,3.84811
244.95833,2000,0,91.24,0.000002697398,0.000002697398,0.000002697398,0.99999994,0,0,0,0,0,0,1,1,0,0,0,false,false,true,-354.49,2751.4,16.99,-0.004523536,-0.0014808716,0.94738674,-0.32005557,-734.251,1121.4509,8.561,-0.00061,-0.00061,3.9242098
244.96666,2000,0,91.24,0.000002697398,0.000002697398,0.000002697398,0.99999994,0,0,0,0,0,0,1,1,0,0,0,false,false,true,-360.61,2760.75,16.99,-0.0045019574,-0.0015510039,0.9420278,-0.33550093,-735.071,1109.381,8.561,-0.00051,-0.00061,3.99961
244.975,2000,0,91.24,0.000002697398,0.000002697398,0.000002697398,0.99999994,0,0,0,0,0,0,1,1,0,0,0,false,false,true,-366.74,2770,16.99,-0.004474983,-0.0016211362,0.93630654,-0.35115132,-735.311,1097.501,8.561,-0.00030999997,-0.00051,4.07271
244.98334,2000,0,91.24,0.000002697398,0.000002697398,0.000002697398,0.99999994,0,0,0,0,0,0,1,1,0,0,0,false,false,true,-372.87,2779.15,16.99,-0.004448009,-0.0016966634,0.93021244,-0.36699048,-734.84094,1085.741,8.561,-0.00010999999,-0.00040999998,4.13961
244.99167,2000,0,91.24,0.000002697398,0.000002697398,0.000002697398,0.99999994,0,0,0,0,0,0,1,1,0,0,0,false,false,true,-378.99,2788.2,16.99,-0.004421035,-0.0017721903,0.9237439,-0.38298067,-733.67096,1074.141,8.561,0,-0.00030999997,4.20021
245,2000,0,91.24,0.000002697398,0.000002697398,0.000002697398,0.99999994,0,0,0,0,0,0,1,1,0,0,0,false,false,true,-385.1,2797.15,16.99,-0.0043886667,-0.0018477177,0.9168995,-0.39908966,-731.83093,1062.741,8.561,0,-0.00021,4.2547097
245.00833,2000,0,91.24,0.000002697398,0.000002697398,0.000002697398,0.99999994,0,0,0,0,0,0,1,1,0,0,0,false,false,true,-391.19998,2806.01,16.99,-0.004356298,-0.0019232449,0.9096814,-0.41527954,-729.34094,1051.591,8.561,0.00010999999,-0.00010999999,4.30301
245.01666,2000,0,91.24,0.000002697398,0.000002697398,0.000002697398,0.99999994,0,0,0,0,0,0,1,1,0,0,0,false,false,true,-397.28,2814.77,16.99,-0.0043239295,-0.0019987721,0.9020892,-0.43152332,-726.23096,1040.721,8.561,0.00021,0,4.3453097
245.025,2000,0,91.24,0.000002697398,0.000002697398,0.000002697398,0.99999994,0,0,0,0,0,0,1,1,0,0,0,false,false,true,-403.33,2823.44,16.99,-0.004286165,-0.0020796936,0.8941293,-0.4477832,-722.54095,1030.1809,8.561,0.00030999997,0.00010999999,4.38161
245.03334,2000,0,91.24,0.000002697398,0.000002697398,0.000002697398,0.99999994,0,0,0,0,0,0,1,1,0,0,0,false,false,true,-409.35,2832.02,16.99,-0.0042484016,-0.0021606158,0.8858053,-0.46403247,-718.311,1020.001,8.561,0.00040999998,0.00021,4.41211
245.04167,2000,0,91.24,0.000002697398,0.000002697398,0.000002697398,0.99999994,0,0,0,0,0,0,1,1,0,0,0,false,false,true,-415.34,2840.52,16.99,-0.0042106383,-0.0022415377,0.8771249,-0.48023853,-713.58093,1010.21094,8.561,0.00040999998,0.00030999997,4.43681
