time,ball_loc_x,ball_loc_y,ball_loc_z,ball_rot_x,ball_rot_y,ball_rot_z,ball_rot_w,ball_vel_x,ball_vel_y,ball_vel_z,ball_ang_x,ball_ang_y,ball_ang_z,player0_throttle,player0_steer,player0_pitch,player0_yaw,player0_roll,player0_jump,player0_boost,player0_handbrake,player0_loc_x,player0_loc_y,player0_loc_z,player0_rot_x,player0_rot_y,player0_rot_z,player0_rot_w,player0_vel_x,player0_vel_y,player0_vel_z,player0_ang_x,player0_ang_y,player0_ang_z
41.508335,2000,0,91.24,0.000002697398,0.000002697398,0.000002697398,0.99999994,0,0,0,0,0,0,0,0,0,0,0,false,false,false,0,0.14,17.01,-0.00336905,0.0033798397,0.7071014,0.7070959,0,0.011,8.321,-0.00051,0,0
41.516666,2000,0,73,0.000002697398,0.000002697398,0.000002697398,0.99999994,0,0,0,0,0,0,0.2992126,0,0,0,0,false,false,false,0,0,16.94,0.0000026973983,0.0000026973983,0.70710677,0.70710677,0,3.981,2.041,-0.050809998,0,0
41.525,2000,0,87.6,0.000002697398,0.000002697398,0.000002697398,0.99999994,0,0,0,0,0,0,0.2992126,0,0,0,0,false,false,false,0,0.03,16.89,-0.00014835689,0.00015375168,0.7071067,0.7071067,0,7.961,3.8809998,-0.085609995,0,0
41.533333,2000,0,90.52,0.000002697398,0.000002697398,0.000002697398,0.99999994,0,0,0,0,0,0,0.2992126,0,0,0,0,false,false,false,0,0.099999994,16.85,-0.00040191234,0.00040730715,0.70710653,0.70710677,0,11.931,5.481,-0.107209995,0,0
41.541668,2000,0,91.1,0.000002697398,0.000002697398,0.000002697398,0.99999994,0,0,0,0,0,0,0.2992126,0,0,0,0,false,false,false,0,0.19999999,16.83,-0.00072020525,0.00072560005,0.7071067,0.707106,0,15.8810005,6.791,-0.116409995,0,0
41.55,2000,0,91.22,0.000002697398,0.000002697398,0.000002697398,0.99999994,0,0,0,0,0,0,0.2992126,0,0,0,0,false,false,false,0,0.32999998,16.82,-0.0010654721,0.001070867,0.70710516,0.7071067,0,19.821,7.7409997,-0.11481,0,0
41.558334,2000,0,91.24,0.000002697398,0.000002697398,0.000002697398,0.99999994,0,0,0,0,0,0,0.2992126,0,0,0,0,false,false,false,0,0.5,16.82,-0.0014053443,0.0014107391,0.7071067,0.70710397,0,23.751,8.431,-0.106809996,0,0
41.566666,2000,0,91.24,0.000002697398,0.000002697398,0.000002697398,0.99999994,0,0,0,0,0,0,0.2992126,0,0,0,0,false,false,false,0,0.7,16.82,-0.0017182427,0.0017236375,0.707108,0.70710135,0,27.671,8.9210005,-0.09541,0,0
41.575,2000,0,91.24,0.000002697398,0.000002697398,0.000002697398,0.99999994,0,0,0,0,0,0,0.2992126,0,0,0,0,false,false,false,0,0.93,16.83,-0.001998772,0.0020041666,0.70710653,0.7071013,0,31.581,9.281,-0.082609996,0,0
41.583332,2000,0,91.24,0.000002697398,0.000002697398,0.000002697398,0.99999994,0,0,0,0,0,0,0.2992126,0,0,0,0,false,false,false,0,1.1899999,16.84,-0.0022415377,0.0022469326,0.70710504,0.7071013,0,35.481,9.521,-0.069809996,0,0
41.591667,2000,0,91.24,0.000002697398,0.000002697398,0.000002697398,0.99999994,0,0,0,0,0,0,0.2992126,0,0,0,0,false,false,false,0,1.49,16.85,-0.00244654,0.0024519349,0.70710367,0.7071013,0,39.371,9.6710005,-0.057709996,0,0
41.6,2000,0,91.24,0.000002697398,0.000002697398,0.000002697398,0.99999994,0,0,0,0,0,0,0.2992126,0,0,0,0,false,false,false,0,1.8199999,16.859999,-0.0026191734,0.0026245683,0.7071024,0.7071013,0,43.251,9.761001,-0.046809997,0,0
41.608334,2000,0,91.24,0.000002697398,0.000002697398,0.000002697398,0.99999994,0,0,0,0,0,0,0.2992126,0,0,0,0,false,false,false,0,2.18,16.869999,-0.0027594382,0.002764833,0.70710135,0.7071013,0,47.121,9.811,-0.037309997,0,0
41.616665,2000,0,91.24,0.000002697398,0.000002697398,0.000002697398,0.99999994,0,0,0,0,0,0,0.2992126,0,0,0,0,false,false,false,0,2.57,16.88,-0.002867334,0.002872729,0.7071005,0.7071013,0,50.981,9.831,-0.02921,0,0
41.625,2000,0,91.24,0.000002697398,0.000002697398,0.000002697398,0.99999994,0,0,0,0,0,0,0.2992126,0,0,0,0,false,false,false,0,2.99,16.89,-0.002953651,0.0029590456,0.7071013,0.7070998,0,54.830997,9.811,-0.02291,0,0
41.633335,2000,0,91.24,0.000002697398,0.000002697398,0.000002697398,0.99999994,0,0,0,0,0,0,0.2992126,0,0,0,0,false,false,false,0,3.4499998,16.9,-0.0030237832,0.003029178,0.7070992,0.7071013,0,58.670998,9.761001,-0.01831,0,0
41.641666,2000,0,91.24,0.000002697398,0.000002697398,0.000002697398,0.99999994,0,0,0,0,0,0,0.2992126,0,0,0,0,false,false,false,0,3.9399998,16.91,-0.0030777312,0.003083126,0.7071013,0.7070988,0,62.510998,9.681,-0.01481,0,0
41.65,2000,0,91.24,0.000002697398,0.000002697398,0.000002697398,0.99999994,0,0,0,0,0,0,0.2992126,0,0,0,0,false,false,false,0,4.46,16.92,-0.0031208897,0.0031262843,0.7071037,0.7070959,0,66.340996,9.591001,-0.01211,0,0
41.658333,2000,0,91.24,0.000002697398,0.000002697398,0.000002697398,0.99999994,0,0,0,0,0,0,0.2992126,0,0,0,0,false,false,false,0,5.0099998,16.93,-0.0031586532,0.0031640478,0.70710343,0.7070959,0,70.160995,9.491,-0.010109999,0,0
41.666668,2000,0,91.24,0.000002697398,0.000002697398,0.000002697398,0.99999994,0,0,0,0,0,0,0.2992126,0,0,0,0,false,false,false,0,5.5899997,16.94,-0.003191022,0.0031964167,0.70710313,0.7070959,0,73.971,9.391,-0.008509999,0,0
41.675,2000,0,91.24,0.000002697398,0.000002697398,0.000002697398,0.99999994,0,0,0,0,0,0,0.2992126,0,0,0,0,false,false,false,0,6.21,16.949999,-0.0032179959,0.0032233908,0.7071029,0.7070959,0,77.770996,9.281,-0.00711,0,0
41.683334,2000,0,91.24,0.000002697398,0.000002697398,0.000002697398,0.99999994,0,0,0,0,0,0,0.2992126,0,0,0,0,false,false,false,0,6.8599997,16.96,-0.003239575,0.0032449698,0.70710266,0.7070959,0,81.561,9.1710005,-0.00601,0,0
41.691666,2000,0,91.24,0.000002697398,0.000002697398,0.000002697398,0.99999994,0,0,0,0,0,0,0.2992126,0,0,0,0,false,false,false,0,7.54,16.97,-0.0032557594,0.0032611543,0.70710254,0.7070959,0,85.340996,9.061,-0.00511,0,0
41.7,2000,0,91.24,0.000002697398,0.000002697398,0.000002697398,0.99999994,0,0,0,0,0,0,0.2992126,0,0,0,0,false,false,false,0,8.25,16.98,-0.003271944,0.0032773386,0.70710236,0.7070959,0,89.111,8.951,-0.00441,0,0
41.708332,2000,0,91.24,0.000002697398,0.000002697398,0.000002697398,0.99999994,0,0,0,0,0,0,0.2992126,0,0,0,0,false,false,false,0,8.99,16.99,-0.0032827335,0.0032881282,0.7071023,0.7070959,0,92.870995,8.841001,-0.00381,0,0
41.716667,2000,0,91.24,0.000002697398,0.000002697398,0.000002697398,0.99999994,0,0,0,0,0,0,0.2992126,0,0,0,0,false,false,false,0,9.76,17,-0.003293523,0.0032989178,0.7071021,0.7070959,0,96.620995,8.731,-0.00331,0,0
41.725,2000,0,91.24,0.000002697398,0.000002697398,0.000002697398,0.99999994,0,0,0,0,0,0,0.2992126,0,0,0,0,false,false,false,0,10.57,17.01,-0.0033043127,0.0033097074,0.70710206,0.7070959,0,100.361,8.621,-0.00291,0,0
41.733334,2000,0,91.24,0.000002697398,0.000002697398,0.000002697398,0.99999994,0,0,0,0,0,0,0.2992126,0,0,0,0,false,false,false,0,11.41,17.01,-0.0033151023,0.003320497,0.707102,0.7070959,0,104.090996,8.511001,-0.00251,0,0
41.741665,2000,0,91.24,0.000002697398,0.000002697398,0.000002697398,0.99999994,0,0,0,0,0,0,0.2992126,0,0,0,0,false,false,false,0,12.28,17.01,-0.003320497,0.003325892,0.7071019,0.7070959,0,107.811,8.441,-0.00211,0,0
41.75,2000,0,91.24,0.000002697398,0.000002697398,0.000002697398,0.99999994,0,0,0,0,0,0,0.2992126,0,0,0,0,false,false,false,0,13.179999,17.01,-0.003325892,0.0033312866,0.7071019,0.7070959,0,111.520996,8.391,-0.0019099999,0,0
41.758335,2000,0,91.24,0.000002697398,0.000002697398,0.000002697398,0.99999994,0,0,0,0,0,0,0.2992126,0,0,0,0,false,false,false,0,14.11,17.01,-0.0033312866,0.0033366815,0.7071018,0.7070959,0,115.221,8.361,-0.0017099999,0,0
41.766666,2000,0,91.24,0.000002697398,0.000002697398,0.000002697398,0.99999994,0,0,0,0,0,0,0.2992126,0,0,0,0,false,false,false,0,15.07,17.01,-0.0033366815,0.0033420762,0.70710176,0.7070959,0,118.910995,8.341001,-0.00151,0,0
41.775,2000,0,91.24,0.000002697398,0.000002697398,0.000002697398,0.99999994,0,0,0,0,0,0,0.2992126,0,0,0,0,false,false,false,0,16.06,17.01,-0.0033420762,0.003347471,0.7071017,0.7070959,0,122.590996,8.331,-0.00131,0,0
41.783333,2000,0,91.24,0.000002697398,0.000002697398,0.000002697398,0.99999994,0,0,0,0,0,0,0.2992126,0,0,0,0,false,false,false,0,17.08,17.01,-0.003347471,0.0033528658,0.70710164,0.7070959,0,126.260994,8.321,-0.00111,0,0
41.791668,2000,0,91.24,0.000002697398,0.000002697398,0.000002697398,0.99999994,0,0,0,0,0,0,0.2992126,0,0,0,0,false,false,false,0,18.13,17.01,-0.0033528658,0.0033582605,0.7071016,0.7070959,0,129.921,8.321,-0.00091,0,0
41.8,2000,0,91.24,0.000002697398,0.000002697398,0.000002697398,0.99999994,0,0,0,0,0,0,0.2992126,0,0,0,0,false,false,false,0,19.21,17.01,-0.0033528658,0.0033636554,0.7071016,0.7070959,0,133.571,8.321,-0.00081,0,0
41.808334,2000,0,91.24,0.000002697398,0.000002697398,0.000002697398,0.99999994,0,0,0,0,0,0,0.2992126,0,0,0,0,false,false,false,0,20.32,17.01,-0.0033528658,0.0033636554,0.7071016,0.7070959,0,137.211,8.321,-0.00071,0,0
41.816666,2000,0,91.24,0.000002697398,0.000002697398,0.000002697398,0.99999994,0,0,0,0,0,0,0.2992126,0,0,0,0,false,false,false,0,21.46,17.01,-0.0033528658,0.0033636554,0.7071016,0.7070959,0,140.841,8.321,-0.00061,0,0
41.825,2000,0,91.24,0.000002697398,0.000002697398,0.000002697398,0.99999994,0,0,0,0,0,0,0.2992126,0,0,0,0,false,false,false,0,22.63,17.01,-0.0033528658,0.0033636554,0.7071016,0.7070959,0,144.461,8.321,-0.00061,0,0
41.833332,2000,0,91.24,0.000002697398,0.000002697398,0.000002697398,0.99999994,0,0,0,0,0,0,0.2992126,0,0,0,0,false,false,false,0,23.83,17.01,-0.0033528658,0.0033636554,0.7071016,0.7070959,0,148.08101,8.321,-0.00061,0,0
41.841667,2000,0,91.24,0.000002697398,0.000002697398,0.000002697398,0.99999994,0,0,0,0,0,0,0.2992126,0,0,0,0,false,false,false,0,25.06,17.01,-0.0033528658,0.0033636554,0.7071016,0.7070959,0,151.69101,8.321,-0.00061,0,0
41.85,2000,0,91.24,0.000002697398,0.000002697398,0.000002697398,0.99999994,0,0,0,0,0,0,0.2992126,0,0,0,0,false,false,false,0,26.32,17.01,-0.0033528658,0.0033636554,0.7071016,0.7070959,0,155.291,8.321,-0.00061,0,0
41.858334,2000,0,91.24,0.000002697398,0.000002697398,0.000002697398,0.99999994,0,0,0,0,0,0,0.2992126,0,0,0,0,false,false,false,0,27.609999,17.01,-0.0033528658,0.0033636554,0.7071016,0.7070959,0,158.881,8.321,-0.00061,0,0
41.866665,2000,0,91.24,0.000002697398,0.000002697398,0.000002697398,0.99999994,0,0,0,0,0,0,0.2992126,0,0,0,0,false,false,false,0,28.93,17.01,-0.0033528658,0.0033636554,0.7071016,0.7070959,0,162.461,8.321,-0.00061,0,0
41.875,2000,0,91.24,0.000002697398,0.000002697398,0.000002697398,0.99999994,0,0,0,0,0,0,0.2992126,0,0,0,0,false,false,false,0,30.279999,17.01,-0.0033528658,0.0033636554,0.7071016,0.7070959,0,166.031,8.321,-0.00061,0,0
41.883335,2000,0,91.24,0.000002697398,0.000002697398,0.000002697398,0.99999994,0,0,0,0,0,0,0.2992126,0,0,0,0,false,false,false,0,31.66,17.01,-0.0033528658,0.0033636554,0.7071016,0.7070959,0,169.591,8.321,-0.00061,0,0
41.891666,2000,0,91.24,0.000002697398,0.000002697398,0.000002697398,0.99999994,0,0,0,0,0,0,0.2992126,0,0,0,0,false,false,false,0,33.07,17.01,-0.0033528658,0.0033636554,0.7071016,0.7070959,0,173.141,8.321,-0.00061,0,0
41.9,2000,0,91.24,0.000002697398,0.000002697398,0.000002697398,0.99999994,0,0,0,0,0,0,0.2992126,0,0,0,0,false,false,false,0,34.51,17.01,-0.0033528658,0.0033636554,0.7071016,0.7070959,0,176.681,8.321,-0.00061,0,0
41.908333,2000,0,91.24,0.000002697398,0.000002697398,0.000002697398,0.99999994,0,0,0,0,0,0,0.2992126,0,0,0,0,false,false,false,0,35.98,17.01,-0.0033528658,0.0033636554,0.7071016,0.7070959,0,180.211,8.321,-0.00061,0,0
41.916668,2000,0,91.24,0.000002697398,0.000002697398,0.000002697398,0.99999994,0,0,0,0,0,0,0.2992126,0,0,0,0,false,false,false,0,37.48,17.01,-0.0033528658,0.0033636554,0.7071016,0.7070959,0,183.731,8.321,-0.00061,0,0
41.925,2000,0,91.24,0.000002697398,0.000002697398,0.000002697398,0.99999994,0,0,0,0,0,0,0.2992126,0,0,0,0,false,false,false,0,39.01,17.01,-0.0033528658,0.0033636554,0.7071016,0.7070959,0,187.241,8.321,-0.00061,0,0
41.933334,2000,0,91.24,0.000002697398,0.000002697398,0.000002697398,0.99999994,0,0,0,0,0,0,0.2992126,0,0,0,0,false,false,false,0,40.57,17.01,-0.0033528658,0.0033636554,0.7071016,0.7070959,0,190.751,8.321,-0.00061,0,0
41.941666,2000,0,91.24,0.000002697398,0.000002697398,0.000002697398,0.99999994,0,0,0,0,0,0,0.2992126,0,0,0,0,false,false,false,0,42.16,17.01,-0.0033528658,0.0033636554,0.7071016,0.7070959,0,194.251,8.321,-0.00061,0,0
41.95,2000,0,91.24,0.000002697398,0.000002697398,0.000002697398,0.99999994,0,0,0,0,0,0,0.2992126,0,0,0,0,false,false,false,0,43.78,17.01,-0.0033528658,0.0033636554,0.7071016,0.7070959,0,197.741,8.321,-0.00061,0,0
41.958332,2000,0,91.24,0.000002697398,0.000002697398,0.000002697398,0.99999994,0,0,0,0,0,0,0.2992126,0,0,0,0,false,false,false,0,45.43,17.01,-0.0033528658,0.0033636554,0.7071016,0.7070959,0,201.22101,8.321,-0.00061,0,0
41.966667,2000,0,91.24,0.000002697398,0.000002697398,0.000002697398,0.99999994,0,0,0,0,0,0,0.2992126,0,0,0,0,false,false,false,0,47.11,17.01,-0.0033528658,0.0033636554,0.7071016,0.7070959,0,204.69101,8.321,-0.00061,0,0
41.975,2000,0,91.24,0.000002697398,0.000002697398,0.000002697398,0.99999994,0,0,0,0,0,0,0.2992126,0,0,0,0,false,false,false,0,48.82,17.01,-0.0033528658,0.0033636554,0.7071016,0.7070959,0,208.151,8.321,-0.00061,0,0
41.983334,2000,0,91.24,0.000002697398,0.000002697398,0.000002697398,0.99999994,0,0,0,0,0,0,0.2992126,0,0,0,0,false,false,false,0,50.55,17.01,-0.0033528658,0.0033636554,0.7071016,0.7070959,0,211.601,8.321,-0.00061,0,0
41.991665,2000,0,91.24,0.000002697398,0.000002697398,0.000002697398,0.99999994,0,0,0,0,0,0,0.2992126,0,0,0,0,false,false,false,0,52.309998,17.01,-0.0033528658,0.0033636554,0.7071016,0.7070959,0,215.041,8.321,-0.00061,0,0
42,2000,0,91.24,0.000002697398,0.000002697398,0.000002697398,0.99999994,0,0,0,0,0,0,0.2992126,0,0,0,0,false,false,false,0,54.1,17.01,-0.0033528658,0.0033636554,0.7071016,0.7070959,0,218.47101,8.321,-0.00061,0,0
42.008335,2000,0,91.24,0.000002697398,0.000002697398,0.000002697398,0.99999994,0,0,0,0,0,0,0.2992126,0,0,0,0,false,false,false,0,55.92,17.01,-0.0033528658,0.0033636554,0.7071016,0.7070959,0,221.901,8.321,-0.00061,0,0
42.016666,2000,0,91.24,0.000002697398,0.000002697398,0.000002697398,0.99999994,0,0,0,0,0,0,0.2992126,0,0,0,0,false,false,false,0,57.77,17.01,-0.0033528658,0.0033636554,0.7071016,0.7070959,0,225.321,8.321,-0.00061,0,0
42.025,2000,0,91.24,0.000002697398,0.000002697398,0.000002697398,0.99999994,0,0,0,0,0,0,0.2992126,0,0,0,0,false,false,false,0,59.649998,17.01,-0.0033528658,0.0033636554,0.7071016,0.7070959,0,228.731,8.321,-0.00061,0,0
42.033333,2000,0,91.24,0.000002697398,0.000002697398,0.000002697398,0.99999994,0,0,0,0,0,0,0.2992126,0,0,0,0,false,false,false,0,61.559998,17.01,-0.0033528658,0.0033636554,0.7071016,0.7070959,0,232.131,8.321,-0.00061,0,0
42.041668,2000,0,91.24,0.000002697398,0.000002697398,0.000002697398,0.99999994,0,0,0,0,0,0,0.2992126,0,0,0,0,false,false,false,0,63.489998,17.01,-0.0033528658,0.0033636554,0.7071016,0.7070959,0,235.521,8.321,-0.00061,0,0
42.05,2000,0,91.24,0.000002697398,0.000002697398,0.000002697398,0.99999994,0,0,0,0,0,0,0.2992126,0,0,0,0,false,false,false,0,65.45,17.01,-0.0033528658,0.0033636554,0.7071016,0.7070959,0,238.901,8.321,-0.00061,0,0
42.058334,2000,0,91.24,0.000002697398,0.000002697398,0.000002697398,0.99999994,0,0,0,0,0,0,0.2992126,0,0,0,0,false,false,false,0,67.439995,17.01,-0.0033528658,0.0033636554,0.7071016,0.7070959,0,242.271,8.321,-0.00061,0,0
42.066666,2000,0,91.24,0.000002697398,0.000002697398,0.000002697398,0.99999994,0,0,0,0,0,0,0.2992126,0,0,0,0,false,false,false,0,69.46,17.01,-0.0033528658,0.0033636554,0.7071016,0.7070959,0,245.631,8.321,-0.00061,0,0
42.075,2000,0,91.24,0.000002697398,0.000002697398,0.000002697398,0.99999994,0,0,0,0,0,0,0.2992126,0,0,0,0,false,false,false,0,71.51,17.01,-0.0033528658,0.0033636554,0.7071016,0.7070959,0,248.991,8.321,-0.00061,0,0
42.083332,2000,0,91.24,0.000002697398,0.000002697398,0.000002697398,0.99999994,0,0,0,0,0,0,0.2992126,0,0,0,0,false,false,false,0,73.58,17.01,-0.0033528658,0.0033636554,0.7071016,0.7070959,0,252.341,8.321,-0.00061,0,0
42.091667,2000,0,91.24,0.000002697398,0.000002697398,0.000002697398,0.99999994,0,0,0,0,0,0,0.2992126,0,0,0,0,false,false,false,0,75.68,17.01,-0.0033528658,0.0033636554,0.7071016,0.7070959,0,255.681,8.321,-0.00061,0,0
42.1,2000,0,91.24,0.000002697398,0.000002697398,0.000002697398,0.99999994,0,0,0,0,0,0,0.2992126,0,0,0,0,false,false,false,0,77.81,17.01,-0.0033528658,0.0033636554,0.7071016,0.7070959,0,259.011,8.321,-0.00061,0,0
42.108334,2000,0,91.24,0.000002697398,0.000002697398,0.000002697398,0.99999994,0,0,0,0,0,0,0.2992126,0,0,0,0,false,false,false,0,79.97,17.01,-0.0033528658,0.0033636554,0.7071016,0.7070959,0,262.331,8.321,-0.00061,0,0
42.116665,2000,0,91.24,0.000002697398,0.000002697398,0.000002697398,0.99999994,0,0,0,0,0,0,0.2992126,0,0,0,0,false,false,false,0,82.159996,17.01,-0.0033528658,0.0033636554,0.7071016,0.7070959,0,265.641,8.321,-0.00061,0,0
42.125,2000,0,91.24,0.000002697398,0.000002697398,0.000002697398,0.99999994,0,0,0,0,0,0,0.2992126,0,0,0,0,false,false,false,0,84.369995,17.01,-0.0033528658,0.0033636554,0.7071016,0.7070959,0,268.941,8.321,-0.00061,0,0
42.133335,2000,0,91.24,0.000002697398,0.000002697398,0.000002697398,0.99999994,0,0,0,0,0,0,0.2992126,0,0,0,0,false,false,false,0,86.61,17.01,-0.0033528658,0.0033636554,0.7071016,0.7070959,0,272.241,8.321,-0.00061,0,0
42.141666,2000,0,91.24,0.000002697398,0.000002697398,0.000002697398,0.99999994,0,0,0,0,0,0,0.2992126,0,0,0,0,false,false,false,0,88.88,17.01,-0.0033528658,0.0033636554,0.7071016,0.7070959,0,275.531,8.321,-0.00061,0,0
42.15,2000,0,91.24,0.000002697398,0.000002697398,0.000002697398,0.99999994,0,0,0,0,0,0,0.2992126,0,0,0,0,false,false,false,0,91.18,17.01,-0.0033528658,0.0033636554,0.7071016,0.7070959,0,278.811,8.321,-0.00061,0,0
42.158333,2000,0,91.24,0.000002697398,0.000002697398,0.000002697398,0.99999994,0,0,0,0,0,0,0.2992126,0,0,0,0,false,false,false,0,93.5,17.01,-0.0033528658,0.0033636554,0.7071016,0.7070959,0,282.081,8.321,-0.00061,0,0
42.166668,2000,0,91.24,0.000002697398,0.000002697398,0.000002697398,0.99999994,0,0,0,0,0,0,0.2992126,0,0,0,0,false,false,false,0,95.85,17.01,-0.0033528658,0.0033636554,0.7071016,0.7070959,0,285.341,8.321,-0.00061,0,0
42.175,2000,0,91.24,0.000002697398,0.000002697398,0.000002697398,0.99999994,0,0,0,0,0,0,0.2992126,0,0,0,0,false,false,false,0,98.229996,17.01,-0.0033528658,0.0033636554,0.7071016,0.7070959,0,288.591,8.321,-0.00061,0,0
42.183334,2000,0,91.24,0.000002697398,0.000002697398,0.000002697398,0.99999994,0,0,0,0,0,0,0.2992126,0,0,0,0,false,false,false,0,100.63,17.01,-0.0033528658,0.0033636554,0.7071016,0.7070959,0,291.841,8.321,-0.00061,0,0
42.191666,2000,0,91.24,0.000002697398,0.000002697398,0.000002697398,0.99999994,0,0,0,0,0,0,0.2992126,0,0,0,0,false,false,false,0,103.06,17.01,-0.0033528658,0.0033636554,0.7071016,0.7070959,0,295.081,8.321,-0.00061,0,0
42.2,2000,0,91.24,0.000002697398,0.000002697398,0.000002697398,0.99999994,0,0,0,0,0,0,0.2992126,0,0,0,0,false,false,false,0,105.52,17.01,-0.0033528658,0.0033636554,0.7071016,0.7070959,0,298.311,8.321,-0.00061,0,0
42.208332,2000,0,91.24,0.000002697398,0.000002697398,0.000002697398,0.99999994,0,0,0,0,0,0,0.2992126,0,0,0,0,false,false,false,0,108.009995,17.01,-0.0033528658,0.0033636554,0.7071016,0.7070959,0,301.531,8.321,-0.00061,0,0
42.216667,2000,0,91.24,0.000002697398,0.000002697398,0.000002697398,0.99999994,0,0,0,0,0,0,0,1,0,0,0,false,false,true,0,110.52,17.01,-0.0033528658,0.0033636554,0.7071016,0.7070959,-8.351,297.971,8.351,-0.00081,0.00201,0.22320999
42.225,2000,0,91.24,0.000002697398,0.000002697398,0.000002697398,0.99999994,0,0,0,0,0,0,0,1,0,0,0,false,false,true,-0.07,113,17.01,-0.0033528658,0.00336905,0.7077591,0.70643777,-13.681,295.681,8.361,-0.00091,0.00251,0.36601
42.233334,2000,0,91.24,0.000002697398,0.000002697398,0.000002697398,0.99999994,0,0,0,0,0,0,0,1,0,0,0,false,false,true,-0.17999999,115.46,17.01,-0.0033528658,0.003374445,0.70883435,0.7053588,-18.331,293.681,8.361,-0.00091,0.00251,0.48891
42.241665,2000,0,91.24,0.000002697398,0.000002697398,0.000002697398,0.99999994,0,0,0,0,0,0,0,1,0,0,0,false,false,true,-0.32999998,117.909996,17.01,-0.003352866,0.00337984,0.71027017,0.70391303,-22.431,291.931,8.361,-0.00091,0.0023100001,0.59431
42.25,2000,0,91.24,0.000002697398,0.000002697398,0.000002697398,0.99999994,0,0,0,0,0,0,0,1,0,0,0,false,false,true,-0.52,120.34,17.01,-0.0033582605,0.0033798397,0.7120088,0.7021543,-26.071,290.391,8.361,-0.00081,0.0019099999,0.68421
42.258335,2000,0,91.24,0.000002697398,0.000002697398,0.000002697398,0.99999994,0,0,0,0,0,0,0,1,0,0,0,false,false,true,-0.74,122.759995,17.01,-0.0033636554,0.0033798397,0.71400875,0.70012045,-29.341,289.031,8.351,-0.00071,0.0014099999,0.76071
42.266666,2000,0,91.24,0.000002697398,0.000002697398,0.000002697398,0.99999994,0,0,0,0,0,0,0,1,0,0,0,false,false,true,-0.97999996,125.17,17.01,-0.003374445,0.003374445,0.7162234,0.69785464,-32.291,287.821,8.351,-0.00061,0.00091,0.82561
42.275,2000,0,91.24,0.000002697398,0.000002697398,0.000002697398,0.99999994,0,0,0,0,0,0,0,1,0,0,0,false,false,true,-1.25,127.57,17.01,-0.0033852346,0.00336905,0.7186174,0.69538915,-34.990997,286.741,8.341001,-0.00051,0.00051,0.88051
42.283333,2000,0,91.24,0.000002697398,0.000002697398,0.000002697398,0.99999994,0,0,0,0,0,0,0,1,0,0,0,false,false,true,-1.54,129.95999,17.01,-0.0033960242,0.0033582605,0.7211661,0.6927457,-37.470997,285.771,8.341001,-0.00040999998,0.00010999999,0.92691
42.291668,2000,0,91.24,0.000002697398,0.000002697398,0.000002697398,0.99999994,0,0,0,0,0,0,0,1,0,0,0,false,false,true,-1.8499999,132.34,17.01,-0.0034122088,0.0033474711,0.72383493,0.6899566,-39.760998,284.891,8.341001,-0.00040999998,-0.00010999999,0.96611
42.3,2000,0,91.24,0.000002697398,0.000002697398,0.000002697398,0.99999994,0,0,0,0,0,0,0,1,0,0,0,false,false,true,-2.18,134.70999,17.01,-0.003428393,0.0033366815,0.7266056,0.687038,-41.891,284.091,8.341001,-0.00030999997,-0.00030999997,0.99921
42.308334,2000,0,91.24,0.000002697398,0.000002697398,0.000002697398,0.99999994,0,0,0,0,0,0,0,1,0,0,0,false,false,true,-2.53,137.08,17.01,-0.0034445773,0.003320497,0.7294605,0.6840061,-43.880997,283.351,8.331,-0.00021,-0.00051,1.02701
42.316666,2000,0,91.24,0.000002697398,0.000002697398,0.000002697398,0.99999994,0,0,0,0,0,0,0,1,0,0,0,false,false,true,-2.8999999,139.44,17.01,-0.0034607616,0.0033043127,0.7323819,0.68087715,-45.751,282.671,8.331,-0.00021,-0.00061,1.05031
42.325,2000,0,91.24,0.000002697398,0.000002697398,0.000002697398,0.99999994,0,0,0,0,0,0,0,1,0,0,0,false,false,true,-3.28,141.8,17.01,-0.0034769461,0.0032881282,0.73535305,0.6776672,-47.501,282.04102,8.331,-0.00021,-0.00071,1.06981
42.333332,2000,0,91.24,0.000002697398,0.000002697398,0.000002697398,0.99999994,0,0,0,0,0,0,0,1,0,0,0,false,false,true,-3.6799998,144.15,17.01,-0.0034931307,0.0032719441,0.7383672,0.67438185,-49.141,281.451,8.331,-0.00021,-0.00081,1.08611
42.341667,2000,0,91.24,0.000002697398,0.000002697398,0.000002697398,0.99999994,0,0,0,0,0,0,0,1,0,0,0,false,false,true,-4.0899997,146.5,17.01,-0.003509315,0.0032557594,0.74141324,0.67103153,-50.670998,280.901,8.331,-0.00010999999,-0.00081,1.09961
42.35,2000,0,91.24,0.000002697398,0.000002697398,0.000002697398,0.99999994,0,0,0,0,0,0,0,1,0,0,0,false,false,true,-4.5099998,148.84,17.01,-0.0035254993,0.003239575,0.74448,0.6676274,-52.100998,280.391,8.331,-0.00010999999,-0.00081,1.11071
42.358334,2000,0,91.24,0.000002697398,0.000002697398,0.000002697398,0.99999994,0,0,0,0,0,0,0,1,0,0,0,false,false,true,-4.94,151.18,17.01,-0.0035416833,0.0032233906,0.74756193,0.6641747,-53.420998,279.921,8.331,-0.00010999999,-0.00091,1.11981
42.366665,2000,0,91.24,0.000002697398,0.000002697398,0.000002697398,0.99999994,0,0,0,0,0,0,0,1,0,0,0,false,false,true,-5.39,153.51,17.01,-0.0035578676,0.003207206,0.7506532,0.66067886,-54.621,279.491,8.321,0,-0.00091,1.12711
42.375,2000,0,91.24,0.000002697398,0.000002697398,0.000002697398,0.99999994,0,0,0,0,0,0,0,1,0,0,0,false,false,true,-5.85,155.84,17.01,-0.0035740524,0.003185627,0.7537486,0.6571453,-55.700996,279.101,8.321,0,-0.00091,1.13291
42.383335,2000,0,91.24,0.000002697398,0.000002697398,0.000002697398,0.99999994,0,0,0,0,0,0,0,1,0,0,0,false,false,true,-6.31,158.17,17.01,-0.003590237,0.0031640478,0.7568428,0.65357935,-56.661,278.751,8.321,0,-0.00091,1.1374099
42.391666,2000,0,91.24,0.000002697398,0.000002697398,0.000002697398,0.99999994,0,0,0,0,0,0,0,1,0,0,0,false,false,true,-6.7799997,160.48999,17.01,-0.0036064212,0.0031424686,0.75993073,0.6499863,-57.481,278.451,8.321,0,-0.00091,1.14081
42.4,2000,0,91.24,0.000002697398,0.000002697398,0.000002697398,0.99999994,0,0,0,0,0,0,0,1,0,0,0,false,false,true,-7.2599998,162.81,17.01,-0.0036226052,0.0031208894,0.76301205,0.64636636,-58.150997,278.201,8.321,0,-0.00091,1.14331
42.408333,2000,0,91.24,0.000002697398,0.000002697398,0.000002697398,0.99999994,0,0,0,0,0,0,0,1,0,0,0,false,false,true,-7.74,165.12999,17.01,-0.00363879,0.0030993104,0.76608205,0.64272493,-58.661,278.001,8.321,-0.00010999999,-0.00081,1.14501
42.416668,2000,0,91.24,0.000002697398,0.000002697398,0.000002697398,0.99999994,0,0,0,0,0,0,0,1,0,0,0,false,false,true,-8.23,167.45,17.01,-0.0036549745,0.0030777312,0.7691404,0.63906187,-59.200996,277.79102,8.321,-0.00010999999,-0.00081,1.14661
42.425,2000,0,91.24,0.000002697398,0.000002697398,0.000002697398,0.99999994,0,0,0,0,0,0,0,1,0,0,0,false,false,true,-8.72,169.76,17.01,-0.003671159,0.0030561523,0.77218705,0.6353773,-59.760998,277.561,8.321,-0.00021,-0.00071,1.1482099
42.433334,2000,0,91.24,0.000002697398,0.000002697398,0.000002697398,0.99999994,0,0,0,0,0,0,0,1,0,0,0,false,false,true,-9.22,172.06999,17.01,-0.0036873433,0.0030399677,0.77521735,0.6316765,-60.350998,277.321,8.321,-0.00021,-0.00061,1.14981
42.441666,2000,0,91.24,0.000002697398,0.000002697398,0.000002697398,0.99999994,0,0,0,0,0,0,0,1,0,0,0,false,false,true,-9.719999,174.37999,17.01,-0.0037035276,0.0030237832,0.7782357,0.62795395,-60.961,277.061,8.321,-0.00021,-0.00061,1.15131
42.45,2000,0,91.24,0.000002697398,0.000002697398,0.000002697398,0.99999994,0,0,0,0,0,0,0,1,0,0,0,false,false,true,-10.23,176.69,17.01,-0.003719712,0.003007599,0.7812376,0.6242153,-61.600998,276.79102,8.321,-0.00021,-0.00061,1.15281
42.458332,2000,0,91.24,0.000002697398,0.000002697398,0.000002697398,0.99999994,0,0,0,0,0,0,0,1,0,0,0,false,false,true,-10.74,179,17.01,-0.0037358964,0.0029914144,0.7842272,0.62045515,-62.260998,276.501,8.321,-0.00010999999,-0.00061,1.15431
42.466667,2000,0,91.24,0.000002697398,0.000002697398,0.000002697398,0.99999994,0,0,0,0,0,0,0,1,0,0,0,false,false,true,-11.259999,181.3,17.01,-0.0037520807,0.0029698352,0.7872003,0.6166788,-62.940998,276.191,8.321,-0.00010999999,-0.00061,1.15581
42.475,2000,0,91.24,0.000002697398,0.000002697398,0.000002697398,0.99999994,0,0,0,0,0,0,0,1,0,0,0,false,false,true,-11.78,183.59999,17.01,-0.0037682652,0.002948256,0.7901607,0.6128809,-63.641,275.871,8.321,-0.00010999999,-0.00051,1.15721
42.483334,2000,0,91.24,0.000002697398,0.000002697398,0.000002697398,0.99999994,0,0,0,0,0,0,0,1,0,0,0,false,false,true,-12.309999,185.9,17.01,-0.0037844495,0.0029266768,0.7931086,0.60906136,-64.361,275.531,8.321,-0.00010999999,-0.00040999998,1.15861
42.491665,2000,0,91.24,0.000002697398,0.000002697398,0.000002697398,0.99999994,0,0,0,0,0,0,0,1,0,0,0,false,false,true,-12.849999,188.2,17.01,-0.0038006338,0.0029050978,0.7960395,0.60522556,-65.101,275.171,8.321,-0.00010999999,-0.00040999998,1.16001
42.5,2000,0,91.24,0.000002697398,0.000002697398,0.000002697398,0.99999994,0,0,0,0,0,0,0,1,0,0,0,false,false,true,-13.389999,190.48999,17.01,-0.0038168184,0.0028835186,0.7989576,0.60136825,-65.861,274.801,8.321,-0.00010999999,-0.00030999997,1.16131
42.508335,2000,0,91.24,0.000002697398,0.000002697398,0.000002697398,0.99999994,0,0,0,0,0,0,0,1,0,0,0,false,false,true,-13.94,192.78,17.01,-0.0038330022,0.0028673338,0.80185837,0.5974948,-66.641,274.411,8.321,-0.00010999999,-0.00021,1.1626099
42.516666,2000,0,91.24,0.000002697398,0.000002697398,0.000002697398,0.99999994,0,0,0,0,0,0,0,1,0,0,0,false,false,true,-14.5,195.06999,17.01,-0.0038491874,0.00285115,0.8047421,0.5936052,-67.440994,274.001,8.321,-0.00010999999,-0.00021,1.16391
42.525,2000,0,91.24,0.000002697398,0.000002697398,0.000002697398,0.99999994,0,0,0,0,0,0,0,1,0,0,0,false,false,true,-15.059999,197.34999,17.01,-0.0038653717,0.0028349655,0.8076125,0.589694,-68.251,273.571,8.321,-0.00010999999,-0.00021,1.16511
42.533333,2000,0,91.24,0.000002697398,0.000002697398,0.000002697398,0.99999994,0,0,0,0,0,0,0,1,0,0,0,false,false,true,-15.63,199.62999,17.01,-0.0038815553,0.002813386,0.8104655,0.5857665,-69.081,273.131,8.321,0,-0.00021,1.16631
42.541668,2000,0,91.24,0.000002697398,0.000002697398,0.000002697398,0.99999994,0,0,0,0,0,0,0,1,0,0,0,false,false,true,-16.21,201.90999,17.01,-0.0038977403,0.002791807,0.81330127,0.5818229,-69.921,272.671,8.321,0,-0.00010999999,1.16751
42.55,2000,0,91.24,0.000002697398,0.000002697398,0.000002697398,0.99999994,0,0,0,0,0,0,0,1,0,0,0,false,false,true,-16.789999,204.18,17.01,-0.0039139246,0.0027702278,0.81612337,0.5778577,-70.781,272.191,8.321,0,0,1.16861
42.558334,2000,0,91.24,0.000002697398,0.000002697398,0.000002697398,0.99999994,0,0,0,0,0,0,0,1,0,0,0,false,false,true,-17.38,206.45,17.01,-0.003924714,0.0027486486,0.8189279,0.5738763,-71.651,271.691,8.321,0,0,1.16971
42.566666,2000,0,91.24,0.000002697398,0.000002697398,0.000002697398,0.99999994,0,0,0,0,0,0,0,1,0,0,0,false,false,true,-17.98,208.70999,17.01,-0.0039355042,0.0027270697,0.82171476,0.5698788,-72.531,271.181,8.321,0,0,1.17071
42.575,2000,0,91.24,0.000002697398,0.000002697398,0.000002697398,0.99999994,0,0,0,0,0,0,0,1,0,0,0,false,false,true,-18.58,210.97,17.01,-0.003946293,0.0027054902,0.82448393,0.56586504,-73.431,270.651,8.321,-0.00010999999,0,1.17171
42.583332,2000,0,91.24,0.000002697398,0.000002697398,0.000002697398,0.99999994,0,0,0,0,0,0,0,1,0,0,0,false,false,true,-19.189999,213.23,17.01,-0.003957083,0.002689306,0.82723534,0.56183505,-74.340996,270.101,8.321,-0.00010999999,0,1.17271
42.591667,2000,0,91.24,0.000002697398,0.000002697398,0.000002697398,0.99999994,0,0,0,0,0,0,0,1,0,0,0,false,false,true,-19.81,215.48,17.01,-0.0039678724,0.0026677267,0.8299726,0.55778354,-75.260994,269.531,8.321,-0.00010999999,0,1.17361
42.6,2000,0,91.24,0.000002697398,0.000002697398,0.000002697398,0.99999994,0,0,0,0,0,0,0,1,0,0,0,false,false,true,-20.439999,217.73,17.01,-0.003978662,0.0026461475,0.83269185,0.5537159,-76.190994,268.941,8.321,-0.00021,0,1.17451
42.608334,2000,0,91.24,0.000002697398,0.000002697398,0.000002697398,0.99999994,0,0,0,0,0,0,0,1,0,0,0,false,false,true,-21.07,219.97,17.01,-0.0039894516,0.002629963,0.83539313,0.549632,-77.131,268.331,8.321,-0.00030999997,0,1.17541
42.616665,2000,0,91.24,0.000002697398,0.000002697398,0.000002697398,0.99999994,0,0,0,0,0,0,0,1,0,0,0,false,false,true,-21.71,222.20999,17.01,-0.004005636,0.0026137787,0.83807623,0.545532,-78.081,267.711,8.321,-0.00030999997,0,1.1762099
42.625,2000,0,91.24,0.000002697398,0.000002697398,0.000002697398,0.99999994,0,0,0,0,0,0,0,1,0,0,0,false,false,true,-22.359999,224.44,17.01,-0.0040164255,0.0025975944,0.8407413,0.54141575,-79.031,267.071,8.321,-0.00021,0,1.1770099
42.633335,2000,0,91.24,0.000002697398,0.000002697398,0.000002697398,0.99999994,0,0,0,0,0,0,0,1,0,0,0,false,false,true,-23.019999,226.67,17.01,-0.0040272153,0.0025760152,0.8433848,0.5372886,-79.991,266.411,8.321,-0.00021,-0.00010999999,1.17781
42.641666,2000,0,91.24,0.000002697398,0.000002697398,0.000002697398,0.99999994,0,0,0,0,0,0,0,1,0,0,0,false,false,true,-23.689999,228.89,17.01,-0.0040380047,0.002554436,0.84601,0.5331454,-80.961,265.731,8.321,-0.00021,-0.00010999999,1.17851
42.65,2000,0,91.24,0.000002697398,0.000002697398,0.000002697398,0.99999994,0,0,0,0,0,0,0,1,0,0,0,false,false,true,-24.359999,231.09999,17.01,-0.004048795,0.002532857,0.848617,0.5289861,-81.940994,265.031,8.321,-0.00021,-0.00021,1.17921
42.658333,2000,0,91.24,0.000002697398,0.000002697398,0.000002697398,0.99999994,0,0,0,0,0,0,0,1,0,0,0,false,false,true,-25.039999,233.31,17.01,-0.0040649786,0.0025112776,0.8512056,0.5248105,-82.921,264.311,8.321,-0.00021,-0.00021,1.1798099
42.666668,2000,0,91.24,0.000002697398,0.000002697398,0.000002697398,0.99999994,0,0,0,0,0,0,0,1,0,0,0,false,false,true,-25.73,235.51,17.01,-0.0040757684,0.0024896984,0.8537758,0.52061874,-83.910995,263.581,8.321,-0.00021,-0.00021,1.18041
42.675,2000,0,91.24,0.000002697398,0.000002697398,0.000002697398,0.99999994,0,0,0,0,0,0,0,1,0,0,0,false,false,true,-26.43,237.70999,17.01,-0.004086558,0.0024681191,0.85632765,0.5164107,-84.901,262.831,8.321,-0.00021,-0.00021,1.18101
42.683334,2000,0,91.24,0.000002697398,0.000002697398,0.000002697398,0.99999994,0,0,0,0,0,0,0,1,0,0,0,false,false,true,-27.14,239.9,17.01,-0.004097348,0.0024465402,0.8588577,0.512192,-85.891,262.061,8.321,-0.00030999997,-0.00021,1.18151
42.691666,2000,0,91.24,0.000002697398,0.000002697398,0.000002697398,0.99999994,0,0,0,0,0,0,0,1,0,0,0,false,false,true,-27.859999,242.08,17.01,-0.004108137,0.0024249607,0.8613691,0.50795704,-86.891,261.271,8.321,-0.00030999997,-0.00021,1.1820099
42.7,2000,0,91.24,0.000002697398,0.000002697398,0.000002697398,0.99999994,0,0,0,0,0,0,0,1,0,0,0,false,false,true,-28.58,244.26,17.01,-0.004118927,0.0024033815,0.8638619,0.5037059,-87.891,260.461,8.321,-0.00040999998,-0.00021,1.18251
42.708332,2000,0,91.24,0.000002697398,0.000002697398,0.000002697398,0.99999994,0,0,0,0,0,0,0,1,0,0,0,false,false,true,-29.31,246.43,17.01,-0.004129716,0.0023818025,0.86633295,0.49944407,-88.891,259.641,8.321,-0.00040999998,-0.00021,1.18291
42.716667,2000,0,91.24,0.000002697398,0.000002697398,0.000002697398,0.99999994,0,0,0,0,0,0,0,1,0,0,0,false,false,true,-30.05,248.59,17.01,-0.0041405065,0.0023602236,0.8687853,0.49516594,-89.901,258.801,8.321,-0.00040999998,-0.00021,1.18331
42.725,2000,0,91.24,0.000002697398,0.000002697398,0.000002697398,0.99999994,0,0,0,0,0,0,0,1,0,0,0,false,false,true,-30.8,250.75,17.01,-0.0041512954,0.0023386441,0.87121576,0.49087706,-90.910995,257.941,8.321,-0.00051,-0.00021,1.18361
42.733334,2000,0,91.24,0.000002697398,0.000002697398,0.000002697398,0.99999994,0,0,0,0,0,0,0,1,0,0,0,false,false,true,-31.56,252.9,17.01,-0.0041620852,0.002317065,0.8736274,0.486572,-91.921,257.061,8.321,-0.00051,-0.00021,1.18391
42.741665,2000,0,91.24,0.000002697398,0.000002697398,0.000002697398,0.99999994,0,0,0,0,0,0,0,1,0,0,0,false,false,true,-32.329998,255.04,17.01,-0.0041728746,0.0022954857,0.8760172,0.48225617,-92.931,256.171,8.321,-0.00051,-0.00021,1.18421
42.75,2000,0,91.24,0.000002697398,0.000002697398,0.000002697398,0.99999994,0,0,0,0,0,0,0,1,0,0,0,false,false,true,-33.1,257.16998,17.01,-0.0041836645,0.0022739065,0.8783852,0.47792953,-93.940994,255.261,8.321,-0.00051,-0.00021,1.18441
42.758335,2000,0,91.24,0.000002697398,0.000002697398,0.000002697398,0.99999994,0,0,0,0,0,0,0,1,0,0,0,false,false,true,-33.88,259.3,17.01,-0.0041944543,0.0022523275,0.8807343,0.47358668,-94.951,254.33101,8.321,-0.00061,-0.00021,1.18461
42.766666,2000,0,91.24,0.000002697398,0.000002697398,0.000002697398,0.99999994,0,0,0,0,0,0,0,1,0,0,0,false,false,true,-34.67,261.41998,17.01,-0.004205243,0.002236143,0.88306147,0.46923304,-95.961,253.381,8.321,-0.00061,-0.00021,1.18471
42.775,2000,0,91.24,0.000002697398,0.000002697398,0.000002697398,0.99999994,0,0,0,0,0,0,0,1,0,0,0,false,false,true,-35.469997,263.53,17.01,-0.004216033,0.0022145638,0.8853668,0.46486866,-96.961,252.421,8.321,-0.00061,-0.00030999997,1.18481
42.783333,2000,0,91.24,0.000002697398,0.000002697398,0.000002697398,0.99999994,0,0,0,0,0,0,0,1,0,0,0,false,false,true,-36.28,265.63,17.01,-0.0042268224,0.0021929846,0.88765025,0.46049348,-97.961,251.441,8.321,-0.00061,-0.00030999997,1.1849099
42.791668,2000,0,91.24,0.000002697398,0.000002697398,0.000002697398,0.99999994,0,0,0,0,0,0,0,1,0,0,0,false,false,true,-37.1,267.72998,17.01,-0.0042376122,0.0021714054,0.8899119,0.4561075,-98.961,250.441,8.321,-0.00061,-0.00030999997,1.1849099
42.8,2000,0,91.24,0.000002697398,0.000002697398,0.000002697398,0.99999994,0,0,0,0,0,0,0,1,0,0,0,false,false,true,-37.92,269.82,17.01,-0.0042484016,0.0021498261,0.8921517,0.45171067,-99.961,249.431,8.321,-0.00061,-0.00030999997,1.1849099
42.808334,2000,0,91.24,0.000002697398,0.000002697398,0.000002697398,0.99999994,0,0,0,0,0,0,0,1,0,0,0,false,false,true,-38.75,271.9,17.01,-0.004259191,0.0021282467,0.8943696,0.44730306,-100.951,248.401,8.321,-0.00061,-0.00030999997,1.1849099
42.816666,2000,0,91.24,0.000002697398,0.000002697398,0.000002697398,0.99999994,0,0,0,0,0,0,0,1,0,0,0,false,false,true,-39.59,273.97,17.01,-0.004269981,0.0021066677,0.8965685,0.44287938,-101.940994,247.36101,8.321,-0.00061,-0.00030999997,1.18481
42.825,2000,0,91.24,0.000002697398,0.000002697398,0.000002697398,0.99999994,0,0,0,0,0,0,0,1,0,0,0,false,false,true,-40.44,276.03,17.01,-0.0042807707,0.0020850885,0.8987428,0.43845025,-102.921,246.301,8.321,-0.00061,-0.00030999997,1.18471
42.833332,2000,0,91.24,0.000002697398,0.000002697398,0.000002697398,0.99999994,0,0,0,0,0,0,0,1,0,0,0,false,false,true,-41.3,278.08,17.01,-0.0042915605,0.0020635098,0.9008953,0.43401036,-103.90099,245.22101,8.321,-0.00061,-0.00030999997,1.18451
42.841667,2000,0,91.24,0.000002697398,0.000002697398,0.000002697398,0.99999994,0,0,0,0,0,0,0,1,0,0,0,false,false,true,-42.17,280.12,17.01,-0.0043023503,0.0020419306,0.9030259,0.4295596,-104.870995,244.131,8.321,-0.00061,-0.00030999997,1.18431
42.85,2000,0,91.24,0.000002697398,0.000002697398,0.000002697398,0.99999994,0,0,0,0,0,0,0,1,0,0,0,false,false,true,-43.04,282.15,17.01,-0.0043131392,0.0020203511,0.9051347,0.42509806,-105.840996,243.021,8.321,-0.00061,-0.00030999997,1.1841099
42.858334,2000,0,91.24,0.000002697398,0.000002697398,0.000002697398,0.99999994,0,0,0,0,0,0,0,1,0,0,0,false,false,true,-43.92,284.18,17.01,-0.0043239295,0.0019987721,0.9072217,0.4206258,-106.800995,241.901,8.321,-0.00061,-0.00030999997,1.18381
42.866665,2000,0,91.24,0.000002697398,0.000002697398,0.000002697398,0.99999994,0,0,0,0,0,0,0,1,0,0,0,false,false,true,-44.809998,286.19998,17.01,-0.0043347185,0.0019771927,0.9092843,0.4161481,-107.760994,240.761,8.321,-0.00061,-0.00030999997,1.18351
42.875,2000,0,91.24,0.000002697398,0.000002697398,0.000002697398,0.99999994,0,0,0,0,0,0,0,1,0,0,0,false,false,true,-45.71,288.21,17.01,-0.0043455083,0.0019556135,0.91132516,0.4116596,-108.711,239.61101,8.321,-0.00061,-0.00030999997,1.18311
42.883335,2000,0,91.24,0.000002697398,0.000002697398,0.000002697398,0.99999994,0,0,0,0,0,0,0,1,0,0,0,false,false,true,-46.62,290.21,17.01,-0.0043562977,0.0019340344,0.9133442,0.40716028,-109.65099,238.451,8.321,-0.00061,-0.00030999997,1.1827099
42.891666,2000,0,91.24,0.000002697398,0.000002697398,0.000002697398,0.99999994,0,0,0,0,0,0,0,1,0,0,0,false,false,true,-47.53,292.19998,17.01,-0.004367088,0.0019124553,0.9153391,0.40265563,-110.590996,237.271,8.321,-0.00061,-0.00030999997,1.18231
42.9,2000,0,91.24,0.000002697398,0.000002697398,0.000002697398,0.99999994,0,0,0,0,0,0,0,1,0,0,0,false,false,true,-48.45,294.18,17.01,-0.004377877,0.0018908761,0.9173121,0.39814016,-111.520996,236.08101,8.321,-0.00061,-0.00030999997,1.18181
42.908333,2000,0,91.24,0.000002697398,0.000002697398,0.000002697398,0.99999994,0,0,0,0,0,0,0,1,0,0,0,false,false,true,-49.379997,296.15,17.01,-0.0043886667,0.0018692969,0.9192611,0.39361933,-112.440994,234.871,8.321,-0.00051,-0.00030999997,1.1813099
42.916668,2000,0,91.24,0.000002697398,0.000002697398,0.000002697398,0.99999994,0,0,0,0,0,0,0,1,0,0,0,false,false,true,-50.32,298.11,17.01,-0.004399456,0.0018477177,0.9211883,0.3890877,-113.351,233.651,8.321,-0.00051,-0.00030999997,1.18081
42.925,2000,0,91.24,0.000002697398,0.000002697398,0.000002697398,0.99999994,0,0,0,0,0,0,0,1,0,0,0,false,false,true,-51.26,300.06,17.01,-0.0044102455,0.0018261385,0.92309153,0.3845506,-114.251,232.421,8.321,-0.00051,-0.00021,1.18021
42.933334,2000,0,91.24,0.000002697398,0.000002697398,0.000002697398,0.99999994,0,0,0,0,0,0,0,1,0,0,0,false,false,true,-52.21,302,17.01,-0.0044210358,0.0018045595,0.92497075,0.3800082,-115.141,231.171,8.321,-0.00051,-0.00021,1.17961
42.941666,2000,0,91.24,0.000002697398,0.000002697398,0.000002697398,0.99999994,0,0,0,0,0,0,0,1,0,0,0,false,false,true,-53.17,303.93,17.01,-0.0044318247,0.0017829802,0.92682827,0.37545496,-116.031,229.911,8.321,-0.00051,-0.00021,1.17891
42.95,2000,0,91.24,0.000002697398,0.000002697398,0.000002697398,0.99999994,0,0,0,0,0,0,0,1,0,0,0,false,false,true,-54.14,305.85,17.01,-0.004442615,0.0017614011,0.92866194,0.3708964,-116.910995,228.641,8.321,-0.00040999998,-0.00010999999,1.17821
42.958332,2000,0,91.24,0.000002697398,0.000002697398,0.000002697398,0.99999994,0,0,0,0,0,0,0,1,0,0,0,false,false,true,-55.11,307.75998,17.01,-0.004453404,0.0017398217,0.9304717,0.36633235,-117.781,227.36101,8.321,-0.00040999998,-0.00010999999,1.17751
42.966667,2000,0,91.24,0.000002697398,0.000002697398,0.000002697398,0.99999994,0,0,0,0,0,0,0,1,0,0,0,false,false,true,-56.09,309.65,17.01,-0.0044641932,0.0017182423,0.9322577,0.36176285,-118.641,226.071,8.321,-0.00040999998,-0.00010999999,1.17671
42.975,2000,0,91.24,0.000002697398,0.000002697398,0.000002697398,0.99999994,0,0,0,0,0,0,0,1,0,0,0,false,false,true,-57.079998,311.53,17.01,-0.004474983,0.0016966634,0.93402016,0.3571881,-119.491,224.761,8.321,-0.00040999998,0,1.17591
42.983334,2000,0,91.24,0.000002697398,0.000002697398,0.000002697398,0.99999994,0,0,0,0,0,0,0,1,0,0,0,false,false,true,-58.079998,313.4,17.01,-0.004485773,0.0016750842,0.9357588,0.3526079,-120.321,223.44101,8.321,-0.00030999997,0,1.17511
42.991665,2000,0,91.24,0.000002697398,0.000002697398,0.000002697398,0.99999994,0,0,0,0,0,0,0,1,0,0,0,false,false,true,-59.079998,315.25998,17.01,-0.004496562,0.0016535048,0.93747383,0.3480223,-121.141,222.11101,8.321,-0.00030999997,0,1.17421
43,2000,0,91.24,0.000002697398,0.000002697398,0.000002697398,0.99999994,0,0,0,0,0,0,0,1,0,0,0,false,false,true,-60.09,317.11,17.01,-0.004507352,0.0016319258,0.9391655,0.34343135,-121.951,220.771,8.321,-0.00030999997,0,1.17331
43.008335,2000,0,91.24,0.000002697398,0.000002697398,0.000002697398,0.99999994,0,0,0,0,0,0,0,1,0,0,0,false,false,true,-61.109997,318.94998,17.01,-0.0045181415,0.0016103466,0.94083357,0.3388349,-122.751,219.421,8.321,-0.00021,0,1.17231
43.016666,2000,0,91.24,0.000002697398,0.000002697398,0.000002697398,0.99999994,0,0,0,0,0,0,0,1,0,0,0,false,false,true,-62.129997,320.78,17.01,-0.0045235357,0.0015887674,0.94247806,0.33423313,-123.541,218.061,8.321,-0.00021,0,1.17131
43.025,2000,0,91.24,0.000002697398,0.000002697398,0.000002697398,0.99999994,0,0,0,0,0,0,0,1,0,0,0,false,false,true,-63.16,322.6,17.01,-0.004528932,0.0015671884,0.9440975,0.32963142,-124.321,216.69101,8.321,-0.00021,0,1.17031
43.033333,2000,0,91.24,0.000002697398,0.000002697398,0.000002697398,0.99999994,0,0,0,0,0,0,0,1,0,0,0,false,false,true,-64.2,324.41,17.01,-0.004534326,0.0015456091,0.9456935,0.32502425,-125.090996,215.311,8.321,-0.00021,0,1.16921
43.041668,2000,0,91.24,0.000002697398,0.000002697398,0.000002697398,0.99999994,0,0,0,0,0,0,0,1,0,0,0,false,false,true,-65.24,326.19998,17.01,-0.0045397202,0.0015240298,0.94726616,0.32041156,-125.840996,213.921,8.321,-0.00021,0,1.16811
43.05,2000,0,91.24,0.000002697398,0.000002697398,0.000002697398,0.99999994,0,0,0,0,0,0,0,1,0,0,0,false,false,true,-66.29,327.97998,17.01,-0.004545116,0.0015024508,0.948814,0.3157991,-126.58099,212.521,8.321,-0.00021,0,1.16701
43.058334,2000,0,91.24,0.000002697398,0.000002697398,0.000002697398,0.99999994,0,0,0,0,0,0,0,1,0,0,0,false,false,true,-67.34,329.75,17.01,-0.0045505106,0.0014808716,0.95033854,0.3111811,-127.311,211.11101,8.321,-0.00021,0,1.16581
43.066666,2000,0,91.24,0.000002697398,0.000002697398,0.000002697398,0.99999994,0,0,0,0,0,0,0,1,0,0,0,false,false,true,-68.4,331.50998,17.01,-0.0045559052,0.0014592924,0.9518382,0.30656317,-128.031,209.701,8.321,-0.00021,0,1.16461
43.075,2000,0,91.24,0.000002697398,0.000002697398,0.000002697398,0.99999994,0,0,0,0,0,0,0,1,0,0,0,false,false,true,-69.47,333.25998,17.01,-0.0045613,0.0014377132,0.9533149,0.30193982,-128.731,208.281,8.321,-0.00021,0,1.16341
43.083332,2000,0,91.24,0.000002697398,0.000002697398,0.000002697398,0.99999994,0,0,0,0,0,0,0,1,0,0,0,false,false,true,-70.54,335,17.01,-0.0045666946,0.001416134,0.9547669,0.2973164,-129.421,206.851,8.321,-0.00021,0,1.16211
43.091667,2000,0,91.24,0.000002697398,0.000002697398,0.000002697398,0.99999994,0,0,0,0,0,0,0,1,0,0,0,false,false,true,-71.619995,336.72,17.01,-0.00457209,0.0013945549,0.9561961,0.29268768,-130.101,205.411,8.321,-0.00021,-0.00010999999,1.16081
43.1,2000,0,91.24,0.000002697398,0.000002697398,0.000002697398,0.99999994,0,0,0,0,0,0,0,1,0,0,0,false,false,true,-72.7,338.43,17.01,-0.004577485,0.0013729758,0.9576007,0.28805897,-130.761,203.97101,8.321,-0.00021,-0.00010999999,1.15951
43.108334,2000,0,91.24,0.000002697398,0.000002697398,0.000002697398,0.99999994,0,0,0,0,0,0,0,1,0,0,0,false,false,true,-73.79,340.13,17.01,-0.004582879,0.0013513964,0.9589809,0.2834302,-131.41101,202.521,8.321,-0.00021,-0.00021,1.15811
43.116665,2000,0,91.24,0.000002697398,0.000002697398,0.000002697398,0.99999994,0,0,0,0,0,0,0,1,0,0,0,false,false,true,-74.89,341.82,17.01,-0.0045882743,0.0013298173,0.96033686,0.27880147,-132.05101,201.061,8.321,-0.00021,-0.00021,1.15671
43.125,2000,0,91.24,0.000002697398,0.000002697398,0.000002697398,0.99999994,0,0,0,0,0,0,0,1,0,0,0,false,false,true,-75.99,343.5,17.01,-0.004593669,0.001308238,0.9616701,0.27416724,-132.671,199.601,8.321,-0.00021,-0.00021,1.15521
43.133335,2000,0,91.24,0.000002697398,0.000002697398,0.000002697398,0.99999994,0,0,0,0,0,0,0,1,0,0,0,false,false,true,-77.1,345.16,17.01,-0.0045990637,0.0012866588,0.9629792,0.2695331,-133.281,198.131,8.321,-0.00021,-0.00030999997,1.15371
43.141666,2000,0,91.24,0.000002697398,0.000002697398,0.000002697398,0.99999994,0,0,0,0,0,0,0,1,0,0,0,false,false,true,-78.21,346.81,17.01,-0.0046044583,0.0012650797,0.9642643,0.264899,-133.871,196.651,8.321,-0.00021,-0.00030999997,1.15221
43.15,2000,0,91.24,0.000002697398,0.000002697398,0.000002697398,0.99999994,0,0,0,0,0,0,0,1,0,0,0,false,false,true,-79.33,348.44998,17.01,-0.004609853,0.0012435005,0.9655254,0.26026484,-134.451,195.171,8.321,-0.00021,-0.00030999997,1.15061
43.158333,2000,0,91.24,0.000002697398,0.000002697398,0.000002697398,0.99999994,0,0,0,0,0,0,0,1,0,0,0,false,false,true,-80.45,350.08,17.01,-0.004615248,0.0012219213,0.96676266,0.25563073,-135.02101,193.681,8.321,-0.00021,-0.00030999997,1.14901
43.166668,2000,0,91.24,0.000002697398,0.000002697398,0.000002697398,0.99999994,0,0,0,0,0,0,0,1,0,0,0,false,false,true,-81.58,351.69,17.01,-0.004620643,0.0012003421,0.9679748,0.2510019,-135.571,192.19101,8.321,-0.00021,-0.00030999997,1.14741
43.175,2000,0,91.24,0.000002697398,0.000002697398,0.000002697398,0.99999994,0,0,0,0,0,0,0,1,0,0,0,false,false,true,-82.71,353.28998,17.01,-0.0046260376,0.0011787629,0.96916324,0.24637318,-136.11101,190.69101,8.321,-0.00021,-0.00030999997,1.14581
43.183334,2000,0,91.24,0.000002697398,0.000002697398,0.000002697398,0.99999994,0,0,0,0,0,0,0,1,0,0,0,false,false,true,-83.84,354.88,17.01,-0.0046314322,0.0011571838,0.97032815,0.24174444,-136.631,189.19101,8.321,-0.00010999999,-0.00040999998,1.14411
43.191666,2000,0,91.24,0.000002697398,0.000002697398,0.000002697398,0.99999994,0,0,0,0,0,0,0,1,0,0,0,false,false,true,-84.979996,356.46,17.01,-0.0046368274,0.0011356047,0.97146964,0.23711573,-137.141,187.69101,8.321,-0.00010999999,-0.00040999998,1.14241
43.2,2000,0,91.24,0.000002697398,0.000002697398,0.000002697398,0.99999994,0,0,0,0,0,0,0,1,0,0,0,false,false,true,-86.119995,358.02,17.01,-0.0046422225,0.0011140255,0.97258776,0.232487,-137.631,186.181,8.321,-0.00010999999,-0.00040999998,1.14071
43.208332,2000,0,91.24,0.000002697398,0.000002697398,0.000002697398,0.99999994,0,0,0,0,0,0,0,1,0,0,0,false,false,true,-87.27,359.56998,17.01,-0.0046476168,0.0010924462,0.97368133,0.22786355,-138.11101,184.671,8.321,-0.00010999999,-0.00040999998,1.1389099
43.216667,2000,0,91.24,0.000002697398,0.000002697398,0.000002697398,0.99999994,0,0,0,0,0,0,0,1,0,0,0,false,false,true,-88.42,361.11,17.01,-0.0046530114,0.001070867,0.9747517,0.22324021,-138.58101,183.161,8.321,-0.00010999999,-0.00040999998,1.13711
43.225,2000,0,91.24,0.000002697398,0.000002697398,0.000002697398,0.99999994,0,0,0,0,0,0,0,1,0,0,0,false,false,true,-89.57,362.63998,17.01,-0.004658406,0.0010492879,0.975799,0.21861686,-139.031,181.641,8.321,-0.00010999999,-0.00040999998,1.1353099
43.233334,2000,0,91.24,0.000002697398,0.000002697398,0.000002697398,0.99999994,0,0,0,0,0,0,0,1,0,0,0,false,false,true,-90.729996,364.15,17.01,-0.0046638013,0.0010277086,0.97682214,0.21399891,-139.47101,180.121,8.321,0,-0.00040999998,1.13341
43.241665,2000,0,91.24,0.000002697398,0.000002697398,0.000002697398,0.99999994,0,0,0,0,0,0,0,1,0,0,0,false,false,true,-91.89,365.65,17.01,-0.004669196,0.0010061294,0.9778224,0.2093809,-139.891,178.601,8.321,0,-0.00040999998,1.13151
43.25,2000,0,91.24,0.000002697398,0.000002697398,0.000002697398,0.99999994,0,0,0,0,0,0,0,1,0,0,0,false,false,true,-93.06,367.13998,17.01,-0.0046745907,0.0009845502,0.97879875,0.20476834,-140.30101,177.08101,8.321,0,-0.00040999998,1.12961
43.258335,2000,0,91.24,0.000002697398,0.000002697398,0.000002697398,0.99999994,0,0,0,0,0,0,0,1,0,0,0,false,false,true,-94.229996,368.62,17.01,-0.0046799853,0.0009629711,0.9797513,0.20016119,-140.69101,175.561,8.321,0,-0.00040999998,1.12771
43.266666,2000,0,91.24,0.000002697398,0.000002697398,0.000002697398,0.99999994,0,0,0,0,0,0,0,1,0,0,0,false,false,true,-95.4,370.08,17.01,-0.0046853805,0.0009413919,0.98068124,0.19555402,-141.071,174.031,8.321,0,-0.00040999998,1.12571
43.275,2000,0,91.24,0.000002697398,0.000002697398,0.000002697398,0.99999994,0,0,0,0,0,0,0,1,0,0,0,false,false,true,-96.579994,371.53,17.01,-0.004690775,0.00091981277,0.98158765,0.19095227,-141.431,172.501,8.321,0,-0.00040999998,1.12371
43.283333,2000,0,91.24,0.000002697398,0.000002697398,0.000002697398,0.99999994,0,0,0,0,0,0,0,1,0,0,0,false,false,true,-97.759995,372.97,17.01,-0.00469617,0.00089823356,0.98247063,0.18635581,-141.781,170.97101,8.321,0,-0.00040999998,1.12171
43.291668,2000,0,91.24,0.000002697398,0.000002697398,0.000002697398,0.99999994,0,0,0,0,0,0,0,1,0,0,0,false,false,true,-98.939995,374.38998,17.01,-0.0047015646,0.00087665435,0.9833313,0.18175945,-142.11101,169.44101,8.321,0,-0.00040999998,1.11961
43.3,2000,0,91.24,0.000002697398,0.000002697398,0.000002697398,0.99999994,0,0,0,0,0,0,0,1,0,0,0,false,false,true,-100.119995,375.8,17.01,-0.0047069597,0.0008550752,0.9841688,0.17716847,-142.431,167.91101,8.321,0,-0.00030999997,1.11751
43.308334,2000,0,91.24,0.000002697398,0.000002697398,0.000002697398,0.99999994,0,0,0,0,0,0,0,1,0,0,0,false,false,true,-101.31,377.19998,17.01,-0.004712355,0.00083349604,0.9849833,0.17258291,-142.731,166.381,8.321,0,-0.00030999997,1.11541
43.316666,2000,0,91.24,0.000002697398,0.000002697398,0.000002697398,0.99999994,0,0,0,0,0,0,0,1,0,0,0,false,false,true,-102.5,378.59,17.01,-0.004717749,0.00081191683,0.9857749,0.16800271,-143.02101,164.851,8.321,0,-0.00030999997,1.11331
43.325,2000,0,91.24,0.000002697398,0.000002697398,0.000002697398,0.99999994,0,0,0,0,0,0,0,1,0,0,0,false,false,true,-103.689995,379.96,17.01,-0.0047231433,0.00079033757,0.98654354,0.16342783,-143.291,163.321,8.321,0,-0.00021,1.11111
43.333332,2000,0,91.24,0.000002697398,0.000002697398,0.000002697398,0.99999994,0,0,0,0,0,0,0,1,0,0,0,false,false,true,-104.88,381.31998,17.01,-0.004728539,0.00076875853,0.9872897,0.15885846,-143.55101,161.791,8.321,0,-0.00021,1.10891
43.341667,2000,0,91.24,0.000002697398,0.000002697398,0.000002697398,0.99999994,0,0,0,0,0,0,0,1,0,0,0,false,false,true,-106.079994,382.66998,17.01,-0.004733933,0.0007471792,0.98801315,0.15429443,-143.80101,160.261,8.321,0,-0.00021,1.10671
43.35,2000,0,91.24,0.000002697398,0.000002697398,0.000002697398,0.99999994,0,0,0,0,0,0,0,1,0,0,0,false,false,true,-107.28,384.00998,17.01,-0.0047393283,0.00072560005,0.98871434,0.14973585,-144.031,158.741,8.321,0,-0.00010999999,1.10451
43.358334,2000,0,91.24,0.000002697398,0.000002697398,0.000002697398,0.99999994,0,0,0,0,0,0,0,1,0,0,0,false,false,true,-108.479996,385.33,17.01,-0.0047447234,0.00070402096,0.98939323,0.14518265,-144.251,157.22101,8.321,0,-0.00010999999,1.10221
43.366665,2000,0,91.24,0.000002697398,0.000002697398,0.000002697398,0.99999994,0,0,0,0,0,0,0,1,0,0,0,false,false,true,-109.68,386.63998,17.01,-0.004750118,0.00068244175,0.9900499,0.14063476,-144.451,155.701,8.321,0,0,1.09991
43.375,2000,0,91.24,0.000002697398,0.000002697398,0.000002697398,0.99999994,0,0,0,0,0,0,0,1,0,0,0,false,false,true,-110.88,387.94,17.01,-0.004755513,0.00066086254,0.99068373,0.13609771,-144.641,154.181,8.321,0,0,1.09761
43.383335,2000,0,91.24,0.000002697398,0.000002697398,0.000002697398,0.99999994,0,0,0,0,0,0,0,1,0,0,0,false,false,true,-112.09,389.22,17.01,-0.0047609075,0.00063928333,0.9912957,0.13156609,-144.811,152.66101,8.321,0,0,1.09531
43.391666,2000,0,91.24,0.000002697398,0.000002697398,0.000002697398,0.99999994,0,0,0,0,0,0,0,1,0,0,0,false,false,true,-113.299995,390.49,17.01,-0.004766302,0.0006177041,0.9918859,0.12703985,-144.97101,151.151,8.321,0,0,1.0929099
43.4,2000,0,91.24,0.000002697398,0.000002697398,0.000002697398,0.99999994,0,0,0,0,0,0,0,1,0,0,0,false,false,true,-114.509995,391.75,17.01,-0.0047716973,0.000596125,0.9924538,0.122524425,-145.121,149.641,8.321,0.00010999999,0,1.09051
43.408333,2000,0,91.24,0.000002697398,0.000002697398,0.000002697398,0.99999994,0,0,0,0,0,0,0,1,0,0,0,false,false,true,-115.72,393,17.01,-0.0047716973,0.0005745458,0.9930002,0.11801429,-145.251,148.131,8.321,0.00010999999,0,1.08811
43.416668,2000,0,91.24,0.000002697398,0.000002697398,0.000002697398,0.99999994,0,0,0,0,0,0,0,1,0,0,0,false,false,true,-116.93,394.22998,17.01,-0.0047716973,0.00055296667,0.99352527,0.11350964,-145.371,146.621,8.321,0.00010999999,0,1.0857099
43.425,2000,0,91.24,0.000002697398,0.000002697398,0.000002697398,0.99999994,0,0,0,0,0,0,0,1,0,0,0,false,false,true,-118.14,395.44998,17.01,-0.0047716973,0.00053138746,0.9940284,0.10901577,-145.47101,145.121,8.321,0.00010999999,0,1.08321
43.433334,2000,0,91.24,0.000002697398,0.000002697398,0.000002697398,0.99999994,0,0,0,0,0,0,0,1,0,0,0,false,false,true,-119.35,396.66,17.01,-0.0047716964,0.00050980813,0.9945103,0.10452728,-145.561,143.621,8.321,0.00010999999,0,1.0807099
43.441666,2000,0,91.24,0.000002697398,0.000002697398,0.000002697398,0.99999994,0,0,0,0,0,0,0,1,0,0,0,false,false,true,-120.56,397.86,17.01,-0.0047716973,0.0004882291,0.99497086,0.10004962,-145.641,142.131,8.321,0.00010999999,0,1.07821
43.45,2000,0,91.24,0.000002697398,0.000002697398,0.000002697398,0.99999994,0,0,0,0,0,0,0,1,0,0,0,false,false,true,-121.77,399.03998,17.01,-0.0047716973,0.0004666499,0.99541044,0.09557725,-145.701,140.641,8.321,0.00010999999,0,1.0757099
43.458332,2000,0,91.24,0.000002697398,0.000002697398,0.000002697398,0.99999994,0,0,0,0,0,0,0,1,0,0,0,false,false,true,-122.979996,400.21,17.01,-0.004771697,0.00044507068,0.99582875,0.09111574,-145.751,139.151,8.321,0.00010999999,0,1.07321
43.466667,2000,0,91.24,0.000002697398,0.000002697398,0.000002697398,0.99999994,0,0,0,0,0,0,0,1,0,0,0,false,false,true,-124.189995,401.37,17.01,-0.0047716964,0.00042349144,0.9962263,0.08665963,-145.791,137.671,8.321,0.00010999999,0,1.0706099
43.475,2000,0,91.24,0.000002697398,0.000002697398,0.000002697398,0.99999994,0,0,0,0,0,0,0,1,0,0,0,false,false,true,-125.399994,402.52,17.01,-0.004771697,0.00040191232,0.9966031,0.08221433,-145.811,136.19101,8.321,0.00010999999,0,1.06801
43.483334,2000,0,91.24,0.000002697398,0.000002697398,0.000002697398,0.99999994,0,0,0,0,0,0,0,1,0,0,0,false,false,true,-126.619995,403.65,17.01,-0.004771697,0.00038033313,0.99695903,0.07777981,-145.821,134.72101,8.321,0.00010999999,-0.00010999999,1.06541
43.491665,2000,0,91.24,0.000002697398,0.000002697398,0.000002697398,0.99999994,0,0,0,0,0,0,0,1,0,0,0,false,false,true,-127.84,404.77,17.01,-0.004771697,0.00035875392,0.9972943,0.07335599,-145.821,133.251,8.321,0.00010999999,-0.00010999999,1.06281
43.5,2000,0,91.24,0.000002697398,0.000002697398,0.000002697398,0.99999994,0,0,0,0,0,0,0,1,0,0,0,false,false,true,-129.06,405.88,17.01,-0.004771697,0.00033717474,0.99760944,0.06893765,-145.811,131.791,8.321,0.00010999999,-0.00021,1.06021
43.508335,2000,0,91.24,0.000002697398,0.000002697398,0.000002697398,0.99999994,0,0,0,0,0,0,0,1,0,0,0,false,false,true,-130.28,406.97998,17.01,-0.004771697,0.00031559556,0.99790424,0.064530104,-145.781,130.33101,8.321,0.00010999999,-0.00021,1.05751
43.516666,2000,0,91.24,0.000002697398,0.000002697398,0.000002697398,0.99999994,0,0,0,0,0,0,0,1,0,0,0,false,false,true,-131.48999,408.06998,17.01,-0.004771697,0.00029401638,0.99817884,0.06013335,-145.741,128.881,8.321,0.00010999999,-0.00021,1.0548099
43.525,2000,0,91.24,0.000002697398,0.000002697398,0.000002697398,0.99999994,0,0,0,0,0,0,0,1,0,0,0,false,false,true,-132.7,409.13998,17.01,-0.004771697,0.0002724372,0.9984334,0.05574738,-145.69101,127.431,8.321,0.00010999999,-0.00021,1.05211
43.533333,2000,0,91.24,0.000002697398,0.000002697398,0.000002697398,0.99999994,0,0,0,0,0,0,0,1,0,0,0,false,false,true,-133.91,410.19998,17.01,-0.004771697,0.00025085802,0.9986681,0.051372115,-145.631,125.991,8.321,0.00010999999,-0.00030999997,1.04941
43.541668,2000,0,91.24,0.000002697398,0.000002697398,0.000002697398,0.99999994,0,0,0,0,0,0,0,1,0,0,0,false,false,true,-135.12,411.25,17.01,-0.004771697,0.00022927884,0.9988833,0.04700233,-145.55101,124.561,8.321,0.00010999999,-0.00030999997,1.04671
43.55,2000,0,91.24,0.000002697398,0.000002697398,0.000002697398,0.99999994,0,0,0,0,0,0,0,1,0,0,0,false,false,true,-136.33,412.28998,17.01,-0.004771697,0.00020769965,0.99907887,0.042643335,-145.461,123.131,8.321,0.00010999999,-0.00030999997,1.04391
43.558334,2000,0,91.24,0.000002697398,0.000002697398,0.000002697398,0.99999994,0,0,0,0,0,0,0,1,0,0,0,false,false,true,-137.54,413.31998,17.01,-0.004771697,0.00018612047,0.999255,0.038295127,-145.36101,121.711,8.321,0.00010999999,-0.00030999997,1.04111
43.566666,2000,0,91.24,0.000002697398,0.000002697398,0.000002697398,0.99999994,0,0,0,0,0,0,0,1,0,0,0,false,false,true,-138.75,414.33,17.01,-0.004771697,0.00016454128,0.9994118,0.033957712,-145.251,120.300995,8.321,0.00010999999,-0.00040999998,1.0383099
43.575,2000,0,91.24,0.000002697398,0.000002697398,0.000002697398,0.99999994,0,0,0,0,0,0,0,1,0,0,0,false,false,true,-139.95999,415.33,17.01,-0.0047716973,0.0001429621,0.9995493,0.0296364,-145.131,118.891,8.321,0.00010999999,-0.00040999998,1.03551
43.583332,2000,0,91.24,0.000002697398,0.000002697398,0.000002697398,0.99999994,0,0,0,0,0,0,0,1,0,0,0,false,false,true,-141.17,416.31998,17.01,-0.004771697,0.00012138292,0.9996678,0.025325954,-144.991,117.491,8.321,0,-0.00040999998,1.03271
43.591667,2000,0,91.24,0.000002697398,0.000002697398,0.000002697398,0.99999994,0,0,0,0,0,0,0,1,0,0,0,false,false,true,-142.37999,417.3,17.01,-0.004771697,0.00009980373,0.9997675,0.021026302,-144.841,116.101,8.321,0,-0.00040999998,1.02991
43.6,2000,0,91.24,0.000002697398,0.000002697398,0.000002697398,0.99999994,0,0,0,0,0,0,0,1,0,0,0,false,false,true,-143.59,418.27,17.01,-0.004771697,0.00007822454,0.9998485,0.016737439,-144.681,114.711,8.321,0,-0.00040999998,1.02711
43.608334,2000,0,91.24,0.000002697398,0.000002697398,0.000002697398,0.99999994,0,0,0,0,0,0,0,1,0,0,0,false,false,true,-144.8,419.22998,17.01,-0.004771697,0.00005664536,0.99991095,0.012459366,-144.511,113.33099,8.321,0,-0.00040999998,1.02421
43.616665,2000,0,91.24,0.000002697398,0.000002697398,0.000002697398,0.99999994,0,0,0,0,0,0,0,1,0,0,0,false,false,true,-146,420.16998,17.01,-0.004771697,0.000035066172,0.999955,0.008191997,-144.33101,111.961,8.321,0,-0.00040999998,1.02131
43.625,2000,0,91.24,0.000002697398,0.000002697398,0.000002697398,0.99999994,0,0,0,0,0,0,0,1,0,0,0,false,false,true,-147.2,421.09998,17.01,-0.004771697,0.000013486991,0.9999808,0.003935504,-144.141,110.590996,8.321,0,-0.00040999998,1.01841
43.633335,2000,0,91.24,0.000002697398,0.000002697398,0.000002697398,0.99999994,0,0,0,0,0,0,0,1,0,0,0,false,false,true,-148.4,422.02,17.01,-0.004771697,-0.000008092194,0.9999885,-0.00031020076,-143.94101,109.230995,8.321,0,-0.00040999998,1.01551
43.641666,2000,0,91.24,0.000002697398,0.000002697398,0.000002697398,0.99999994,0,0,0,0,0,0,0,1,0,0,0,false,false,true,-149.59999,422.93,17.01,-0.004771697,-0.000029671379,0.99997824,-0.0045397207,-143.731,107.881,8.321,0,-0.00040999998,1.01261
