time,ball_loc_x,ball_loc_y,ball_loc_z,ball_rot_x,ball_rot_y,ball_rot_z,ball_rot_w,ball_vel_x,ball_vel_y,ball_vel_z,ball_ang_x,ball_ang_y,ball_ang_z,player0_throttle,player0_steer,player0_pitch,player0_yaw,player0_roll,player0_jump,player0_boost,player0_handbrake,player0_loc_x,player0_loc_y,player0_loc_z,player0_rot_x,player0_rot_y,player0_rot_z,player0_rot_w,player0_vel_x,player0_vel_y,player0_vel_z,player0_ang_x,player0_ang_y,player0_ang_z,player1_throttle,player1_steer,player1_pitch,player1_yaw,player1_roll,player1_jump,player1_boost,player1_handbrake,player1_loc_x,player1_loc_y,player1_loc_z,player1_rot_x,player1_rot_y,player1_rot_z,player1_rot_w,player1_vel_x,player1_vel_y,player1_vel_z,player1_ang_x,player1_ang_y,player1_ang_z
317.5,-1103.1,2465.6099,144.56,0.051156323,0.3684687,-0.20245937,0.90588295,871.80096,-767.261,107.741,3.8996098,4.42831,1.08761,0,0,0,0,0,false,false,false,-2096.39,4001.47,33.739998,-0.18472123,0.053125422,-0.43541297,0.8794721,1012.131,-467.041,-271.551,4.0760098,-2.75661,2.45691,1,0.015748031,0.047244094,-0.1640625,0,false,false,false,-2604.48,3294.69,17.01,0.0012866589,0.004577485,-0.26559493,0.96407294,1013.21094,-604.93097,8.321,-0.00021,0.00061,0.046509996
317.51666,-1088.58,2452.8298,146.22,0.06970911,0.4084604,-0.1839174,0.8913333,871.34094,-766.86096,96.840996,3.8996098,4.42831,1.08761,0,0,0,0,0,false,false,false,-2079.76,3993.53,29.21,-0.14553326,0.04343637,-0.41999456,0.89472777,956.46094,-505.921,-241.511,4.04341,-3.0334098,2.16751,1,0.015748031,0.047244094,-0.1640625,0,false,false,false,-2587.5698,3284.5999,17.01,0.0012866588,0.0045774844,-0.26522806,0.9641739,1019.11096,-607.511,8.321,-0.00021,0.00061,0.04361
317.53333,-1074.0599,2440.05,147.7,0.08808926,0.44743252,-0.16491683,0.87455505,870.881,-766.46094,85.951,3.8996098,4.42831,1.08761,0,0,0,0,0,false,false,false,-2064.04,3984.93,25.15,-0.10522862,0.03185905,-0.40629715,0.9071022,905.2009,-544.701,-218.461,4.00991,-3.28541,1.83751,1,0.015748031,0.047244094,-0.15625,0,false,false,false,-2570.56,3274.47,17.01,0.0012866588,0.0045774844,-0.2648828,0.9642688,1024.9309,-610.02094,8.321,-0.00021,0.00061,0.04161
317.55,-1059.5499,2427.28,149,0.10625363,0.48529345,-0.1455063,0.85558647,870.43097,-766.061,75.071,3.8996098,4.42831,1.08761,0,0,0,0,0,false,false,false,-2049.31,3975.5798,21.66,-0.0664021,0.019645235,-0.3945742,0.916251,827.03094,-605.371,-154.871,3.1644099,-2.5824099,1.40801,1,0.015748031,0.047244094,-0.15625,0,false,false,false,-2553.45,3264.3,17.01,0.0012866588,0.0045774844,-0.2645537,0.96435916,1030.6709,-612.47095,8.321,-0.00021,0.00061,0.04011
317.56668,-1045.0499,2414.52,150.11,0.12414825,0.52193505,-0.12572888,0.83448374,869.99097,-765.66095,64.190994,3.8996098,4.42831,1.08761,1,-1,0,0,0,false,false,false,-2035.7799,3965.3098,19.16,-0.036002297,0.010285178,-0.3852088,0.9220695,772.951,-645.91095,-104.111,2.49121,-1.91151,1.02561,1,0.015748031,0.047244094,-0.15625,0,false,false,false,-2536.25,3254.0898,17.01,0.0012866588,0.004582879,-0.2642354,0.9644464,1036.3109,-614.86096,8.321,-0.00021,0.00071,0.03901
317.58334,-1030.5499,2401.76,151.04,0.1417353,0.5572711,-0.10563863,0.8112955,869.55096,-765.261,53.310997,3.8996098,4.42831,1.08761,1,-1,0,0,0,false,false,false,-2023.1,3954.3398,17.46,-0.012626563,0.0039570834,-0.37943095,0.9251254,732.09094,-689.501,-64.311,1.78071,-1.30131,0.15071,1,0.015748031,0.047244094,-0.15625,0,false,false,false,-2518.95,3243.8398,17.01,0.0012866588,0.004593669,-0.2639225,0.964532,1041.861,-617.21094,8.321,-0.00021,0.00061,0.03831
317.6,-1016.07,2389.01,151.79,0.15896635,0.59121525,-0.08528397,0.78607935,869.11096,-764.86096,42.451,3.8996098,4.42831,1.08761,1,-0.3046875,0,0,0,false,false,false,-2011.01,3942.71,16.39,0.0034068138,0.00009440893,-0.37962514,0.92513406,710.311,-717.74097,-25.591,1.02001,-0.36321,-0.50001,1,0.015748031,0.047244094,-0.15625,0,false,false,false,-2501.56,3233.55,17.01,0.0012866588,0.004593669,-0.263615,0.9646161,1047.3209,-619.511,8.321,-0.00030999997,0.00051,0.037709996
317.61667,-1001.58997,2376.27,152.36,0.1757982,0.62368125,-0.06471353,0.7588997,868.67096,-764.46094,31.591,3.8996098,4.42831,1.08761,1,-0.3203125,0,0,0,false,false,false,-1999.1599,3930.7,16,0.009465169,0.00072560005,-0.38355795,0.92346793,712.41095,-728.53094,6.981,0.075009994,0.100509994,-0.55091,1,0.015748031,0.047244094,-0.15625,0,false,false,false,-2484.0798,3223.22,17.01,0.0012866589,0.0045936694,-0.26331294,0.9646987,1052.6909,-621.761,8.321,-0.00030999997,0.00051,0.037309997
317.63333,-987.11,2363.53,152.75,0.19219306,0.6545936,-0.043981243,0.72981817,868.23096,-764.061,20.730999,3.8996098,4.42831,1.08761,1,-0.3125,0,0,0,false,false,false,-1987.2799,3918.51,16.039999,0.009157666,0.0015294247,-0.3879116,0.92164975,714.1409,-739.371,16.140999,-0.10310999,0.11850999,-0.60361,1,0.023622047,0.047244094,-0.1640625,0,false,false,false,-2466.52,3212.8499,17.01,0.0012866588,0.004593669,-0.2630108,0.96478105,1057.971,-623.97095,8.321,-0.00030999997,0.00051,0.03701
317.65,-972.64996,2350.8,152.95999,0.20810772,0.6838659,-0.023141064,0.6989156,867.79095,-763.66095,9.8810005,3.8996098,4.42831,1.08761,1,-0.296875,0,0,0,false,false,false,-1975.37,3906.14,16.19,0.0079600215,0.002047325,-0.39261588,0.91966575,715.011,-750.751,17.671,-0.11171,0.114709996,-0.63651,1,0.023622047,0.047244094,-0.1640625,0,false,false,false,-2448.8599,3202.44,17.01,0.0012866588,0.004593669,-0.2626979,0.9648663,1063.261,-625.97095,8.321,-0.00030999997,0.00051,0.042109996
317.66666,-958.19,2338.0798,152.98999,0.22349912,0.71143323,-0.0022415374,0.66626245,867.35095,-763.261,-0.951,3.8996098,4.42831,1.08761,1,-0.2890625,0,0,0,false,false,false,-1963.45,3893.5798,16.35,0.006762377,0.002500488,-0.39752516,0.9175629,715.11096,-762.571,17.230999,-0.10161,0.10121,-0.65041,1,0.015748031,0.047244094,-0.1640625,0,false,false,false,-2431.1199,3192,17.01,0.0012866588,0.004593669,-0.26235265,0.9649602,1068.4609,-627.941,8.321,-0.00030999997,0.00051,0.045609996
317.68332,-943.74,2325.3599,152.84,0.23833492,0.73721915,0.01866338,0.63194615,866.91095,-762.86096,-11.771,3.8996098,4.42831,1.08761,1,-0.2734375,0,0,0,false,false,false,-1951.5299,3880.8198,16.5,0.0057049966,0.0028835186,-0.40250996,0.91539323,714.33093,-774.881,15.971,-0.08491,0.084809996,-0.65611,1,0.015748031,0.047244094,-0.171875,0,false,false,false,-2413.29,3181.53,17.01,0.001281264,0.004593669,-0.26199117,0.9650584,1073.491,-630.03094,8.321,-0.00040999998,0.00051,0.04271
317.7,-929.3,2312.65,152.51,0.2525772,0.7611583,0.039519746,0.5960544,866.47095,-762.46094,-22.591,3.8996098,4.42831,1.08761,1,-0.2578125,0,0,0,false,false,false,-1939.63,3867.8499,16.63,0.0048364345,0.0032018116,-0.40750018,0.91318667,712.96094,-787.41095,14.501,-0.067609996,0.068509996,-0.65041,1,0.015748031,0.047244094,-0.171875,0,false,false,false,-2395.3699,3171.02,17.01,0.0012704745,0.004593669,-0.2616513,0.96515065,1078.4609,-632.03094,8.321,-0.00030999997,0.00051,0.04071
317.71667,-914.86,2299.95,152,0.26618293,0.78319645,0.060279008,0.5586737,866.03094,-762.061,-33.411,3.8996098,4.42831,1.08761,1,-0.25,0,0,0,false,false,false,-1927.76,3854.68,16.73,0.0041459007,0.003455367,-0.41242027,0.91097766,711.11096,-800.061,13.121,-0.052209996,0.05391,-0.63671,1,0.023622047,0.047244094,-0.171875,0,false,false,false,-2377.3699,3160.48,17.01,0.0012704745,0.004593669,-0.26132762,0.96523833,1083.361,-633.96094,8.321,-0.00021,0.00051,0.03941
317.73334,-900.43,2287.25,151.31,0.27912518,0.80327743,0.08088722,0.51989585,865.59094,-761.66095,-44.211,3.8996098,4.42831,1.08761,1,-0.234375,0,0,0,false,false,false,-1915.9099,3841.2898,16.81,0.0036226057,0.0036495796,-0.41722164,0.9087902,708.751,-812.83093,11.941,-0.039509997,0.04181,-0.62241,1,0.015748031,0.047244094,-0.171875,0,false,false,false,-2359.29,3149.91,17.01,0.0012704745,0.004593669,-0.26100394,0.9653259,1088.281,-635.68097,8.321,-0.00021,0.00051,0.04361
317.75,-886.01,2274.56,150.44,0.29136592,0.82135564,0.101295814,0.47981232,865.15094,-761.261,-55.010998,3.8996098,4.42831,1.08761,1,-0.21875,0,0,0,false,false,false,-1904.1,3827.69,16.869999,0.0032287855,0.0038006338,-0.42188814,0.9066341,706.18097,-825.48096,10.971,-0.029409999,0.032009996,-0.60210997,1,0.015748031,0.047244094,-0.171875,0,false,false,false,-2341.13,3139.3,17.01,0.0012704745,0.004593669,-0.2606533,0.96542066,1093.021,-637.54095,8.321,-0.00021,0.00051,0.041309997
317.76666,-871.58997,2261.88,149.39,0.30288392,0.8373756,0.12144537,0.43853658,864.71094,-760.86096,-65.811,3.8996098,4.42831,1.08761,1,-0.203125,0,0,0,false,false,false,-1892.34,3813.88,16.91,0.0029374661,0.003913924,-0.42638734,0.90452725,703.48096,-837.9509,10.221,-0.02171,0.02431,-0.57751,1,0.015748031,0.047244094,-0.1796875,0,false,false,false,-2322.89,3128.67,17.01,0.0012704746,0.0045936694,-0.2603242,0.9655095,1097.7009,-639.321,8.321,-0.00021,0.00051,0.039709996
317.78333,-857.19,2249.2,148.16,0.31364113,0.8513063,0.14129291,0.39616027,864.27094,-760.46094,-76.601,3.8996098,4.42831,1.08761,1,-0.1875,0,0,0,false,false,false,-1880.63,3799.8699,16.949999,0.0027270694,0.004000241,-0.4306763,0.9024934,700.73096,-850.191,9.661,-0.01591,0.01831,-0.54971,1,0.015748031,0.047244094,-0.1796875,0,false,false,false,-2304.57,3118.01,17.01,0.0012704744,0.0045936685,-0.26000586,0.9655951,1102.3209,-641.05096,8.321,-0.00021,0.00051,0.038609996
317.8,-842.79,2236.53,146.75,0.3236162,0.8631069,0.16078979,0.35279673,863.83093,-760.061,-87.381,3.8996098,4.42831,1.08761,1,-0.171875,0,0,0,false,false,false,-1868.96,3785.66,16.97,0.0025760152,0.004059584,-0.43474403,0.9005412,698.011,-862.1409,9.211,-0.011609999,0.013809999,-0.51961,1,0.015748031,0.047244094,-0.1796875,0,false,false,false,-2286.17,3107.3198,17.01,0.0012704745,0.004593669,-0.259693,0.9656794,1106.861,-642.74097,8.321,-0.00021,0.00051,0.037809998
317.81668,-828.39996,2223.8699,145.16,0.3327874,0.87274903,0.17988747,0.30854848,863.3909,-759.66095,-98.160995,3.8996098,4.42831,1.08761,1,-0.15625,0,0,0,false,false,false,-1857.33,3771.25,16.99,0.0024681191,0.004108137,-0.43857434,0.89868206,695.371,-873.761,8.891,-0.008409999,0.01041,-0.48781002,1,0.023622047,0.047244094,-0.1796875,0,false,false,false,-2267.71,3096.5999,17.01,0.0012704746,0.0045936694,-0.2593909,0.96576065,1111.341,-644.381,8.321,-0.00030999997,0.00051,0.03721
317.83334,-814.01996,2211.21,143.39,0.3411223,0.880212,0.19853196,0.2635287,862.9509,-759.261,-108.940994,3.8996098,4.42831,1.08761,1,-0.140625,0,0,0,false,false,false,-1845.76,3756.64,17.01,0.002392592,0.004140506,-0.4421565,0.8969251,692.891,-885.03094,8.6310005,-0.00601,0.00781,-0.45471,1,0.015748031,0.047244094,-0.1796875,0,false,false,false,-2249.17,3085.8499,17.01,0.0012704746,0.0045936694,-0.25907797,0.96584463,1115.841,-645.821,8.321,-0.00030999997,0.00051,0.042009998
317.85,-799.63995,2198.56,141.44,0.348605,0.88547325,0.21668015,0.21785621,862.511,-758.86096,-119.711,3.8996098,4.42831,1.08761,1,-0.1328125,0,0,0,false,false,false,-1834.23,3741.8398,17.01,0.0023440386,0.0041674795,-0.44548503,0.8952764,690.621,-895.92096,8.431,-0.00441,0.00581,-0.42051,1,0.015748031,0.047244094,-0.1875,0,false,false,false,-2230.55,3075.0798,17.01,0.0012704745,0.004593669,-0.25874346,0.9659343,1120.161,-647.41095,8.321,-0.00030999997,0.00061,0.040009998
317.86667,-785.26996,2185.92,139.31,0.3552136,0.8885234,0.23428883,0.17163341,862.071,-758.46094,-130.47101,3.8996098,4.42831,1.08761,1,-0.1171875,0,0,0,false,false,false,-1822.72,3726.8599,17.01,0.0023062753,0.0041836645,-0.44856012,0.8937398,688.451,-906.511,8.351,-0.00331,0.0043099998,-0.39091,1,0.015748031,0.047244094,-0.1875,0,false,false,false,-2211.8699,3064.28,17.01,0.0012704745,0.004593669,-0.25842518,0.96601945,1124.4309,-648.941,8.321,-0.00040999998,0.00061,0.038709998
317.88333,-770.91,2173.28,137,0.36093748,0.8893502,0.2513148,0.12498444,861.631,-758.061,-141.231,3.8996098,4.42831,1.08761,1,-0.1015625,0,0,0,false,false,false,-1811.25,3711.71,17.01,0.0022793014,0.004194454,-0.4514086,0.89230454,686.60095,-916.67096,8.321,-0.0023100001,0.00321,-0.35911,1,0.015748031,0.047244094,-0.1953125,0,false,false,false,-2193.1099,3053.46,17.01,0.0012596849,0.004593669,-0.25811228,0.96610314,1128.631,-650.41095,8.321,-0.00040999998,0.00061,0.037809998
317.9,-756.55,2160.65,134.51,0.3657605,0.8879561,0.26770428,0.07802258,861.191,-757.66095,-151.991,3.8996098,4.42831,1.08761,1,-0.09375,0,0,0,false,false,false,-1799.8099,3696.39,17.01,0.0022631169,0.004205243,-0.45400888,0.8909843,685.071,-926.3909,8.321,-0.0016099999,0.00241,-0.32591,1,0.015748031,0.047244094,-0.1953125,0,false,false,false,-2174.28,3042.6099,17.01,0.0012542901,0.004593669,-0.25781018,0.9661838,1132.771,-651.84094,8.321,-0.00021,0.00061,0.037109997
317.91666,-742.20996,2148.03,131.84,0.36966634,0.88434416,0.2834248,0.030861016,860.751,-757.261,-162.731,3.8996098,4.42831,1.08761,1,-0.078125,0,0,0,false,false,false,-1788.3999,3680.91,17.01,0.0022523273,0.0042106383,-0.45636645,0.88977903,683.74097,-935.79095,8.321,-0.0012099999,0.0017099999,-0.29691002,1,0.023622047,0.047244094,-0.1953125,0,false,false,false,-2155.38,3031.74,17.01,0.00125429,0.0045936685,-0.25751343,0.9662628,1136.851,-653.251,8.321,-0.00021,0.00061,0.036609996
317.93332,-727.87,2135.41,128.98999,0.37264967,0.8785188,0.298444,-0.01637055,860.311,-756.86096,-173.47101,3.8996098,4.42831,1.08761,1,-0.0703125,0,0,0,false,false,false,-1777.01,3665.27,17.01,0.0022523275,0.004210639,-0.45850283,0.8886801,682.811,-944.73096,8.321,-0.00081,0.0012099999,-0.26561,1,0.015748031,0.047244094,-0.1953125,0,false,false,false,-2136.42,3020.8499,17.01,0.00125429,0.0045936685,-0.25721133,0.9663433,1140.9509,-654.451,8.321,-0.00021,0.00061,0.04141
317.95,-713.52997,2122.8,125.96,0.37470508,0.8704975,0.31271324,-0.063564435,859.871,-756.46094,-184.211,3.8996098,4.42831,1.08761,1,-0.0625,0,0,0,false,false,false,-1765.63,3649.49,17.01,0.0022523273,0.0042106383,-0.46041256,0.88769215,682.121,-953.33093,8.321,-0.00061,0.0010099999,-0.23800999,1,0.015748031,0.047244094,-0.203125,0,false,false,false,-2117.39,3009.94,17.01,0.0012542901,0.004593669,-0.25688228,0.9664309,1144.881,-655.811,8.321,-0.00021,0.00061,0.03961
317.96667,-699.20996,2110.2,122.759995,0.3758218,0.8603,0.3262057,-0.11059644,859.43097,-756.061,-194.94101,3.8996098,4.42831,1.08761,1,-0.046875,0,0,0,false,false,false,-1754.27,3633.5698,17.01,0.0022523273,0.0042106383,-0.4621227,0.8868031,681.701,-961.59094,8.321,-0.00040999998,0.00081,-0.21291,1,0.015748031,0.047244094,-0.203125,0,false,false,false,-2098.29,2999.01,17.01,0.0012542901,0.0045990637,-0.25656396,0.9665154,1148.771,-657.10095,8.321,-0.00021,0.00071,0.03831
317.98334,-684.89,2097.5999,119.38,0.37599987,0.8479538,0.3388781,-0.15735331,858.99097,-755.66095,-205.661,3.8996098,4.42831,1.08761,1,-0.0390625,0,0,0,false,false,false,-1742.9099,3617.51,17.01,0.002252327,0.004210638,-0.46363857,0.88601136,681.72095,-969.3909,8.321,-0.00030999997,0.00061,-0.18440999,1,0.015748031,0.047244094,-0.203125,0,false,false,false,-2079.13,2988.05,17.01,0.0012542901,0.004609853,-0.25625646,0.96659696,1152.611,-658.35095,8.321,-0.00030999997,0.00061,0.03741
318,-670.57996,2085.01,115.82,0.3752338,0.83348906,0.3507036,-0.20372176,858.55096,-755.261,-216.381,3.8996098,4.42831,1.08761,1,-0.03125,0,0,0,false,false,false,-1731.5499,3601.3198,17.01,0.0022523273,0.0042106383,-0.46494958,0.88532424,682.001,-976.86096,8.321,-0.00021,0.00051,-0.15880999,1,0.023622047,0.047244094,-0.203125,0,false,false,false,-2059.9,2977.0698,17.01,0.0012542901,0.004609853,-0.25595436,0.966677,1156.391,-659.561,8.321,-0.00030999997,0.00051,0.036709998
318.01666,-656.27997,2072.43,112.079994,0.3735344,0.8169409,0.3616496,-0.24957773,858.11096,-754.86096,-227.101,3.8996098,4.42831,1.08761,1,-0.0234375,0,0,0,false,false,false,-1720.1799,3585.01,17.01,0.0022523273,0.0042106383,-0.4660771,0.8847312,682.571,-983.99097,8.321,-0.00010999999,0.00040999998,-0.13531,1,0.015748031,0.047244094,-0.203125,0,false,false,false,-2040.61,2966.0698,17.01,0.0012542901,0.004609853,-0.25565225,0.96675694,1160.2109,-660.571,8.321,-0.00030999997,0.00040999998,0.041309997
318.03333,-641.98,2059.8499,108.159996,0.37089637,0.7983527,0.3716948,-0.29480785,857.67096,-754.46094,-237.811,3.8996098,4.42831,1.08761,1,-0.015625,0,0,0,false,false,false,-1708.7999,3568.5798,17.01,0.0022523273,0.0042106383,-0.4670266,0.8842303,683.43097,-990.79095,8.321,-0.00010999999,0.00030999997,-0.11320999,1,0.015748031,0.047244094,-0.2109375,0,false,false,false,-2021.26,2955.0598,17.01,0.0012488953,0.004609853,-0.25532317,0.9668439,1163.861,-661.74097,8.321,-0.00040999998,0.00040999998,0.03941
318.05,-627.69,2047.2799,104.06,0.36733043,0.777768,0.38081202,-0.33930433,857.23096,-754.061,-248.511,3.8996098,4.42831,1.08761,1,-0.0078125,0,0,0,false,false,false,-1697.3999,3552.04,17.01,0.002252327,0.004210638,-0.46781415,0.8838138,684.59094,-997.2609,8.321,0,0.00021,-0.092209995,1,0.015748031,0.047244094,-0.2109375,0,false,false,false,-2001.85,2944.03,17.01,0.0012381058,0.0046098535,-0.2550103,0.9669265,1167.471,-662.85095,8.321,-0.00030999997,0.00040999998,0.03811
318.06668,-613.41,2034.72,99.78,0.36285263,0.7552399,0.3889744,-0.38294834,856.79095,-753.66095,-259.211,3.8996098,4.42831,1.08761,1,0,0,0,0,false,false,false,-1685.98,3535.39,17.01,0.0022523273,0.0042106383,-0.4684508,0.8834766,686.05096,-1003.3909,8.321,0,0.00021,-0.071909994,1,0.015748031,0.047244094,-0.2109375,0,false,false,false,-1982.38,2932.98,17.01,0.0012381058,0.0046098535,-0.2547082,0.96700615,1171.031,-663.92096,8.321,-0.00021,0.00040999998,0.03721
318.08334,-599.13,2022.1599,95.329994,0.35746863,0.73082244,0.39616567,-0.42563754,856.35095,-753.261,-269.911,3.8996098,4.42831,1.08761,1,0,0,0,0,false,false,false,-1674.5399,3518.64,17.01,0.0022523273,0.0042106383,-0.46894172,0.88321614,687.80096,-1009.2009,8.321,0,0.00010999999,-0.052109998,1,0.007874016,0.047244094,-0.21875,0,false,false,false,-1962.85,2921.91,17.01,0.0012381058,0.0046098535,-0.2544061,0.96708566,1174.5409,-664.951,8.321,-0.00021,0.00040999998,0.03651
318.1,-585.83997,2010.46,94.42,0.3510704,0.6934849,0.40582776,-0.48076183,738.72095,-649.891,165.101,3.94081,4.47911,0.63771,1,0.007874016,0,0,0,false,false,false,-1663.07,3501.7998,17.01,0.0022523275,0.004210639,-0.46929783,0.883027,689.67096,-1014.811,8.321,0,0.00010999999,-0.038009997,1,0.015748031,0.047244094,-0.21875,0,false,false,false,-1943.26,2910.8198,17.01,0.0012381057,0.004609853,-0.25412554,0.9671594,1177.911,-666.11096,8.321,-0.00021,0.00040999998,0.03101
318.11667,-573.54,1999.64,97.03,0.3463068,0.6632278,0.41243106,-0.5197123,738.34094,-649.55096,154.181,3.94081,4.47911,0.63771,1,0.015748031,0,0,0,false,false,false,-1651.5599,3484.8599,17.01,0.0022523273,0.0042106383,-0.46954596,0.88289505,691.84094,-1020.10095,8.321,0,0.00010999999,-0.02251,1,0.015748031,0.047244094,-0.2109375,0,false,false,false,-1923.61,2899.72,17.01,0.0012381057,0.004609853,-0.25387198,0.96722597,1181.3309,-667.071,8.321,-0.00021,0.00040999998,0.03211
318.13333,-561.24,1988.82,99.46,0.34067994,0.631305,0.41800928,-0.55736816,737.96094,-649.21094,143.261,3.94081,4.47911,0.63771,1,0.015748031,0,0,0,false,false,false,-1640.01,3467.8398,17.01,0.0022523273,0.0042106383,-0.46967542,0.8828262,694.29095,-1025.0809,8.321,0,0.00010999999,-0.00621,1,0.015748031,0.047244094,-0.21875,0,false,false,false,-1903.9099,2888.5999,17.01,0.0012381057,0.004609853,-0.25361302,0.9672939,1184.6709,-668.03094,8.321,-0.00021,0.00040999998,0.03281
318.15,-548.94,1978,101.71,0.3342008,0.59781325,0.4225355,-0.59362674,737.58093,-648.871,132.341,3.94081,4.47911,0.63771,1,0.023622047,0,0,0,false,false,false,-1628.4199,3450.74,17.01,0.002252327,0.004210638,-0.46969694,0.88281465,696.84094,-1029.881,8.321,0,0.00010999999,0.00521,1,0.015748031,0.047244094,-0.21875,0,false,false,false,-1884.1499,2877.46,17.01,0.0012381057,0.004609853,-0.25334328,0.9673646,1187.9609,-668.97095,8.321,-0.00021,0.00040999998,0.033309996
318.16666,-536.66,1967.19,103.78,-0.32688543,-0.56282234,-0.42600977,0.6284047,737.201,-648.53094,121.440994,3.94081,4.47911,0.63771,1,0.023622047,0,0,0,false,false,false,-1616.7899,3433.5598,17.01,0.0022523273,0.0042106383,-0.46962687,0.882852,699.68097,-1034.381,8.321,0,0.00010999999,0.01861,1,0.015748031,0.05511811,-0.21875,0,false,false,false,-1864.34,2866.3098,17.01,0.0012381057,0.004609853,-0.25307354,0.9674352,1191.1909,-669.891,8.321,-0.00021,0.00040999998,0.03371
318.18332,-524.38,1956.39,105.67,-0.31875545,-0.5264235,-0.4284159,0.6616138,736.821,-648.191,110.541,3.94081,4.47911,0.63771,1,0.031496063,0,0,0,false,false,false,-1605.12,3416.2998,17.01,0.0022523273,0.0042106383,-0.4694704,0.8829352,702.60095,-1038.7109,8.321,0,0.00010999999,0.02821,1,0.015748031,0.05511811,-0.21875,0,false,false,false,-1844.47,2855.14,17.01,0.0012381058,0.0046098535,-0.25280383,0.96750575,1194.371,-670.79095,8.321,-0.00021,0.00051,0.03391
318.2,-512.1,1945.59,107.38,-0.309827,-0.48870835,-0.4297538,0.6931687,736.441,-647.85095,99.641,3.94081,4.47911,0.63771,1,0.031496063,0,0,0,false,false,false,-1593.39,3398.97,17.01,0.0022523273,0.0042106383,-0.46923843,0.88305855,705.78094,-1042.761,8.321,0,0.00010999999,0.04031,1,0.023622047,0.05511811,-0.2265625,0,false,false,false,-1824.5499,2843.96,17.01,0.0012381057,0.004609853,-0.25253406,0.96757615,1197.501,-671.66095,8.321,-0.00030999997,0.00051,0.03411
318.21667,-499.83,1934.7899,108.899994,-0.30012172,-0.44977394,-0.43001816,0.72299004,736.061,-647.511,88.751,3.94081,4.47911,0.63771,1,0.031496063,0,0,0,false,false,false,-1581.61,3381.5698,17.01,0.0022523273,0.0042106383,-0.46892014,0.8832276,709.04095,-1046.661,8.321,0,0.00010999999,0.048809998,1,0.015748031,0.05511811,-0.2265625,0,false,false,false,-1804.58,2832.76,17.01,0.0012381058,0.0046098535,-0.25224817,0.9676508,1200.6809,-672.34094,8.321,-0.00030999997,0.00051,0.03921
318.23334,-487.56998,1924.01,110.24,-0.28966656,-0.40971205,-0.42920893,0.7510053,735.68097,-647.17096,77.870995,3.94081,4.47911,0.63771,1,0.03937008,0,0,0,false,false,false,-1569.7799,3364.1099,17.01,0.0022523273,0.0042106383,-0.4685479,0.8834251,712.381,-1050.401,8.321,0,0.00010999999,0.054909997,1,0.015748031,0.05511811,-0.234375,0,false,false,false,-1784.5499,2821.55,17.01,0.0012381057,0.004609853,-0.25193524,0.96773225,1203.7109,-673.18097,8.321,-0.00030999997,0.00051,0.037709996
318.25,-475.31,1913.23,111.399994,-0.2784939,-0.36863056,-0.4273261,0.7771389,735.30096,-646.83093,66.991,3.94081,4.47911,0.63771,1,0.03937008,0,0,0,false,false,false,-1557.89,3346.5898,17.01,0.0022523273,0.0042106383,-0.4681271,0.88364816,715.951,-1053.871,8.321,0,0.00021,0.064509995,1,0.015748031,0.05511811,-0.2421875,0,false,false,false,-1764.48,2810.3298,17.01,0.0012381058,0.0046098535,-0.25163317,0.96781087,1206.721,-673.951,8.321,-0.00040999998,0.00051,0.036609996
318.26666,-463.06,1902.45,112.38,-0.26661992,-0.32662648,-0.42437515,0.801333,734.92096,-646.49097,56.111,3.94081,4.47911,0.63771,1,0.03937008,0,0,0,false,false,false,-1545.94,3329.01,17.01,0.002252327,0.004210638,-0.46763614,0.883908,719.571,-1057.2009,8.321,0,0.00021,0.07131,1,0.023622047,0.05511811,-0.234375,0,false,false,false,-1744.35,2799.0898,17.01,0.0012273161,0.004609853,-0.25134182,0.96788657,1209.6909,-674.68097,8.321,-0.00040999998,0.00051,0.03591
318.28333,-450.81998,1891.6799,113.18,-0.25408238,-0.2838078,-0.42036682,0.823521,734.54095,-646.15094,45.251,3.94081,4.47911,0.63771,1,0.03937008,0,0,0,false,false,false,-1533.9299,3311.38,17.01,0.0022523273,0.0042106383,-0.4671021,0.88419044,723.251,-1060.391,8.321,0,0.00030999997,0.07611,1,0.023622047,0.05511811,-0.2421875,0,false,false,false,-1724.1799,2787.8499,17.01,0.0012219214,0.0046098535,-0.25103974,0.967965,1212.7009,-675.22095,8.321,-0.00021,0.00051,0.04031
318.3,-438.58,1880.9199,113.799995,-0.24090825,-0.24027705,-0.4153065,0.8436531,734.16095,-645.811,34.391,3.94081,4.47911,0.63771,1,0.03937008,0,0,0,false,false,false,-1521.86,3293.69,17.01,0.002252327,0.004210638,-0.4665356,0.88448936,726.98096,-1063.4509,8.321,0,0.00040999998,0.07961,1,0.015748031,0.05511811,-0.2421875,0,false,false,false,-1703.95,2776.5898,17.01,0.0012219214,0.0046098535,-0.25071064,0.9680503,1215.6609,-675.761,8.321,-0.00021,0.00051,0.043409996
318.31668,-426.34998,1870.1599,114.24,-0.22713529,-0.19614746,-0.40920493,0.8616768,733.78094,-645.47095,23.530998,3.94081,4.47911,0.63771,1,0.03937008,0,0,0,false,false,false,-1509.73,3275.96,17.01,0.0022523273,0.0042106383,-0.46594763,0.88479936,730.751,-1066.381,8.321,0,0.00040999998,0.08200999,1,0.015748031,0.05511811,-0.25,0,false,false,false,-1683.6799,2765.3298,17.01,0.0012219213,0.004609853,-0.25037074,0.9681382,1218.501,-676.42096,8.321,-0.00021,0.00051,0.040609997
318.33334,-414.13,1859.3999,114.5,-0.21279044,-0.15152693,-0.40207836,0.87754923,733.40094,-645.131,12.6710005,3.94081,4.47911,0.63771,1,0.047244094,0,0,0,false,false,false,-1497.5299,3258.17,17.01,0.0022523273,0.004216033,-0.465338,0.8851201,734.561,-1069.1909,8.321,0,0.00051,0.083809994,1,0.015748031,0.05511811,-0.2578125,0,false,false,false,-1663.36,2754.05,17.01,0.0012219214,0.0046098535,-0.2500471,0.9682219,1221.3109,-677.02094,8.321,-0.00021,0.00061,0.038609996
318.35,-401.91,1848.6599,114.579994,-0.19791155,-0.10652877,-0.3939538,0.8912255,733.02094,-644.79095,1.831,3.94081,4.47911,0.63771,1,0.047244094,0,0,0,false,false,false,-1485.27,3240.3398,17.01,0.0022469326,0.0042214277,-0.4647068,0.8854516,738.561,-1071.771,8.321,-0.00021,0.00040999998,0.09021,1,0.007874016,0.05511811,-0.2578125,0,false,false,false,-1642.99,2742.77,17.01,0.0012219213,0.004609853,-0.24973957,0.96830124,1224.101,-677.571,8.321,-0.00021,0.00061,0.037309997
318.36667,-389.69,1837.9199,114.479996,-0.18253633,-0.061266255,-0.38484195,0.90267575,732.6409,-644.451,-8.991,3.94081,4.47911,0.63771,1,0.047244094,0,0,0,false,false,false,-1472.95,3222.47,17.01,0.002236143,0.0042214277,-0.46403247,0.88580525,742.55096,-1074.261,8.321,-0.00010999999,0.00040999998,0.09471,1,0.023622047,0.05511811,-0.2578125,0,false,false,false,-1622.58,2731.47,17.01,0.0012219214,0.0046098535,-0.24944827,0.96837634,1226.7109,-678.23096,8.321,-0.00030999997,0.00061,0.031409997
318.38333,-377.49,1827.1799,114.189995,-0.1667079,-0.015847253,-0.3747644,0.91187096,732.261,-644.11096,-19.810999,3.94081,4.47911,0.63771,1,0.047244094,0,0,0,false,false,false,-1460.5599,3204.5598,17.01,0.0022253536,0.004221428,-0.46332577,0.88617516,746.55096,-1076.651,8.321,0,0.00040999998,0.09780999,1,0.015748031,0.05511811,-0.25,0,false,false,false,-1602.13,2720.17,17.01,0.0012219213,0.004609853,-0.24918391,0.9684444,1229.031,-678.30096,8.321,-0.00030999997,0.00061,0.037109997
318.4,-365.28998,1816.45,113.72,-0.15046415,0.029614817,-0.36375362,0.91878545,731.881,-643.77094,-30.630999,3.94081,4.47911,0.63771,1,0.047244094,0,0,0,false,false,false,-1448.1,3186.6099,17.01,0.0022253531,0.0042214273,-0.4625974,0.88655543,750.561,-1078.9409,8.321,0,0.00040999998,0.10000999,1,0.015748031,0.05511811,-0.2578125,0,false,false,false,-1581.64,2708.8699,17.01,0.0012219214,0.0046152486,-0.24888721,0.9685207,1230.781,-678.34094,8.321,-0.00030999997,0.00071,0.03611
318.41666,-353.09,1805.73,113.07,-0.13384269,0.07499601,-0.35183108,0.9234048,731.501,-643.43097,-41.431,3.94081,4.47911,0.63771,1,0.047244094,0,0,0,false,false,false,-1435.58,3168.6199,17.01,0.0022253534,0.0042214277,-0.46185297,0.8869436,754.59094,-1081.131,8.321,0,0.00040999998,0.10161,1,0.015748031,0.05511811,-0.265625,0,false,false,false,-1561.12,2697.5698,17.01,0.0012219214,0.004626038,-0.2485959,0.96859545,1232.2009,-678.18097,8.321,-0.00030999997,0.00061,0.03541
318.43332,-340.91,1795.01,112.24,-0.11688682,0.12019378,-0.33903456,0.92571396,731.121,-643.09094,-52.231,3.94081,4.47911,0.63771,1,0.03937008,0,0,0,false,false,false,-1422.98,3150.5898,17.01,0.0022253534,0.0042214277,-0.4610977,0.8873365,758.631,-1083.231,8.321,0,0.00040999998,0.10270999,1,0.023622047,0.05511811,-0.265625,0,false,false,false,-1540.58,2686.27,17.01,0.0012165265,0.0046260376,-0.2483153,0.9686674,1233.371,-677.871,8.321,-0.00040999998,0.00051,0.034909997
318.45,-328.72998,1784.2899,111.229996,-0.099639565,0.16508944,-0.32538566,0.92571133,730.74097,-642.751,-63.031,3.94081,4.47911,0.63771,1,0.03937008,0,0,0,false,false,false,-1410.32,3132.52,17.01,0.0022199585,0.0042268224,-0.46034783,0.8877257,762.52094,-1085.341,8.321,0,0.00061,0.09851,1,0.015748031,0.05511811,-0.265625,0,false,false,false,-1520.02,2674.97,17.01,0.0012111318,0.004626038,-0.248024,0.9687421,1234.4209,-677.311,8.321,-0.00021,0.00051,0.03941
318.46667,-316.55,1773.59,110.04,-0.08214415,0.20957507,-0.31092212,0.9233947,730.36096,-642.41095,-73.831,3.94081,4.47911,0.63771,1,0.03937008,0,0,0,false,false,false,-1397.6,3114.43,17.01,0.0022091689,0.0042376122,-0.45962492,0.8881002,766.42096,-1087.351,8.321,0,0.00051,0.09551,1,0.015748031,0.05511811,-0.2734375,0,false,false,false,-1499.44,2663.69,17.01,0.0012111318,0.004626038,-0.2477111,0.9688221,1235.231,-676.85095,8.321,-0.00021,0.00051,0.037609998
318.48334,-304.38998,1762.89,108.67,-0.06444379,0.25353745,-0.2956818,0.9187698,729.98096,-642.071,-84.611,3.94081,4.47911,0.63771,1,0.03937008,0,0,0,false,false,false,-1384.8099,3096.3,17.01,0.0022091689,0.004243007,-0.45891818,0.8884656,770.311,-1089.2909,8.321,0,0.00030999997,0.09340999,1,0.007874016,0.05511811,-0.2734375,0,false,false,false,-1478.85,2652.41,17.01,0.0012111318,0.004626038,-0.24740899,0.9688993,1235.9509,-676.311,8.321,-0.00021,0.00051,0.036409996
318.5,-292.22998,1752.19,107.13,-0.046581537,0.29686862,-0.27970773,0.91184574,729.60095,-641.73096,-95.391,3.94081,4.47911,0.63771,1,0.03937008,0,0,0,false,false,false,-1371.95,3078.13,17.01,0.0022091689,0.004243007,-0.45822766,0.8888219,774.18097,-1091.161,8.321,0,0.00030999997,0.09191,1,0.007874016,0.05511811,-0.2734375,0,false,false,false,-1458.25,2641.14,17.01,0.0012111318,0.004626038,-0.24712846,0.9689709,1236.511,-675.871,8.321,-0.00030999997,0.00051,0.03071
318.51666,-280.07,1741.5,105.409996,-0.028606033,0.3394499,-0.26303238,0.9026457,729.22095,-641.391,-106.171,3.94081,4.47911,0.63771,1,0.03937008,0,0,0,false,false,false,-1359.03,3059.94,17.01,0.0022091689,0.004243007,-0.45754793,0.889172,778.011,-1092.971,8.321,0,0.00030999997,0.09080999,1,0.007874016,0.05511811,-0.2734375,0,false,false,false,-1437.64,2629.88,17.01,0.0012111318,0.004626038,-0.2468911,0.9690314,1237.021,-675.381,8.321,-0.00030999997,0.00051,0.02671
318.53333,-267.91998,1730.82,103.509995,-0.010554961,0.38118425,-0.24569882,0.8911897,728.84094,-641.05096,-116.940994,3.94081,4.47911,0.63771,1,0.03937008,0,0,0,false,false,false,-1346.0499,3041.71,17.01,0.0022091689,0.004243007,-0.45687896,0.88951594,781.80096,-1094.741,8.321,-0.00010999999,0.00030999997,0.08990999,1,0.007874016,0.05511811,-0.2734375,0,false,false,false,-1417.02,2618.6199,17.01,0.0012111316,0.004626037,-0.24668065,0.96908486,1237.481,-674.881,8.321,-0.00030999997,0.00051,0.023909999
318.55,-255.78,1720.14,101.43,0.0075176484,0.42196906,-0.2277503,0.8775051,728.46094,-640.71094,-127.701,3.94081,4.47911,0.63771,1,0.03937008,0,0,0,false,false,false,-1333,3023.46,17.01,0.0022091689,0.004243007,-0.45621002,0.8898592,785.54095,-1096.4509,8.321,-0.00010999999,0.00040999998,0.08931,1,0.007874016,0.05511811,-0.2734375,0,false,false,false,-1396.4,2607.38,17.01,0.0012111317,0.0046260376,-0.24649186,0.969133,1237.891,-674.381,8.321,-0.00030999997,0.00051,0.02191
318.56668,-243.64,1709.46,99.17,0.025579512,0.46170193,-0.20922989,0.86162627,728.08093,-640.371,-138.461,3.94081,4.47911,0.63771,1,0.031496063,0,0,0,false,false,false,-1319.89,3005.18,17.01,0.0021983793,0.004243007,-0.4555518,0.8901964,789.24097,-1098.121,8.321,-0.00010999999,0.00040999998,0.08881,1,0.007874016,0.05511811,-0.2734375,0,false,false,false,-1375.76,2596.14,17.01,0.0012111317,0.0046260376,-0.24631923,0.9691769,1238.261,-673.891,8.321,-0.00030999997,0.00051,0.02051
318.58334,-231.51,1698.7899,96.729996,0.043576635,0.50027484,-0.19019155,0.8435954,727.701,-640.03094,-149.22101,3.94081,4.47911,0.63771,1,0.031496063,0,0,0,false,false,false,-1306.72,2986.8699,17.01,0.0021929846,0.004243007,-0.45490444,0.89052737,792.751,-1099.841,8.321,0,0.00040999998,0.08330999,1,0,0.05511811,-0.2734375,0,false,false,false,-1355.12,2584.91,17.01,0.0012111317,0.0046260376,-0.24615738,0.969218,1238.591,-673.43097,8.321,-0.00030999997,0.00051,0.019510001
318.6,-219.39,1688.13,94.11,0.06146047,0.5375961,-0.1706785,0.8234572,727.321,-639.691,-159.961,3.94081,4.47911,0.63771,1,0.031496063,0,0,0,false,false,false,-1293.49,2968.53,17.01,0.0021929843,0.0042430065,-0.45429474,0.89083844,796.24097,-1101.511,8.321,0,0.00040999998,0.079509996,1,0.007874016,0.062992126,-0.2734375,0,false,false,false,-1334.48,2573.69,17.01,0.0012111317,0.0046260376,-0.24601172,0.969255,1238.8009,-673.141,8.321,-0.00040999998,0.00051,0.013909999
318.61667,-207.86,1677.99,93.56,0.083649345,0.58111614,-0.14729735,0.7959963,656.001,-576.99097,99.171,3.95181,4.49261,0.44601,0,0,0,0,0,true,false,false,-1280.2,2950.16,17.01,0.0021929843,0.0042430065,-0.4537067,0.8911381,799.691,-1103.141,8.321,0,0.00051,0.07670999,1,0.007874016,0.062992126,-0.2734375,0,false,false,false,-1313.84,2562.47,17.01,0.0012111318,0.004626038,-0.24589846,0.96928376,1239.0809,-672.701,8.321,-0.00040999998,0.00051,0.01481
318.63333,-196.93,1668.37,95.079994,0.10207266,0.61533546,-0.12815657,0.77105063,655.66095,-576.691,88.281,3.95181,4.49261,0.44601,0,0,0,0,0,true,false,false,-1266.86,2931.77,22.109999,0.0021929848,0.004248402,-0.4531781,0.89140713,797.09094,-1097.9309,308.021,0.00021,0.00091,0.056409996,1,0.007874016,0.062992126,-0.2734375,0,false,false,false,-1293.1799,2551.26,17.01,0.0012111318,0.004626038,-0.24577977,0.96931386,1239.3309,-672.311,8.321,-0.00040999998,0.00051,0.0154099995
318.65,-186.01,1658.77,96.42,0.12024773,0.64802265,-0.10869208,0.7441727,655.321,-576.391,77.401,3.95181,4.49261,0.44601,0,0,0,0,0,true,false,false,-1253.59,2913.5,27.34,0.0021929846,0.0042591915,-0.45278427,0.89160717,792.83093,-1090.481,316.061,0.00051,0.00131,0.04381,1,0.007874016,0.062992126,-0.28125,0,false,false,false,-1272.52,2540.06,17.01,0.0012111318,0.004626038,-0.24565029,0.9693467,1239.5509,-671.941,8.321,-0.00040999998,0.00051,0.01581
318.66666,-175.09,1649.1699,97.57,0.13812076,0.67908597,-0.08895782,0.7154377,654.98096,-576.09094,66.520996,3.95181,4.49261,0.44601,0,0,0,0,0,true,false,false,-1240.39,2895.3499,32.71,0.0021929846,0.004269981,-0.45247677,0.8917632,790.73096,-1086.871,324.101,0.00071,0.00151,0.039309997,1,0,0.062992126,-0.28125,0,false,false,false,-1251.86,2528.8599,17.01,0.0012111316,0.004626037,-0.24552077,0.96937937,1239.771,-671.58093,8.321,-0.00040999998,0.00051,0.01601
318.68332,-164.17,1639.57,98.54,0.15564854,0.70845395,-0.06900239,0.68491244,654.641,-575.79095,55.641,3.95181,4.49261,0.44601,0,0,0,0,0,false,false,false,-1227.21,2877.23,38.28,0.0021929846,0.0042807707,-0.45219085,0.89190817,790.85095,-1087.0509,337.561,0.00071,0.00131,0.03791,1,0,0.062992126,-0.2890625,0,false,false,false,-1231.2,2517.66,17.01,0.0012111317,0.0046260376,-0.24540211,0.9694095,1239.891,-671.391,8.321,-0.00040999998,0.00061,0.011409999
318.7,-153.26999,1629.97,99.329994,0.17278792,0.7360478,-0.048874326,0.6526785,654.30096,-575.49097,44.781,3.95181,4.49261,0.44601,0,0,0,0,0,false,false,false,-1214.03,2859.1099,43.77,0.0021929843,0.0042915596,-0.45191565,0.89204746,790.85095,-1087.0509,326.721,0.00071,0.00111,0.036709998,1,0,0.062992126,-0.2890625,0,false,false,false,-1210.5399,2506.48,17.01,0.0012111318,0.004626038,-0.2453158,0.9694314,1240.011,-671.17096,8.321,-0.00040999998,0.00061,0.00811
318.71667,-142.37,1620.39,99.939995,0.18949567,0.7618045,-0.028627612,0.61880976,653.96094,-575.191,33.920998,3.95181,4.49261,0.44601,0,0,0,0,0,false,false,false,-1200.85,2840.99,49.079998,0.0021929846,0.00430235,-0.45165136,0.89218134,790.85095,-1087.0509,315.881,0.00071,0.00091,0.035509996,1,0,0.062992126,-0.2890625,0,false,false,false,-1189.88,2495.3,17.01,0.0012111317,0.0046260376,-0.24525645,0.96944636,1240.131,-670.97095,8.321,-0.00040999998,0.00061,0.00581
318.73334,-131.47,1610.8099,100.369995,0.2057286,0.7856546,-0.008310725,0.5833981,653.621,-574.891,23.060999,3.95181,4.49261,0.44601,0,0,-1,0,0,true,false,false,-1187.6699,2822.8699,54.21,0.0021929846,0.0043131392,-0.4513924,0.89231235,790.85095,-1087.0509,305.041,0.00061,0.00071,0.03431,1,0.007874016,0.062992126,-0.2890625,0,false,false,false,-1169.21,2484.1199,17.01,0.0012111318,0.004626038,-0.24521331,0.9694573,1240.231,-670.80096,8.321,-0.00040999998,0.00061,0.00421
318.75,-120.579994,1601.23,100.619995,0.22144374,0.8075449,0.012027782,0.5465246,653.28094,-574.59094,12.201,3.95181,4.49261,0.44601,0,0,-1,0,0,true,false,false,-1169.5499,2798.03,59.16,0.012642789,0.024969898,-0.45097163,0.89209926,1087.001,-1489.901,294.201,2.97171,2.18641,0.03321,1,0,0.062992126,-0.2890625,0,false,false,false,-1148.53,2472.94,17.01,0.0012111318,0.004626038,-0.24517015,0.96946824,1240.401,-670.501,8.321,-0.00040999998,0.00061,0.007909999
318.76666,-109.7,1591.65,100.689995,0.23660861,0.82741505,0.032339193,0.5082862,652.941,-574.29095,1.3610001,3.95181,4.49261,0.44601,0,0,-1,0,0,true,false,false,-1151.4299,2773.19,63.93,0.03642853,0.072012685,-0.44943407,0.8896606,1087.001,-1489.901,283.361,4.4292097,3.26051,0.02461,1,0,0.062992126,-0.2890625,0,false,false,false,-1127.85,2461.76,17.01,0.0012111318,0.004626038,-0.24511081,0.96948326,1240.4609,-670.40094,8.321,-0.00040999998,0.00061,0.00551
318.78333,-98.82,1582.09,100.579994,0.25117996,0.84521616,0.052569762,0.46877992,652.60095,-573.99097,-9.461,3.95181,4.49261,0.44601,0,0,-1,0,0,true,false,false,-1133.3099,2748.3499,68.52,0.06345115,0.12548077,-0.44626734,0.8837839,1087.001,-1489.901,272.521,4.42811,3.2620099,0.014009999,1,0,0.062992126,-0.296875,0,false,false,false,-1107.1699,2450.5798,17.01,0.0012111318,0.004626038,-0.24507305,0.9694928,1240.521,-670.30096,8.321,-0.00040999998,0.00061,0.00391
318.8,-87.939995,1572.5299,100.29,0.26512018,0.86090577,0.07266546,0.42810294,652.261,-573.691,-20.280998,3.95181,4.49261,0.44601,0,0,0,0,0,false,false,false,-1115.19,2723.51,72.93,0.090236396,0.1784956,-0.44154686,0.8746616,1087.001,-1489.901,261.681,4.4271097,3.2634099,0.00821,1,0,0.062992126,-0.296875,0,false,false,false,-1086.49,2439.4,17.01,0.0012111317,0.0046260376,-0.24504606,0.9694996,1240.5709,-670.201,8.321,-0.00040999998,0.00061,0.00281
318.81668,-77.08,1562.97,99.82,0.27840227,0.87444395,0.092583135,0.38635248,651.92096,-573.391,-31.100998,3.95181,4.49261,0.44601,0,0,0,0,0,false,false,false,-1097.07,2698.67,77.159996,0.11668717,0.23086846,-0.43526196,0.86234033,1087.001,-1489.901,250.841,4.42631,3.26451,0.00511,1,0.007874016,0.062992126,-0.296875,0,false,false,false,-1065.8099,2428.23,17.01,0.0012111318,0.004626038,-0.24502449,0.9695051,1240.611,-670.121,8.321,-0.00040999998,0.00061,0.00201
318.83334,-66.22,1553.4099,99.17,0.2909883,0.8857965,0.11226883,0.34363636,651.58093,-573.09094,-41.900997,3.95181,4.49261,0.44601,0,0,0,0,0,false,false,false,-1078.95,2673.8298,81.21,0.14271174,0.28240517,-0.4274178,0.8468734,1087.001,-1489.901,240.001,4.42581,3.26531,0.00341,1,0.007874016,0.062992126,-0.296875,0,false,false,false,-1045.13,2417.0698,17.01,0.0012111317,0.0046260376,-0.2449975,0.96951187,1240.741,-669.891,8.321,-0.00040999998,0.00061,0.00621
318.85,-55.36,1543.87,98.34,0.30284613,0.89493495,0.13167399,0.30006242,651.24097,-572.79095,-52.700996,3.95181,4.49261,0.44601,0,0,0,0,0,false,false,false,-1060.83,2648.99,85.07,0.16820772,0.33291683,-0.41802546,0.8283279,1087.001,-1489.901,229.161,4.42541,3.26581,0.00261,1,0,0.062992126,-0.3046875,0,false,false,false,-1024.45,2405.91,17.01,0.0012111317,0.0046260376,-0.24493816,0.9695268,1240.841,-669.691,8.321,-0.00040999998,0.00061,0.009109999
318.86667,-44.51,1534.33,97.329994,0.31394863,0.90183604,0.15075007,0.25573862,650.90094,-572.49097,-63.501,3.95181,4.49261,0.44601,0,0,0,0,0,false,false,false,-1042.71,2624.15,88.75,0.193094,0.38222003,-0.40712255,0.8067674,1087.001,-1489.901,218.321,4.42511,3.26611,0.00221,1,0,0.062992126,-0.3125,0,false,false,false,-1003.76996,2394.75,17.01,0.0012057369,0.0046260376,-0.24486803,0.9695446,1240.861,-669.65094,8.321,-0.00051,0.00061,0.00631
318.88333,-33.67,1524.7899,96.14,0.32426897,0.90648305,0.16944852,0.21077283,650.561,-572.191,-74.300995,3.95181,4.49261,0.44601,0,0,0,0,0,false,false,false,-1024.59,2599.31,92.25,0.21727897,0.43013683,-0.39474687,0.78227043,1087.001,-1489.901,207.481,4.4250097,3.26631,0.00201,1,0,0.062992126,-0.3125,0,false,false,false,-983.08997,2383.5898,17.01,0.0011949473,0.0046260376,-0.24481948,0.96955687,1240.901,-669.58093,8.321,-0.00040999998,0.00061,0.00441
318.9,-22.83,1515.25,94.77,0.33377463,0.9088645,0.18772611,0.16528367,650.22095,-571.891,-85.081,3.95181,4.49261,0.44601,0,0,0,0,0,false,false,false,-1006.47,2574.47,93.99,0.24067087,0.47648913,-0.3809361,0.7549326,1087.001,-1489.901,78.711,4.42491,3.2664099,0.0019099999,1,0.007874016,0.07086614,-0.3125,0,false,false,false,-962.41,2372.43,17.01,0.0011949473,0.0046260376,-0.24478711,0.96956503,1240.9409,-669.501,8.321,-0.00030999997,0.00061,0.00311
318.91666,-11.99,1505.73,93.22,0.34244406,0.90897536,0.20553441,0.11937918,649.881,-571.59094,-95.861,3.95181,4.49261,0.44601,0,0,0,0,0,false,false,false,-988.35,2549.63,94.57,0.26318887,0.5211097,-0.36573893,0.72485256,1087.001,-1489.901,24.310999,4.42491,3.2664099,0.0019099999,1,0.007874016,0.07086614,-0.3203125,0,false,false,false,-941.73,2361.27,17.01,0.0011949473,0.0046260376,-0.24475473,0.9695732,1241.0709,-669.27094,8.321,-0.00021,0.00061,0.00701
318.93332,-1.53,1496.5299,92.89,0.3516908,0.9061808,0.22505826,0.06707105,605.55096,-532.61096,60.731,3.9558098,4.49741,0.35201,0,0,0,0,0,false,false,false,-970.23,2524.79,94.67,0.28474653,0.5638366,-0.34921458,0.6921392,1087.001,-1489.901,1.331,4.42491,3.2664099,0.0019099999,1,0,0.07086614,-0.3203125,0,false,false,false,-921.05,2350.1099,17.01,0.0011949473,0.0046260376,-0.2446954,0.96958816,1241.1709,-669.071,8.321,-0.00021,0.00061,0.009709999
318.95,8.55,1487.65,93.77,0.35923815,0.9011754,0.24165814,0.020788932,605.23096,-532.331,49.861,3.9558098,4.49741,0.35201,0,0,0,0,0,false,false,false,-952.11,2499.95,94.56,0.3052684,0.60451347,-0.33142248,0.6569122,1087.001,-1489.901,-8.371,4.42481,3.26651,0.0019099999,1,0,0.07086614,-0.328125,0,false,false,false,-900.37,2338.95,17.01,0.0011949473,0.0046260376,-0.24462527,0.96960586,1241.1909,-669.02094,8.321,-0.00021,0.00061,0.0068099997
318.96667,18.63,1478.7899,94.47,0.36588463,0.89391863,0.2576538,-0.025541749,604.91095,-532.05096,39.001,3.9558098,4.49741,0.35201,0,0,0,0,0,false,false,false,-933.99,2475.1099,94.369995,0.32468435,0.6429949,-0.3124273,0.6192953,1087.001,-1489.901,-12.461,4.42481,3.26651,0.0019099999,1,0,0.07086614,-0.328125,0,false,false,false,-879.69,2327.8,17.01,0.0011949474,0.004626038,-0.24457672,0.96961814,1241.231,-668.951,8.321,-0.00021,0.00061,0.00481
318.98334,28.71,1469.9299,94.979996,0.37161922,0.8844277,0.27300194,-0.071807675,604.59094,-531.77094,28.140999,3.9558098,4.49741,0.35201,0,0,0,0,0,false,false,false,-915.87,2450.27,94.14,0.34291887,0.67914474,-0.29229924,0.5794222,1087.001,-1489.901,-14.191,4.42481,3.26651,0.0019099999,1,0,0.07086614,-0.3359375,0,false,false,false,-859.01,2316.66,17.01,0.0011949473,0.0046260376,-0.24453895,0.9696276,1241.271,-668.871,8.321,-0.00021,0.00061,0.00341
319,38.79,1461.07,95.31,0.37642604,0.8727254,0.2876705,-0.11789564,604.27094,-531.49097,17.280998,3.9558098,4.49741,0.35201,0,0,0,0,0,false,false,false,-897.75,2425.43,93.9,0.3599071,0.7128231,-0.27110302,0.5374505,1087.001,-1489.901,-14.931,4.42481,3.26651,0.0019099999,1,0,0.07086614,-0.3359375,0,false,false,false,-838.32996,2305.52,17.01,0.0011949473,0.0046260376,-0.24451198,0.9696344,1241.3109,-668.79095,8.321,-0.00021,0.00061,0.0023100001
319.01666,48.85,1452.21,95.46,0.3802887,0.8588431,0.30162153,-0.16368684,603.951,-531.21094,6.4309998,3.9558098,4.49741,0.35201,0,0,0,0,0,false,false,false,-879.63,2400.5898,93.64,0.37558445,0.7439154,-0.24892496,0.4935205,1087.001,-1489.901,-15.241,4.42481,3.26651,0.0019099999,1,0,0.07086614,-0.3359375,0,false,false,false,-817.64996,2294.38,17.01,0.0011949473,0.0046260376,-0.2444958,0.9696385,1241.351,-668.72095,8.321,-0.00021,0.00061,0.0016099999
319.03333,58.91,1443.36,95.43,0.3832019,0.8428135,0.3148172,-0.20907342,603.631,-530.93097,-4.401,3.9558098,4.49741,0.35201,0,0,0,0,0,false,false,false,-861.51,2375.75,93.38,0.38990232,0.7722987,-0.22584589,0.44779944,1087.001,-1489.901,-15.371,4.42481,3.26651,0.0019099999,1,0,0.07086614,-0.34375,0,false,false,false,-796.97,2283.24,17.01,0.0011949472,0.004626037,-0.24448498,0.96964115,1241.391,-668.66095,8.321,-0.00021,0.00061,0.00111
319.05,68.97,1434.52,95.22,0.3851548,0.82467675,0.32723072,-0.2539367,603.311,-530.65094,-15.221,3.9558098,4.49741,0.35201,0,0,0,0,0,false,false,false,-843.38995,2350.91,93.119995,0.4028013,0.7978751,-0.20194687,0.40045455,1087.001,-1489.901,-15.4210005,4.42481,3.26651,0.0019099999,1,0,0.07086614,-0.34375,0,false,false,false,-776.26996,2272.0999,17.01,0.0011949473,0.0046260376,-0.2444742,0.96964395,1241.4109,-668.621,8.321,-0.00021,0.00061,0.00071
319.06668,79.02,1425.6799,94.829994,0.38614744,0.8044792,0.33882412,-0.2981634,602.99097,-530.371,-26.040998,3.9558098,4.49741,0.35201,0,0,0,0,0,false,false,false,-825.26996,2326.07,92.86,0.41423833,0.8205524,-0.17731413,0.35165304,1087.001,-1489.901,-15.451,4.42481,3.26651,0.0019099999,1,0,0.07086614,-0.34375,0,false,false,false,-755.57,2260.96,17.01,0.0011949473,0.0046260376,-0.24446881,0.9696453,1241.4309,-668.58093,8.321,-0.00021,0.00061,0.00051
319.08334,89.06,1416.84,94.259995,0.38617438,0.7822685,0.3495706,-0.34165102,602.67096,-530.09094,-36.850998,3.9558098,4.49741,0.35201,0,0,0,0,0,false,false,false,-807.14996,2301.23,92.6,0.42417014,0.84024936,-0.15203403,0.30157298,1087.001,-1489.901,-15.451,4.42481,3.26651,0.0019099999,1,0,0.07086614,-0.3515625,0,false,false,false,-734.87,2249.82,17.01,0.0011949473,0.0046260376,-0.24446881,0.9696453,1241.4509,-668.55096,8.321,-0.00021,0.00061,0.00030999997
319.1,99.1,1408,93.509995,0.38523576,0.7581069,0.35943776,-0.38428092,602.35095,-529.811,-47.650997,3.9558098,4.49741,0.35201,0,0,0,0,0,false,false,false,-789.02997,2276.39,92.34,0.43255913,0.8568941,-0.12619823,0.25039768,1087.001,-1489.901,-15.451,4.42481,3.26651,0.0019099999,1,0,0.07086614,-0.3515625,0,false,false,false,-714.17,2238.68,17.01,0.0011949473,0.0046260376,-0.24446881,0.9696453,1241.471,-668.53094,8.321,-0.00021,0.00061,0.00010999999
319.11667,108.939995,1399.35,93.34,0.38331518,0.73001444,0.36911067,-0.42884207,578.311,-508.661,31.821,3.9574099,4.49931,0.30761,0,0,0,0,0,false,false,false,-771.07996,2251.68,92.43,0.43753853,0.8713529,-0.093063265,0.2016016,1071.8109,-1477.981,15.981,4.9836097,2.2276099,0.67161,1,0,0.07086614,-0.359375,0,false,false,false,-693.3,2227.42,16.67,-0.0024573295,0.0033043127,-0.24508382,0.9694931,1257.2109,-679.40094,-9.491,-0.35721,-0.012709999,-0.118609995
319.13333,118.579994,1390.87,93.729996,0.38066092,0.70184296,0.37725142,-0.4692492,578.011,-508.401,20.960999,3.9574099,4.49931,0.30761,0,0,0,0,0,false,false,false,-753.26996,2227.0898,92.71,0.43949685,0.88293993,-0.055844445,0.15537341,1067.891,-1474.5609,15.701,4.90661,2.4158099,0.58221,1,0.007874016,0.12598425,-0.3984375,-0.09375,false,false,false,-672.29,2216.05,16.32,-0.005181701,0.0020311405,-0.24606025,0.9692384,1261.091,-682.84094,3.1009998,0.00401,-0.00071,-0.091409996
319.15,128.20999,1382.4,93.939995,0.37705722,0.671919,0.38444808,-0.5084803,577.71094,-508.141,10.111,3.9574099,4.49931,0.30761,0,0,0,0,0,false,false,false,-735.49,2202.53,92.92,0.44040856,0.8911731,-0.0209238,0.10683087,1066.3209,-1472.8009,12.451,4.8358097,2.56831,0.51751,1,0.1023622,0.1023622,-0.46875,-0.0859375,false,false,false,-651.26,2204.65,16.21,-0.004825645,0.0014053443,-0.2466537,0.9690906,1262.121,-685.54095,9.321,0.13121,-0.03131,-0.044509996
319.16666,137.83,1373.94,93.97,0.37250945,0.64031684,0.39067918,-0.54644376,577.41095,-507.88098,-0.72099996,3.9574099,4.49931,0.30761,0,0,0,0,0,false,false,false,-717.74,2178.02,93.22,0.43981516,0.8961144,0.012734502,0.05813188,1064.161,-1469.2009,24.491,4.81811,2.6033099,0.50781,1,0.19685039,0.12598425,-0.4296875,-0.109375,false,false,false,-630.2,2193.2,16.029999,0.0014485026,-0.0026623316,-0.24628682,0.9691921,1264.0509,-689.511,6.171,0.69311,-0.58151,0.14390999
319.18332,147.45,1365.48,93.82,0.3670337,0.60711324,0.39593908,-0.5830367,577.11096,-507.621,-11.541,3.9574099,4.49931,0.30761,0,0,0,0,0,false,false,false,-700,2153.54,93.49,0.43772197,0.89797145,0.04465559,0.007242514,1064.161,-1469.2009,13.651,4.60361,2.97191,0.47351,1,0.1023622,0.07086614,-0.40625,0.35433072,false,false,false,-609.13,2181.72,16.06,0.0066922437,-0.00455051,-0.2449705,0.9694966,1266.031,-685.67096,18.030998,0.19461,0.04731,0.21741
319.2,157.06999,1357.02,93.49,-0.36063537,-0.57239276,-0.40021178,0.61817396,576.811,-507.361,-22.360998,3.9574099,4.49931,0.30761,0,0,0,0,0,false,false,false,-682.27997,2129.03,93.75,0.4342747,0.89655423,0.07579984,-0.043015577,1063.5609,-1470.481,13.241,4.7329097,2.76731,0.43731,1,0.015748031,0.13385826,-0.5703125,0.37795275,false,false,false,-588.01,2170.3398,16.06,0.009832014,-0.004733933,-0.24329272,0.96989137,1268.111,-681.561,15.361,0.18581,0.02431,0.20141
319.21667,166.68,1348.5599,92.979996,-0.35333622,-0.53623664,-0.403481,0.65177196,576.511,-507.10098,-33.181,3.9574099,4.49931,0.30761,0,0,0,0,0,false,false,false,-664.56,2104.53,93.84,0.42911178,0.89199144,0.10623744,-0.09448753,1063.5609,-1470.481,2.4009998,4.54971,3.05021,0.49591,1,0,0.21259843,-0.59375,0.07086614,false,false,false,-566.87,2158.99,16.199999,0.010538735,-0.003806029,-0.24178761,0.9702645,1269.241,-679.41095,18.140999,-0.03901,0.18481,0.15221
319.23334,176.01999,1340.34,93.27,-0.34487712,-0.49687612,-0.4059734,0.68509805,560.84094,-493.32098,14.471,3.95831,4.50021,0.28131,0,0,0,0,0,false,false,false,-646.83997,2080.03,93.75,0.42216867,0.88441336,0.13427427,-0.14682262,1063.5609,-1470.481,-7.371,4.44601,3.19101,0.54761,1,0,0.21259843,-0.5625,0.09448819,false,false,false,-545.70996,2147.68,16.359999,0.0096593825,-0.0023548284,-0.24066548,0.97055715,1270.621,-676.78094,17.421,-0.11060999,0.20781,0.10911
319.25,185.36,1332.12,93.38,-0.33591095,-0.45799568,-0.40731674,0.71519,560.54095,-493.061,3.6309998,3.95831,4.50021,0.28131,0,0,0,0,0,false,false,false,-629.12,2055.53,93.56,0.41351005,0.87377805,0.16073586,-0.19921172,1063.5609,-1470.481,-12.041,4.39011,3.26081,0.58581,1,0.007874016,0.21259843,-0.5234375,0.2047244,false,false,false,-524.52997,2136.41,16.51,0.008299894,-0.00091441796,-0.23986705,0.97076976,1272.011,-674.10095,15.981,-0.13021,0.19490999,0.07890999
319.26666,194.7,1323.9,93.31,-0.3261032,-0.41797152,-0.40764046,0.7434955,560.24097,-492.801,-7.191,3.95831,4.50021,0.28131,0,0,0,0,0,false,false,false,-611.39996,2031.0299,93.329994,0.40322205,0.86006814,0.18602674,-0.25117457,1063.5609,-1470.481,-14.021,4.36101,3.29491,0.61171,1,0.007874016,0.19685039,-0.5,0.22834645,false,false,false,-503.31998,2125.18,16.64,0.0068702735,0.00035875395,-0.23927903,0.97092646,1273.3009,-671.621,14.391,-0.12420999,0.16721,0.062209997
319.28333,204.04,1315.69,93.049995,-0.3154808,-0.37690616,-0.4069445,0.76994133,559.941,-492.541,-18.011,3.95831,4.50021,0.28131,0,0,0,0,0,false,false,false,-593.68,2006.5299,93.09,0.3913805,0.843298,0.21033585,-0.30237135,1063.5609,-1470.481,-14.861,4.34621,3.3113098,0.62821,1,0,0.17322835,-0.484375,0.21259843,false,false,false,-482.09,2113.99,16.74,0.0055809165,0.0014107391,-0.23880967,0.97104925,1274.341,-669.621,12.941,-0.10731,0.13600999,0.050109997
319.3,213.22,1307.61,93.18,-0.3037956,-0.33368832,-0.40526673,0.7950592,550.66095,-484.371,5.381,3.9588099,4.50071,0.26671,0,0,0,0,0,false,false,false,-575.95996,1982.0299,92.829994,0.37806064,0.8235007,0.23372237,-0.35254857,1063.5609,-1470.481,-15.211,4.33891,3.31901,0.63831,1,0,0.15748031,-0.484375,0.18110237,false,false,false,-460.84998,2102.8398,16.81,0.0044965623,0.0022469326,-0.23844282,0.9711435,1275.0709,-668.191,11.731,-0.08751,0.10691,0.036409996
319.31668,222.4,1299.5399,93.13,-0.29165184,-0.2907779,-0.40260705,0.817493,550.381,-484.111,-5.441,3.9588099,4.50071,0.26671,0,0,0,0,0,false,false,false,-558.24,1957.5299,92.57,0.36333278,0.80073553,0.25617558,-0.40147954,1063.5609,-1470.481,-15.361,4.33531,3.32251,0.64431,1,0,0.14173228,-0.4765625,0.1496063,false,false,false,-439.59,2091.71,16.869999,0.0036280006,0.0028943084,-0.2381731,0.9712116,1275.631,-667.09094,10.831,-0.06861,0.08181,0.02641
319.33334,231.5,1291.53,93.14,-0.27864495,-0.24662673,-0.3989386,0.8380812,546.391,-480.591,-2.1509998,3.95891,4.50091,0.26081002,0,0,0,0,0,false,false,false,-540.51996,1933.0299,92.31,0.34726167,0.77507687,0.27765235,-0.4489701,1063.5609,-1470.481,-15.4210005,4.33361,3.32401,0.64781,1,0.007874016,0.12598425,-0.4765625,0.11811024,false,false,false,-418.33,2080.5898,16.91,0.002953651,0.0033852346,-0.23797888,0.9712599,1276.0409,-666.27094,10.121,-0.052309997,0.061209995,0.01921
319.35,240.54999,1283.5599,93.15,-0.26494217,-0.20187135,-0.3942829,0.85650134,542.691,-477.341,0,3.95911,4.50111,0.25541002,0,0,0,0,0,false,false,false,-522.8,1908.5299,92.049995,0.3299173,0.7466075,0.29809865,-0.49484226,1063.5609,-1470.481,-15.451,4.33291,3.32461,0.64991,1,0.007874016,0.11811024,-0.4765625,0.08661418,false,false,false,-397.06,2069.49,16.94,0.0024411452,0.003746686,-0.23782782,0.97129697,1276.4309,-665.511,9.581,-0.03901,0.04491,0.01871
319.36667,249.56,1275.64,93.15,-0.25059733,-0.15666816,-0.38866147,0.8726959,539.561,-474.581,0,3.95921,4.5012097,0.25101,0,0,0,0,0,false,false,false,-505.08,1884.0299,91.79,0.31136453,0.71542937,0.31744987,-0.5389233,1063.5609,-1470.481,-15.451,4.33261,3.32481,0.65101,1,0,0.11023622,-0.4765625,-0.0625,false,false,false,-375.78,2058.4,16.96,0.0020635095,0.0040164255,-0.23767677,0.97133374,1276.7109,-664.93097,9.211,-0.02851,0.032509997,0.01811
319.38333,258.50998,1267.77,93.15,-0.23562132,-0.1110604,-0.3820798,0.88665843,536.441,-471.82098,0,3.9593098,4.50131,0.24660999,0,0,0,0,0,false,false,false,-487.36,1859.5299,91.53,0.29167885,0.68165517,0.3356412,-0.581046,1063.5609,-1470.481,-15.451,4.33241,3.32481,0.65161,1,0,0.1023622,-0.484375,-0.046875,false,false,false,-354.5,2047.32,16.98,0.0017937698,0.004205243,-0.2375473,0.97136515,1276.861,-664.621,8.941,-0.02051,0.02321,0.012909999
319.4,267.41,1259.94,93.15,-0.22004649,-0.0651559,-0.37456483,0.89835143,533.321,-469.061,0,3.95941,4.5015097,0.24230999,0,0,0,0,0,false,false,false,-469.63998,1835.0299,91.229996,0.27366552,0.6502155,0.35049316,-0.6160206,1063.5609,-1470.481,-20.860998,4.22851,3.24511,0.63611,1,0,0.1023622,-0.484375,-0.03125,false,false,false,-333.22,2036.24,17,0.0015941623,0.0043401136,-0.23745015,0.9713887,1276.981,-664.36096,8.701,-0.014609999,0.01631,0.00921
319.41666,276.25998,1252.15,93.15,-0.20392136,-0.019078782,-0.36612734,0.907746,530.201,-466.32098,0,3.9595098,4.50161,0.23810999,0,0,0,0,0,false,false,false,-451.91998,1810.5299,90.75,-0.2583011,-0.62303925,-0.36197332,0.64348876,1063.5609,-1470.481,-31.680998,4.02811,3.09131,0.60591,1,0.007874016,0.1023622,-0.4921875,-0.0234375,false,false,false,-311.94,2025.1599,17,0.0014538975,0.0044372194,-0.23737998,0.9714055,1277.0809,-664.15094,8.521,-0.010209999,0.01151,0.00661
319.43332,285.06,1244.4199,93.15,-0.18727298,0.027057687,-0.3567889,0.91482145,527.081,-463.581,0,3.95961,4.50171,0.23391,0,0,0,0,0,false,false,false,-434.19998,1786.0299,90.09,-0.24321721,-0.5960706,-0.37228283,0.66854364,1063.5609,-1470.481,-42.501,3.83721,2.94481,0.57711,1,0.007874016,0.09448819,-0.5,-0.015625,false,false,false,-290.66,2014.1,17,0.0013567911,0.0045073517,-0.23732063,0.9714198,1277.231,-663.821,8.451,-0.00711,0.008009999,0.009509999
319.45,293.81,1236.73,93.15,-0.17014441,0.07312941,-0.34657648,0.91955835,523.96094,-460.841,0,3.95971,4.5019097,0.22990999,0,0,0,0,0,false,false,false,-416.47998,1761.5299,89.25,-0.22846241,-0.56944716,-0.38151872,0.69135964,1063.5609,-1470.481,-53.321,3.6554098,2.80531,0.54971,1,0,0.09448819,-0.5078125,-0.015625,false,false,false,-269.38,2003.0399,17,0.0012866588,0.0045559052,-0.23723975,0.97143954,1277.361,-663.55096,8.431,-0.00491,0.0054099998,0.01151
319.46667,302.5,1229.08,93.15,-0.1525843,0.119023114,-0.3355117,0.9219454,520.84094,-458.10098,0,3.95971,4.50211,0.22591,0,0,0,0,0,false,false,false,-398.75998,1737.0299,88.229996,-0.2140798,-0.5432769,-0.38977283,0.7121074,1063.5609,-1470.481,-64.141,3.48211,2.6723099,0.52361,1,0,0.09448819,-0.515625,-0.0078125,false,false,false,-248.09999,1991.98,17,0.0012381057,0.004588274,-0.23715343,0.9714605,1277.401,-663.451,8.431,-0.00331,0.00361,0.008009999
319.48334,311.13998,1221.48,93.15,-0.13463573,0.16462009,-0.32362694,0.92197555,517.72095,-455.361,0,3.95971,4.50231,0.22191,0,0,0,0,0,false,false,false,-381.03998,1712.5299,87.03,-0.20010185,-0.51764077,-0.39713138,0.7309541,1063.5609,-1470.481,-74.961,3.3171098,2.54561,0.49871,1,0,0.09448819,-0.5234375,0.007874016,false,false,false,-226.79999,1980.9199,17,0.0012057369,0.004609853,-0.23709409,0.97147495,1277.4509,-663.33093,8.431,-0.00221,0.00241,0.00561
319.5,319.72998,1213.9299,93.15,-0.11633115,0.20980708,-0.31094912,0.9196513,514.60095,-452.621,0,3.95981,4.50241,0.21811,0,0,0,0,0,false,false,false,-363.31998,1688.0299,85.65,-0.18655007,-0.49261418,-0.40368062,0.74804556,1063.5609,-1470.481,-85.781,3.1600099,2.42491,0.47501,1,0,0.09448819,-0.5234375,0,false,false,false,-205.5,1969.86,17,0.0011841578,0.0046206433,-0.23705094,0.9714855,1277.491,-663.21094,8.431,-0.00151,0.0017099999,0.00401
319.51666,328.27,1206.4199,93.15,-0.097724415,0.25446543,-0.29751065,0.9149779,511.481,-449.881,0,3.95991,4.50251,0.21430999,0,0,0,0,0,false,false,false,-345.6,1663.5299,84.08,-0.17344606,-0.4682458,-0.40949085,0.7635309,1063.5609,-1470.481,-96.601,3.01021,2.30991,0.45251,1,0,0.09448819,-0.53125,0,false,false,false,-184.2,1958.7999,17,0.0011733681,0.0046314322,-0.23701856,0.9714933,1277.531,-663.10095,8.431,-0.0010099999,0.0012099999,0.00291
319.53333,336.75998,1198.95,93.15,-0.07886412,0.29848176,-0.2833385,0.9079693,508.361,-447.141,0,3.9600098,4.5026097,0.21051,0,0,0,0,0,false,false,false,-327.88,1639.0299,82.33,-0.16079523,-0.44457874,-0.41462675,0.7775469,1063.5609,-1470.481,-107.421,2.8675098,2.20041,0.43101,1,0,0.09448819,-0.5390625,0,false,false,false,-162.9,1947.74,17,0.0011625787,0.0046422225,-0.236997,0.97149855,1277.5709,-663.011,8.431,-0.00071,0.00081,0.00201
319.55,345.19,1191.5399,93.15,-0.059793435,0.34173733,-0.26847574,0.898644,505.241,-444.401,0,3.96011,4.50271,0.20691,0,0,0,0,0,false,false,false,-310.16,1614.5299,80.4,-0.14860292,-0.4216454,-0.4191584,0.79021424,1063.5609,-1470.481,-118.241,2.73161,2.0961099,0.41051,1,0,0.1023622,-0.546875,0,false,false,false,-141.59999,1936.7,17,0.001151789,0.004642222,-0.2369808,0.9715025,1277.601,-662.93097,8.431,-0.00051,0.00051,0.0014099999
319.56668,353.57,1184.1699,93.15,-0.040560942,0.3841298,-0.25296026,0.88702315,502.121,-441.661,0,3.9602098,4.50281,0.20331,0,0,0,0,0,false,false,false,-292.44,1590.0299,78.29,-0.13686919,-0.39946732,-0.42313978,0.80165166,1063.5609,-1470.481,-129.061,2.60221,1.99671,0.39101002,1,0,0.1023622,-0.5546875,0,false,false,false,-120.299995,1925.6599,17,0.0011517891,0.0046422225,-0.23697002,0.97150517,1277.621,-662.871,8.431,-0.00021,0.00051,0.0010099999
319.58334,361.9,1176.84,93.15,-0.021215122,0.42555124,-0.23682976,0.8731367,499.021,-438.921,0,3.96031,4.50281,0.19971,0,0,0,0,0,false,false,false,-274.72,1565.5299,76,-0.12558863,-0.37804988,-0.4266302,0.8119682,1063.5609,-1470.481,-139.881,2.47891,1.90201,0.37241,1,0,0.1023622,-0.5625,0,false,false,false,-99,1914.62,17,0.0011517889,0.0046422216,-0.23695919,0.97150767,1277.641,-662.811,8.431,-0.00021,0.00040999998,0.00071
