time,ball_loc_x,ball_loc_y,ball_loc_z,ball_rot_x,ball_rot_y,ball_rot_z,ball_rot_w,ball_vel_x,ball_vel_y,ball_vel_z,ball_ang_x,ball_ang_y,ball_ang_z,player0_throttle,player0_steer,player0_pitch,player0_yaw,player0_roll,player0_jump,player0_boost,player0_handbrake,player0_loc_x,player0_loc_y,player0_loc_z,player0_rot_x,player0_rot_y,player0_rot_z,player0_rot_w,player0_vel_x,player0_vel_y,player0_vel_z,player0_ang_x,player0_ang_y,player0_ang_z,player1_throttle,player1_steer,player1_pitch,player1_yaw,player1_roll,player1_jump,player1_boost,player1_handbrake,player1_loc_x,player1_loc_y,player1_loc_z,player1_rot_x,player1_rot_y,player1_rot_z,player1_rot_w,player1_vel_x,player1_vel_y,player1_vel_z,player1_ang_x,player1_ang_y,player1_ang_z
61.408333,1952.23,-4637.88,93.15,-0.3079442,0.46120554,0.78786814,0.26781213,74.590996,541.081,0,-5.92961,0.81751,-0.37951002,1,0,-0.25,-0.265625,-0.6484375,false,false,false,1160.5499,-4573.51,29.49,0.0695095,-0.03286792,0.1565333,0.9846752,13.281,334.171,-229.72101,-3.80321,-0.89711,-0.14460999,1,1,0,0,0,false,false,false,3035.74,-3378.68,17.01,-0.0047069597,0.00081731164,0.9854326,0.1699988,-996.251,392.301,8.351,0.00010999999,0,2.37781
61.425,1953.47,-4628.86,93.15,-0.3139648,0.50233024,0.76536036,0.2516223,74.550995,540.881,0,-5.9274096,0.81701,-0.37951002,1,0,0.062992126,-0.328125,-0.7890625,false,false,false,1160.87,-4567.98,25.56,0.038171053,-0.03354767,0.15724543,0.9862512,36.970997,322.031,-215.341,-3.38091,0.06571,0.12710999,1,1,0,0,0,false,false,false,3019.0598,-3372.2998,17.01,-0.004717749,0.00072020525,0.98860717,0.15044257,-1014.33093,354.021,8.351,0,0,2.3784099
61.441666,1954.71,-4619.84,93.15,-0.3191978,0.5421872,0.74095136,0.23481213,74.511,540.68097,0,-5.92521,0.81661,-0.37951002,1,0.17322835,0,0,0,false,false,false,1161.62,-4562.6997,21.98,0.012739895,-0.02774826,0.15914977,0.98678213,70.251,299.371,-174.771,-2.38551,0.50811,0.15790999,1,1,0,0,0,false,false,false,3002.0898,-3366.5598,17.01,-0.0047285384,0.0006230989,0.9913944,0.13082162,-1030.861,314.901,8.351,0,0,2.37881
61.458332,1955.95,-4610.83,93.15,-0.32363772,0.5806791,0.71470046,0.21742462,74.471,540.48096,0,-5.92301,0.81621,-0.37951002,1,0.17322835,0,0,0,false,false,false,1162.94,-4557.81,19.14,-0.0042214277,-0.020244056,0.16096781,0.9867429,105.660995,272.611,-126.041,-1.5153099,0.67171,0.18520999,1,1,0,0,0,false,false,false,2984.8499,-3361.48,17.01,-0.0047393288,0.00052599265,0.99379313,0.111141324,-1045.8009,274.991,8.351,0,0,2.37921
61.475,1957.19,-4601.83,93.15,-0.3272631,0.6177092,0.6866823,0.19950302,74.431,540.28094,0,-5.9208097,0.81571,-0.37951002,1,0.16535433,0,0,0,false,false,false,1164.85,-4553.39,17.199999,-0.012534851,-0.01137497,0.16273731,0.98652416,142.261,241.58101,-63.001,-0.36261,1.21331,0.18250999,1,1,0,0,0,false,false,false,2967.3599,-3357.0698,17.01,-0.0047501177,0.0004288863,0.99580115,0.09141786,-1059.131,234.351,8.351,0,0,2.37941
61.491665,1958.4299,-4592.83,93.15,-0.3300792,0.6531856,0.6569631,0.1810959,74.391,540.081,0,-5.91861,0.81531,-0.37951002,1,0.15748031,0,0,0,false,false,false,1167.38,-4549.5,16.19,-0.012772222,-0.0014323184,0.16433956,0.98632,178.121,211.281,-19.091,0.38801,0.79541,0.16691,1,1,0,0,0,false,false,false,2949.65,-3353.3398,17.01,-0.0047609075,0.00033177997,0.99741787,0.07165663,-1070.7909,193.061,8.351,0,0,2.37961
61.508335,1959.6699,-4583.83,93.15,-0.33206984,0.6870294,0.625618,0.16224098,74.351,539.881,0,-5.91641,0.81491,-0.37951002,1,0.1496063,0,0,0,false,false,false,1170.49,-4546.09,15.86,-0.008434806,0.0035362889,0.16575308,0.9861248,211.501,186.44101,9.961,0.33911002,0.22840999,0.16021,1,1,0,0,0,false,false,false,2931.76,-3350.29,17.01,-0.004766302,0.00023467363,0.99864274,0.05186304,-1080.771,151.19101,8.351,0,0,2.3798099
61.525,1960.9099,-4574.83,93.15,-0.3332351,0.71914923,0.5927312,0.14299767,74.321,539.68097,0,-5.91431,0.81451,-0.37951002,1,0.14173228,0,0,0,false,false,false,1174.14,-4543.07,15.95,-0.0057913563,0.0045073526,0.16708562,0.98591506,241.661,169.05101,18.411,0.19101,0.064109996,0.16140999,1,1,0,0,0,false,false,false,2913.71,-3347.95,17.01,-0.0047663017,0.00013756729,0.9994748,0.032047864,-1089.0409,108.811,8.351,-0.00010999999,0,2.3798099
61.541668,1962.1499,-4565.83,93.15,-0.3335696,0.7494743,0.5583824,0.12340377,74.281,539.48096,0,-5.91211,0.81411,-0.37951002,1,1,0,0,0,false,false,false,1178.28,-4540.3,16.13,-0.004286166,0.00470696,0.16842891,0.9856932,269.211,157.501,19.300999,0.13240999,0.03391,0.16701,1,1,0,0,0,false,false,false,2895.53,-3346.3098,17.01,-0.0047663026,0.000040460975,0.99991393,0.012221996,-1095.5709,66.011,8.351,-0.00021,0,2.3798099
61.558334,1963.39,-4556.84,93.15,-0.3330733,0.77793044,0.52265793,0.10351307,74.241,539.28094,0,-5.9099097,0.81361,-0.37951002,1,1,0,0,0,false,false,false,1182.83,-4537.65,16.31,-0.0032449698,0.004777092,0.1708296,0.9852836,285.04102,165.321,18.351,0.09541,0.02131,0.63401,1,1,0,0,0,false,false,false,2877.25,-3345.39,17.01,-0.004766302,-0.00005664536,0.99995965,-0.0076094023,-1100.341,22.851,8.351,-0.00021,0,2.3798099
61.575,1964.63,-4547.86,93.15,-0.33175695,0.8044409,0.4856549,0.08337421,74.201,539.081,0,-5.90771,0.81321,-0.37951002,1,1,0,0,0,false,false,false,1187.65,-4534.86,16.48,-0.0025220674,0.004787882,0.17682862,0.98422676,300.951,174.341,16.730999,0.06811,0.013309999,0.99691,1,1,0,0,0,false,false,false,2858.9,-3345.19,17.01,-0.0047663017,-0.00015375167,0.9996119,-0.027440712,-1103.341,-20.581,8.351,-0.00030999997,-0.00010999999,2.3798099
61.591667,1965.87,-4538.88,93.15,-0.32962057,0.8289461,0.4474649,0.06303574,74.160995,538.881,0,-5.90551,0.81281,-0.37951002,1,1,0,0,0,false,false,false,1192.73,-4531.9097,16.609999,-0.0020311407,0.004771697,0.18561673,0.9826085,316.431,184.921,15.001,0.04801,0.008409999,1.27731,1,1,0,0,0,false,false,false,2840.51,-3345.71,17.01,-0.0047663026,-0.00025085805,0.9988714,-0.04725589,-1104.5509,-64.221,8.351,-0.00030999997,-0.00010999999,2.3798099
61.608334,1967.11,-4529.9,93.15,-0.32666427,0.8513949,0.40817448,0.04255162,74.131,538.68097,0,-5.90331,0.81231,-0.37951002,1,1,0,0,0,false,false,false,1198.07,-4528.78,16.72,-0.0017128479,0.0047393288,0.1965359,0.98048365,331.121,197.22101,13.461,0.033409998,0.0054099998,1.49251,1,1,0,0,0,false,false,false,2822.1099,-3346.96,17.01,-0.0047609075,-0.00034256955,0.9977382,-0.06704947,-1103.9609,-107.980995,8.351,-0.00040999998,0,2.37961
61.625,1968.35,-4520.92,93.15,-0.32289866,0.87173015,0.36788607,0.021970391,74.090996,538.48096,0,-5.9011097,0.81201,-0.37951002,1,1,0,0,0,false,false,false,1203.65,-4525.44,16.8,-0.0015132403,0.0047069597,0.20907877,0.97788626,344.751,211.261,12.181,0.02301,0.00371,1.65731,1,1,0,0,0,false,false,false,2803.72,-3348.94,17.01,-0.004750117,-0.00042888624,0.9962123,-0.08682148,-1101.5709,-151.80101,8.351,-0.00030999997,0,2.37941
61.641666,1969.59,-4511.94,93.15,-0.31833464,0.8899008,0.32670742,0.0013460016,74.050995,538.28094,0,-5.89891,0.81161,-0.37951002,1,1,0,0,0,false,false,false,1209.45,-4521.86,16.859999,-0.0013999497,0.004674591,0.22284101,0.97484255,357.131,226.911,11.161,0.01571,0.00261,1.78431,1,1,0,0,0,false,false,false,2785.38,-3351.65,17.01,-0.0047393283,-0.0005205978,0.99429524,-0.10655574,-1097.381,-195.601,8.351,-0.00021,-0.00010999999,2.37921
61.658333,1970.83,-4502.9697,93.15,-0.312983,0.90586734,0.28473577,-0.019272994,74.011,538.081,0,-5.89671,0.81111,-0.37951002,1,1,0,0,0,false,false,false,1215.45,-4518.01,16.91,-0.0013513964,0.004642222,0.23752572,0.97136915,368.161,244.011,10.351,0.010609999,0.0019099999,1.8838099,1,1,0,0,0,false,false,false,2767.1199,-3355.0898,17.01,-0.0047285384,-0.0006177041,0.99198735,-0.12624678,-1091.391,-239.291,8.351,-0.00021,-0.00010999999,2.37901
61.675,1972.07,-4494.01,93.15,-0.30686527,0.91958916,0.24207892,-0.03983804,73.971,537.881,0,-5.89451,0.81071,-0.37951002,1,0.2992126,0,0,0,false,true,false,1221.63,-4513.87,16.949999,-0.0013406067,0.0046206424,0.25291163,0.96747726,377.751,262.401,9.731,0.00711,0.00131,1.96261,1,1,0,0,0,false,false,false,2748.97,-3359.25,17.01,-0.0047177486,-0.00070941565,0.9892893,-0.1458893,-1083.601,-282.801,8.351,-0.00021,-0.00010999999,2.37881
61.691666,1973.3099,-4485.05,93.15,-0.2999869,0.9310398,0.19883947,-0.060295153,73.931,537.68097,0,-5.8923097,0.81021,-0.37951002,1,0.24409449,0,0,0,false,true,false,1228.01,-4509.4697,16.97,-0.001362186,0.004593669,0.26783913,0.9634517,396.651,269.201,9.231,0.0019099999,-0.00081,1.5813099,1,1,0,0,0,false,false,false,2730.95,-3364.15,17.01,-0.00470696,-0.0007957325,0.98620373,-0.16546713,-1074.011,-326.051,8.351,-0.00010999999,-0.00010999999,2.37861
61.708332,1974.5499,-4476.09,93.15,-0.29237476,0.9401901,0.15512525,-0.08059585,73.891,537.48096,0,-5.8902097,0.80981,-0.37951002,1,0.18110237,0,0,0,false,true,false,1234.69,-4504.9497,16.99,-0.0014107391,0.0045613,0.27986962,0.9600261,412.581,279.361,8.901,0,-0.00131,1.28291,1,1,0,0,0,false,false,false,2713.0999,-3369.77,17.01,-0.0046907747,-0.00089283864,0.9827305,-0.18498017,-1062.631,-368.971,8.351,-0.00010999999,0,2.3784099
61.725,1975.7899,-4467.13,93.15,-0.2840398,0.9470231,0.111044206,-0.100686155,73.851,537.28094,0,-5.88801,0.80941,-0.37951002,1,0.12598425,0,0,0,false,true,false,1241.63,-4500.25,17.01,-0.001464687,0.0045397202,0.28956404,0.9571466,426.891,290.951,8.6310005,-0.00040999998,-0.0012099999,1.02861,1,1,0,0,0,false,false,false,2695.44,-3376.0898,17.01,-0.004669196,-0.000989945,0.9788709,-0.20442311,-1049.491,-411.481,8.351,-0.00010999999,0,2.37821
61.741665,1977.0299,-4458.17,93.15,-0.27500886,0.95152235,0.066704206,-0.12052291,73.821,537.081,0,-5.88581,0.80891,-0.37951002,1,0.08661418,0,0,0,false,true,false,1248.7999,-4495.36,17.01,-0.0015078455,0.0045181415,0.29728943,0.95477545,440.10098,303.291,8.441,-0.00021,-0.00091,0.81301,1,1,0,0,0,false,false,false,2678,-3383.1199,17.01,-0.0046476168,-0.0010762617,0.97462803,-0.22377968,-1034.591,-453.511,8.351,-0.00010999999,0,2.37781
61.758335,1978.25,-4449.2197,93.15,-0.26530358,0.95367926,0.022218551,-0.14005755,73.781,536.881,0,-5.88361,0.80861,-0.37951002,1,0.05511811,0,0,0,false,true,false,1256.19,-4490.25,17.01,-0.0015402143,0.0045019574,0.30336404,0.9528628,452.521,316.041,8.361,0,-0.00040999998,0.63491,1,1,0,0,0,false,true,false,2660.8298,-3390.8499,17.01,-0.0046260376,-0.0011625786,0.9700033,-0.24304458,-1017.96094,-494.981,8.351,0,0,2.37741
61.775,1979.47,-4440.28,93.15,-0.2549509,0.9534915,-0.022304866,-0.15923607,73.741,536.68097,0,-5.8814096,0.80821,-0.37951002,1,0.031496063,0,0,0,false,true,false,1263.78,-4484.9297,17.01,-0.0015617935,0.0044911676,0.3080845,0.95134705,464.451,328.841,8.331,0.00021,0,0.48821,1,1,0,0,0,false,true,false,2643.76,-3399.3699,17.01,-0.004604458,-0.0012488952,0.96499825,-0.26221234,-1013.93097,-543.72095,8.271,0,0,2.3756099
61.791668,1980.69,-4431.34,93.15,-0.24397789,0.9509619,-0.066758156,-0.17801546,73.701,536.48096,0,-5.87921,0.80771,-0.37951002,1,0.015748031,0,0,0,false,true,false,1271.57,-4479.4,17.01,-0.0015779779,0.0044803782,0.311699,0.95016897,476.081,341.461,8.321,0.00051,0.00010999999,0.36871,1,1,0,0,0,false,true,false,2626.77,-3408.71,17.01,-0.004582879,-0.001335212,0.95962083,-0.28125605,-1007.561,-592.381,8.241,0,0,2.37271
61.808334,1981.9099,-4422.4,93.15,-0.23240598,0.9461007,-0.1110334,-0.19634704,73.660995,536.28094,0,-5.87701,0.80731,-0.37951002,1,0,0,0,0,false,true,false,1279.5599,-4473.65,17.01,-0.0015887676,0.0044803787,0.31441262,0.9492745,487.521,353.811,8.321,0.00071,0.00030999997,0.27341,1,1,0,0,0,false,true,false,2609.9,-3418.8599,17.01,-0.0045559057,-0.0014215289,0.95387536,-0.3001649,-998.821,-640.92096,8.221001,0.00010999999,0,2.36871
61.825,1983.13,-4413.46,93.15,-0.22026767,0.93892026,-0.15502276,-0.21419309,73.620995,536.081,0,-5.8748097,0.80691,-0.37951002,1,-0.0078125,0,0,0,false,true,false,1287.73,-4467.6997,17.01,-0.0015887675,0.0044803782,0.31640327,0.9486128,498.941,365.691,8.321,0.00081,0.00051,0.19500999,1,1,0,0,0,false,true,false,2593.18,-3429.8198,17.01,-0.004523536,-0.0015078455,0.9477687,-0.31892267,-987.68097,-689.261,8.221001,0.00021,0,2.36381
61.841667,1984.35,-4404.52,93.15,-0.20758986,0.9294444,-0.19860747,-0.23150508,73.590996,535.881,0,-5.87261,0.80651,-0.37951002,1,-0.0234375,0,0,0,false,true,false,1296.1,-4461.55,17.01,-0.0015887675,0.0044803782,0.3178167,0.9481402,510.311,377.161,8.321,0.00081,0.00051,0.13410999,1,1,0,0,0,false,true,false,2576.66,-3441.5999,17.01,-0.0044911676,-0.0015941622,0.9413087,-0.33751324,-974.131,-737.321,8.221001,0.00030999997,0,2.35801
61.858334,1985.57,-4395.6,93.15,-0.19441031,0.91769516,-0.24169046,-0.24824513,73.550995,535.68097,0,-5.87041,0.80610996,-0.37951002,1,-0.0234375,0,0,0,false,true,false,1304.65,-4455.2197,17.01,-0.0015887675,0.0044803782,0.31876078,0.9478232,521.821,387.981,8.321,0.00081,0.00051,0.07980999,1,1,0,0,0,false,true,false,2560.38,-3454.18,17.01,-0.004458799,-0.001680479,0.9345,-0.3559311,-958.17096,-785.011,8.221001,0.00040999998,0,2.35141
61.875,1986.7899,-4386.6797,93.15,-0.18075602,0.9037053,-0.2841693,-0.2643703,73.520996,535.48096,0,-5.86821,0.80561,-0.37951002,1,-0.03125,0,0,0,false,true,false,1313.4,-4448.71,17.01,-0.0015833728,0.0044803787,0.3193057,0.9476398,533.23096,398.481,8.321,0.00081,0.00051,0.041309997,1,1,0,0,0,false,true,false,2544.38,-3467.5598,17.01,-0.00442643,-0.0017667958,0.9273518,-0.3741602,-939.821,-832.21094,8.221001,0.00051,0,2.3440099
61.891666,1988.01,-4377.76,93.15,-0.16666476,0.88751316,-0.32593596,-0.27983722,73.480995,535.28094,0,-5.86611,0.80531,-0.37951002,1,-0.03125,0,0,0,false,true,false,1322.33,-4442.03,17.01,-0.0015725831,0.0044803782,0.31955922,0.94755435,544.73096,408.441,8.321,0.00071,0.00051,0.00821,1,0.9212598,0,0,0,false,true,false,2528.7,-3481.72,17.01,-0.0043940614,-0.0018531125,0.9198719,-0.3921897,-919.11096,-878.811,8.221001,0.00051,0,2.33581
61.908333,1989.23,-4368.84,93.15,-0.1521743,0.86915576,-0.36689338,-0.29461902,73.440994,535.081,0,-5.8639097,0.80491,-0.37951002,1,-0.03125,0,0,0,false,true,false,1331.46,-4435.19,17.01,-0.0015617936,0.0044803787,0.31957543,0.9475489,556.17096,418.051,8.321,0.00061,0.00051,-0.015309999,1,0.77952754,0,0,0,false,true,false,2513.3699,-3496.65,17.01,-0.0043616924,-0.0019394292,0.91211754,-0.40990087,-897.67096,-923.84094,8.211,0.00081,0.00030999997,2.27981
61.925,1990.45,-4359.92,93.15,-0.13731694,0.84868276,-0.40693912,-0.3086779,73.410995,534.881,0,-5.86171,0.80441,-0.37951002,1,-0.03125,0,0,0,false,true,false,1340.77,-4428.19,17.01,-0.0015510039,0.0044803782,0.31941897,0.9476017,567.581,427.281,8.321,0.00040999998,0.00051,-0.03211,1,0.6456693,0,0,0,false,true,false,2498.4,-3512.3298,17.01,-0.0043239286,-0.0020257456,0.90428865,-0.42689446,-876.61096,-966.7609,8.201,0.0012099999,0.00091,2.15251
61.941666,1991.6699,-4351,93.15,-0.12212517,0.8261519,-0.44597062,-0.32197616,73.370995,534.68097,0,-5.85951,0.80411,-0.37951002,1,-0.03125,0,0,0,false,true,false,1350.28,-4421.03,17.01,-0.0015456092,0.0044803787,0.31913847,0.9476962,578.93097,436.151,8.321,0.00021,0.00051,-0.044209998,1,0.503937,0,0,0,false,true,false,2483.79,-3528.72,17.01,-0.0042807707,-0.0021120626,0.8966617,-0.44269055,-855.78094,-1007.7609,8.191,0.0016099999,0.00151,1.97831
61.958332,1992.89,-4342.09,93.15,-0.10663664,0.8016148,-0.48390153,-0.3344867,73.331,534.48096,0,-5.85731,0.80371,-0.37951002,1,-0.03125,0,0,0,false,true,false,1359.97,-4413.7197,17.01,-0.0015456091,0.0044803782,0.31877157,0.94781965,590.23096,444.691,8.321,0.00021,0.00051,-0.052909996,1,0.33858266,0,0,0,false,true,false,2469.53,-3545.79,17.01,-0.004237612,-0.002198379,0.88946325,-0.45698142,-835.72095,-1046.651,8.1710005,0.0018099999,0.0019099999,1.7646099
61.975,1994.11,-4333.19,93.15,-0.09089995,0.77513355,-0.52064025,-0.34617728,73.300995,534.28094,0,-5.8551097,0.80321,-0.37951002,1,-0.03125,0,0,0,false,true,false,1369.86,-4406.27,17.01,-0.0015402144,0.0044803787,0.31834003,0.9479647,601.47095,452.921,8.321,0.00021,0.00061,-0.05921,1,0.1023622,0,0,0,false,true,false,2455.5999,-3563.5,17.01,-0.0041944534,-0.0022793012,0.8829208,-0.46949732,-817.42096,-1083.021,8.161,0.0019099999,0.00221,1.50771
61.991665,1995.33,-4324.29,93.15,-0.074942105,0.74677444,-0.55610037,-0.35702085,73.261,534.081,0,-5.85291,0.80291,-0.37951002,1,-0.03125,0,0,0,false,true,false,1379.9299,-4398.69,17.01,-0.0015294248,0.0044803787,0.31786528,0.94812405,612.621,460.871,8.321,0.00010999999,0.00061,-0.06381,1,0.28346455,0,0,0,false,true,false,2441.96,-3581.7998,17.01,-0.0041620852,-0.0023548284,0.8773138,-0.47989324,-802.871,-1115.9209,8.151,0.00201,0.00261,1.17591
62.008335,1996.5499,-4315.39,93.15,-0.05880619,0.7166165,-0.5901903,-0.3669851,73.221,533.881,0,-5.85071,0.80250996,-0.37951002,1,-0.03125,0,0,0,false,true,false,1390.19,-4390.98,17.01,-0.0015294247,0.0044911676,0.31735274,0.94829565,623.67096,468.57098,8.321,0,0.00061,-0.06721,1,0.17322835,0,0,0,false,true,false,2428.5798,-3600.66,17.01,-0.004129716,-0.0024141711,0.8727058,-0.4882228,-784.40094,-1149.8309,8.151,0.0010099999,0.00131,1.04601
62.025,1997.7699,-4306.4897,93.15,-0.04253005,0.6847248,-0.6228343,-0.3760592,73.190994,533.68097,0,-5.84851,0.80211,-0.37951002,1,-0.03125,0,0,0,false,true,false,1400.63,-4383.14,17.01,-0.0015294247,0.0044965623,0.31681865,0.94847417,634.621,476.021,8.321,0.00010999999,0.00040999998,-0.06961,1,0.07086614,0,0,0,false,true,false,2415.5,-3620.0698,17.01,-0.004108137,-0.0024627245,0.86860365,-0.49548426,-769.261,-1179.981,8.151,0.00061,0.00061,0.87821
62.041668,1998.99,-4297.59,93.15,0.026156755,-0.6511841,0.6539518,0.38421613,73.151,533.48096,0,-5.8463097,0.80171,-0.37951002,1,-0.0234375,0,0,0,false,true,false,1411.25,-4375.17,17.01,-0.0015294247,0.0044965623,0.316263,0.9486596,645.451,483.251,8.321,0.00010999999,0.00040999998,-0.07141,1,0,0,0,0,false,true,false,2402.66,-3639.96,17.01,-0.004086558,-0.0024950933,0.8651634,-0.5014671,-756.65094,-1206.271,8.151,0.00040999998,0.00021,0.69301
62.058334,2000.21,-4288.6997,93.15,0.00972412,-0.61607456,0.6834738,0.39143443,73.111,533.28094,0,-5.84411,0.80131,-0.37951002,1,-0.0234375,0,0,0,false,true,false,1422.0499,-4367.08,17.01,-0.0015294247,0.0044965623,0.31570733,0.9488447,656.03094,490.451,8.321,0.00021,0.00040999998,-0.06701,1,-0.0859375,0,0,0,false,true,false,2390.02,-3660.28,17.01,-0.004075769,-0.0025220674,0.86245435,-0.5061121,-746.91095,-1230.6909,8.151,0.00021,0,0.51531
62.075,2001.4299,-4279.82,93.15,-0.0067300503,-0.5794815,0.71132827,0.3977032,73.081,533.081,0,-5.84191,0.80091,-0.37951002,1,-0.0234375,0,0,0,false,true,false,1433.0299,-4358.87,17.01,-0.0015240299,0.0044965623,0.31518406,0.9490186,666.501,497.421,8.321,0.00030999997,0.00051,-0.064009994,1,-0.1640625,0,0,0,false,true,false,2377.53,-3681.01,17.01,-0.0040649786,-0.0025382515,0.86047965,-0.5094622,-740.58093,-1253.0609,8.151,0,-0.00010999999,0.33461002
62.091667,2002.6499,-4270.94,93.15,-0.02316264,-0.541502,0.7374448,0.4030063,73.041,532.881,0,-5.83981,0.80051,-0.37951002,1,-0.0234375,0,0,0,false,true,false,1444.1799,-4350.55,17.01,-0.0015132403,0.0044965623,0.31468233,0.94918513,676.85095,504.201,8.321,0.00021,0.00051,-0.062009998,1,-0.203125,0,0,0,false,true,false,2365.14,-3702.0999,17.01,-0.0040595834,-0.0025490408,0.85925925,-0.5115175,-737.621,-1273.491,8.151,0,-0.00021,0.15771
62.108334,2003.87,-4262.06,93.15,-0.039530538,-0.5022278,0.76176393,0.4073329,73.001,532.68097,0,-5.83761,0.80011,-0.37951002,1,-0.015625,0,0,0,false,true,false,1455.5,-4342.12,17.01,-0.0015132404,0.0044965628,0.31419683,0.949346,687.05096,510.811,8.321,0.00010999999,0.00051,-0.06051,1,-0.2421875,0,0,0,false,true,false,2352.78,-3723.52,17.01,-0.004059584,-0.002549041,0.8587578,-0.5123592,-737.43097,-1292.371,8.151,0,-0.00040999998,0.0076099997
62.125,2005.09,-4253.1797,93.15,-0.05579589,-0.46175048,0.784233,0.41067237,72.971,532.48096,0,-5.8354096,0.79971,-0.37951002,1,-0.015625,0,0,0,false,true,false,1467,-4333.58,17.01,-0.0015132403,0.0044965623,0.31373283,0.94949937,696.99097,517.441,8.321,0.00010999999,0.00051,-0.05391,1,-0.2734375,0,0,0,false,true,false,2340.41,-3745.25,17.01,-0.0040595834,-0.0025490408,0.85887676,-0.5121595,-740.22095,-1309.611,8.151,-0.00010999999,-0.00061,-0.123009995
62.141666,2006.3099,-4244.3,93.15,-0.07192102,-0.4201726,0.8047965,0.4130191,72.931,532.28094,0,-5.83321,0.79930997,-0.37951002,1,-0.015625,0,0,0,false,true,false,1478.6599,-4324.9297,17.01,-0.0015132402,0.004496562,0.31331202,0.94963825,706.811,523.881,8.321,0.00010999999,0.00051,-0.04931,1,-0.2890625,0,0,0,false,true,false,2327.99,-3767.26,17.01,-0.0040703737,-0.0025382515,0.8595321,-0.51105905,-745.91095,-1325.271,8.151,-0.00030999997,-0.00081,-0.23561
62.158333,2007.5299,-4235.4297,93.15,-0.087873474,-0.3775967,0.82340646,0.4143678,72.891,532.081,0,-5.83101,0.79891,-0.37951002,1,-0.015625,0,0,0,false,true,false,1490.48,-4316.17,17.01,-0.0015132403,0.0044965623,0.31292903,0.9497646,716.49097,530.18097,8.321,0.00010999999,0.00061,-0.04601,1,-0.3125,0,0,0,false,true,false,2315.46,-3789.52,17.01,-0.004081163,-0.0025220672,0.86063606,-0.50919783,-754.15094,-1339.511,8.151,-0.00051,-0.0010099999,-0.32591
62.175,2008.75,-4226.57,93.15,-0.10360474,-0.33411986,0.84002554,0.41471305,72.861,531.881,0,-5.8288097,0.79851,-0.37951002,1,-0.015625,0,0,0,false,true,false,1502.46,-4307.31,17.01,-0.0015132403,0.0044965623,0.31256756,0.94988364,726.011,536.35095,8.321,0.00010999999,0.00061,-0.04361,1,-0.328125,0,0,0,false,true,false,2302.78,-3812.02,17.01,-0.0040919525,-0.002500488,0.8621058,-0.50670546,-764.98096,-1352.281,8.151,-0.00051,-0.00111,-0.40441
62.191666,2009.97,-4217.71,93.15,-0.119082496,-0.28986079,0.8546075,0.4140603,72.821,531.68097,0,-5.82661,0.79811,-0.37951002,1,0,0,0,0,false,true,false,1514.6,-4298.34,17.01,-0.0015132403,0.0044965623,0.3122277,0.9499954,735.371,542.42096,8.321,0.00010999999,0.00061,-0.041909996,1,-0.3515625,0,0,0,false,true,false,2289.91,-3834.73,17.01,-0.0041027423,-0.0024789087,0.8638807,-0.50367355,-778.061,-1363.731,8.151,-0.00051,-0.00111,-0.46961
62.208332,2011.19,-4208.85,93.15,-0.13426888,-0.24491659,0.86712515,0.41240948,72.791,531.48096,0,-5.82441,0.79771,-0.37951002,1,0,0,0,0,false,true,false,1526.9,-4289.27,17.01,-0.0015132403,0.0045019574,0.3119202,0.95009637,744.33093,548.701,8.321,0.00021,0.00071,-0.02951,1,-0.3828125,0,0,0,false,true,false,2276.81,-3857.6199,17.01,-0.0041189264,-0.0024573293,0.86591554,-0.5001669,-793.321,-1373.8209,8.151,-0.00040999998,-0.00111,-0.52991
62.225,2012.4099,-4199.9897,93.15,-0.14912622,-0.19939514,0.87755036,0.40976608,72.751,531.28094,0,-5.82221,0.79731,-0.37951002,1,0,0,0,0,false,true,false,1539.34,-4280.1,17.01,-0.0015132403,0.004507352,0.3117044,0.9501672,753.191,554.811,8.321,0.00030999997,0.00061,-0.02091,1,-0.4453125,0,0,0,false,true,false,2263.44,-3880.67,17.01,-0.004140506,-0.0024357503,0.8681846,-0.49621794,-810.68097,-1382.5509,8.151,-0.00040999998,-0.00091,-0.59061
62.241665,2013.63,-4191.13,93.15,-0.1636167,-0.1534151,0.8858572,0.40614066,72.711,531.081,0,-5.8200097,0.79691,-0.37951002,1,0,0,0,0,false,true,false,1551.9299,-4270.83,17.01,-0.0015132403,0.004507352,0.31155336,0.9502167,761.91095,560.811,8.321,0.00030999997,0.00061,-0.014909999,1,-0.5625,0,0,0,false,true,false,2249.78,-3903.8599,17.01,-0.0041566896,-0.0024033813,0.8707042,-0.49178332,-830.48096,-1389.5809,8.151,-0.00040999998,-0.00051,-0.66871
62.258335,2014.85,-4182.28,93.15,-0.17771336,-0.10708444,0.8920299,0.4015389,72.681,530.881,0,-5.81781,0.79640996,-0.37951002,1,0,0,0,0,false,true,false,1564.6699,-4261.46,17.01,-0.0015132404,0.0045073526,0.31144547,0.9502521,770.47095,566.71094,8.321,0.00030999997,0.00061,-0.010709999,1,0,0,0,0,true,false,false,2235.77,-3927.16,17.01,-0.0041674795,-0.0023710127,0.87356406,-0.48668525,-853.41095,-1394.281,8.151,0,0,-0.78821
62.275,2016.07,-4173.44,93.15,-0.19137841,-0.06051094,0.8960552,0.39597684,72.641,530.68097,0,-5.81571,0.79611,-0.37951002,1,0.007874016,0,0,0,false,true,false,1577.5499,-4251.9897,17.01,-0.0015132403,0.004507352,0.31136453,0.9502786,778.86096,572.55096,8.321,0.00030999997,0.00061,-0.00771,0,0,0,0,0,true,false,false,2221.51,-3950.43,22.109999,-0.004183665,-0.0023386443,0.8765065,-0.48136607,-860.28094,-1393.511,307.851,-0.00091,-0.0016099999,-0.57931
62.291668,2017.2799,-4164.6,93.15,-0.20457418,-0.013808024,0.8979284,0.38946536,72.601,530.48096,0,-5.81351,0.79570997,-0.37951002,1,0.007874016,0,0,0,false,true,false,1590.5599,-4242.42,17.01,-0.0015132403,0.004507352,0.31131598,0.9502945,786.97095,578.48096,8.321,0.00030999997,0.00061,0,0,0,0,0,0,true,false,false,2207.16,-3973.6099,27.34,-0.004205243,-0.0023062753,0.8786754,-0.47739542,-862.42096,-1381.981,315.891,-0.0010099999,-0.00291,-0.45011
62.308334,2018.48,-4155.76,93.15,-0.21727897,0.03291104,0.89764297,0.38202587,72.571,530.28094,0,-5.81131,0.79521,-0.37951002,1,0.007874016,0,0,0,false,true,false,1603.71,-4232.75,17.01,-0.0015132403,0.004507352,0.31132677,0.950291,794.941,584.30096,8.321,0.00030999997,0.00061,0.00521,1,0,0,0,0,false,false,false,2192.77,-3996.5999,32.71,-0.0042322176,-0.0022739065,0.8803711,-0.47426105,-863.571,-1376.261,323.931,-0.0010099999,-0.00341,-0.40501
62.325,2019.6799,-4146.92,93.15,-0.22945505,0.07952772,0.89520544,0.3736747,72.531,530.081,0,-5.8091097,0.79491,-0.37951002,1,0.007874016,0,0,0,false,true,false,1616.99,-4222.9897,17.01,-0.0015132403,0.004507352,0.31137532,0.95027506,802.761,590.05096,8.321,0.00030999997,0.00061,0.008909999,1,0,0,0,0,false,false,false,2178.3699,-4019.5498,37.969997,-0.0042591915,-0.0022415377,0.88192844,-0.4713586,-864.17096,-1377.1809,313.071,-0.00081,-0.00301,-0.39211
62.341667,2020.88,-4138.08,93.15,-0.24108088,0.12593932,0.89062196,0.36443332,72.491,529.881,0,-5.80691,0.79451,-0.37951002,1,0.007874016,0,0,0,false,true,false,1630.4,-4213.13,17.01,-0.0015132403,0.004507352,0.31145623,0.95024854,810.42096,595.73096,8.321,0.00030999997,0.00061,0.01151,1,0,-1,-1,0,true,false,false,2163.96,-4042.51,43.05,-0.0042807707,-0.0022091689,0.88342774,-0.46854252,-864.78094,-1378.101,302.211,-0.00061,-0.00261,-0.37961
62.358334,1988.58,-4156.3,100.6,-0.26039436,0.16170692,0.87416834,0.37666342,-2400.741,-1264.101,517.61096,-4.5637097,-1.16161,-2.77031,1,0.007874016,0,0,0,false,true,false,1643.94,-4203.1797,17.01,-0.0015132404,0.0045073526,0.311548,0.9502185,817.92096,601.36096,8.321,0.00030999997,0.00061,0.013309999,1,0,-1,-1,0,true,false,false,2142.3298,-4061.1199,46.93,0.0112401415,0.025676616,0.8998569,-0.4352835,-1310.8309,-1128.3109,232.501,-3.3566098,-1.04041,-4.05661
62.375,1948.58,-4177.36,109.09,-0.27916825,0.1971347,0.8559045,0.38811123,-2399.521,-1263.4609,506.511,-4.5637097,-1.16161,-2.77031,1,1,0,0,0,false,false,false,1657.61,-4193.14,17.01,-0.0015132403,0.004507352,0.31165585,0.9501831,825.261,606.92096,8.321,0.00030999997,0.00061,0.014609999,1,0,-1,-1,0,true,false,false,2120.47,-4079.94,50.67,-0.0060557,0.061535988,0.91231805,-0.40478653,-1311.531,-1129.161,221.711,-2.35131,-3.93131,-3.04391
62.391666,1908.6,-4198.4097,117.39,-0.2973704,0.2321579,0.83586353,0.3987552,-2398.301,-1262.8209,495.411,-4.5637097,-1.16161,-2.77031,1,1,0,0,0,false,false,false,1671.32,-4182.92,17.01,-0.0015024507,0.004512747,0.31324193,0.9496614,814.96094,629.131,8.341001,0.00411,0.00351,0.66401,1,0,-1,-1,0,true,false,false,2098.5999,-4098.77,54.23,-0.04455309,0.097929366,0.9179977,-0.38171288,-1312.281,-1129.971,210.901,-1.43041,-5.03891,-1.67711
62.408333,1868.64,-4219.4497,125.509995,-0.3149521,0.26669544,0.8140922,0.40857372,-2397.0808,-1262.1809,484.311,-4.5637097,-1.16161,-2.77031,1,1,0,0,0,false,false,false,1684.87,-4172.36,17.01,-0.0014862664,0.004523536,0.31944054,0.9475943,807.90094,648.311,8.341001,0.00401,0.00341,1.11011,1,0,-1,-1,0,true,false,false,2076.72,-4117.61,57.61,-0.09256155,0.13082701,0.91650355,-0.36652115,-1313.0609,-1130.751,200.041,-0.94521,-5.37151,-0.70950997
62.425,1828.7,-4240.48,133.44,-0.33188102,0.30068284,0.790633,0.41754535,-2395.8608,-1261.5409,473.231,-4.5637097,-1.16161,-2.77031,1,1,0,0,0,false,false,false,1698.2999,-4161.48,17.01,-0.0014916611,0.004523536,0.32888693,0.9443572,800.691,667.68097,8.341001,0.00271,0.00241,1.43691,1,0,-1,-1,0,true,false,false,2054.82,-4136.4697,60.809998,-0.14401732,0.16074124,0.90912455,-0.3562494,-1313.841,-1131.511,189.101,-0.73991,-5.44861,-0.119009994
62.441666,1788.7799,-4261.5,141.19,-0.34812483,0.33404973,0.7655316,0.42565373,-2394.6409,-1260.901,462.151,-4.5637097,-1.16161,-2.77031,1,1,0,0,0,false,false,false,1711.61,-4150.27,17.01,-0.0015240299,0.004512747,0.34067455,0.94016916,792.071,688.201,8.341001,0.00131,0.00131,1.67511,1,0,-1,-1,0,true,false,false,2032.9099,-4155.34,63.82,-0.19636324,0.18864869,0.8969081,-0.34843773,-1314.611,-1132.271,178.08101,-0.67171,-5.45431,0.22181
62.458332,1748.88,-4282.5,148.76,-0.3636457,0.3667208,0.73884684,0.43287742,-2393.421,-1260.261,451.07098,-4.5637097,-1.16161,-2.77031,1,1,0,0,0,false,false,false,1724.77,-4138.6997,17.01,-0.0015779779,0.0044965623,0.35412925,0.9351843,781.34094,710.22095,8.341001,0.00021,0.00040999998,1.84911,0,0,0,0,0,false,false,false,2010.99,-4174.2197,66.65,-0.24850412,0.2151588,0.880522,-0.34151617,-1315.341,-1133.0409,166.981,-0.66131,-5.44441,0.41281
62.475,1709,-4303.5,156.14,-0.37841135,0.39863113,0.7106344,0.43920016,-2392.201,-1259.621,440.001,-4.5637097,-1.16161,-2.77031,1,1,0,0,0,false,false,false,1737.74,-4126.76,17.01,-0.0016481102,0.004474983,0.3687654,0.9295102,768.131,733.691,8.341001,-0.00040999998,-0.00021,1.97701,0,0,0,0,0,false,false,false,1989.07,-4193.1,69.299995,-0.2997063,0.24080572,0.8600602,-0.33538762,-1315.341,-1133.0409,156.141,-0.73641,-5.4173098,0.60021
62.491665,1669.1499,-4324.48,163.33,-0.39238936,0.42971602,0.6809485,0.44461653,-2390.981,-1258.981,428.941,-4.5637097,-1.16161,-2.77031,1,1,0,0,0,false,false,false,1750.48,-4114.4297,17.01,-0.0017290321,0.0044426145,0.38422692,0.9232263,752.311,758.381,8.341001,-0.00081,-0.00061,2.07181,0,0,0,0,0,false,false,false,1967.1499,-4211.98,71.77,-0.34968933,0.26566502,0.83586323,-0.32935086,-1315.341,-1133.0409,145.30101,-0.78971,-5.39841,0.69531
62.508335,1629.32,-4345.46,170.34,-0.40555805,0.45991087,0.6498496,0.44911042,-2389.761,-1258.341,417.881,-4.5637097,-1.16161,-2.77031,1,1,0,0,0,false,false,false,1762.95,-4101.6797,17.01,-0.0018153489,0.0044102455,0.40025494,0.9163914,733.871,783.96094,8.341001,-0.00091,-0.00081,2.14271,0,0,0,0,0,false,false,false,1945.23,-4230.86,72.95,-0.39827505,0.2896342,0.8082602,-0.32280692,-1315.341,-1133.0409,52.440998,-0.82501,-5.38681,0.74251
62.525,1589.51,-4366.42,177.17,-0.4178852,0.48915073,0.6174038,0.45267633,-2388.541,-1257.7009,406.82098,-4.5637097,-1.16161,-2.77031,1,1,0,0,0,false,false,false,1775.1,-4088.51,17.01,-0.0019016658,0.0043778773,0.416666,0.90904707,712.8909,810.10095,8.341001,-0.00091,-0.00091,2.19621,0,0,0,0,0,false,false,false,1923.3099,-4249.7397,73.299995,-0.4453016,0.3125999,0.7774852,-0.315443,-1315.341,-1133.0409,13.211,-0.84731,-5.38011,0.76531
62.541668,1549.72,-4387.38,183.81,-0.42934918,0.51737636,0.5836774,0.4553037,-2387.321,-1257.0609,395.781,-4.5637097,-1.16161,-2.77031,1,1,0,0,0,false,false,false,1786.89,-4074.9,17.01,-0.001987982,0.004334718,0.43331435,0.90123004,689.49097,836.46094,8.341001,-0.00091,-0.0010099999,2.23681,0,0,0,0,0,false,false,false,1901.57,-4268.33,74.46,-0.47954798,0.33244208,0.7495853,-0.31247047,-1293.531,-1097.601,135.33101,-1.75631,-3.9272099,0.94251
62.558334,1509.95,-4408.32,190.26999,-0.43992305,0.54452854,0.54874325,0.45698687,-2386.1008,-1256.4209,384.741,-4.5637097,-1.16161,-2.77031,1,1,0,0,0,false,false,false,1798.2799,-4060.8499,17.01,-0.002074299,0.00429156,0.45009762,0.89296657,663.821,862.751,8.341001,-0.00091,-0.0010099999,2.26791,0,0,0,0,0,false,false,false,1880.01,-4286.63,75.549995,-0.5165078,0.3560444,0.7140916,-0.31068477,-1293.531,-1097.601,48.231,-1.55251,-5.17521,1.02761
62.575,1470.2,-4429.25,196.54,-0.4495851,0.5705592,0.5126667,0.45772055,-2384.8809,-1255.781,373.701,-4.5637097,-1.16161,-2.77031,1,1,0,0,0,false,false,false,1809.23,-4046.3599,17.01,-0.002160616,0.004248402,0.4669349,0.88427883,636.03094,888.691,8.341001,-0.00091,-0.0010099999,2.29181,0,0,0,0,0,false,false,false,1858.57,-4304.73,76.979996,-0.5537806,0.37918815,0.67448205,-0.30759895,-1286.6809,-1085.721,83.090996,-1.50791,-5.18301,1.05471
62.591667,1430.47,-4450.17,202.62999,-0.45831397,0.5954073,0.47552887,0.45750475,-2383.661,-1255.141,362.671,-4.5637097,-1.16161,-2.77031,1,1,0,0,0,false,false,false,1819.71,-4031.44,17.01,-0.0022469328,0.0042052437,0.48377213,0.87518096,606.28094,914.061,8.341001,-0.00081,-0.0010099999,2.31041,0,0,0,0,0,false,false,false,1837.13,-4322.83,78.229996,-0.5921431,0.3994349,0.6320462,-0.3005587,-1286.6809,-1085.721,72.251,-1.19911,-5.2635098,1.0520099
62.608334,1390.76,-4471.08,208.54,-0.46609327,0.619019,0.43740907,0.45633948,-2382.441,-1254.501,351.651,-4.5637097,-1.16161,-2.77031,1,1,0,0,0,false,false,false,1829.6799,-4016.0999,17.01,-0.0023332492,0.0041620852,0.50056076,0.86568815,574.71094,938.6409,8.341001,-0.00071,-0.0010099999,2.32491,0,0,0,0,0,false,false,false,1815.7799,-4340.75,79.96,0.62292975,-0.4148803,-0.5928823,0.2971923,-1275.281,-1064.911,140.501,-1.95021,-4.63171,1.62961
62.625,1351.07,-4491.98,214.26,-0.47290698,0.64134616,0.39838296,0.45423016,-2381.221,-1253.861,340.631,-4.5637097,-1.16161,-2.77031,1,1,0,0,0,false,false,false,1839.12,-4000.3599,17.01,-0.002419566,0.004108137,0.5172577,0.8558163,541.47095,962.28094,8.341001,-0.00061,-0.00091,2.33621,0,0,0,0,0,false,false,false,1794.5399,-4358.4697,82.24,0.6556991,-0.43049827,-0.5456776,0.29489952,-1274.641,-1063.7109,134.171,-1.50481,-5.07831,1.48171
62.641666,1311.4,-4512.87,219.79999,-0.47873875,0.66234654,0.35852602,0.45118198,-2380.001,-1253.221,329.611,-4.5637097,-1.16161,-2.77031,1,1,0,0,0,false,false,false,1848,-3984.23,17.01,-0.0025058826,0.004054189,0.53383595,0.84557456,506.701,984.821,8.341001,-0.00061,-0.00081,2.34501,0,0,0,0,0,false,false,false,1773.2999,-4376.19,84.34,0.6884596,-0.4439206,-0.49652007,0.28709868,-1274.641,-1063.7109,123.33099,-1.16011,-5.19491,1.38421
62.658333,1271.75,-4533.75,225.15999,-0.4835779,0.68197453,0.31792998,0.44719523,-2378.781,-1252.5809,318.611,-4.5637097,-1.16161,-2.77031,1,1,0,0,0,false,false,false,1856.2899,-3967.72,17.01,-0.0025921997,0.0040002414,0.55026865,0.83497405,470.521,1006.1409,8.341001,-0.00051,-0.00061,2.35181,0,0,0,0,0,false,false,false,1752.0599,-4393.9097,86.259995,0.719535,-0.4549476,-0.44625652,0.2759475,-1274.641,-1063.7109,112.491,-0.96501,-5.24231,1.35531
62.675,1232.12,-4554.61,230.33,-0.4874136,0.7001901,0.2766759,0.44228056,-2377.561,-1251.9409,307.611,-4.5637097,-1.16161,-2.77031,1,1,0,0,0,false,false,false,1863.98,-3950.8699,17.01,-0.0026785163,0.003946293,0.5665394,0.82402074,433.061,1026.141,8.341001,-0.00040999998,-0.00051,2.35721,0,0,0,0,0,false,false,false,1730.82,-4411.63,88,0.74840766,-0.46377352,-0.3947738,0.26259,-1274.641,-1063.7109,101.651,-0.85741,-5.2614098,1.35341
62.691666,1192.51,-4575.4697,235.31999,-0.49024588,0.71694815,0.23484449,0.43645418,-2376.3408,-1251.3009,296.611,-4.5637097,-1.16161,-2.77031,1,1,0,0,0,false,false,false,1871.0399,-3933.69,17.01,-0.002764833,0.0038923454,0.5826213,0.81272966,394.441,1044.721,8.341001,-0.00021,-0.00040999998,2.36141,0,0,0,0,0,false,false,false,1709.58,-4429.35,89.56,0.774749,-0.47054937,-0.34207183,0.24765714,-1274.641,-1063.7109,90.811,-0.79930997,-5.26891,1.35991
62.708332,1152.9199,-4596.31,240.12999,-0.49205846,0.7322233,0.19252753,0.42972133,-2375.1208,-1250.6609,285.621,-4.5637097,-1.16161,-2.77031,1,1,0,0,0,false,false,false,1877.45,-3916.2,17.01,-0.00284036,0.003838397,0.59850895,0.80110174,354.771,1061.8209,8.341001,-0.00010999999,-0.00030999997,2.3647099,0,0,0,0,0,false,false,false,1688.34,-4447.07,90.939995,0.7983493,-0.47536698,-0.28823155,0.23148885,-1274.641,-1063.7109,79.971,-0.76861,-5.2715096,1.36741
62.725,1113.35,-4617.15,244.75,-0.49285156,0.74598026,0.14981137,0.42209855,-2373.901,-1250.021,274.641,-4.5637097,-1.16161,-2.77031,1,1,0,0,0,false,false,false,1883.2,-3898.43,17.01,-0.0029158874,0.0037844495,0.6141864,0.7891464,314.141,1077.361,8.341001,-0.00010999999,-0.00030999997,2.36731,0,0,0,0,0,false,false,false,1667.1,-4464.79,92.14,0.8190517,-0.4782856,-0.23338786,0.21430643,-1274.641,-1063.7109,69.131,-0.75260997,-5.2722096,1.37361
62.741665,1073.7999,-4637.9697,249.18999,-0.49261957,0.7581962,0.10678232,0.41359633,-2372.681,-1249.381,263.661,-4.5637097,-1.16161,-2.77031,1,1,0,0,0,false,false,false,1888.2699,-3880.41,17.01,-0.0029914144,0.0037251068,0.6296371,0.7768746,272.661,1091.2909,8.341001,0,-0.00030999997,2.36931,0,0,0,0,0,false,false,false,1645.86,-4482.51,93.159996,0.83673835,-0.4793484,-0.17771335,0.19624455,-1274.641,-1063.7109,58.290997,-0.74441,-5.2722096,1.37801
62.758335,1034.27,-4658.79,253.45,-0.491368,0.7688361,0.06353746,0.40424168,-2371.461,-1248.741,252.681,-4.5637097,-1.16161,-2.77031,1,1,0,0,0,false,false,false,1892.64,-3862.17,17.01,-0.0030669419,0.0036603694,0.644856,0.76428914,230.421,1103.5709,8.341001,0,-0.00030999997,2.37081,0,0,0,0,0,false,false,false,1624.62,-4500.23,94,0.8513256,-0.47857693,-0.12139147,0.17740585,-1274.641,-1063.7109,47.451,-0.74031,-5.27201,1.3809099
62.775,994.75995,-4679.59,257.52,-0.4890968,0.7778855,0.020163136,0.39404556,-2370.241,-1248.101,241.72101,-4.5637097,-1.16161,-2.77031,1,1,0,0,0,false,false,false,1896.2999,-3843.73,17.01,-0.0031424686,0.0035956316,0.65983194,0.7513979,187.531,1114.141,8.341001,0,-0.00021,2.3719099,0,0,0,0,0,false,false,false,1603.38,-4517.9497,94.659996,0.86274314,-0.4759928,-0.064627215,0.1578874,-1274.641,-1063.7109,36.611,-0.73841,-5.27181,1.38271
62.791668,955.26996,-4700.38,261.41,-0.48581135,0.7853221,-0.023254354,0.38303465,-2369.021,-1247.4609,230.761,-4.5637097,-1.16161,-2.77031,1,1,0,0,0,false,false,false,1899.24,-3825.13,17.01,-0.0032179959,0.0035308942,0.67455983,0.7382046,144.071,1122.981,8.341001,0,-0.00010999999,2.37271,0,0,0,0,0,false,false,false,1582.14,-4535.67,95.13,0.87094086,-0.47161755,-0.0076255864,0.1377701,-1274.641,-1063.7109,25.770998,-0.73750997,-5.27171,1.3838099
62.808334,915.8,-4721.1597,265.12,-0.48152247,0.79112846,-0.06662868,0.37123084,-2367.811,-1246.8209,219.801,-4.5637097,-1.16161,-2.77031,1,1,0,0,0,false,false,false,1901.46,-3806.38,17.01,-0.0032827335,0.0034661565,0.68902326,0.72472334,100.131,1130.0609,8.341001,0,-0.00010999999,2.3733099,0,0,0,0,0,false,false,false,1560.9,-4553.39,95.42,0.8758881,-0.4654675,0.04940302,0.11712955,-1274.641,-1063.7109,14.931,-0.73711,-5.2715096,1.3845099
62.825,876.35,-4741.9297,268.65,-0.47623554,0.79529613,-0.109862745,0.35865548,-2366.6108,-1246.1809,208.841,-4.5637097,-1.16161,-2.77031,1,1,0,0,0,false,false,false,1902.94,-3787.52,17.01,-0.003347471,0.003401419,0.70322245,0.7109538,55.801,1135.371,8.341001,0,-0.00010999999,2.37371,0,0,0,0,0,false,false,false,1539.6599,-4571.11,95.53,0.8775627,-0.45756945,0.10624282,0.096051976,-1274.641,-1063.7109,4.0909996,-0.73691,-5.2715096,1.38491
62.841667,836.92,-4762.69,271.99,-0.4699613,0.7978135,-0.15287021,0.3453411,-2365.411,-1245.5409,197.901,-4.5637097,-1.16161,-2.77031,1,1,0,0,0,false,false,false,1903.69,-3768.5798,17.01,-0.0034122085,0.0033366815,0.7171473,0.69690514,11.1710005,1138.881,8.341001,0,-0.00010999999,2.37391,0,0,0,0,0,false,false,false,1518.4199,-4588.83,95.47,0.87595475,-0.44796127,0.16268337,0.07461838,-1274.641,-1063.7109,-6.271,-0.73680997,-5.27141,1.38511
62.858334,797.51,-4783.44,275.15,-0.46271613,0.79867667,-0.19555943,0.33130917,-2364.211,-1244.901,186.961,-4.5637097,-1.16161,-2.77031,1,1,0,0,0,false,false,false,1903.69,-3749.5898,17.01,-0.0034769464,0.0032719441,0.7307934,0.68258196,-33.661,1140.5709,8.341001,0,-0.00021,2.3740098,0,0,0,0,0,false,false,false,1497.1799,-4606.55,95.29,0.8710696,-0.4366807,0.21851434,0.05290423,-1274.641,-1063.7109,-11.581,-0.73680997,-5.27141,1.38521
62.875,758.12,-4804.1797,278.13,-0.45450523,0.7978897,-0.23784402,0.31658673,-2363.011,-1244.261,176.021,-4.5637097,-1.16161,-2.77031,1,1,0,0,0,false,false,false,1902.94,-3730.5798,17.01,-0.0035416838,0.0031964167,0.74415106,0.66799426,-78.641,1140.4409,8.341001,0,-0.00021,2.3740098,0,0,0,0,0,false,false,false,1475.94,-4624.27,95.06,0.86292976,-0.42376015,0.27353066,0.03099049,-1274.641,-1063.7109,-13.821,-0.73680997,-5.27141,1.38521
62.891666,718.75,-4824.9097,280.93,-0.44535553,0.7954449,-0.27963758,0.3012115,-2361.811,-1243.621,165.091,-4.5637097,-1.16161,-2.77031,1,1,0,0,0,false,false,false,1901.44,-3711.5798,17.01,-0.0036064212,0.0031208897,0.7572154,0.65314776,-123.681,1138.481,8.341001,0,-0.00021,2.37391,0,0,0,0,0,false,false,false,1454.7,-4641.9897,94.82,0.8515609,-0.40925887,0.32752204,0.008963454,-1274.641,-1063.7109,-14.771,-0.73680997,-5.27141,1.38521
62.908333,679.39996,-4845.63,283.54,-0.4352835,0.7913528,-0.3208486,0.28521046,-2360.6108,-1242.981,154.171,-4.5637097,-1.16161,-2.77031,1,1,0,0,0,false,false,false,1899.19,-3692.6199,17.01,-0.003671159,0.0030453627,0.76998645,0.63804233,-168.69101,1134.6909,8.341001,0,-0.00010999999,2.37371,0,0,0,0,0,false,false,false,1433.46,-4659.71,94.56,0.837008,-0.39322552,0.3802887,-0.013101305,-1274.641,-1063.7109,-15.1710005,-0.73680997,-5.27141,1.38521
62.925,640.07,-4866.34,285.97,-0.42430496,0.7856211,-0.361396,0.26862136,-2359.411,-1242.341,143.251,-4.5637097,-1.16161,-2.77031,1,1,0,0,0,false,false,false,1896.19,-3673.73,17.01,-0.0037358964,0.0029698352,0.7824551,0.6226886,-213.601,1129.0709,8.341001,0,0,2.37351,0,0,0,0,0,false,false,false,1412.22,-4677.4297,94.299995,0.819324,-0.3757193,0.43163663,-0.035112157,-1274.641,-1063.7109,-15.341,-0.73680997,-5.27141,1.38521
62.941666,600.76,-4887.04,288.22,-0.4124472,0.7782628,-0.4011936,0.25147122,-2358.211,-1241.7009,132.33101,-4.5637097,-1.16161,-2.77031,1,1,0,0,0,false,false,false,1892.44,-3654.94,17.01,-0.0037898438,0.002894308,0.794617,0.6070921,-258.331,1121.621,8.341001,0,0,2.3733099,0,0,0,0,0,false,false,false,1390.98,-4695.15,94.04,0.7985734,-0.35681045,0.48137143,-0.056993537,-1274.641,-1063.7109,-15.411,-0.73680997,-5.27141,1.38521
62.958332,561.47,-4907.7197,290.29,-0.399737,0.7692886,-0.44016033,0.23380327,-2357.011,-1241.0609,121.431,-4.5637097,-1.16161,-2.77031,1,1,0,0,0,false,false,false,1887.95,-3636.28,17.01,-0.0038437922,0.002818781,0.806468,0.5912584,-302.801,1112.351,8.341001,-0.00010999999,0,2.37291,0,0,0,0,0,false,false,false,1369.74,-4712.87,93.78,0.77483594,-0.3365691,0.5293043,-0.07865912,-1274.641,-1063.7109,-15.441,-0.73680997,-5.27141,1.38521
62.975,522.2,-4928.4,292.18,-0.38619602,0.75872105,-0.4782154,0.2156497,-2355.811,-1240.4209,110.531,-4.5637097,-1.16161,-2.77031,1,1,0,0,0,false,false,false,1882.72,-3617.78,17.01,-0.0038977403,0.0027432537,0.8180002,0.57519805,-346.931,1101.281,8.341001,-0.00010999999,0,2.37251,0,0,0,0,0,false,false,false,1348.5,-4730.59,93.52,0.7482018,-0.3150654,0.57525736,-0.10003339,-1274.641,-1063.7109,-15.451,-0.73680997,-5.27141,1.38521
62.991665,482.94998,-4949.06,293.88998,-0.37185666,0.746581,-0.51527786,0.1970484,-2354.6108,-1239.781,99.631,-4.5637097,-1.16161,-2.77031,1,1,0,0,0,false,false,false,1876.76,-3599.47,17.01,-0.0039516874,0.0026677265,0.82921016,0.5589164,-390.641,1088.4209,8.341001,-0.00010999999,0,2.37211,0,0,0,0,0,false,false,false,1327.26,-4748.31,93.259995,0.7187686,-0.29238558,0.61905795,-0.12103542,-1274.641,-1063.7109,-15.451,-0.73680997,-5.27141,1.38521
63.008335,443.72,-4969.7197,295.41,-0.35674575,0.7328945,-0.5512721,0.17803705,-2353.411,-1239.141,88.741,-4.5637097,-1.16161,-2.77031,1,1,0,0,0,false,false,false,1870.0599,-3581.39,17.01,-0.004005636,0.0025921995,0.8400943,0.5424192,-433.871,1073.781,8.341001,-0.00010999999,0,2.37171,0,0,0,0,0,false,false,false,1306.02,-4766.03,92.96,0.69115436,-0.27204174,0.655036,-0.1386603,-1274.641,-1063.7109,-20.860998,-0.72061,-5.10821,1.29791
63.025,404.50998,-4990.36,296.75,-0.34089577,0.7176847,-0.58612794,0.15865885,-2352.211,-1238.501,77.861,-4.5637097,-1.16161,-2.77031,1,1,0,0,0,false,false,false,1862.6499,-3563.5598,17.01,-0.004059584,0.0025166722,0.8506495,0.5257114,-476.521,1057.391,8.341001,0,0,2.37131,0,0,0,0,0,false,false,false,1284.78,-4783.75,92.479996,0.66740626,-0.2556145,0.68273497,-0.15199627,-1274.641,-1063.7109,-31.680998,-0.68391,-4.79871,1.1353099
63.041668,365.31998,-5010.9897,297.91,-0.32434446,0.70098364,-0.61977,0.13895157,-2351.011,-1237.861,66.980995,-4.5637097,-1.16161,-2.77031,1,1,0,0,0,false,false,false,1854.5299,-3546.01,17.01,-0.004108137,0.0024411452,0.8608722,0.5087986,-518.55096,1039.281,8.341001,0,0,2.37091,0,0,0,0,0,false,false,false,1263.5399,-4801.4697,91.82,0.64383626,-0.24020153,0.7077714,-0.16382171,-1274.641,-1063.7109,-42.501,-0.64281,-4.51011,0.98801
63.058334,326.15,-5031.61,298.88998,-0.30711344,0.6828367,-0.65212274,0.11895838,-2349.811,-1237.221,56.100998,-4.5637097,-1.16161,-2.77031,1,1,0,0,0,false,false,false,1845.72,-3528.77,17.01,-0.0041512954,0.0023548284,0.8707562,0.49169168,-559.871,1019.46094,8.341001,0,0,2.3705099,0,0,0,0,0,false,false,false,1242.2999,-4819.19,90.979996,0.6206116,-0.22579734,0.73039746,-0.17428765,-1274.641,-1063.7109,-53.321,-0.59881,-4.24071,0.85530996
63.075,287,-5052.2197,299.69,0.28925118,-0.6632738,0.6831225,-0.098717056,-2348.6108,-1236.5809,45.240997,-4.5637097,-1.16161,-2.77031,1,1,0,0,0,false,false,false,1836.21,-3511.8599,17.01,-0.0041944534,0.0022685116,0.88029855,0.4743958,-600.41095,997.97095,8.341001,0,-0.00010999999,2.37011,0,0,0,0,0,false,false,false,1221.0599,-4836.9097,89.96,0.5978455,-0.21238583,0.7508568,-0.18353978,-1274.641,-1063.7109,-64.141,-0.55311,-3.9890099,0.73601
63.091667,247.87,-5072.82,300.31,0.2707847,-0.64233655,0.7127082,-0.078270696,-2347.411,-1235.9409,34.381,-4.5637097,-1.16161,-2.77031,1,1,0,0,0,false,false,false,1826.0399,-3495.3198,17.01,-0.0042376127,0.0021821952,0.8894967,0.45691675,-640.11096,974.84094,8.341001,0,-0.00010999999,2.36971,0,0,0,0,0,false,false,false,1199.82,-4854.63,88.759995,0.5756404,-0.1999346,0.76935977,-0.1917021,-1274.641,-1063.7109,-74.961,-0.50671,-3.75361,0.62940997
63.108334,208.76,-5093.4097,300.75,0.25175717,-0.6200667,0.7408174,-0.05766249,-2346.211,-1235.3009,23.520998,-4.5637097,-1.16161,-2.77031,1,1,0,0,0,false,false,false,1815.21,-3479.18,17.01,-0.0042807707,0.0020958781,0.8983449,0.43926486,-678.891,950.10095,8.341001,0,-0.00010999999,2.36931,0,0,0,0,0,false,false,false,1178.58,-4872.35,87.38,0.5540612,-0.18841128,0.7861022,-0.1988988,-1274.641,-1063.7109,-85.781,-0.46041,-3.5334098,0.53441
63.125,169.67,-5113.9897,301.00998,0.23221184,-0.596513,0.76738876,-0.036935598,-2345.011,-1234.6609,12.661,-4.5637097,-1.16161,-2.77031,1,1,0,0,0,false,false,false,1803.73,-3463.45,17.01,-0.004323929,0.0020095615,0.9068435,0.4214404,-716.68097,923.79095,8.341001,0,-0.00010999999,2.3689098,0,0,0,0,0,false,false,false,1157.34,-4890.07,85.81,0.5331508,-0.17777269,0.8012656,-0.20523234,-1274.641,-1063.7109,-96.601,-0.41491,-3.32721,0.44991
63.141666,130.59999,-5134.56,301.09,0.21218087,-0.5717184,0.79237425,-0.01613318,-2343.811,-1234.021,1.821,-4.5637097,-1.16161,-2.77031,1,1,0,0,0,false,false,false,1791.63,-3448.17,17.01,-0.0043670875,0.0019232448,0.914985,0.40345943,-753.43097,895.96094,8.341001,0,-0.00010999999,2.36851,0,0,0,0,0,false,false,false,1136.1,-4907.79,84.06,0.51295257,-0.16797568,0.81500125,-0.21079974,-1274.641,-1063.7109,-107.421,-0.37071002,-3.13391,0.37521002
63.158333,91.549995,-5155.12,300.97998,0.19171293,-0.54574233,0.8157139,0.0047069597,-2342.6108,-1233.381,-9.001,-4.5637097,-1.16161,-2.77031,1,1,0,0,0,false,false,false,1778.9199,-3433.3499,17.01,-0.0044048512,0.0018369282,0.9227675,0.38532746,-789.08093,866.65094,8.341001,0,0,2.36811,0,0,0,0,0,false,false,false,1114.86,-4925.51,82.13,0.49348813,-0.15896635,0.8274527,-0.21568748,-1274.641,-1063.7109,-118.241,-0.32811,-2.95281,0.30911002
63.175,52.52,-5175.67,300.69,0.17084578,-0.51863337,0.83736426,0.02553635,-2341.411,-1232.741,-19.821,-4.5637097,-1.16161,-2.77031,1,1,0,0,0,false,false,false,1765.62,-3419.03,17.01,-0.00443722,0.0017506114,0.9301911,0.36704448,-823.561,835.90094,8.341001,0,0,2.3677099,1,0,-1,0.41732284,-0.0859375,false,false,false,1093.62,-4943.23,80.02,0.47475734,-0.15070154,0.8387534,-0.21997097,-1274.641,-1063.7109,-129.061,-0.28751,-2.7829099,0.25101
63.191666,13.509999,-5196.21,300.22,0.14962797,-0.4904509,0.85727745,0.0463118,-2340.211,-1232.101,-30.640999,-4.5637097,-1.16161,-2.77031,1,1,0,0,0,false,false,false,1751.76,-3405.23,17.01,-0.004469588,0.0016642944,0.93725145,0.34862113,-856.821,803.761,8.341001,0,0,2.36731,1,0,-1,0.41732284,-0.0859375,false,false,false,1072.37,-4960.9697,77.74,0.4566308,-0.14303547,0.8489749,-0.22421128,-1275.151,-1064.271,-139.08101,-0.21981,-2.65371,0.27151
