time,ball_loc_x,ball_loc_y,ball_loc_z,ball_rot_x,ball_rot_y,ball_rot_z,ball_rot_w,ball_vel_x,ball_vel_y,ball_vel_z,ball_ang_x,ball_ang_y,ball_ang_z,player0_throttle,player0_steer,player0_pitch,player0_yaw,player0_roll,player0_jump,player0_boost,player0_handbrake,player0_loc_x,player0_loc_y,player0_loc_z,player0_rot_x,player0_rot_y,player0_rot_z,player0_rot_w,player0_vel_x,player0_vel_y,player0_vel_z,player0_ang_x,player0_ang_y,player0_ang_z,player1_throttle,player1_steer,player1_pitch,player1_yaw,player1_roll,player1_jump,player1_boost,player1_handbrake,player1_loc_x,player1_loc_y,player1_loc_z,player1_rot_x,player1_rot_y,player1_rot_z,player1_rot_w,player1_vel_x,player1_vel_y,player1_vel_z,player1_ang_x,player1_ang_y,player1_ang_z
325.25,-3189,-4740.06,281.32,0.72920656,-0.19751234,-0.54282916,-0.36685562,569.691,-582.18097,639.74097,4.95221,-0.66151,-3.3222098,1,-1,0,0,0,false,false,false,427.18,-5219.11,16.99,-0.004674591,-0.0009090232,0.98124397,-0.19271094,429.091,-1483.721,8.691,0.00151,0.00081,-3.0696099,-1,1,0,0,0,false,false,false,-4076.03,-2882.8098,240.53,0.6826251,0.009513724,0.7306435,0.009616225,35.961,77.471,-445.501,-1.94511,-0.56801,-0.15360999
325.26666,-3179.5,-4749.76,291.84,0.71068776,-0.19302924,-0.5361288,-0.41258755,569.391,-581.881,628.58093,4.95221,-0.66151,-3.3222098,1,-0.9609375,0,0,0,false,false,false,434.21,-5243.63,16.99,-0.00469617,-0.00080112723,0.985929,-0.16709635,399.781,-1433.8009,8.711,0.00241,0.0010099999,-3.31561,-1,0.16535433,0,0,0,false,false,false,-4075.3599,-2881.65,232.95,0.6772896,0.01830193,0.735161,0.021954207,81.090996,48.451,-460.141,-1.45751,-1.60521,-0.44731
325.28333,-3170.02,-4759.46,302.18,0.69038993,-0.188066,-0.5280905,-0.45728898,569.09094,-581.581,617.42096,4.95221,-0.66151,-3.3222098,1,-0.8828125,0,0,0,false,false,false,440.75998,-5267.31,16.99,-0.0047123544,-0.0006932313,0.9902619,-0.13913503,372.57098,-1380.5609,8.731,0.00301,0.00111,-3.63371,-1,-0.6640625,0,0,0,false,false,false,-4074.02,-2881.02,225.12,0.6663488,0.023486327,0.7445945,0.031724177,100.370995,10.4210005,-474.251,-0.77001,-2.0106099,-0.20620999
325.3,-3160.54,-4769.15,312.33,0.6683683,-0.18263346,-0.5187305,-0.50084674,568.79095,-581.28094,606.261,4.95221,-0.66151,-3.3222098,1,-0.7890625,0,0,0,false,false,false,446.86,-5290.08,17.01,-0.0047231433,-0.0005745457,0.99409515,-0.10840614,346.291,-1320.1709,8.691,0.00551,0.00531,-3.80761,-1,-1,0,0,0,false,false,false,-4072.43,-2881,217.04999,0.65357935,0.025919382,0.75554866,0.036169577,107.211,-24.540998,-489.281,-0.10261,-2.05651,0.08271
325.31668,-3151.0598,-4778.83,322.3,0.6446794,-0.1767423,-0.5080704,-0.54315287,568.49097,-580.98096,595.121,4.95221,-0.66151,-3.3222098,0,-0.6875,0,0,0,false,false,false,452.50998,-5311.82,17.01,-0.00469617,-0.00048283426,0.9970479,-0.07663607,307.631,-1257.621,8.581,0.00551,0.00491,-4.03371,-1,-1,0,0,0,false,false,false,-4070.75,-2881.53,208.72,0.64042145,0.025746752,0.7667689,0.03553839,112.421,-52.321,-507.031,0.47071,-2.02701,0.16781
325.33334,-3141.5798,-4788.51,332.08,0.6193746,-0.17040876,-0.49614242,-0.5841049,568.191,-580.68097,583.98096,4.95221,-0.66151,-3.3222098,0,-0.578125,0,0,0,false,false,false,457.61,-5332.52,17.01,-0.0046853805,-0.00036414873,0.99908084,-0.04260557,301.721,-1194.481,14.101,-0.19680999,-0.035509996,-4.23531,-1,-1,0,0,0,false,false,false,-4068.91,-2882.5,200.08,0.62848264,0.022849744,0.77686334,0.031157732,128.83101,-72.491,-526.02094,0.90761,-1.55951,0.44421
325.35,-3132.1199,-4798.19,341.66998,-0.59252083,0.16364904,0.4829737,0.62359786,567.891,-580.381,572.84094,4.95221,-0.66151,-3.3222098,0,-0.4609375,0,0,0,false,false,false,462.62,-5352.1396,17.17,-0.0047015646,0.002473514,0.9999612,-0.0070159747,298.521,-1124.2009,27.690998,-0.70461,-0.054509997,-4.35011,-1,-1,0,0,0,false,false,false,-4066.8298,-2883.76,191.11,0.61873424,0.01834509,0.785044,0.023178827,161.951,-86.491,-533.66095,1.40091,-2.04371,0.13590999
325.36667,-3122.66,-4807.85,351.08,-0.56419265,0.15648475,0.4685965,0.66152585,567.59094,-580.081,561.71094,4.95221,-0.66151,-3.3222098,0,-0.3359375,0,0,0,false,false,false,467.59,-5370.57,17.52,-0.005116964,0.009033586,0.9995162,0.029318104,299.001,-1048.531,31.081,-0.87611,-0.067609996,-4.37191,-1,-1,0,0,0,false,false,false,-4064,-2885.24,182.09999,0.60368264,0.009880569,0.79703456,0.01433136,205.741,-93.181,-537.03094,1.56871,-2.89581,0.55941
325.38333,-3112.92,-4816.88,360.22,-0.5337604,0.14973046,0.4507342,0.6996564,600.891,-503.701,541.561,4.67931,-0.75381,-3.6791098,0,-0.2109375,0,0,0,false,false,false,472.59,-5387.7197,17.9,-0.005473021,0.016564807,0.99769217,0.06561986,303.801,-968.96094,34.291,-0.70681,-0.07791,-4.31241,-1,-1,0,0,0,false,false,false,-4060.5999,-2886.8,172.95,0.5838028,0.001896271,0.81188977,0.0023818028,220.421,-92.721,-556.831,1.75031,-3.1626098,0.70950997
325.4,-3102.9,-4825.28,369.11,-0.50406736,0.14394183,0.43121043,0.7343393,600.571,-503.441,530.441,4.67931,-0.75381,-3.6791098,0,-0.078125,0,0,0,false,false,false,477.68,-5403.54,18.38,-0.006271493,0.021452492,0.9946162,0.10118792,313.011,-888.1409,43.850998,-0.21250999,-0.17061,-4.17901,-1,-1,0,0,0,false,false,false,-4057,-2888.3198,163.45,0.5618782,-0.006881105,0.8271168,-0.011099835,233.281,-86.141,-579.201,1.84171,-3.05581,0.93441
325.41666,-3092.9,-4833.6597,377.81,-0.473112,0.13779171,0.41061306,0.76718664,600.251,-503.181,519.331,4.67931,-0.75381,-3.6791098,0,0.05511811,0,0,0,false,false,false,482.94998,-5418.01,18.99,-0.007037554,0.02277961,0.9904957,0.13546114,326.261,-808.871,44.571,-0.033109996,-0.16011,-4.00171,-1,-0.1640625,0,0,0,false,false,false,-4052.97,-2889.6099,153.64,0.5438434,-0.014622637,0.83868295,-0.025126347,277.971,-53.170998,-590.941,1.46241,-1.72051,0.60321
325.43332,-3082.9,-4842.04,386.33,-0.440975,0.13129635,0.38899058,0.7981156,599.93097,-502.921,508.231,4.67931,-0.75381,-3.6791098,0,0.17322835,0,0,0,false,false,false,488.44998,-5431.17,19.58,-0.0076201907,0.022957638,0.9854822,0.16804586,342.861,-732.74097,42.111,0.02121,-0.15931,-3.7901099,-0.1640625,0,0,0,0,false,false,false,-4048.22,-2890.3398,143.77,0.5300487,-0.018172452,0.8469689,-0.03689783,333.521,-19.521,-559.121,0.86851,-2.7669098,0.75381
325.45,-3072.9,-4850.42,394.66,-0.40773758,0.12447195,0.36639714,0.8270489,599.61096,-502.661,497.13098,4.67931,-0.75381,-3.6791098,0,0.2992126,0,0,0,false,false,false,494.24,-5443.08,20.13,-0.008165066,0.022736453,0.97976923,0.19866683,361.791,-661.59094,39.051,0.040609997,-0.15511,-3.55441,-1,-0.8359375,0,0,0,false,false,true,-4042.5698,-2890.64,134.33,0.50886345,-0.021263674,0.8593274,-0.046500616,365.601,-13.871,-561.821,1.2962099,-3.32051,0.55051
325.46667,-3062.91,-4858.8,402.81,-0.3734751,0.11733995,0.34288114,0.85392046,599.29095,-502.401,486.031,4.67931,-0.75381,-3.6791098,0,0.4094488,0,0,0,false,false,false,500.34998,-5453.82,20.63,-0.008688361,0.022364212,0.9735613,0.22716223,381.691,-596.78094,35.891,0.043209996,-0.14811,-3.3092098,-1,-1,0,0,0,false,false,true,-4036.5,-2890.8699,124.759995,0.48407963,-0.02748927,0.87273335,-0.056988142,381.981,-10.261001,-575.941,1.49511,-3.26211,0.82821
325.48334,-3052.93,-4867.17,410.77,-0.3382847,0.1099113,0.31851265,0.8786538,598.97095,-502.141,474.951,4.67931,-0.75381,-3.6791098,0,0.51968503,0,0,0,false,false,false,506.78998,-5463.51,21.08,-0.009184682,0.02197039,0.96704924,0.2534727,401.191,-539.60095,32.981,0.03851,-0.13901,-3.06121,-1,-1,0,0,0,false,false,true,-4030.13,-2891.01,114.96,0.46001333,-0.03308371,0.8844835,-0.07058307,417.751,-1.631,-579.381,1.65431,-2.18281,1.02281
325.5,-3042.95,-4875.53,418.55,-0.3022419,0.102207534,0.29334584,0.9011945,598.65094,-501.88098,463.871,4.67931,-0.75381,-3.6791098,0,0.62204725,0,0,0,false,false,false,513.55,-5472.29,21.49,-0.00965403,0.021603547,0.96039635,0.2776308,418.971,-490.661,30.390999,0.031609997,-0.12900999,-2.82371,-1,-1,0,0,0,false,false,true,-4022.97,-2890.98,105.32,0.44191912,-0.037048887,0.8920975,-0.08658411,482.791,11.801001,-537.22095,1.56881,-3.0875099,1.34851
325.51666,-3032.55,-4882.53,426.06,-0.26583767,0.09564198,0.26296225,0.92251486,623.60095,-420.151,448.181,4.36061,-0.75561,-4.05131,0,0.71653545,0,0,0,false,false,false,520.6,-5480.29,21.859999,-0.010096404,0.021290649,0.95372516,0.29975495,433.881,-450.241,28.151,0.02471,-0.11881,-2.60661,-1,-1,0,0,0,false,false,true,-4014.8198,-2890.73,96.299995,0.4169357,-0.042427544,0.9020598,-0.10321092,515.061,25.050999,-527.78094,1.91021,-3.46711,1.16341
325.53333,-3022.16,-4889.53,433.38998,-0.23042072,0.089135855,0.23330158,0.94049525,623.28094,-419.931,437.121,4.36061,-0.75561,-4.05131,1,0.8031496,0,0,0,false,false,false,527.89,-5487.65,22.189999,-0.0105118025,0.021020908,0.94710535,0.32006094,445.081,-418.131,26.321,0.01881,-0.10961,-2.4200099,-1,-1,0,0,0,false,false,true,-4006.2,-2890.25,87.36,0.38994548,-0.0492088,0.9116221,-0.120274745,534.811,40.121,-531.691,1.77191,-3.27401,1.4988099
325.55,-3011.78,-4896.53,440.53998,-0.1944319,0.082403146,0.20305818,0.95612407,622.96094,-419.711,426.061,4.36061,-0.75561,-4.05131,1,0.88188976,0,0,0,false,false,false,535.18,-5494.4,22.48,-0.010884043,0.020805115,0.9406596,0.3385382,413.761,-369.311,23.960999,0.014509999,-0.093909994,-2.12641,-1,-1,0,0,0,false,false,true,-3997.15,-2889.52,78.439995,0.3672009,-0.055310357,0.91808766,-0.13863331,583.871,56.540997,-494.421,1.30511,-2.9156098,1.9801099
325.56668,-3001.4,-4903.53,447.5,-0.15795752,0.07547075,0.17230776,0.96936244,622.641,-419.491,415.001,4.36061,-0.75561,-4.05131,1,0.9527559,0,0,0,false,false,false,541.94,-5500.37,22.73,-0.011196941,0.020627087,0.93469733,0.35466874,378.661,-325.121,21.921,0.01091,-0.08151,-1.86961,-1,-1,0,0,0,false,false,true,-3987.3198,-2888.5,70.189995,0.34330186,-0.05409652,0.9239687,-0.15968384,624.05096,73.971,-454.091,1.48811,-3.4328098,1.9419099
325.58334,-2991.02,-4910.51,454.28,-0.12108936,0.06834962,0.14112566,0.9801781,622.321,-419.271,403.951,4.36061,-0.75561,-4.05131,1,1,0,0,0,false,false,false,548.1,-5505.62,22.949999,-0.011466682,0.02048143,0.92922604,0.36876544,340.251,-284.121,20.110998,0.00821,-0.07121,-1.6453099,-1,-1,0,0,0,false,false,true,-3976.8499,-2887.2,62.57,0.31497365,-0.056659058,0.93012387,-0.180141,647.84094,89.190994,-439.061,1.78271,-3.4460099,1.8407099
325.6,-2980.4,-4916.17,460.84998,-0.084793046,0.061859682,0.105158485,0.98890096,637.48096,-339.851,391.491,4.03151,-0.71121,-4.3864098,1,1,0,0,0,false,false,false,553.61,-5510.19,23.14,-0.011704052,0.020357346,0.92423856,0.38109252,299.081,-245.141,18.401,0.00611,-0.062109996,-1.44231,-1,-1,0,0,0,false,false,true,-3966.03,-2885.66,55.11,0.28640273,-0.060311336,0.9348802,-0.20083553,668.061,103.550995,-412.271,1.15931,-4.39181,2.3036098
325.61667,-2969.78,-4921.83,467.24,-0.049840033,0.05548843,0.070469774,0.99472153,637.141,-339.671,380.451,4.03151,-0.71121,-4.3864098,1,1,0,0,0,false,false,false,558.41,-5514.12,23.31,-0.011909054,0.020254845,0.91975194,0.39179584,255.641,-207.681,16.780998,0.00441,-0.053009998,-1.23861,-1,-1,0,0,0,false,false,true,-3954.74,-2883.88,48.34,0.25314906,-0.056313794,0.93953437,-0.22365023,705.24097,116.201,-365.601,0.94701,-3.66991,2.44571
325.63333,-2959.16,-4927.4897,473.44,-0.014762903,0.048982225,0.035608523,0.9980555,636.80096,-339.491,369.411,4.03151,-0.71121,-4.3864098,1,1,0,0,0,false,false,false,562.48,-5517.4297,23.449999,-0.012081688,0.020173924,0.91582835,0.40088072,210.561,-170.811,15.201,0.00311,-0.043709997,-1.02701,-1,-1,0,0,0,false,false,true,-3942.92,-2881.9,42.2,0.22430837,-0.051415317,0.94143075,-0.24647568,730.85095,125.65099,-335.071,0.97231,-3.36721,2.50321
325.65,-2948.55,-4933.15,479.46,0.020351954,0.042352017,0.000650073,0.9988952,636.46094,-339.311,358.391,4.03151,-0.71121,-4.3864098,1,1,0,0,0,false,false,false,565.79,-5520.12,23.56,-0.012221953,0.020114582,0.91254973,0.4082878,164.871,-134.431,13.641,0.00201,-0.034009997,-0.79941,-1,-1,0,0,0,false,false,true,-3930.67,-2879.77,36.6,0.19658443,-0.04905775,0.9415568,-0.26910692,747.73096,134.69101,-315.311,1.58051,-3.31791,2.34671
325.66666,-2937.95,-4938.81,485.28998,0.05541829,0.03561391,-0.03430833,0.99723774,636.121,-339.131,347.371,4.03151,-0.71121,-4.3864098,1,1,0,0,0,false,false,false,568.33997,-5522.21,23.65,-0.0123298485,0.020066028,0.9100158,0.41390386,119.08099,-98.401,12.1310005,0.0012099999,-0.02351,-0.54951,-1,-1,0,0,0,false,false,true,-3918.0898,-2877.49,31.609999,0.16737692,-0.048966035,0.94051605,-0.29157633,774.97095,144.72101,-238.131,1.14621,-3.6068099,2.54621
325.68332,-2927.3499,-4944.46,490.94,0.09034428,0.02878941,-0.069180414,0.99308753,635.78094,-338.951,336.351,4.03151,-0.71121,-4.3864098,1,1,0,0,0,false,false,false,570.13,-5523.6997,23.71,-0.012405376,0.020039054,0.90834534,0.41755614,73.281,-62.731,10.6710005,0.00051,-0.01201,-0.27311,-1,-1,0,0,0,false,false,true,-3905.1199,-2875.03,27.67,0.13739246,-0.044822827,0.9381595,-0.31459597,791.61096,155.821,-201.131,0.61271,-3.58491,2.7620099
325.7,-2916.75,-4950.1,496.41,0.12504378,0.021889469,-0.10387988,0.98645514,635.441,-338.771,325.341,4.03151,-0.71121,-4.3864098,1,1,0,0,0,false,false,false,571.16,-5524.6,23.75,-0.012437744,0.020022867,0.9076518,0.4190612,27.360998,-27.681,9.251,0,0.00061,0.03391,-1,-1,0,0,0,false,false,true,-3891.9,-2872.38,24.25,0.10903195,-0.036077827,0.93402714,-0.33823615,800.67096,167.851,-183.19101,0.61701,-3.5599098,2.85081
325.71667,-2906.1099,-4955.09,501.72998,0.15906347,0.014655049,-0.14120126,0.9770088,642.311,-260.981,318.151,3.65321,-0.62001,-4.71901,1,1,0,0,0,false,false,false,571.43,-5524.92,23.76,-0.012426956,0.020028267,0.90806484,0.41816577,-6.351,-2.9009998,8.231,-0.00021,0.0094099995,0.27701,-1,-1,0,0,0,false,false,true,-3878.5398,-2869.53,21.109999,0.080056414,-0.029253408,0.92832565,-0.36186543,811.73096,180.381,-134.171,1.20461,-2.98911,2.8540099
325.73334,-2895.41,-4959.4297,506.9,0.18990028,0.007636334,-0.17816111,0.965473,641.97095,-260.841,307.151,3.65321,-0.62001,-4.71901,1,1,0,0,0,false,false,false,571.24,-5524.9,23.76,-0.012399981,0.020039054,0.9091543,0.41579202,-27.390999,13.061,7.601,-0.00010999999,0.014009999,0.41811,-1,-1,0,0,0,false,false,true,-3864.97,-2866.47,18.939999,0.054862548,-0.028374057,0.92069906,-0.38535446,821.49097,193.481,-87.251,0.85021,-2.56111,2.97271
325.75,-2884.71,-4963.77,511.87997,0.22026227,0.00059612497,-0.21467862,0.9515236,641.631,-260.701,296.151,3.65321,-0.62001,-4.71901,1,1,0,0,0,false,false,false,570.7,-5524.61,23.75,-0.012362218,0.020049846,0.9107111,0.41237175,-48.001,28.980999,6.941,0.00010999999,0.01891,0.54731,-1,-1,0,0,0,false,false,true,-3851.26,-2863.19,17.5,0.03425982,-0.022952244,0.9115319,-0.40915638,825.28094,207.511,-64.461,0.00581,-2.60731,3.0961099
325.76666,-2874.02,-4968.11,516.68,0.250074,-0.006444126,-0.25065666,0.9351965,641.29095,-260.561,285.161,3.65321,-0.62001,-4.71901,1,1,0,0,0,false,false,false,569.81,-5524.06,23.73,-0.012302875,0.020060632,0.9126922,0.40796947,-68.391,44.400997,6.331,0.00030999997,0.02401,0.67351,-1,-1,0,0,0,false,false,true,-3837.51,-2859.67,16.289999,0.014876234,-0.01282617,0.9011817,-0.43299606,827.10095,222.101,-44.361,-0.22310999,-1.72481,3.14921
325.78333,-2863.3398,-4972.4497,521.29,0.27926,-0.013468151,-0.2860089,0.91653216,640.951,-260.421,274.181,3.65321,-0.62001,-4.71901,1,1,0,0,0,false,false,false,568.58997,-5523.26,23.699999,-0.012221953,0.020071423,0.9150735,0.40260166,-88.671,59.161,5.7209997,0.00040999998,0.02921,0.79781,-1,-1,0,0,0,false,false,true,-3823.72,-2855.91,15.599999,0.004615248,-0.007636376,0.88958377,-0.45668474,827.381,236.86101,-2.011,0.06471,-0.78121,3.19171
325.8,-2852.66,-4976.79,525.72,0.30774462,-0.020459848,-0.32064903,0.8955773,640.61096,-260.281,263.201,3.65321,-0.62001,-4.71901,1,1,0,0,0,false,false,false,567.02997,-5522.2197,23.66,-0.012130241,0.020082213,0.91783494,0.39626816,-108.90099,73.211,5.161,0.00040999998,0.03431,0.91931,-1,-1,0,0,0,false,false,true,-3809.94,-2851.9,15.509999,-0.0010061294,-0.0049982783,0.8771083,-0.4802655,825.311,252.031,11.001,0.042409997,-0.71801,3.21171
325.81668,-2841.98,-4981.13,529.97,0.33546856,-0.02740295,-0.3544853,0.8723818,640.27094,-260.141,252.22101,3.65321,-0.62001,-4.71901,1,1,0,0,0,false,false,false,565.13,-5520.94,23.609999,-0.012016951,0.020103794,0.9209439,0.3889906,-129.151,86.471,4.611,0.00051,0.03941,1.03671,-1,-1,0,0,0,false,false,true,-3796.19,-2847.64,15.57,-0.0062660985,-0.0025544362,0.8639021,-0.5036143,822.17096,267.521,13.801,0.06880999,-0.66820997,3.22721
325.83334,-2831.3,-4984.27,534.16,0.35977224,-0.035845853,-0.39091656,0.8464415,640.21094,-188.021,248.881,3.2469099,-0.52001,-5.01861,1,1,0,0,0,false,false,false,562.89,-5519.4497,23.55,-0.011882082,0.020125372,0.92436594,0.38079044,-149.47101,98.891,4.121,0.00051,0.044309996,1.1489099,-1,-1,0,0,0,false,false,true,-3782.5,-2843.1199,15.73,-0.009600082,-0.00084428565,0.8499974,-0.5266987,818.371,283.231,23.220999,-0.07211,-0.07611,3.24441
325.85,-2820.64,-4987.4097,538.17,0.38241425,-0.04393269,-0.42522213,0.8191552,639.871,-187.921,237.921,3.2469099,-0.52001,-5.01861,1,1,0,0,0,false,false,false,560.31,-5517.76,23.48,-0.0117256325,0.020146951,0.9280579,0.37170562,-169.91101,110.391,3.6609998,0.00051,0.048809998,1.2552099,-1,-1,0,0,0,false,false,true,-3768.88,-2838.3298,15.98,-0.00952995,-0.0004720447,0.8354304,-0.5495134,813.85095,299.121,22.370998,-0.053309996,0.05241,3.2578099
325.86667,-2809.98,-4990.53,542,0.40409604,-0.051911637,-0.45847043,0.78982043,639.53094,-187.821,226.961,3.2469099,-0.52001,-5.01861,1,1,0,0,0,false,false,false,557.39,-5515.88,23.4,-0.011552997,0.020168528,0.931976,0.36177364,-190.501,120.90099,3.3009999,0.00051,0.053009998,1.35561,-1,-1,0,0,0,false,false,true,-3755.3398,-2833.28,16.21,-0.008823231,-0.0006986261,0.82019526,-0.5720151,808.52094,315.171,20.360998,-0.038609996,0.09631,3.26981
325.88333,-2799.3198,-4993.65,545.64996,0.42476895,-0.059761066,-0.49056417,0.7585161,639.191,-187.72101,216.001,3.2469099,-0.52001,-5.01861,1,1,0,0,0,false,false,false,554.13,-5513.82,23.32,-0.01136418,0.020190109,0.9360785,0.35102725,-211.271,130.33101,2.981,0.00040999998,0.056909997,1.44981,-1,-1,0,0,0,false,false,true,-3741.89,-2827.96,16.4,-0.007949274,-0.0011625786,0.80429804,-0.59417164,802.371,331.341,18.091,-0.030509999,0.102409996,3.2808099
325.9,-2788.67,-4996.77,549.11,0.44437918,-0.06745949,-0.5214387,0.72531235,638.85095,-187.621,205.051,3.2469099,-0.52001,-5.01861,1,1,0,0,0,false,false,false,550.51996,-5511.61,23.24,-0.011159178,0.020211687,0.94031924,0.33950928,-232.241,138.591,2.6609998,0.00021,0.060609996,1.5376099,-1,-1,0,0,0,false,false,true,-3728.5398,-2822.3699,16.55,-0.0070915017,-0.001680479,0.78774685,-0.6159559,795.381,347.591,15.991,-0.02641,0.09241,3.29111
325.91666,-2778.03,-4999.8896,552.39,0.46287793,-0.07499065,-0.5510076,0.69029754,638.511,-187.521,194.11101,3.2469099,-0.52001,-5.01861,1,0.9448819,0,0,0,false,false,false,546.56,-5509.28,23.14,-0.010937992,0.020233266,0.9446551,0.3272577,-253.411,145.591,2.3709998,0.00010999999,0.06391,1.61911,-1,-1,0,0,0,false,false,true,-3715.3098,-2816.51,16.68,-0.006330835,-0.0021606158,0.77054834,-0.6373463,787.571,363.871,14.191,-0.02411,0.076809995,3.3008099
325.93332,-2767.43,-5002.46,555.58,0.47905165,-0.083881326,-0.58071154,0.6528762,633.49097,-120.83099,194.151,2.8108099,-0.43081,-5.28331,1,0.8976378,0,0,0,false,false,false,542.25,-5506.83,23.039999,-0.010706016,0.020254849,0.9490206,0.31438026,-274.481,152.511,2.1309998,0.00021,0.06561,1.66431,-1,-1,0,0,0,false,false,true,-3702.22,-2810.38,16.77,-0.005678065,-0.0025706203,0.7527205,-0.6583106,778.941,380.141,12.681,-0.02231,0.060709998,3.3099098
325.95,-2756.8699,-5004.48,558.68,0.49212864,-0.09360275,-0.6089642,0.6149881,633.17096,-120.770996,183.211,2.8108099,-0.43081,-5.28331,1,0.8503937,0,0,0,false,false,false,537.58997,-5504.26,22.939999,-0.010468645,0.020276427,0.9533064,0.3011414,-295.551,158.83101,1.911,0.00040999998,0.066309996,1.68461,-1,-1,0,0,0,false,false,true,-3689.28,-2803.97,16.84,-0.0051277536,-0.0028997029,0.73426944,-0.6788325,769.501,396.361,11.521,-0.02041,0.046309996,3.31841
325.96667,-2746.3198,-5006.5,561.6,-0.5039757,0.103092276,0.63569766,-0.5755595,632.85095,-120.711,172.271,2.8108099,-0.43081,-5.28331,1,0.79527557,0,0,0,false,false,false,532.58,-5501.59,22.84,-0.010220483,0.020287214,0.9574437,0.28772444,-316.621,164.381,1.681,0.00051,0.066209994,1.68421,-1,-1,0,0,0,false,false,true,-3676.5,-2797.3,16.89,-0.004669196,-0.0031640478,0.71520644,-0.6988904,759.261,412.491,10.621,-0.01831,0.034409996,3.32631
325.98334,-2735.78,-5008.51,564.33,-0.51456565,0.11232278,0.660839,-0.5346937,632.53094,-120.65099,161.351,2.8108099,-0.43081,-5.28331,1,0.7401575,0,0,0,false,true,false,527.20996,-5498.83,22.74,-0.009972323,0.020298004,0.96137756,0.2743021,-337.621,169.251,1.441,0.00061,0.06521,1.6619099,-1,-1,0,0,0,false,false,true,-3663.89,-2790.3599,16.93,0.0042861653,0.00336905,-0.69555104,0.7184559,748.23096,428.501,9.971,-0.01601,0.025009999,3.33351
326,-2725.24,-5010.51,566.88,-0.52386636,0.12127274,0.684332,-0.4924901,632.21094,-120.590996,150.431,2.8108099,-0.43081,-5.28331,1,0.68503934,0,0,0,false,true,false,521.32,-5495.88,22.619999,-0.009729556,0.020298002,0.9650649,0.26104167,-372.521,181.651,0.79099995,0.00081,0.063609995,1.62581,-1,-1,0,0,0,false,false,true,-3651.46,-2783.15,16.96,0.0039624777,0.0035362889,-0.67532045,0.7375052,736.441,444.361,9.441,-0.01371,0.01771,3.3401098
326.01666,-2714.7,-5012.51,569.25,-0.53186154,0.12992069,0.7061106,-0.44905645,631.891,-120.531,139.511,2.8108099,-0.43081,-5.28331,1,0.62992126,0,0,0,false,true,false,514.85,-5492.73,22.49,-0.009492186,0.020298004,0.9684891,0.24804556,-407.361,192.511,0.281,0.00091,0.06161,1.57721,-1,-1,0,0,0,false,false,true,-3639.23,-2775.68,16.98,0.0036927382,0.003671159,-0.6545235,0.7560237,723.90094,460.031,9.071,-0.01151,0.012309999,3.3461099
326.03333,-2704.18,-5014.51,571.44,-0.5385295,0.13824487,0.72612226,-0.40450066,631.571,-120.47099,128.601,2.8108099,-0.43081,-5.28331,1,0.5748032,0,0,0,false,true,false,507.78998,-5489.4097,22.35,-0.009260209,0.020287214,0.97163737,0.23542175,-442.091,201.921,-0.060999997,0.0010099999,0.059109997,1.51611,-1,-1,0,0,0,false,false,true,-3627.22,-2767.95,17,0.0034607616,0.0037844495,-0.6331815,0.7739863,710.621,475.501,8.791,-0.009609999,0.0083099995,3.35131
326.05,-2693.66,-5016.51,573.45,-0.54384875,0.14622384,0.74431974,-0.358936,631.251,-120.410995,117.701,2.8108099,-0.43081,-5.28331,1,0.52755904,0,0,0,false,true,false,500.15,-5485.9497,22.21,-0.009039023,0.020276425,0.9745019,0.22327797,-476.641,209.94101,-0.30099997,0.00091,0.056309998,1.44401,-1,-1,0,0,0,false,false,true,-3615.44,-2759.96,17.01,0.0032557596,0.0038761613,-0.61131096,0.79137427,696.621,490.741,8.541,-0.00781,0.0054099998,3.3559098
326.06668,-2683.2,-5018.01,575.39996,-0.54684836,0.15589133,0.7610822,-0.31210366,623.951,-60.411,120.97099,2.34931,-0.36781,-5.50861,1,0.48031497,0,0,0,false,true,false,491.94,-5482.36,22.07,-0.008828627,0.020265637,0.97708565,0.21169536,-511.041,216.351,-0.501,0.00081,0.05351,1.37141,-1,-1,0,0,0,false,false,true,-3603.89,-2751.72,17.01,0.0030723363,0.0039624777,-0.5889386,0.80816215,681.92096,505.711,8.4210005,-0.00631,0.00341,3.35971
326.08334,-2672.8,-5019.01,577.27997,-0.5474525,0.16684823,0.7758273,-0.26561108,623.631,-60.371,110.071,2.34931,-0.36781,-5.50861,1,0.43307087,0,0,0,false,true,false,483.16,-5478.6797,21.93,-0.008623623,0.020254847,0.9794096,0.20067908,-545.17096,221.411,-0.681,0.00071,0.050709996,1.29631,-1,-1,0,0,0,false,false,true,-3592.5898,-2743.23,17.01,0.0029050978,0.0040380047,-0.5660754,0.8243384,666.52094,520.40094,8.371,-0.00501,0.00211,3.36271
326.1,-2662.41,-5020.01,578.98,-0.5466865,0.17738967,0.7886343,-0.21845502,623.311,-60.330997,99.171,2.34931,-0.36781,-5.50861,1,0.38582677,0,0,0,false,true,false,473.8,-5474.92,21.77,-0.008429411,0.020244056,0.9814894,0.19025634,-578.96094,225.341,-0.831,0.00061,0.047709998,1.21701,-1,-1,0,0,0,false,false,true,-3581.5498,-2734.49,17.01,0.0027486489,0.0041081375,-0.54275364,0.83987737,650.43097,534.80096,8.351,-0.00391,0.0010099999,3.36491
326.11667,-2652.03,-5021.01,580.5,-0.5445555,0.18749411,0.79946744,-0.17075402,622.99097,-60.290997,88.281,2.34931,-0.36781,-5.50861,1,0.3464567,0,0,0,false,true,false,463.88,-5471.1,21.609999,-0.008245989,0.020233268,0.98333675,0.1804755,-612.34094,228.36101,-0.871,0.00051,0.044509996,1.13261,-1,-1,0,0,0,false,false,true,-3570.78,-2725.51,17.01,0.0026029893,0.004172875,-0.5189895,0.8547664,633.68097,548.871,8.351,-0.00291,0.00040999998,3.3661098
326.13333,-2641.65,-5022.01,581.83,-0.54106504,0.19712931,0.8083014,-0.12262688,622.67096,-60.251,77.401,2.34931,-0.36781,-5.50861,1,0.30708662,0,0,0,false,true,false,453.41,-5467.23,21.449999,-0.008073354,0.020222478,0.98496616,0.17136906,-645.30096,230.461,-0.84099996,0.00051,0.04121,1.04871,-0.1640625,-0.1640625,0,0,0,false,false,false,-3560.28,-2716.38,17.01,0.0024627245,0.0042376122,-0.4950311,0.8688614,620.27094,545.35095,8.331,-0.00301,0.00061,3.27381
326.15,-2631.27,-5023.01,582.98,-0.5362205,0.2062681,0.8151175,-0.07419223,622.35095,-60.211,66.520996,2.34931,-0.36781,-5.50861,1,0.27559054,0,0,0,false,true,false,442.38998,-5463.34,21.289999,-0.007916906,0.0202009,0.98639786,0.16293693,-677.761,231.881,-0.80099994,0.00040999998,0.037809998,0.96371,0.6692913,-0.3671875,0,0,0,false,false,false,-3549.89,-2707.5,17.01,0.002317065,0.0042861653,-0.47139636,0.88190794,626.49097,503.361,8.331,-0.00591,-0.00281,2.97221
326.16666,-2620.91,-5024.01,583.95,-0.530038,0.21488906,0.8198952,-0.025574116,622.03094,-60.170998,55.641,2.34931,-0.36781,-5.50861,1,0.23622048,0,0,0,false,true,false,430.83,-5459.4297,21.13,-0.007771246,0.020190109,0.98764855,0.1551846,-709.73096,232.641,-0.751,0.00021,0.034709997,0.88260996,1,-0.453125,0,0,0,false,true,false,-3539.46,-2699.24,17.01,0.0021875896,0.0042807707,-0.4505616,0.8927323,623.72095,475.091,8.321,-0.00501,-0.00301,2.58631
326.18332,-2610.6199,-5024.56,584.87,-0.5221832,0.22506905,0.8222717,0.023189615,613.11096,-5.8609996,60.161,1.88771,-0.34251,-5.68491,1,0.21259843,0,0,0,false,true,false,418.74,-5455.51,20.97,-0.0076363767,0.02017932,0.9887368,0.14810124,-741.131,233.161,-0.701,0.00021,0.031409997,0.79771,1,-0.53125,0,0,0,false,true,false,-3529.0698,-2691.44,17.01,0.0020689042,0.004296955,-0.4315233,0.9020891,620.951,446.731,8.331,-0.00301,0,2.41961
326.2,-2600.4,-5024.6597,585.74,-0.5128501,0.23652227,0.822197,0.07094991,612.79095,-5.8409996,49.290997,1.88771,-0.34251,-5.68491,1,0.18110237,0,0,0,false,true,false,406.13,-5451.59,20.82,-0.0075122947,0.020168528,0.98967665,0.1416921,-772.011,233.211,-0.641,0.00010999999,0.028309999,0.72111,1,-0.625,0,0,0,false,true,false,-3518.74,-2684.1199,17.01,0.0019610084,0.004329324,-0.41358015,0.9104552,617.36096,418.061,8.331,-0.00211,0.0010099999,2.23651
326.21667,-2590.19,-5024.76,586.43,-0.5022385,0.24737658,0.820067,0.11853757,612.47095,-5.8209996,38.431,1.88771,-0.34251,-5.68491,1,0.16535433,0,0,0,false,true,false,393,-5447.67,20.68,-0.0074044,0.02015774,0.9904885,0.1359089,-802.29095,233.201,-0.691,0.00010999999,0.02531,0.64411,1,-0.7265625,0,0,0,false,true,false,-3508.48,-2677.28,17.01,0.0018639019,0.004361692,-0.39686698,0.9178637,611.871,388.331,8.341001,-0.00151,0.00111,2.06921
326.23334,-2579.99,-5024.86,586.94,-0.49036998,0.25762144,0.8158856,0.16582863,612.15094,-5.8009996,27.571,1.88771,-0.34251,-5.68491,1,0.14173228,0,0,0,false,true,false,379.37,-5443.75,20.529999,-0.007307294,0.020146951,0.9911856,0.13073531,-832.061,232.871,-0.80099994,0,0.02271,0.57791,1,-0.8359375,0,0,0,false,true,false,-3498.3098,-2670.93,17.01,0.0017775854,0.0043940614,-0.38125437,0.92445797,604.24097,357.231,8.351,-0.0010099999,0.00091,1.92891
326.25,-2569.79,-5024.96,587.26,-0.47728217,0.26721877,0.80966353,0.21269879,611.83093,-5.7809997,16.710999,1.88771,-0.34251,-5.68491,1,0.11811024,0,0,0,false,true,false,365.25,-5439.83,20.369999,-0.007220977,0.02013616,0.99178666,0.12610117,-861.23096,232.651,-0.831,0,0.02021,0.51351,1,-0.9453125,0,0,0,false,true,false,-3488.27,-2665.1099,17.01,0.0016966634,0.00442643,-0.3665643,0.9303806,594.811,324.791,8.361,-0.00051,0.00051,1.8162099
326.26666,-2559.5898,-5025.06,587.39996,-0.4629967,0.27614716,0.80142057,0.25904027,611.511,-5.7609997,5.871,1.88771,-0.34251,-5.68491,1,0.1023622,0,0,0,false,true,false,350.65,-5435.9097,20.21,-0.007140055,0.02012537,0.99230146,0.12199034,-889.80096,232.61101,-0.80099994,0,0.01761,0.45041,1,-1,0,0,0,false,false,false,-3478.39,-2659.8298,17.01,0.0016265311,0.0044534043,-0.35260254,0.93576115,584.71094,291.171,8.361,0,0.00010999999,1.74411
326.28333,-2549.41,-5025.1597,587.36,-0.44755128,0.28438506,0.79117626,0.30473432,611.191,-5.7409997,-4.961,1.88771,-0.34251,-5.68491,1,0.08661418,0,0,0,false,true,false,335.57,-5432.01,20.05,-0.0070699225,0.020114582,0.99273795,0.11839192,-917.821,232.651,-0.761,0,0.0154099995,0.39391,1,-1,0,0,0,false,false,false,-3468.69,-2655.1199,17.01,0.0015617935,0.004474983,-0.33903995,0.94075996,574.72095,256.501,8.361,0.00021,-0.00010999999,1.71111
326.3,-2539.23,-5025.26,587.14,-0.43099454,0.29191077,0.7789506,0.34966773,610.871,-5.7209997,-15.781,1.88771,-0.34251,-5.68491,1,0.07086614,0,0,0,false,true,false,320.02,-5428.1,19.89,-0.0070105796,0.020103792,0.99310863,0.11524676,-945.28094,232.891,-0.71099997,-0.00010999999,0.013309999,0.34201,1,-1,0,0,0,false,false,false,-3459.15,-2650.99,17.01,0.0014970559,0.0044965623,-0.3256338,0.94548404,564.71094,220.86101,8.361,0.00051,-0.00030999997,1.69321
326.31668,-2529.05,-5025.36,586.74,-0.413359,0.29870835,0.7647787,0.3937272,610.55096,-5.7009997,-26.600998,1.88771,-0.34251,-5.68491,1,0.062992126,0,0,0,false,true,false,304.02,-5424.1797,19.75,-0.006956632,0.020093001,0.9934216,0.112522386,-972.18097,233.411,-0.71099997,-0.00021,0.011409999,0.29361,1,-1,0,0,0,false,false,false,-3449.78,-2647.46,17.01,0.0014431081,0.004518142,-0.31232482,0.9499635,553.331,183.58101,8.371,0.00040999998,-0.00021,1.64911
326.33334,-2518.8699,-5025.46,586.16,-0.3946875,0.3047559,0.7487,0.43679944,610.23096,-5.6809998,-37.411,1.88771,-0.34251,-5.68491,1,0.047244094,0,0,0,false,true,false,287.57,-5420.26,19.6,-0.006913474,0.020093003,0.99368435,0.11018105,-998.561,234.061,-0.831,-0.00030999997,0.00981,0.25361001,1,-1,0,0,0,false,false,false,-3440.6099,-2644.56,17.01,0.0013891599,0.0045397207,-0.29939884,0.95411617,540.40094,144.55101,8.3810005,0,0,1.55951
326.35,-2508.71,-5025.56,585.39996,-0.3750288,0.3100428,0.7307458,0.47878733,609.91095,-5.661,-48.211,1.88771,-0.34251,-5.68491,1,0.03937008,0,0,0,false,true,false,270.68,-5416.32,19.439999,-0.0068757096,0.020093001,0.9939056,0.10816878,-1024.381,235.11101,-0.90099996,-0.00030999997,0.0083099995,0.21440999,1,-1,0,0,0,false,false,false,-3431.66,-2642.3198,17.01,0.001335212,0.0045613,-0.28722274,0.95785195,526.53094,104.201,8.3810005,-0.00040999998,0.00021,1.4233099
326.36667,-2498.55,-5025.6597,584.45996,-0.35443136,0.31455824,0.71096843,0.51957214,609.59094,-5.641,-59.010998,1.88771,-0.34251,-5.68491,1,0.031496063,0,0,0,false,true,false,253.37,-5412.37,19.279999,-0.006843341,0.020093001,0.9940899,0.10646403,-1049.6909,236.381,-0.931,-0.00021,0.00701,0.18111,1,-1,0,0,0,false,false,false,-3422.94,-2640.75,17.01,0.0012812641,0.004577485,-0.27618498,0.9610927,512.34094,63.060997,8.391,-0.0010099999,0.00040999998,1.2416099
326.38333,-2488.39,-5025.76,583.33997,-0.33294916,0.31828603,0.68941146,0.55906206,609.27094,-5.621,-69.811,1.88771,-0.34251,-5.68491,1,0.031496063,0,0,0,false,true,false,235.64,-5408.4,19.119999,-0.006816367,0.020093001,0.9942427,0.10502901,-1074.501,237.921,-0.951,-0.00021,0.0057099997,0.15201,1,-1,0,0,0,false,false,false,-3414.46,-2639.8699,17.01,0.0012273161,0.004588274,-0.26665768,0.96377957,498.38098,21.761,8.401,-0.0014099999,0.00071,1.01771
326.4,-2478.24,-5025.86,582.04,-0.31063622,0.3212155,0.66613173,0.5971549,608.951,-5.601,-80.590996,1.88771,-0.34251,-5.68491,1,0.023622047,0,0,0,false,true,false,217.5,-5404.4,18.96,-0.006794788,0.020093001,0.99437034,0.10381518,-1098.841,239.571,-0.99099994,-0.00021,0.00491,0.13121,1,-1,0,0,0,false,false,false,-3406.21,-2639.68,17.01,0.0011787629,0.0045990637,-0.25898084,0.96587074,485.151,-19.021,8.401,-0.0016099999,0.00091,0.75701
326.41666,-2468.0999,-5025.96,580.56,-0.28754643,0.32334647,0.6411868,0.6337534,608.631,-5.581,-91.370995,1.88771,-0.34251,-5.68491,1,0.015748031,0,0,0,false,true,false,198.95999,-5400.37,18.8,-0.006773209,0.020093003,0.9944787,0.102773994,-1122.6909,241.551,-1.041,-0.00021,0.00411,0.11091,1,-1,0,0,0,false,false,false,-3398.18,-2640.16,17.01,0.0011356047,0.0046098535,-0.2534566,0.96733505,473.041,-58.641,8.401,-0.0018099999,0.0010099999,0.46721
326.43332,-2457.96,-5026.06,578.89996,-0.26373914,0.3246682,0.61463964,0.66876775,608.311,-5.561,-102.151,1.88771,-0.34251,-5.68491,1,0.015748031,0,0,0,false,true,false,180.01999,-5396.3,18.64,-0.006762418,0.020093,0.9945686,0.10190002,-1146.0609,243.83101,-1.121,-0.00010999999,0.00341,0.09101,1,-1,0,0,0,false,false,false,-3390.3398,-2641.3,17.01,0.0011032356,0.0046206424,-0.25030598,0.96815497,462.361,-96.58099,8.401,-0.0018099999,0.0010099999,0.15790999
326.45,-2447.8198,-5026.1597,577.06,-0.23927362,0.32518068,0.58655417,0.7021108,607.99097,-5.541,-112.931,1.88771,-0.34251,-5.68491,1,0.007874016,0,0,0,false,true,false,160.69,-5392.19,18.48,-0.0067516286,0.020093,0.99464244,0.10117712,-1168.991,246.211,-1.2210001,-0.00010999999,0.00291,0.07670999,1,-1,0,0,0,false,false,false,-3382.68,-2643.06,17.01,0.0010870514,0.0046260376,-0.24966943,0.9683194,453.301,-132.44101,8.401,-0.0016099999,0.00091,-0.15970999
326.46667,-2437.69,-5026.26,575.04,-0.21420927,0.32487857,0.5570013,0.73370135,607.67096,-5.521,-123.690994,1.88771,-0.34251,-5.68491,1,0.007874016,0,0,0,false,true,false,140.98,-5388.04,18.32,-0.006740839,0.020093,0.99470323,0.10057829,-1191.471,248.811,-0.871,0.01741,0.01681,0.062309995,1,-1,0,0,0,false,false,false,-3375.15,-2645.41,17.01,0.0010816565,0.0046260376,-0.25159538,0.96782076,445.931,-166.001,8.401,-0.00131,0.00071,-0.47421
326.48334,-2427.5698,-5026.36,572.83997,-0.18861088,0.32376724,0.5260621,0.7634522,607.35095,-5.501,-134.451,1.88771,-0.34251,-5.68491,1,0.007874016,0,0,0,false,true,false,120.89,-5383.85,18.17,-0.0065466273,0.019898789,0.9947586,0.10008198,-1213.5509,251.371,-0.27099997,0.04691,0.03591,0.053109996,1,-1,0,0,0,false,false,false,-3367.74,-2648.31,17.01,0.0010924462,0.0046260376,-0.2560299,0.9666571,440.231,-197.291,8.401,-0.0010099999,0.00051,-0.77441
326.5,-2417.45,-5026.4497,570.45996,-0.16253774,0.3218413,0.49380642,0.7912994,607.03094,-5.481,-145.211,1.88771,-0.34251,-5.68491,1,0.007874016,0,0,0,false,true,false,100.439995,-5379.62,18.029999,-0.0061905705,0.019488785,0.9948118,0.09965579,-1235.231,253.961,0.040999997,0.068909995,0.04691,0.046409998,1,-1,0,0,0,false,false,false,-3360.42,-2651.72,17.01,0.0011194202,0.004620643,-0.26283276,0.9648296,436.051,-226.481,8.391,-0.00061,0.00030999997,-1.05091
326.51666,-2407.3298,-5026.53,567.91,-0.13605995,0.31911686,0.46031544,0.81716686,606.71094,-5.461,-155.961,1.88771,-0.34251,-5.68491,1,0,0,0,0,false,true,false,79.63,-5375.35,17.89,-0.005732013,0.018916937,0.99486333,0.09927807,-1256.5409,256.471,0.941,0.106309995,0.02781,0.040609997,1,-1,0,0,0,false,false,false,-3353.17,-2655.6099,17.01,0.0011571839,0.0046098535,-0.27178282,0.96234685,433.151,-253.921,8.3810005,-0.00021,0.00010999999,-1.29701
326.53333,-2397.23,-5026.63,565.18,-0.10924234,0.31559405,0.4256753,0.8409916,606.391,-5.441,-166.701,1.88771,-0.34251,-5.68491,1,0,0,0,0,false,true,false,58.46,-5371.04,17.779999,-0.0054838103,0.017940478,0.994914,0.098965175,-1277.4509,259.031,2.3609998,0.15391,-0.00611,0.030509999,1,-1,0,0,0,false,false,false,-3345.96,-2659.96,17.01,0.0012057369,0.0045990637,-0.28261018,0.959223,431.161,-280.051,8.371,0.00021,0,-1.50991
326.55,-2387.13,-5026.71,562.26996,-0.082154945,0.31127822,0.38996705,0.8627178,606.071,-5.421,-177.44101,1.88771,-0.34251,-5.68491,1,0,0,0,0,false,true,false,36.95,-5366.69,17.69,-0.0054514417,0.016575597,0.99496037,0.0987386,-1298.001,261.591,3.3309999,0.18751,-0.02781,0.02331,1,-1,0,0,0,false,false,false,-3338.78,-2664.73,17.01,0.0012704745,0.004582879,-0.29503444,0.95547473,429.641,-305.331,8.371,0.00040999998,-0.00021,-1.69031
326.56668,-2377.03,-5026.79,559.18,-0.054857194,0.3061855,0.35328767,0.88228613,605.751,-5.401,-188.181,1.88771,-0.34251,-5.68491,1,0,0,0,0,false,true,false,15.099999,-5362.3,17.609999,-0.005553985,0.014946368,0.9950022,0.09857136,-1318.1709,264.251,3.8009999,0.20630999,-0.039809998,0.01791,1,-1,0,0,0,false,false,false,-3331.63,-2669.92,17.01,0.0013406067,0.0045612995,-0.308775,0.95112306,428.191,-330.161,8.361,0.00071,-0.00040999998,-1.8399099
326.58334,-2366.93,-5026.87,555.91,-0.027424531,0.30033216,0.31572354,0.89964825,605.43097,-5.381,-198.901,1.88771,-0.34251,-5.68491,1,0,0,0,0,false,true,false,-7.0899997,-5357.85,17.529999,-0.0057266178,0.013182267,0.99503833,0.09844726,-1337.9509,267.071,3.9109998,0.21361,-0.044409998,0.013809999,1,-1,0,0,0,false,false,false,-3324.5,-2675.52,17.01,0.001416134,0.0045397207,-0.323573,0.9461912,426.431,-354.871,8.361,0.00091,-0.00061,-1.96181
326.6,-2356.8499,-5026.81,552.51,-0.0004774395,0.2939393,0.277032,0.91479653,604.441,3.221,-206.69101,1.80721,-0.34251,-5.70331,1,0,0,0,0,false,true,false,-29.609999,-5353.36,17.449999,-0.005926226,0.0113642225,0.9950687,0.09835556,-1357.361,270.051,3.8609998,0.21571,-0.045609996,0.010709999,1,-1,0,0,0,false,false,false,-3317.41,-2681.54,17.01,0.0015024507,0.004512747,-0.3392018,0.94070154,424.011,-379.701,8.361,0.0010099999,-0.00081,-2.05961
326.61667,-2346.78,-5026.75,548.93,0.026469652,0.28681812,0.2376498,0.9276622,604.121,3.221,-217.411,1.80721,-0.34251,-5.70331,1,0,0,0,0,false,true,false,-52.449997,-5348.82,17.369999,-0.006131228,0.009540697,0.9950936,0.09828543,-1376.1709,273.101,3.731,0.21561,-0.045509998,0.008409999,1,-1,0,0,0,false,false,false,-3310.3599,-2687.97,17.01,0.0015887675,0.0044803782,-0.35545638,0.9346807,420.621,-404.801,8.351,0.0010099999,-0.00081,-2.13691
326.63333,-2336.72,-5026.69,545.17,0.053352,0.27897945,0.19767956,0.93821454,603.80096,3.221,-228.131,1.80721,-0.34251,-5.70331,1,0,0,0,0,false,true,false,-75.59,-5344.23,17.289999,-0.0063362303,0.007717256,0.9951129,0.098236874,-1392.521,275.811,3.5709999,0.21471,-0.045009997,0.00671,1,-1,0,0,0,false,false,false,-3303.3599,-2694.8198,17.01,0.001675084,0.0044480087,-0.3721695,0.92815244,416.171,-429.85098,8.351,0.0010099999,-0.00081,-2.19851
326.65,-2326.66,-5026.63,541.23,0.080099575,0.27044487,0.15721305,0.9464289,603.48096,3.221,-238.83101,1.80721,-0.34251,-5.70331,1,0,0,0,0,false,true,false,-99,-5339.6,17.21,-0.0065304427,0.005904604,0.9951278,0.098199114,-1408.841,278.631,3.3809998,0.21401,-0.044409998,0.0054099998,1,-1,0,0,0,false,false,false,-3296.44,-2702.0898,17.01,0.0017721906,0.0044156406,-0.38921174,0.92113596,410.441,-454.82098,8.351,0.0010099999,-0.00081,-2.2483099
326.66666,-2316.5999,-5026.57,537.12,0.106647454,0.26123595,0.11635269,0.9522836,603.16095,3.221,-249.531,1.80721,-0.34251,-5.70331,1,0,0,0,0,false,true,false,-122.689995,-5334.9097,17.13,-0.00662755,0.0041674804,0.9951392,0.09816675,-1425.111,281.631,4.191,0.18461,-0.00111,0.00631,1,-1,0,0,0,false,false,false,-3289.63,-2709.77,17.01,0.001869297,0.0043778773,-0.40648058,0.913647,403.261,-479.741,8.351,0.00081,-0.00081,-2.28911
326.68332,-2306.55,-5026.51,532.83,0.132931,0.25137416,0.075206414,0.95576376,602.84094,3.221,-260.231,1.80721,-0.34251,-5.70331,1,-0.0078125,0,0,0,false,true,false,-146.64,-5330.1797,17.07,-0.0064279414,0.0026893057,0.9951497,0.09812358,-1441.351,284.811,4.731,0.16361,0.02521,0.0068099997,1,-1,0,0,0,false,false,false,-3282.94,-2717.8699,17.01,0.0019664029,0.004334718,-0.42390034,0.90569615,394.501,-504.581,8.351,0.00061,-0.00081,-2.32291
326.7,-2296.51,-5026.4497,528.36,0.15888542,0.24088667,0.033871394,0.9568603,602.52094,3.221,-270.931,1.80721,-0.34251,-5.70331,1,-0.0078125,0,0,0,false,true,false,-170.87,-5325.3896,17.01,-0.006050306,0.0013891599,0.99515855,0.09808582,-1457.5509,288.221,4.981,0.14910999,0.041509997,0.00241,1,-1,0,0,0,false,false,false,-3276.4,-2726.38,17.01,0.00205272,0.00429156,-0.4414066,0.8972945,384.111,-529.28094,8.351,0.00051,-0.00061,-2.35131
326.71667,-2286.47,-5026.3896,523.70996,0.18443526,0.22980028,-0.0075500594,0.95557225,602.201,3.221,-281.611,1.80721,-0.34251,-5.70331,1,-0.0078125,0,0,0,false,true,false,-195.36,-5320.54,16.949999,-0.0055647744,0.00021309445,0.99516284,0.09808043,-1473.751,291.601,5.101,0.14071,0.050709996,-0.00061,1,-0.96875,0,0,0,false,true,false,-3270.04,-2735.3,17.01,0.0021390365,0.0042484016,-0.4589074,0.8884713,372.851,-553.53094,8.351,0.00051,-0.00071,-2.35431
326.73334,-2276.43,-5026.33,518.88,0.20952655,0.21813673,-0.048955247,0.95190245,601.881,3.221,-292.29102,1.80721,-0.34251,-5.70331,1,-0.0078125,0,0,0,false,true,false,-220.12999,-5315.6396,16.9,-0.005095385,-0.00074178446,0.99516296,0.098102,-1489.891,295.121,6.8409996,0.06351,0.02881,-0.0054099998,1,-0.828125,0,0,0,false,true,false,-3263.8599,-2744.6199,17.01,0.0022253534,0.004205243,-0.4760629,0.8793983,363.391,-576.511,8.331,0.00091,-0.00131,-2.26381
326.75,-2266.41,-5026.27,513.88,0.23410003,0.20593363,-0.0902364,0.9458572,601.561,3.221,-302.971,1.80721,-0.34251,-5.70331,1,-0.0078125,0,0,0,false,true,false,-245.15999,-5310.6797,16.88,-0.0048472243,-0.0011302098,0.99515855,0.09815595,-1505.981,298.871,8.201,0.011909999,0.01571,-0.00881,1,-0.671875,0,0,0,false,true,false,-3257.8298,-2754.31,17.01,0.00231167,0.00415669,-0.49223116,0.87045145,355.431,-598.261,8.321,0.0012099999,-0.00201,-2.09321
326.76666,-2256.39,-5026.21,508.69998,0.25808534,0.19321808,-0.13129096,0.9374547,601.24097,3.221,-313.641,1.80721,-0.34251,-5.70331,1,-0.0078125,0,0,0,false,true,false,-270.46,-5305.6597,16.88,-0.0047339336,-0.0011463942,0.9951511,0.098236874,-1522.0609,302.691,9.071,-0.01721,0.00671,-0.011109999,1,-0.5234375,0,0,0,false,true,false,-3251.93,-2764.3699,17.01,0.0023979866,0.004102742,-0.5068996,0.8619918,348.461,-618.881,8.321,0.0014099999,-0.00241,-1.8688099
326.78333,-2246.3699,-5026.15,503.34,0.28142875,0.18001693,-0.17201646,0.92671573,600.92096,3.221,-324.301,1.80721,-0.34251,-5.70331,1,-0.0078125,0,0,0,false,true,false,-296.03,-5300.57,16.9,-0.0047069597,-0.00096836593,0.99514234,0.09832859,-1538.141,306.491,9.411,-0.02781,0.00291,-0.01261,1,-0.3828125,0,0,0,false,true,false,-3246.15,-2774.77,17.01,0.002484304,0.0040541897,-0.51976097,0.8542985,342.371,-638.40094,8.321,0.0014099999,-0.00261,-1.61041
326.8,-2236.3499,-5026.09,497.8,0.30407077,0.1663681,-0.2123157,0.9136654,600.60095,3.221,-334.961,1.80721,-0.34251,-5.70331,1,-0.0078125,0,0,0,false,true,false,-321.87,-5295.42,16.92,-0.0047123544,-0.00072560005,0.99513185,0.09843648,-1554.241,310.231,9.411,-0.02901,0.0017099999,-0.013509999,1,-0.2421875,0,0,0,false,true,false,-3240.46,-2785.49,17.01,0.0025598307,0.004011031,-0.5306314,0.8475892,337.451,-656.73096,8.311,0.0012099999,-0.00261,-1.32701
326.81668,-2226.3499,-5026.03,492.08,0.32595754,0.15230377,-0.2520809,0.89833754,600.28094,3.221,-345.621,1.80721,-0.34251,-5.70331,1,0,0,0,0,false,true,false,-347.97998,-5290.21,16.94,-0.0047231438,-0.00048822907,0.99512076,0.098549776,-1570.351,313.911,9.271,-0.026109999,0.00131,-0.014109999,1,-0.125,0,0,0,false,true,false,-3234.8499,-2796.5,17.01,0.0026191734,0.0039678724,-0.539425,0.8420201,333.511,-674.02094,8.311,0.00091,-0.0023100001,-1.04231
326.83334,-2216.3499,-5025.9697,486.19,0.3470297,0.13786182,-0.29122028,0.8807696,599.96094,3.221,-356.261,1.80721,-0.34251,-5.70331,1,0,0,0,0,false,true,false,-374.35,-5284.94,16.96,-0.0047339336,-0.000277832,0.9951101,0.09865767,-1586.491,317.391,9.081,-0.02191,0.00111,-0.010009999,1,-0.015625,0,0,0,false,true,false,-3229.3,-2807.8,17.01,0.002667727,0.0039355042,-0.5461848,0.8376512,330.921,-690.201,8.311,0.00081,-0.0018099999,-0.76151
326.85,-2206.3499,-5025.9097,480.12,0.36723334,0.123074695,-0.32963142,0.86100835,599.641,3.221,-366.901,1.80721,-0.34251,-5.70331,1,0,0,0,0,false,true,false,-401,-5279.61,16.98,-0.004744723,-0.000105198524,0.9951026,0.0987332,-1602.641,320.871,8.861,-0.01761,0.00091,-0.00711,1,0.07874016,0,0,0,false,true,false,-3223.79,-2819.3599,17.01,0.0027054902,0.0039139246,-0.5509807,0.8345043,329.831,-705.29095,8.311,0.00051,-0.00131,-0.49381
326.86667,-2196.3599,-5025.85,473.87,0.3865251,0.10797996,-0.36722246,0.83909845,599.321,3.221,-377.541,1.80721,-0.34251,-5.70331,1,0,0,0,0,false,true,false,-427.91,-5274.2197,16.99,-0.0047555133,0.000035066176,0.9950972,0.09878715,-1618.8009,324.321,8.641,-0.013809999,0.00071,-0.00511,1,0.15748031,0,0,0,false,true,false,-3218.29,-2831.18,17.01,0.0027270694,0.0038977403,-0.55394244,0.8325413,330.341,-719.321,8.311,0.00030999997,-0.00081,-0.24641
326.88333,-2186.38,-5025.79,467.44998,0.40485132,0.09261551,-0.40390185,0.8150957,599.001,3.221,-388.181,1.80721,-0.34251,-5.70331,1,0,0,0,0,false,true,false,-455.09,-5268.77,16.99,-0.004760907,0.00014296208,0.9950933,0.0988249,-1634.9609,327.731,8.531,-0.010609999,0.00051,-0.00361,1,0.21259843,0,0,0,false,true,false,-3212.78,-2843.22,17.01,0.002737859,0.0038869507,-0.5552426,0.83167475,332.321,-732.441,8.311,0.00010999999,-0.00030999997,-0.03031
326.9,-2176.4,-5025.73,460.84998,0.4221687,0.07702446,-0.4395724,0.7890608,598.68097,3.221,-398.801,1.80721,-0.34251,-5.70331,1,0,0,0,0,false,true,false,-482.53998,-5263.27,16.99,-0.004760908,0.00022388405,0.9950907,0.09885189,-1651.121,331.111,8.481,-0.00811,0.00030999997,-0.00251,1,0.25984251,0,0,0,false,true,false,-3207.23,-2855.47,17.01,0.002737859,0.0038869507,-0.5550969,0.831772,335.991,-744.58093,8.311,0,0.00010999999,0.15771
326.91666,-2166.42,-5025.67,454.06998,0.43843406,0.061239284,-0.47414774,0.7610579,598.36096,3.221,-409.421,1.80721,-0.34251,-5.70331,1,0,0,0,0,false,true,false,-510.25998,-5257.71,16.99,-0.004760907,0.00028322675,0.99508846,0.09887346,-1667.3009,334.461,8.461,-0.00611,0.00021,-0.0018099999,1,0.2913386,0,0,0,false,true,false,-3201.6099,-2867.92,17.01,0.0027270694,0.0038923454,-0.55371046,0.8326956,341.211,-755.811,8.311,0,0.00040999998,0.31421
326.93332,-2156.45,-5025.61,447.11,0.4536043,0.04530297,-0.50753623,0.7311618,598.04095,3.221,-420.041,1.80721,-0.34251,-5.70331,1,0,0,0,0,false,true,false,-538.25,-5252.09,16.99,-0.0047609075,0.00033177997,0.99508744,0.098884255,-1683.481,337.791,8.461,-0.00461,0.00010999999,-0.00131,1,0.31496063,0,0,0,false,true,false,-3195.9,-2880.5598,17.01,0.0027162798,0.003903135,-0.5512882,0.83430123,347.971,-766.1409,8.311,0,0.00071,0.44251
326.95,-2146.49,-5025.55,439.97998,0.467647,0.029247971,-0.53966236,0.6994392,597.72095,3.221,-430.651,1.80721,-0.34251,-5.70331,1,0,0,0,0,false,true,false,-566.51,-5246.42,16.99,-0.004760907,0.0003695435,0.99508625,0.098895036,-1699.6609,341.101,8.461,-0.00341,0,-0.00091,1,0.32283464,0,0,0,false,true,false,-3190.0698,-2893.3599,17.01,0.0026947006,0.0039193192,-0.54802436,0.8364487,355.991,-775.68097,8.311,-0.00021,0.0010099999,0.53911
326.96667,-2136.53,-5025.4897,432.66998,0.48052445,0.013122926,-0.57044524,0.6659701,597.40094,3.221,-441.251,1.80721,-0.34251,-5.70331,1,0,0,0,0,false,true,false,-595.04,-5240.69,16.99,-0.004760908,0.00039651754,0.9950853,0.09890584,-1715.841,344.401,8.461,-0.00251,0,-0.00061,1,0.32283464,0,0,0,false,true,false,-3184.0999,-2906.3198,17.01,0.0026731214,0.0039408985,-0.54412925,0.83898777,365.131,-784.47095,8.311,-0.00030999997,0.0012099999,0.60761
326.98334,-2126.57,-5025.4297,425.18,0.4921988,-0.0030345728,-0.5998038,0.6308458,597.081,3.221,-451.85098,1.80721,-0.34251,-5.70331,1,0,0,0,0,false,true,false,-623.83997,-5234.9097,16.99,-0.004760908,0.00041809672,0.9950853,0.09890584,-1732.021,347.681,8.461,-0.0019099999,0,-0.00040999998,1,0.31496063,0,0,0,false,true,false,-3177.98,-2919.43,17.01,0.0026407526,0.0039624777,-0.5397919,0.84178495,375.161,-792.61096,8.311,-0.00040999998,0.0012099999,0.65081
327,-2116.63,-5025.37,417.52,-0.5026486,0.019181283,0.6276691,-0.5941447,596.761,3.221,-462.451,1.80721,-0.34251,-5.70331,1,0,0,0,0,false,true,false,-652.91,-5229.08,16.99,-0.004760908,0.00042888633,0.9950853,0.09890584,-1748.2109,350.951,8.461,-0.0014099999,0,-0.00021,1,0.2992126,0,0,0,false,true,false,-3171.68,-2932.67,17.01,0.0026083838,0.003984057,-0.5351847,0.84472156,385.841,-800.191,8.311,-0.00040999998,0.0012099999,0.67061
327.01666,-2106.69,-5025.31,409.68,-0.5118467,0.035284836,0.6539695,-0.5559602,596.441,3.221,-473.041,1.80721,-0.34251,-5.70331,1,0,0,0,0,false,true,false,-682.25,-5223.19,16.99,-0.0047609075,0.00043967587,0.99508524,0.09890583,-1764.4109,354.211,8.461,-0.0010099999,-0.00010999999,-0.00010999999,1,0.28346455,0,0,0,false,true,false,-3165.2,-2946.04,17.01,0.0025760152,0.004005636,-0.530448,0.847704,397.091,-807.22095,8.311,-0.00040999998,0.0012099999,0.67391
327.03333,-2096.75,-5025.25,401.66,-0.5197663,0.051301982,0.6786366,-0.5163945,596.121,3.221,-483.621,1.80721,-0.34251,-5.70331,1,0,0,0,0,false,true,false,-711.86,-5217.2397,16.99,-0.0047609075,0.00045046548,0.99508524,0.09890583,-1780.611,357.471,8.461,-0.00081,-0.00010999999,0,1,0.25984251,0,0,0,false,true,false,-3158.53,-2959.53,17.01,0.0025436466,0.0040272158,-0.52570605,0.85065293,408.601,-813.85095,8.311,-0.00040999998,0.00111,0.65981
327.05,-2086.81,-5025.19,393.47,-0.52639115,0.06718974,0.7016123,-0.4755396,595.80096,3.221,-494.201,1.80721,-0.34251,-5.70331,1,0,0,0,0,false,true,false,-741.74,-5211.2397,16.99,-0.0047609075,0.00046125508,0.99508524,0.09890583,-1796.8109,360.731,8.461,-0.00061,-0.00010999999,0,1,0.24409449,0,0,0,false,true,false,-3151.67,-2973.1199,17.01,0.0025112778,0.004048795,-0.5210611,0.853506,420.451,-820.011,8.311,-0.00040999998,0.0010099999,0.63901
327.06668,-2076.89,-5025.13,385.1,-0.531705,0.08290487,0.7228389,-0.4334978,595.48096,3.221,-504.781,1.80721,-0.34251,-5.70331,1,0,0,0,0,false,true,false,-771.86,-5205.1797,17.23,-0.0001321725,0.00191785,0.9950949,0.09890583,-1789.221,369.161,108.40099,-1.0627099,3.84071,0.10041,1,0.22047244,0,0,0,false,true,false,-3144.6199,-2986.8098,17.01,0.0024789087,0.0040703737,-0.5165672,0.8562333,432.291,-825.90094,8.311,-0.00040999998,0.00091,0.60781
327.08334,-2066.97,-5025.07,376.56,-0.5356918,0.098414905,0.742263,-0.39037704,595.16095,3.221,-515.34094,1.80721,-0.34251,-5.70331,1,0,0,0,0,false,true,false,-798.45996,-5199.17,21.35,0.07847574,0.04062029,0.99336576,0.07359337,-1428.751,354.891,415.811,-1.34551,5.05871,1.68761,1,0.2047244,0,0,0,false,true,false,-3137.3699,-3000.5999,17.01,0.0024519349,0.0040919525,-0.51228905,0.85879976,444.211,-831.47095,8.311,-0.00030999997,0.00071,0.57471
327.1,-2057.05,-5025.01,367.84,-0.53834605,0.11368226,0.75983554,-0.34627977,594.84094,3.221,-525.90094,1.80721,-0.34251,-5.70331,1,-0.1484375,0,0,0,false,true,false,-817.82996,-5193.52,30.07,0.17126116,0.07146241,0.98165405,0.043792423,-1017.321,314.091,591.391,-0.20761,5.47181,0.51531,1,0.18110237,0,0,0,false,true,false,-3129.92,-3014.48,17.01,0.0024303556,0.0041027423,-0.5082483,0.8611973,455.891,-836.91095,8.311,-0.00030999997,0.00051,0.53461
327.11667,-2047.14,-5024.9497,358.94,-0.5396515,0.12866907,0.77551717,-0.30131933,594.53094,3.221,-536.46094,1.80721,-0.34251,-5.70331,1,-0.5234375,0,0,0,false,false,false,-830.32,-5188.6597,40.239998,0.24691266,0.07131676,0.9659036,0.031276412,-715.72095,263.691,633.83093,0.94211,5.35961,-0.79761,1,0.16535433,0,0,0,false,true,false,-3122.27,-3028.45,17.01,0.0024087764,0.0041135317,-0.5044828,0.8634085,467.421,-842.15094,8.311,-0.00030999997,0.00051,0.49511
327.13333,-2037.24,-5024.8896,349.87,-0.53961384,0.14333214,0.7892633,-0.2556091,594.23096,3.221,-547.02094,1.80721,-0.34251,-5.70331,1,-0.7890625,0,0,0,false,false,false,-837.79,-5184.54,49.96,0.3177574,0.06332168,0.9456782,0.026707025,-405.551,232.951,571.84094,0.83471,5.08491,-1.9226099,1,0.15748031,0,0,0,false,true,false,-3114.43,-3042.51,17.01,0.0023871975,0.004124322,-0.5009816,0.8654448,478.85098,-847.18097,8.311,-0.00010999999,0.00040999998,0.46141002
327.15,-2027.34,-5024.83,340.62,-0.5382328,0.15763924,0.8010397,-0.20926227,593.93097,3.221,-557.561,1.80721,-0.34251,-5.70331,1,-1,0,0,0,false,false,false,-843.22,-5180.78,58.859997,0.3684849,0.060564935,0.92743176,0.020519193,-321.071,229.911,530.881,0.31091002,5.4899096,-0.11611,1,0.14173228,0,0,0,false,true,false,-3106.4,-3056.65,17.01,0.0023656182,0.0041351113,-0.49771774,0.86732596,489.921,-852.17096,8.311,-0.00010999999,0.00030999997,0.42621002
327.16666,-2017.44,-5024.77,331.19998,-0.535503,0.1715525,0.8108236,-0.16239208,593.631,3.221,-568.10095,1.80721,-0.34251,-5.70331,1,0,0,0,0,false,false,false,-848.38995,-5176.94,67.45,0.41418982,0.054776236,0.9082401,0.02337304,-296.771,235.431,512.761,0.33101,5.4194098,-0.87731,1,0.14173228,0,0,0,false,true,false,-3098.19,-3070.8699,17.01,0.0023494337,0.0041459007,-0.49468043,0.8690618,500.921,-856.941,8.311,0,0.00010999999,0.40081
327.18332,-2007.5499,-5024.71,321.6,-0.53144604,0.18503408,0.81858057,-0.115122676,593.331,3.221,-578.641,1.80721,-0.34251,-5.70331,1,0,0,0,0,false,false,false,-853.41,-5173.12,75.869995,0.4570678,0.048345633,0.8877378,0.025946356,-257.511,213.901,505.981,0.72651,5.41561,-0.62701,1,0.13385826,0,0,0,false,true,false,-3089.8,-3085.17,17.01,0.0023386441,0.00415669,-0.49182114,0.87068313,511.591,-861.66095,8.311,0,0.00010999999,0.37691
327.2,-1997.6699,-5024.65,311.82,-0.52605665,0.1980572,0.8243015,-0.06756198,593.03094,3.221,-589.17096,1.80721,-0.34251,-5.70331,1,0,0,0,0,false,false,false,-857.69,-5169.63,84.18,0.49861866,0.04289689,0.86541253,0.02450055,-225.83101,197.681,498.901,0.75941,5.43861,-0.30651,1,0.13385826,0,0,0,false,true,false,-3081.23,-3099.55,17.01,0.0023278547,0.0041674804,-0.4891184,0.8722043,522.11096,-866.251,8.311,0,0,0.35961
327.21667,-1987.7899,-5024.59,301.87,-0.51936173,0.21058403,0.82796395,-0.019834053,592.73096,3.221,-599.691,1.80721,-0.34251,-5.70331,1,0,0,0,0,false,false,false,-861.55,-5166.3896,92.369995,0.5385779,0.036067072,0.8415205,0.02181394,-216.531,183.291,491.481,1.00901,5.39561,-0.34481,1,0.13385826,0,0,0,false,true,false,-3072.49,-3114.01,17.01,0.002317065,0.0041782693,-0.48652884,0.8736514,532.441,-870.72095,8.311,0,0,0.34731
327.23334,-1977.9099,-5024.53,291.74,-0.5113719,0.2225874,0.82956165,0.027942427,592.43097,3.221,-610.21094,1.80721,-0.34251,-5.70331,1,0,0,0,0,false,false,false,-865.31,-5163.3896,100.439995,0.5767679,0.027607953,0.8162411,0.018080743,-219.33101,170.47101,483.721,1.22561,5.3516097,-0.32761002,1,0.13385826,0,0,0,false,true,false,-3063.5698,-3128.54,17.01,0.002306275,0.0041890587,-0.4840202,0.8750436,542.581,-875.071,8.311,0,0,0.33841002
327.25,-1968.0399,-5024.4697,281.44,-0.5021037,0.23403528,0.8290933,0.07565417,592.131,3.221,-620.73096,1.80721,-0.34251,-5.70331,1,0,0,0,0,false,false,false,-869.13995,-5160.6,108.38,0.6131668,0.017972847,0.78964144,0.013025819,-227.821,153.951,481.401,1.35481,5.32221,-0.29651,1,0.14173228,0,0,0,false,true,false,-3054.49,-3143.14,17.01,0.0022954857,0.0041998485,-0.48154944,0.8764058,552.701,-879.21094,8.311,0,-0.00021,0.33741
327.26666,-1958.1799,-5024.4097,270.96,-0.49158376,0.24490039,0.826557,0.12317719,591.831,3.221,-631.24097,1.80721,-0.34251,-5.70331,1,-1,0,0,0,false,false,true,-873.07,-5158.17,116.34,0.6478339,0.008467133,0.7616993,0.007328831,-204.451,123.601,491.641,1.2021099,4.73531,-0.19670999,1,0.14173228,0,0,0,false,true,false,-3045.23,-3157.8098,17.01,0.0022846963,0.004199849,-0.47908947,0.877753,562.641,-883.24097,8.311,0,-0.00021,0.33651
327.28333,-1948.32,-5024.35,260.31,-0.4798447,0.25515598,0.8219565,0.17038721,591.53094,3.221,-641.74097,1.80721,-0.34251,-5.70331,1,-1,0,0,0,false,false,true,-876.41,-5156.12,124.46,0.6755902,0.0014646872,0.7372698,0.0029644405,-163.261,123.631,497.651,0.42031,3.70591,-0.033609997,1,0.1496063,0,0,0,false,true,false,-3035.8098,-3172.55,17.01,0.0022739065,0.0041998485,-0.47661856,0.87909716,572.60095,-887.03094,8.311,0,-0.00021,0.34121
327.3,-1938.46,-5024.29,249.48,-0.4669025,0.2647695,0.81531185,0.21717645,591.23096,3.221,-652.24097,1.80721,-0.34251,-5.70331,1,-1,0,0,0,false,false,true,-879.19,-5154.1,132.67,0.69740146,0.0015833727,0.7166788,0.000072829745,-133.171,125.050995,500.371,-0.13520999,2.98511,0.76531,1,0.1496063,0,0,0,false,true,false,-3026.23,-3187.3499,17.01,0.002263117,0.0042052437,-0.47411,0.88045263,582.42096,-890.691,8.311,0,0,0.34431002
327.31668,-1928.61,-5024.23,238.48,-0.45279506,0.27373025,0.80663353,0.2634208,590.93097,3.221,-662.74097,1.80721,-0.34251,-5.70331,1,-1,0,0,0,false,false,true,-881.25,-5152.01,140.92,0.7116817,0.010322942,0.70239705,-0.0063847834,-75.181,133.30101,502.581,-0.37121,1.0649099,2.3152099,1,0.15748031,0,0,0,false,true,false,-3016.48,-3202.21,17.01,0.0022523273,0.004216033,-0.471569,0.88181615,592.311,-894.08093,8.311,0,0,0.35181
327.33334,-1918.7699,-5024.17,227.29999,-0.43756005,0.28200594,0.7959428,0.30901235,590.631,3.221,-673.22095,1.80721,-0.34251,-5.70331,1,-0.765625,0,0,0,false,false,false,-882.51,-5149.81,149.20999,0.7159212,0.026933605,0.69742846,-0.018021401,-51.751,139.731,505.151,-0.53901,0.11370999,2.43451,1,0.15748031,0,0,0,false,true,false,-3006.5598,-3217.1199,17.01,0.0022415377,0.0042268224,-0.4689687,0.8832018,602.131,-897.311,8.311,0,0,0.35701
327.35,-1908.9299,-5024.11,215.95,-0.42123538,0.28957486,0.7832685,0.35383254,590.331,3.221,-683.701,1.80721,-0.34251,-5.70331,1,-0.8125,0,0,0,false,false,false,-883.42,-5147.51,157.55,0.7151149,0.043646768,0.6970778,-0.028071947,-38.841,140.541,509.961,-0.55301,-0.36171,1.94951,1,0.16535433,0,0,0,false,true,false,-2996.48,-3232.0898,17.01,0.002230748,0.0042376122,-0.46631986,0.88460314,612.071,-900.23096,8.311,0,-0.00010999999,0.36601
327.36667,-1899.09,-5024.05,204.43,-0.40386406,0.29642627,0.7686389,0.39776793,590.03094,3.221,-694.18097,1.80721,-0.34251,-5.70331,1,-1,0,0,0,false,false,false,-884.20996,-5145.26,165.97,0.71239775,0.059469793,0.69831324,-0.036212698,-44.251,131.481,514.53094,-0.78571,-0.26231,2.2901099,1,0.16535433,0,0,0,false,true,false,-2986.24,-3247.0999,17.01,0.0022199585,0.0042484016,-0.46360627,0.8860283,621.96094,-902.98096,8.311,-0.00010999999,-0.00021,0.37231
327.38333,-1889.26,-5023.9897,192.73,-0.38548392,0.30253863,0.7520915,0.44071606,589.73096,3.221,-704.66095,1.80721,-0.34251,-5.70331,1,-1,0,0,0,false,false,false,-885.11,-5143.1797,174.45999,0.7097083,0.07876165,0.6986314,-0.04499546,-55.931,125.120995,515.18097,-1.05241,-0.28241,2.7074099,1,0.16535433,0,0,0,false,true,false,-2975.8398,-3262.16,17.01,0.0022091689,0.0042484016,-0.46084413,0.8874681,631.85095,-905.52094,8.311,-0.00010999999,-0.00021,0.37671
327.4,-1879.44,-5023.9297,180.84999,-0.3661435,0.30789566,0.73366976,0.48256367,589.43097,3.221,-715.121,1.80721,-0.34251,-5.70331,1,-1,0,0,0,false,false,false,-886.19,-5141.1997,182.95999,0.7067075,0.10166805,0.69804347,-0.0544364,-67.101,120.681,514.511,-1.26261,-0.096109994,2.9500098,1,0.17322835,0,0,0,false,true,false,-2965.26,-3277.26,17.01,0.0021983793,0.0042484016,-0.45803884,0.88891923,641.90094,-907.72095,8.311,-0.00010999999,-0.00010999999,0.38521
327.41666,-1869.62,-5023.87,168.8,-0.34588596,0.31248125,0.7134223,0.5232082,589.131,3.221,-725.58093,1.80721,-0.34251,-5.70331,1,-1,0,0,0,false,false,false,-887.5,-5139.26,191.44,0.70419085,0.12714237,0.6955672,-0.06431432,-81.340996,120.631,513.451,-1.45251,0.10201,3.2151098,1,0.17322835,0,0,0,false,true,false,-2954.52,-3292.39,17.01,0.0021875896,0.0042591915,-0.45516878,0.89039224,651.941,-909.71094,8.311,-0.00010999999,0,0.39111
327.43332,-1859.7999,-5023.81,156.58,-0.32476524,0.31629,0.69139624,0.56254715,588.831,3.221,-736.04095,1.80721,-0.34251,-5.70331,1,-1,0,0,0,false,false,false,-889.05,-5137.31,199.9,0.7020768,0.15499038,0.6909978,-0.074753284,-95.751,124.660995,512.011,-1.5871099,0.32011,3.41641,1,0.17322835,0,0,0,false,true,false,-2943.6199,-3307.5598,17.01,0.0021768003,0.004269981,-0.45225558,0.89187545,661.99097,-911.48096,8.311,-0.00021,0,0.39531
