time,ball_loc_x,ball_loc_y,ball_loc_z,ball_rot_x,ball_rot_y,ball_rot_z,ball_rot_w,ball_vel_x,ball_vel_y,ball_vel_z,ball_ang_x,ball_ang_y,ball_ang_z,player0_throttle,player0_steer,player0_pitch,player0_yaw,player0_roll,player0_jump,player0_boost,player0_handbrake,player0_loc_x,player0_loc_y,player0_loc_z,player0_rot_x,player0_rot_y,player0_rot_z,player0_rot_w,player0_vel_x,player0_vel_y,player0_vel_z,player0_ang_x,player0_ang_y,player0_ang_z,player1_throttle,player1_steer,player1_pitch,player1_yaw,player1_roll,player1_jump,player1_boost,player1_handbrake,player1_loc_x,player1_loc_y,player1_loc_z,player1_rot_x,player1_rot_y,player1_rot_z,player1_rot_w,player1_vel_x,player1_vel_y,player1_vel_z,player1_ang_x,player1_ang_y,player1_ang_z
52.5,1249.14,-4831.06,97.939995,0.49886143,0.6280771,0.4690874,-0.3696124,-317.561,284.881,87.001,-3.12641,-3.48451,3.04881,1,-1,0,0,0,false,false,false,-449.09,-5441.84,20.49,-0.01938089,0.014266623,0.52348334,0.8516959,111.531,84.181,4.7809997,-0.00111,-0.014609999,-0.39641002,1,-1,0,0,0,false,false,false,-259.6,-3594.9,16.99,-0.0012165265,0.004609853,0.2515144,0.96784174,527.90094,331.551,8.591001,0.00051,0,-2.5715098
52.516666,1243.85,-4826.32,99.25,0.4783773,0.66301376,0.45731595,-0.34989974,-317.401,284.721,76.120995,-3.12641,-3.48451,3.04881,1,-1,0,0,0,false,false,false,-447.19998,-5440.34,20.43,-0.019407863,0.014223465,0.52023566,0.85368365,119.730995,107.241,3.8109999,-0.00111,-0.02411,-0.63181,1,-1,0,0,0,false,false,false,-250.68999,-3589.49,16.99,-0.0011086307,0.0046314327,0.23074977,0.9730014,554.891,304.901,8.591001,0.00051,0,-2.55491
52.533333,1238.57,-4821.58,100.38,0.45685738,0.69651246,0.44455177,-0.32943177,-317.241,284.561,65.241,-3.12641,-3.48451,3.04881,1,-1,0,0,0,false,false,false,-445.16,-5438.4697,20.35,-0.019445624,0.014153331,0.5153425,0.85664654,129.451,128.851,2.951,-0.00091,-0.03241,-0.84341,1,-1,0,0,0,false,false,false,-241.34,-3584.52,16.99,-0.0010061295,0.004653012,0.21002297,0.97768486,580.46094,278.331,8.591001,0.00030999997,0,-2.53701
52.55,1233.2899,-4816.84,101.329994,0.43434483,0.7285006,0.43082732,-0.30825174,-317.081,284.401,54.361,-3.12641,-3.48451,3.04881,1,-1,0,0,0,false,false,false,-442.96,-5436.2397,20.26,-0.01949418,0.014056225,0.5089605,0.8604542,140.77101,148.981,2.1709998,-0.00051,-0.039709996,-1.03001,1,-1,0,0,0,false,false,false,-231.56,-3579.99,16.99,-0.0009090232,0.004674591,0.18933924,0.98190016,604.35095,252.201,8.581,0.00030999997,0,-2.5220098
52.566666,1228.01,-4812.1,102.1,0.41089356,0.7589118,0.41616428,-0.28640273,-316.921,284.241,43.501,-3.12641,-3.48451,3.04881,1,-1,0,0,0,false,false,false,-440.56,-5433.6797,20.16,-0.019548127,0.013932145,0.5012459,0.86497176,153.61101,167.641,1.471,-0.00010999999,-0.04601,-1.19221,1,-1,0,0,0,false,false,false,-221.39,-3575.9,16.99,-0.00081191683,0.00469617,0.16868785,0.98565793,626.631,226.351,8.581,0.00030999997,0,-2.51091
52.583332,1222.73,-4807.36,102.689995,0.38655204,0.7876776,0.40060017,-0.26393327,-316.761,284.081,32.641,-3.12641,-3.48451,3.04881,1,-1,0,0,0,false,false,false,-437.94,-5430.81,20.039999,-0.019602077,0.013786486,0.49236065,0.8700613,167.851,184.841,0.821,0.00010999999,-0.051409997,-1.33231,1,-1,0,0,0,false,false,false,-210.86,-3572.23,16.99,-0.00071481057,0.00470696,0.1480473,0.9889688,647.451,200.451,8.581,0.00030999997,0,-2.50301
52.6,1217.45,-4802.62,103.1,0.36137447,0.81473595,0.38416755,-0.24089207,-316.601,283.921,21.780998,-3.12641,-3.48451,3.04881,1,-1,0,0,0,false,false,false,-435.08,-5427.6597,19.92,-0.019656025,0.013630038,0.48243424,0.8756055,183.351,200.601,0.241,0.00030999997,-0.056309998,-1.45331,1,-1,0,0,0,false,false,false,-199.98,-3569,16.99,-0.0006177042,0.0047177495,0.12740132,0.9918398,666.90094,174.271,8.581,0.00030999997,0,-2.49781
52.616665,1212.1699,-4797.89,103.329994,0.33540922,0.8400315,0.3669042,-0.21732211,-316.441,283.761,10.931,-3.12641,-3.48451,3.04881,1,-1,0,0,0,false,false,false,-431.94998,-5424.26,19.779999,-0.019715367,0.013452008,0.47158518,0.8814974,199.97101,214.931,-0.30099997,0.00030999997,-0.060609996,-1.55821,1,-1,0,0,0,false,false,false,-188.79,-3566.21,16.99,-0.00052059785,0.004728539,0.10673378,0.9942762,685.03094,147.61101,8.581,0.00021,0,-2.4948099
52.633335,1206.89,-4793.17,103.38,0.30872107,0.8635044,0.34884235,-0.19328816,-316.281,283.601,0.091,-3.12641,-3.48451,3.04881,1,-1,0,0,0,false,false,false,-428.53998,-5420.62,19.64,-0.019780101,0.013257794,0.45991078,0.8876456,217.551,227.841,-0.78099996,0.00040999998,-0.06431,-1.6504099,1,-1,0,0,0,false,false,false,-177.3,-3563.8599,16.99,-0.00042349152,0.0047393288,0.08604465,0.9962799,701.86096,120.340996,8.581,0.00021,0,-2.49351
52.65,1201.63,-4788.4497,103.25,0.281364,0.8851061,0.33002523,-0.16883346,-316.121,283.441,-10.731,-3.12641,-3.48451,3.04881,1,-1,0,0,0,false,false,false,-424.84,-5416.77,19.49,-0.019839447,0.013047399,0.44749734,0.8939699,235.991,239.321,-1.261,0.00061,-0.067609996,-1.73201,1,-1,0,0,0,false,false,false,-165.54,-3561.97,16.99,-0.0003263852,0.004750118,0.06532854,0.99785244,717.371,92.381,8.581,0.00021,0,-2.4934099
52.666668,1196.37,-4783.73,102.939995,0.25339717,0.90478855,0.31049594,-0.14401191,-315.961,283.281,-21.550999,-3.12641,-3.48451,3.04881,1,-1,0,0,0,false,false,false,-420.81998,-5412.7397,19.33,-0.019893395,0.012826212,0.43439877,0.9004095,255.22101,249.33101,-1.661,0.00061,-0.070609994,-1.80451,1,-1,0,0,0,false,false,false,-153.51999,-3560.5498,16.99,-0.00022927884,0.004755513,0.044580065,0.9989944,731.54095,63.670998,8.581,0.00021,0,-2.4941099
52.683334,1191.11,-4779.01,102.45,0.22488022,0.92251134,0.29029238,-0.11887749,-315.801,283.121,-32.371,-3.12641,-3.48451,3.04881,1,-1,0,0,0,false,false,false,-416.47998,-5408.55,19.17,-0.019947343,0.012588841,0.42067432,0.90690494,275.171,257.761,-1.531,0.02291,-0.072909996,-1.86971,1,-1,0,0,0,false,false,false,-141.27,-3559.6099,16.99,-0.0001321725,0.004755513,0.023804622,0.99970526,744.33093,34.181,8.581,0.00021,0,-2.49541
52.7,1185.85,-4774.29,101.78,0.19587232,0.93823624,0.26945758,-0.09348406,-315.641,282.961,-43.170998,-3.12641,-3.48451,3.04881,1,-1,0,0,0,false,false,false,-411.81,-5404.2197,19.01,-0.019758526,0.012232785,0.40636727,0.91341424,295.831,264.551,-1.151,0.057809997,-0.072809994,-1.92891,1,-1,0,0,0,false,false,false,-128.81999,-3559.16,16.99,-0.000035066176,0.0047555133,0.0030075992,0.99998415,755.71094,3.9309998,8.581,0.00021,0,-2.4969099
52.716667,1180.59,-4769.57,100.93,0.16644362,0.9519261,0.24804017,-0.06789106,-315.481,282.801,-53.970997,-3.12641,-3.48451,3.04881,1,-1,0,0,0,false,false,false,-406.78998,-5399.79,18.85,-0.01931615,0.01177962,0.3915207,0.91989094,317.081,269.711,-0.92099994,0.08110999,-0.072809994,-1.98171,1,-1,0,0,0,false,false,false,-116.18,-3559.23,16.99,0.00006204016,0.0047555133,-0.017800216,0.99983025,765.6409,-27.060999,8.581,0.00030999997,0,-2.49851
52.733334,1175.33,-4764.85,99.9,0.13665876,0.9635526,0.22608323,-0.042152405,-315.321,282.641,-64.770996,-3.12641,-3.48451,3.04881,1,-1,0,0,0,false,false,false,-401.41998,-5395.28,18.699999,-0.018701147,0.011261722,0.3761779,0.9262902,338.811,273.271,-0.77099997,0.09471,-0.07441,-2.02861,1,-1,0,0,0,false,false,false,-103.38,-3559.8198,16.99,0.00015914648,0.004755513,-0.03861338,0.99924284,774.061,-58.771,8.581,0.00030999997,0,-2.4999099
52.75,1170.07,-4760.14,98.689995,0.106577314,0.9730906,0.20364082,-0.016316602,-315.161,282.481,-75.561,-3.12641,-3.48451,3.04881,1,-1,0,0,0,false,false,false,-395.68,-5390.71,18.56,-0.017994426,0.010695183,0.3603818,0.9325699,360.911,275.231,-0.77099997,0.100509994,-0.07760999,-2.06991,1,-1,0,0,0,false,false,false,-90.45,-3560.93,16.99,0.0002562528,0.004755513,-0.059421193,0.9982216,780.951,-91.131,8.581,0.00030999997,0,-2.50121
52.766666,1164.8099,-4755.44,97.299995,0.076263785,0.9805201,0.18075602,0.009551486,-315.001,282.321,-86.340996,-3.12641,-3.48451,3.04881,1,-1,0,0,0,false,false,false,-389.56998,-5386.12,18.42,-0.017260734,0.010090966,0.34416506,0.9386962,383.291,275.591,-0.85099995,0.10081,-0.08181,-2.10631,1,-1,0,0,0,false,false,false,-77.409996,-3562.5898,16.99,0.00035335915,0.004744723,-0.08021821,0.9967659,786.251,-124.101,8.581,0.00040999998,0,-2.50221
52.783333,1159.57,-4750.7397,95.729996,0.045783106,0.98582536,0.15747738,0.035398122,-314.841,282.161,-97.120995,-3.12641,-3.48451,3.04881,1,-1,0,0,0,false,false,false,-383.09,-5381.53,18.27,-0.016532397,0.009459776,0.32756522,0.9446365,405.851,274.331,-0.951,0.09761,-0.08640999,-2.13801,1,-1,0,0,0,false,false,false,-64.29,-3564.79,16.99,0.00045046548,0.0047339336,-0.10098287,0.99487674,789.941,-157.601,8.581,0.00040999998,0,-2.50291
52.8,1154.33,-4746.04,93.979996,0.015199924,0.98899394,0.13385889,0.061169155,-314.681,282.001,-107.90099,-3.12641,-3.48451,3.04881,1,-1,0,0,0,false,false,false,-376.22998,-5376.96,18.109999,-0.01584186,0.008796215,0.31062004,0.9503614,428.521,271.461,-0.92099994,0.092209995,-0.090909995,-2.16541,1,-1,0,0,0,false,false,false,-51.12,-3567.5498,16.99,0.0005529666,0.0047231438,-0.121709764,0.9925543,791.97095,-191.561,8.581,0.00051,0,-2.50321
52.816666,1149.08,-4741.33,93.61,-0.015388699,0.99001664,0.11006236,0.086697415,-315.501,282.831,67.951,-3.09951,-3.45751,3.04881,0,0,0,0,0,false,false,false,-368.99,-5372.4497,17.96,-0.01519988,0.008121865,0.29336202,0.955846,451.241,266.821,-0.77099997,0.08541,-0.095309995,-2.19251,1,-1,0,0,0,false,true,false,-37.92,-3570.89,16.99,0.0006608626,0.004712355,-0.1423881,0.98979944,792.33093,-225.901,8.581,0.00051,0,-2.50311
52.833332,1143.82,-4736.61,94.61,-0.045928765,0.9889101,0.08614174,0.11192356,-315.341,282.671,57.071,-3.09951,-3.45751,3.04881,0,0,0,0,0,false,false,false,-361.52,-5367.9897,17.82,-0.014617242,0.007458306,0.27724236,0.9606598,440.711,267.301,-0.78099996,0.07841,-0.07581,-1.57761,1,-1,0,0,0,false,true,false,-24.519999,-3574.8599,16.99,0.00076336367,0.0047015646,-0.1629963,0.9866151,806.621,-265.361,8.501,0.00030999997,0,-2.50081
52.85,1138.5599,-4731.9,95.43,-0.07636633,0.98568505,0.062032316,0.13691233,-315.181,282.511,46.201,-3.09951,-3.45751,3.04881,1,1,0,0,0,false,false,false,-354.21,-5363.55,17.68,-0.014072366,0.0068810615,0.26551396,0.9639796,433.381,262.811,-0.66099995,0.07481,-0.061909996,-1.1461099,1,-1,0,0,0,false,false,false,-10.889999,-3579.49,16.99,0.00086047006,0.004685381,-0.1835128,0.98300576,818.691,-305.781,8.461,0.00030999997,0,-2.4962099
52.866665,1133.2999,-4727.1997,96.06,-0.10663666,0.980349,0.037793413,0.1616044,-315.021,282.351,35.341,-3.09951,-3.45751,3.04881,1,1,0,0,0,false,false,false,-347,-5359.08,17.539999,-0.013365651,0.006487243,0.25829038,0.96595305,433.381,282.691,0.941,0.13590999,0.02921,-0.27231002,1,-1,0,0,0,false,false,false,2.9299998,-3584.8098,16.99,0.0009575763,0.0046638013,-0.20390517,0.978979,828.47095,-347.101,8.441,0.00030999997,0,-2.48921
52.883335,1128.0599,-4722.5,96.509995,-0.13668576,0.97291183,0.013473588,0.1859512,-314.861,282.191,24.480999,-3.09951,-3.45751,3.04881,1,1,0,0,0,false,false,false,-339.75998,-5354.3,17.43,-0.012135636,0.0064494787,0.25747573,0.96618694,438.291,298.731,2.981,0.15790999,0.03921,0.36861,1,-1,0,0,0,false,false,false,16.9,-3590.8298,16.99,0.0010546827,0.004642222,-0.22414653,0.97454375,835.90094,-389.251,8.441,0.00030999997,0,-2.4797099
52.9,1122.82,-4717.8,96.78,-0.16643818,0.96338993,-0.010878649,0.20990418,-314.701,282.031,13.621,-3.09951,-3.45751,3.04881,1,1,0,0,0,false,false,false,-332.43,-5349.26,17.35,-0.010792332,0.0063793464,0.26152724,0.9651146,444.551,314.241,4.1809998,0.16431,0.040209997,0.86941,1,-1,0,0,0,false,false,false,30.98,-3597.5498,16.99,0.001151789,0.004620643,-0.24420987,0.96971065,840.93097,-432.121,8.441,0.00030999997,0,-2.4674098
52.916668,1117.58,-4713.1,96.869995,-0.19582915,0.9518057,-0.035203867,0.23340409,-314.541,281.871,2.781,-3.09951,-3.45751,3.04881,1,1,0,0,0,false,false,false,-325,-5343.96,17.289999,-0.009427448,0.006249871,0.2693443,0.96297747,451.111,330.151,4.8009996,0.16911,0.035309996,1.25201,1,-1,0,0,0,false,false,false,45.129997,-3605,16.99,0.0012488952,0.004599063,-0.26406816,0.9644921,843.54095,-475.581,8.441,0.00030999997,0,-2.4525099
52.933334,1112.34,-4708.4,96.78,-0.2248047,0.93818074,-0.059453562,0.25640756,-314.381,281.711,-8.041,-3.09951,-3.45751,3.04881,1,1,0,0,0,false,false,false,-317.44998,-5338.3896,17.23,-0.008057171,0.00603408,0.28000993,0.9599443,457.121,347.111,5.001,0.17280999,0.02961,1.5397099,1,-1,0,0,0,false,false,false,59.129997,-3613.0698,16.99,0.0013460016,0.0045774844,-0.28369454,0.9589028,829.691,-511.051,8.521,0.00030999997,0,-2.43971
52.95,1107.1,-4703.6997,96.509995,-0.25330013,0.9225459,-0.08357382,0.2788608,-314.221,281.551,-18.860998,-3.09951,-3.45751,3.04881,1,1,0,0,0,false,false,false,-309.81,-5332.53,17.17,-0.006681497,0.005748155,0.29277396,0.956141,462.001,365.411,4.9509997,0.17711,0.02591,1.7553099,1,-1,0,0,0,false,false,false,72.89,-3621.74,16.99,0.0014431081,0.004545116,-0.3031051,0.9529452,814.001,-546.29095,8.551001,0.00021,0,-2.42891
52.966667,1101.86,-4699,96.06,-0.28125066,0.90493566,-0.10751601,0.3007152,-314.061,281.391,-29.680998,-3.09951,-3.45751,3.04881,1,1,0,0,0,false,false,false,-302.09,-5326.35,17.109999,-0.0052842028,0.005413678,0.30708107,0.95165324,465.371,385.081,4.7409997,0.18281,0.02541,1.91771,1,-1,0,0,0,false,false,false,86.38,-3630.99,16.99,0.0015402143,0.004512747,-0.32231063,0.9466219,796.55096,-581.131,8.561,0.00010999999,0,-2.41941
52.983334,1096.62,-4694.32,95.43,-0.30859703,0.88538814,-0.13123164,0.32192227,-313.901,281.231,-40.490997,-3.09951,-3.45751,3.04881,0,0,0,0,0,false,false,false,-294.32,-5319.84,17.05,-0.0038437922,0.0050576213,0.32252106,0.9465409,466.991,406.021,4.421,0.19050999,0.02871,2.04121,1,-1,0,0,0,false,false,false,99.579994,-3640.8198,16.99,0.0016319259,0.0044803787,-0.3413112,0.93993825,777.42096,-615.43097,8.561,0,0,-2.41081
53,1091.39,-4689.64,94.619995,-0.33529052,0.8639411,-0.15466669,0.34243864,-313.741,281.071,-51.290997,-3.09951,-3.45751,3.04881,0,0,0,0,0,false,false,false,-286.54,-5313.13,16.99,-0.0023548286,0.004712355,0.33731362,0.9413776,464.961,394.701,4.211,0.18651,0.03071,1.4614099,1,-1,0,0,0,false,false,false,112.45,-3651.22,16.99,0.0017182425,0.004448009,-0.36010668,0.9328989,756.691,-649.071,8.561,0,0,-2.4028099
53.016666,1086.1699,-4684.96,93.63,-0.36126116,0.84064543,-0.17776729,0.36222145,-313.581,280.911,-62.091,-3.09951,-3.45751,3.04881,0,0,0,0,0,false,false,false,-278.82,-5306.58,16.94,-0.0010708668,0.0044641932,0.34789822,0.9375209,458.631,388.57098,6.0909996,0.09080999,0.02241,1.05141,1,-1,0,0,0,false,false,false,124.96999,-3662.18,16.99,0.0018045595,0.004415641,-0.37869728,0.92550826,734.43097,-681.941,8.561,0,0,-2.39521
53.033333,1080.94,-4680.28,93.409996,-0.3864442,0.8155889,-0.20040394,0.38120043,-314.011,281.351,40.481,-3.08331,-3.44121,3.04881,0,0,0,0,0,false,false,false,-271.21,-5300.12,16.91,-0.00047743946,0.004399456,0.35547256,0.9346762,450.10098,385.001,7.601,0.029409999,0.01211,0.75341,1,-1,0,0,0,false,false,false,137.11,-3673.68,16.99,0.0018908761,0.0043832716,-0.39708278,0.9177703,710.65094,-713.97095,8.561,0,0,-2.38881
53.05,1075.7,-4675.6,93.95,-0.410791,0.7888323,-0.22253889,0.3993378,-313.851,281.191,29.620998,-3.08331,-3.44121,3.04881,0,0,0,0,0,false,false,false,-263.75,-5293.71,16.91,-0.00032638517,0.0044156406,0.36088893,0.93259823,440.511,382.541,8.651,-0.00691,0.0019099999,0.53981,1,-1,0,0,0,false,false,false,148.84999,-3685.71,16.99,0.001977193,0.0043401136,-0.41526335,0.9096887,685.381,-745.11096,8.561,0,0,-2.38441
53.066666,1070.48,-4670.92,94.31,-0.43426928,0.7603932,-0.24419907,0.4166282,-313.691,281.031,18.761,-3.08331,-3.44121,3.04881,1,-1,0,0,0,false,false,false,-256.44998,-5287.34,16.92,-0.0004342811,0.004448009,0.36476249,0.9310898,430.651,380.32098,9.141,-0.02211,-0.00511,0.38741,1,-1,0,0,0,false,false,false,160.16,-3698.26,16.99,0.0020635095,0.004296955,-0.43324962,0.90126127,658.691,-775.261,8.561,0,0,-2.38151
53.083332,1065.26,-4666.2397,94.49,-0.45681962,0.73033965,-0.26534134,0.4330285,-313.531,280.871,7.911,-3.08331,-3.44121,3.04881,1,-1,0,0,0,false,false,false,-249.18,-5281.04,16.94,-0.0006554677,0.0044641932,0.36611655,0.9305579,450.461,373.581,9.221001,-0.02841,-0.011109999,-0.35291,1,-1,0,0,0,false,false,false,171.01999,-3711.2998,16.99,0.0021498264,0.0042537972,-0.45104718,0.89248735,630.631,-804.371,8.561,0,0,-2.37951
53.1,1060.0399,-4661.56,94.49,-0.4783989,0.69873184,-0.2859118,0.44851154,-313.371,280.711,-2.9209998,-3.08331,-3.44121,3.04881,1,-1,0,0,0,false,false,false,-241.59999,-5274.83,16.96,-0.00088744395,0.0044641937,0.36229697,0.93205154,468.331,371.621,9.111,-0.02651,-0.011809999,-0.87551,1,-1,0,0,0,false,false,false,181.40999,-3724.8198,16.99,0.0022361428,0.004210638,-0.46865034,0.8833707,601.24097,-832.371,8.561,0,0,-2.37831
53.116665,1054.82,-4656.88,94.31,-0.49896392,0.6656333,-0.30587804,0.46303985,-313.211,280.551,-13.741,-3.08331,-3.44121,3.04881,0,0,0,0,0,false,false,false,-233.72,-5268.6396,16.98,-0.0010816564,0.0044641932,0.35465792,0.9349847,486.271,370.371,8.941,-0.02191,-0.01031,-1.2732099,1,-1,0,0,0,false,false,false,191.3,-3738.8098,16.99,0.0023224596,0.00416748,-0.48605952,0.87391263,570.59094,-859.21094,8.561,0,0,-2.37761
53.133335,1049.6,-4652.1997,93.95,-0.51846075,0.6311228,-0.32519683,0.47658086,-313.051,280.391,-24.560999,-3.08331,-3.44121,3.04881,0,0,0,0,0,false,false,false,-225.68,-5262.4497,17,-0.0012111317,0.0044695884,0.34549758,0.93840814,472.561,372.861,8.731,-0.013609999,-0.0043099998,-0.91011,1,-1,0,0,0,false,false,false,200.67,-3753.24,16.99,0.0024087764,0.0041243215,-0.5032744,0.8641134,538.71094,-884.821,8.561,0,0,-2.37731
53.15,1044.38,-4647.52,93.409996,-0.5368571,0.5952698,-0.34381977,0.48910758,-312.891,280.231,-35.381,-3.08331,-3.44121,3.04881,0,0,0,0,0,false,false,false,-217.84999,-5256.2397,17.01,-0.0012866588,0.004485773,0.33892664,0.94080114,462.661,371.051,8.511001,-0.009109999,-0.0016099999,-0.64791,1,-1,0,0,0,false,false,false,209.51,-3768.0898,16.99,0.0024950933,0.0040757684,-0.52029496,0.85397315,505.661,-909.16095,8.561,0,0,-2.37721
53.166668,1039.16,-4642.85,93.27,-0.55410427,0.5581869,-0.3616658,0.5005931,-313.091,280.441,24.460999,-3.07331,-3.43121,3.04881,0,0,0,0,0,false,false,false,-210.17,-5250.07,17.01,-0.0013352121,0.0045073526,0.33424398,0.94247484,454.841,366.771,8.391,-0.00661,-0.00061,-0.45871,1,-0.7734375,0,0,0,false,false,false,217.79,-3783.3398,16.99,0.0025706203,0.00402182,-0.5371106,0.84349823,471.481,-932.18097,8.561,0,0,-2.37721
53.183334,1033.94,-4638.17,93.54,0.5701733,-0.5199551,0.37869725,-0.5110159,-312.931,280.281,13.601,-3.07331,-3.43121,3.04881,1,0.1023622,0,0,0,false,true,false,-202.62,-5243.98,17.01,-0.0013675807,0.004528931,0.33092612,0.94364464,448.161,361.101,8.341001,-0.00521,-0.00030999997,-0.32431,1,-0.46875,0,0,0,false,false,false,225.53,-3798.97,16.99,0.0026461477,0.003967873,-0.5534408,0.83287483,441.641,-952.96094,8.561,0.00030999997,-0.00081,-2.23491
53.2,1028.72,-4633.4897,93.63,0.5850371,-0.48062155,0.39492488,-0.52035433,-312.771,280.121,2.761,-3.07331,-3.43121,3.04881,1,0.13385826,0,0,0,false,true,false,-194.94,-5237.79,17.01,-0.0013945549,0.004539721,0.3287305,0.9444118,473.081,382.641,8.241,-0.00321,-0.0010099999,-0.15991,1,-0.2265625,0,0,0,false,false,false,232.79,-3814.93,16.99,0.0027270694,0.0039139246,-0.5682981,0.8228088,417.131,-971.311,8.551001,0.00081,-0.00221,-1.9370099
53.216667,1023.5,-4628.83,93.54,0.5986605,-0.4402683,0.41031632,-0.5285922,-312.611,279.961,-8.061,-3.07331,-3.43121,3.04881,1,0.14173228,0,0,0,false,true,false,-186.84,-5231.2397,17.01,-0.0014161341,0.004539721,0.32776484,0.9447473,497.731,403.611,8.191,-0.0023100001,-0.0012099999,-0.02171,1,0.09448819,0,0,0,false,false,false,239.65999,-3831.18,16.99,0.002802597,0.003859977,-0.58081406,0.81402224,396.151,-987.67096,8.541,0.00111,-0.00311,-1.56401
53.233334,1018.3,-4624.17,93.27,0.61100876,-0.39898175,0.4248445,-0.5357134,-312.451,279.801,-18.880999,-3.07331,-3.43121,3.04881,1,0.1496063,0,0,0,false,true,false,-178.34,-5224.34,17.01,-0.0014377133,0.004539721,0.3278134,0.94473046,522.141,424.051,8.1710005,-0.0019099999,-0.0014099999,0.08241,1,0.41732284,0,0,0,false,false,false,246.2,-3847.7,16.99,0.002872729,0.0038060287,-0.59048694,0.807033,381.241,-1001.29095,8.541,0.0012099999,-0.00391,-1.07951
53.25,1013.1,-4619.51,93.189995,0.6220654,-0.3568752,0.43844485,-0.5417016,-312.521,279.871,14.571,-3.0671098,-3.42481,3.04881,1,0.1496063,0,0,0,false,true,false,-169.42,-5217.1,17.01,-0.0014592925,0.004528932,0.3286334,0.94444555,545.99097,444.341,8.1710005,-0.0017099999,-0.0014099999,0.16251,1,0.7322835,0,0,0,false,false,false,252.51999,-3864.43,16.99,0.0029320717,0.0037628703,-0.5966964,0.8024528,372.771,-1011.98096,8.541,0.00131,-0.00441,-0.51581
53.266666,1007.89996,-4614.85,93.299995,0.6318022,-0.31404576,0.45109028,-0.5465516,-312.361,279.721,3.731,-3.0671098,-3.42481,3.04881,1,0.1496063,0,0,0,false,true,false,-160.12,-5209.52,17.01,-0.0014808716,0.0045181415,0.330036,0.9439563,569.24097,464.551,8.1710005,-0.0016099999,-0.00131,0.21991,1,0.9448819,0,0,0,false,false,false,258.72998,-3881.3198,16.99,0.00297523,0.0037305015,-0.5990269,0.80071455,371.241,-1019.4509,8.551001,0.0012099999,-0.00451,0.095309995
53.283333,1002.69995,-4610.19,93.229996,0.6402078,-0.27054733,0.46278086,-0.550247,-312.201,279.581,-7.0909996,-3.0671098,-3.42481,3.04881,1,0.14173228,0,0,0,false,true,false,-150.43,-5201.61,17.01,-0.0015024508,0.0045073526,0.33184868,0.94332063,591.77094,484.841,8.1710005,-0.0016099999,-0.00111,0.26091,1,1,0,0,0,false,false,false,264.93,-3898.3398,16.99,0.003002204,0.0037143172,-0.59734374,0.801971,375.441,-1024.391,8.561,0.0010099999,-0.00371,0.67221
53.3,997.5,-4605.53,93.189995,0.6472549,-0.22649327,0.47348416,-0.55278796,-312.171,279.561,7.4909997,-3.06371,-3.42111,3.04881,1,0.13385826,0,0,0,false,true,false,-140.36,-5193.36,17.01,-0.0015240299,0.0044965623,0.33394724,0.94257975,613.641,505.111,8.1710005,-0.00151,-0.00091,0.28461,1,1,0,0,0,false,false,false,271.22,-3915.43,16.99,0.0029968095,0.0037197121,-0.59201914,0.8059097,383.431,-1028.091,8.561,0.00040999998,-0.00211,1.12401
53.316666,992.3,-4600.87,93.18,0.65293974,-0.18197525,0.4831679,-0.55416906,-312.011,279.421,-3.3409998,-3.06371,-3.42111,3.04881,1,0.12598425,0,0,0,false,true,false,-129.93,-5184.77,17.01,-0.0015456091,0.004485773,0.33620226,0.94177777,634.83093,525.42096,8.1710005,-0.00151,-0.00071,0.29591,1,1,0,0,0,false,false,false,277.66,-3932.5798,16.99,0.0029698352,0.0037358964,-0.5838459,0.81185037,395.441,-1030.411,8.561,0,-0.00021,1.44981
53.333332,987.1,-4596.21,93.15,0.6572501,-0.13708496,0.49182653,-0.5543794,-311.941,279.361,5.2409997,-3.06141,-3.41851,3.04881,1,0.11811024,0,0,0,false,true,false,-119.159996,-5175.84,17.01,-0.0015671884,0.0044857734,0.33852744,0.9409445,655.34094,545.751,8.1710005,-0.0014099999,-0.00051,0.29841,1,1,0,0,0,false,false,false,284.32,-3949.76,16.99,0.002921282,0.00377366,-0.5735634,0.81914717,412.021,-1030.731,8.561,-0.00030999997,0.0012099999,1.68351
53.35,981.89996,-4591.55,93.15,0.66017115,-0.091924965,0.49943867,-0.55342996,-311.821,279.251,0,-3.06031,-3.4172099,3.04881,1,0.11023622,0,0,0,false,true,false,-108.049995,-5166.57,17.01,-0.0015887675,0.004485773,0.34085795,0.9401027,675.201,566.081,8.1710005,-0.0012099999,-0.00051,0.29441002,1,1,0,0,0,false,false,false,291.27,-3966.93,16.99,0.0028565445,0.003822213,-0.5617002,0.827327,432.831,-1028.751,8.561,-0.00061,0.00211,1.85261
53.366665,976.69995,-4586.89,93.15,0.6616992,-0.046581537,0.50598794,-0.551326,-311.701,279.141,0,-3.05911,-3.41591,3.04881,1,0.1023622,0,0,0,false,true,false,-96.61,-5156.96,17.01,-0.0016103467,0.0044857734,0.34314546,0.93927014,694.46094,586.36096,8.1710005,-0.0010099999,-0.00051,0.28591,1,1,0,0,0,false,false,false,298.59,-3984.0598,16.99,0.0027810175,0.003876161,-0.54862857,0.8360525,457.301,-1024.3309,8.571,-0.00081,0.00251,1.9764099
53.383335,971.5,-4582.23,93.15,0.6618393,-0.001151789,0.51146364,-0.54806215,-311.581,279.031,0,-3.05791,-3.41461,3.04881,1,0.09448819,0,0,0,false,true,false,-84.85,-5147.01,17.01,-0.0016319259,0.0044857734,0.34535733,0.9384591,713.17096,606.54095,8.1710005,-0.00081,-0.00051,0.27391002,1,1,0,0,0,false,false,false,306.32,-4001.1099,16.99,0.0026947008,0.003940899,-0.53460747,0.845087,484.801,-1017.40094,8.571,-0.0010099999,0.00261,2.06821
53.4,966.3,-4577.59,93.15,0.66058576,0.044267166,0.515855,-0.54365456,-311.461,278.921,0,-3.05671,-3.4133098,3.04881,1,0.08661418,0,0,0,false,true,false,-72.78,-5136.73,17.01,-0.0016535048,0.004480378,0.34746665,0.93768,731.371,626.561,8.1710005,-0.00051,-0.00051,0.25951,1,1,0,0,0,false,false,false,314.52,-4018.03,16.99,0.0026083838,0.004005636,-0.519831,0.8542557,514.701,-1007.96094,8.571,-0.0010099999,0.00241,2.1370099
53.416668,961.11,-4572.9497,93.15,0.657943,0.089589015,0.51915663,-0.5381087,-311.341,278.821,0,-3.05551,-3.4119098,3.04881,1,0.07874016,0,0,0,false,true,false,-60.41,-5126.11,17.01,-0.0016642946,0.0044695884,0.34946275,0.93693805,749.131,646.391,8.1710005,-0.00030999997,-0.00040999998,0.24340999,1,1,0,0,0,false,false,false,323.22998,-4034.78,16.99,0.0025220672,0.004059584,-0.5044342,0.8634368,546.43097,-996.05096,8.571,-0.00111,0.00221,2.18901
53.433334,955.93,-4568.31,93.15,0.6539154,0.13470586,0.5213632,-0.5314407,-311.221,278.711,0,-3.0543098,-3.41061,3.04881,1,0.07086614,0,0,0,false,true,false,-47.75,-5115.17,17.01,-0.0016750842,0.0044641937,0.35132396,0.93624175,766.47095,665.99097,8.1710005,-0.00030999997,-0.00021,0.22621,1,1,0,0,0,false,false,false,332.47,-4051.3198,16.99,0.0024303556,0.0041135317,-0.48851952,0.8725398,579.49097,-981.74097,8.571,-0.00111,0.00201,2.22871
53.45,950.75,-4563.67,93.15,0.6485132,0.179526,0.5224691,-0.52366674,-311.101,278.601,0,-3.05311,-3.4093099,3.04881,1,0.062992126,0,0,0,false,true,false,-34.8,-5103.8896,17.01,-0.0016858738,0.0044641937,0.3530557,0.9355901,783.441,685.33093,8.1710005,-0.00021,-0.00010999999,0.20890999,1,1,0,0,0,false,false,false,342.27,-4067.6099,16.99,0.002333249,0.0041674795,-0.47216776,0.8814956,613.441,-965.11096,8.571,-0.0010099999,0.0017099999,2.25931
53.466667,945.57,-4559.03,93.15,0.64175266,0.22395772,0.5224745,-0.5147976,-310.981,278.491,0,-3.05191,-3.40801,3.04881,1,0.062992126,0,0,0,false,true,false,-21.57,-5092.29,17.01,-0.0016966634,0.0044641937,0.35464716,0.93498796,800.08093,704.371,8.1710005,-0.00010999999,-0.00010999999,0.19150999,1,1,0,0,0,false,false,false,352.63998,-4083.6199,16.99,0.002236143,0.0042214277,-0.45544392,0.8902516,647.90094,-946.251,8.571,-0.00081,0.00131,2.28281
53.483334,940.38995,-4554.39,93.15,0.63364977,0.26791468,0.521374,-0.50485504,-310.861,278.381,0,-3.05071,-3.40671,3.04881,1,0.05511811,0,0,0,false,true,false,-8.059999,-5080.38,17.01,-0.0017074529,0.0044641937,0.35610914,0.9344321,816.30096,723.22095,8.1710005,0,-0.00010999999,0.17920999,1,1,0,0,0,false,false,false,363.58,-4099.3,16.99,0.0021498264,0.0042699813,-0.43839094,0.89877164,682.53094,-925.251,8.571,-0.00071,0.0010099999,2.30111
53.5,935.20996,-4549.75,93.15,0.6242122,0.3112944,0.5191782,-0.49387118,-310.741,278.271,0,-3.04951,-3.4054098,3.04881,1,0.047244094,0,0,0,false,true,false,5.71,-5068.1597,17.01,-0.0017182427,0.004464194,0.35747406,0.9339108,832.29095,741.691,8.1710005,0,-0.00010999999,0.16510999,1,1,0,0,0,false,false,false,375.1,-4114.63,16.99,0.0020635095,0.0043131392,-0.42104656,0.90702635,717.05096,-902.22095,8.571,-0.00071,0.00081,2.31541
53.516666,930.02997,-4545.11,93.15,0.613471,0.35401595,0.5158874,-0.48185697,-310.621,278.161,0,-3.04831,-3.40411,3.04881,1,0.047244094,0,0,0,false,true,false,19.75,-5055.63,17.01,-0.0017290319,0.0044641932,0.35872558,0.9334306,848.061,759.78094,8.1710005,0,-0.00010999999,0.14971,1,1,0,0,0,false,false,false,387.19998,-4129.57,16.99,0.0019717976,0.004356297,-0.40344322,0.91499203,751.24097,-877.251,8.571,-0.00071,0.00071,2.32651
53.533333,924.85,-4540.4697,93.15,0.6014419,0.39598224,0.5115176,-0.46884462,-310.501,278.051,0,-3.0471098,-3.40271,3.04881,1,0.03937008,0,0,0,false,true,false,34.05,-5042.8,17.01,-0.001734427,0.0044641937,0.3598693,0.9329904,863.48096,777.631,8.1710005,0.00021,-0.00010999999,0.13881,1,1,0,0,0,false,false,false,399.86,-4144.08,16.99,0.0018746917,0.004399456,-0.38560802,0.9226502,784.90094,-850.441,8.571,-0.00061,0.00051,2.3352098
53.55,919.67,-4535.83,93.15,0.5881606,0.43710694,0.5060689,-0.45486128,-310.381,277.941,0,-3.04591,-3.4014099,3.04881,1,0.03937008,0,0,0,false,true,false,48.61,-5029.67,17.01,-0.001734427,0.0044641937,0.3609213,0.9325839,878.74097,795.071,8.1710005,0.00021,-0.00010999999,0.12561,1,1,0,0,0,false,false,false,413.08,-4158.14,16.99,0.0017829802,0.00443722,-0.36756778,0.9299844,817.84094,-821.871,8.571,-0.00040999998,0.00030999997,2.34201
53.566666,914.49,-4531.19,93.15,0.57365185,0.47730914,0.49955738,-0.43993384,-310.261,277.831,0,-3.0448098,-3.40011,3.04881,1,0.031496063,0,0,0,false,true,false,63.42,-5016.26,17.01,-0.0017344267,0.0044641932,0.36187616,0.9322137,893.7009,812.24097,8.1710005,0.00021,-0.00010999999,0.11621,1,1,0,0,0,false,false,false,426.84998,-4171.71,16.99,0.0016966632,0.004469588,-0.34933865,0.9369842,849.91095,-791.65094,8.571,-0.00040999998,0.00021,2.34731
53.583332,909.32,-4526.56,93.15,0.5579389,0.5165024,0.49200457,-0.4241,-310.141,277.721,0,-3.0436099,-3.39881,3.04881,1,0.031496063,0,0,0,false,true,false,78.479996,-5002.55,17.01,-0.001734427,0.0044641937,0.36275554,0.93187195,908.53094,828.98096,8.1710005,0,-0.00010999999,0.104109995,1,1,0,0,0,false,false,false,441.13998,-4184.78,16.99,0.0016103467,0.004501958,-0.33093697,0.9436407,880.99097,-759.85095,8.571,-0.00040999998,0.00021,2.35151
53.6,904.16,-4521.94,93.15,0.5410597,0.5546115,0.48342147,-0.40738693,-310.021,277.611,0,-3.04241,-3.3975098,3.04881,1,0.031496063,0,0,0,false,true,false,93.78,-4988.58,17.01,-0.001734427,0.0044641937,0.36354858,0.9315629,923.08093,845.4509,8.1710005,0,-0.00010999999,0.09541,1,1,0,0,0,false,false,false,455.94998,-4197.3,16.99,0.0015132404,0.0045343265,-0.3123734,0.94994736,910.97095,-726.571,8.571,-0.00040999998,0.00021,2.3547099
53.616665,899,-4517.32,93.15,0.52305174,0.59154445,0.47382942,-0.38984296,-309.901,277.501,0,-3.04111,-3.39621,3.04881,1,0.023622047,0,0,0,false,true,false,109.32,-4974.33,17.01,-0.001734427,0.0044641937,0.36427686,0.93127835,937.3909,861.631,8.1710005,0,-0.00010999999,0.089109994,1,1,0,0,0,false,false,false,471.25,-4209.26,16.99,0.0014161341,0.004566695,-0.29366958,0.955895,939.74097,-691.881,8.571,-0.00030999997,0.00010999999,2.35721
53.633335,893.83997,-4512.6997,93.15,0.5039541,0.6272397,0.46324483,-0.3714898,-309.781,277.391,0,-3.0399098,-3.3949099,3.04881,1,0.023622047,0,0,0,false,true,false,125.1,-4959.81,17.01,-0.001734427,0.0044641937,0.3649459,0.9310164,951.60095,877.371,8.1710005,0,-0.00021,0.07931,1,1,0,0,0,false,false,false,487.03,-4220.65,16.99,0.0013190275,0.0045936685,-0.27483082,0.96148056,967.23096,-655.86096,8.571,-0.00021,0,2.3591099
53.65,888.68,-4508.08,93.15,0.4838045,0.6616165,0.45169452,-0.35237598,-309.661,277.281,0,-3.0387099,-3.3935099,3.04881,1,0.023622047,0,0,0,false,true,false,141.12,-4945.03,17.01,-0.0017344271,0.004464194,0.36554477,0.9307814,965.561,892.84094,8.1710005,-0.00010999999,-0.00021,0.07221,1,1,0,0,0,false,false,false,503.25998,-4231.4297,16.99,0.001227316,0.0046152477,-0.2558734,0.96669835,993.35095,-618.60095,8.571,0,0,2.36061
53.666668,883.51996,-4503.46,93.15,0.462646,0.694604,0.43920553,-0.3325392,-309.541,277.171,0,-3.03751,-3.39221,3.04881,1,0.015748031,0,0,0,false,true,false,157.37,-4929.9897,17.01,-0.001734427,0.0044641937,0.366095,0.9305651,979.30096,908.03094,8.1710005,-0.00021,-0.00021,0.06701,1,1,0,0,0,false,false,false,519.92,-4241.58,16.99,0.0011409995,0.0046368274,-0.23680279,0.971546,1018.04095,-580.18097,8.571,0,0,2.36171
53.683334,878.36,-4498.84,93.15,0.4405272,0.7261352,0.4257993,-0.31202266,-309.421,277.061,0,-3.03631,-3.39091,3.04881,1,0.015748031,0,0,0,false,true,false,173.84999,-4914.6997,17.01,-0.0017398219,0.004464194,0.36659673,0.9303676,992.96094,922.811,8.1710005,-0.00030999997,-0.00030999997,0.058009997,1,1,0,0,0,false,false,false,536.98,-4251.08,16.99,0.0010546827,0.004658406,-0.217635,0.9760185,1041.241,-540.68097,8.571,0,0,2.36241
53.7,873.19995,-4494.2197,93.15,0.41749132,0.7561478,0.41150853,-0.2908642,-309.301,276.961,0,-3.03511,-3.3896098,3.04881,1,0.015748031,0,0,0,false,true,false,190.56,-4899.1597,17.01,-0.0017452167,0.004464194,0.36703372,0.9301953,1006.3909,937.321,8.1710005,-0.00030999997,-0.00030999997,0.05151,1,1,0,0,0,false,false,false,554.43,-4259.9297,16.99,0.0009575763,0.0046799853,-0.19837551,0.9801144,1062.891,-500.171,8.571,-0.00010999999,0,2.36291
53.716667,868.04,-4489.6,93.15,0.39358696,0.7845778,0.39636528,-0.26911232,-309.181,276.851,0,-3.03401,-3.38831,3.04881,1,0.015748031,0,0,0,false,true,false,207.48999,-4883.38,17.01,-0.0017452163,0.0044641932,0.36742207,0.9300418,1019.61096,951.55096,8.1710005,-0.00030999997,-0.00030999997,0.046809997,1,1,0,0,0,false,false,false,572.23,-4268.1,16.99,0.00086047,0.0047015646,-0.17904046,0.98383003,1082.9409,-458.721,8.571,-0.00010999999,0,2.36321
53.733334,862.88,-4484.98,93.15,0.36886254,0.8113672,0.38040203,-0.24681556,-309.061,276.751,0,-3.03281,-3.3870099,3.04881,1,0.015748031,0,0,0,false,true,false,224.64,-4867.37,17.01,-0.0017452165,0.0044641937,0.36777818,0.9299011,1031.481,964.43097,8.1710005,-0.00030999997,-0.00030999997,0.043309998,1,1,0,0,0,false,false,false,590.35,-4275.57,16.99,0.00076336367,0.004717749,-0.1596353,0.98716444,1101.351,-416.421,8.571,0,0,2.36341
53.75,857.73,-4480.36,93.15,0.3433774,0.8364628,0.36364567,-0.22401705,-308.941,276.641,0,-3.03171,-3.3856099,3.04881,1,0.015748031,0,0,0,false,true,false,241.98,-4851.1597,17.01,-0.0017452167,0.004464194,0.3681073,0.92977095,1042.7109,976.60095,8.1710005,-0.00040999998,-0.00030999997,0.04071,1,1,0,0,0,false,false,false,608.77997,-4282.33,16.99,0.0006662573,0.0047285384,-0.14016543,0.99011654,1118.0809,-373.341,8.571,0,0,2.36341
53.766666,852.58997,-4475.75,93.15,0.31718013,0.8598102,0.34614494,-0.2007654,-308.821,276.54102,0,-3.03051,-3.38431,3.04881,1,0.015748031,0,0,0,false,true,false,259.50998,-4834.73,17.01,-0.0017560062,0.0044641937,0.36841476,0.9296491,1053.981,988.73096,8.1710005,-0.00040999998,-0.00030999997,0.038709998,1,1,0,0,0,false,false,false,627.48,-4288.37,16.99,0.00056915096,0.0047393283,-0.120636195,0.99268526,1133.091,-329.551,8.571,0,0,2.36341
53.783333,847.44995,-4471.15,93.15,0.29032475,0.881367,0.32792664,-0.17710914,-308.701,276.431,0,-3.02941,-3.38301,3.04881,1,0.015748031,0,0,0,false,true,false,277.22,-4818.1,17.01,-0.001761401,0.0044641937,0.36871147,0.92953146,1065.281,1000.821,8.1710005,-0.00021,-0.00021,0.03721,1,1,0,0,0,false,false,false,646.42,-4293.6797,16.99,0.0004720447,0.004750118,-0.1010638,0.99486846,1146.371,-285.131,8.571,0,0,2.3633099
53.8,842.31,-4466.55,93.15,0.26286516,0.9010889,0.30903402,-0.15309682,-308.581,276.331,0,-3.02821,-3.3817098,3.04881,1,0.007874016,0,0,0,false,true,false,295.12,-4801.27,17.01,-0.0017614007,0.0044641932,0.36899737,0.9294179,1076.611,1012.881,8.1710005,-0.00021,-0.00021,0.03591,1,1,0,0,0,false,false,false,665.57,-4298.25,16.99,0.0003749383,0.004760907,-0.081453614,0.99666554,1157.881,-240.161,8.571,0.00010999999,0,2.36311
53.816666,837.17,-4461.9497,93.15,0.23486608,0.9189341,0.28950474,-0.12878238,-308.461,276.221,0,-3.0271099,-3.38041,3.04881,1,0.007874016,0,0,0,false,true,false,313.21,-4784.2397,17.01,-0.0017614007,0.0044641932,0.3692671,0.92931074,1088.0809,1024.7909,8.1710005,-0.00021,-0.00021,0.03021,1,1,0,0,0,false,false,false,684.91,-4302.06,16.99,0.000277832,0.004771697,-0.06181113,0.9980764,1167.591,-194.711,8.571,0.00021,0,2.36291
53.833332,832.02997,-4457.35,93.15,0.206376,0.934872,0.2693767,-0.10420897,-308.341,276.121,0,-3.02591,-3.3791099,3.04881,1,0.007874016,0,0,0,false,true,false,331.5,-4767.01,17.01,-0.0017614007,0.0044641932,0.3694937,0.9292207,1099.5409,1036.7009,8.1710005,-0.00021,-0.00021,0.02621,1,1,0,0,0,false,false,false,704.39996,-4305.11,16.99,0.00018072568,0.0047716973,-0.042147018,0.99909997,1175.491,-148.851,8.571,0.00021,0,2.36271
53.85,826.88995,-4452.75,93.15,0.17746519,0.9488652,0.24869834,-0.07943597,-308.221,276.011,0,-3.0248098,-3.37781,3.04881,1,0.007874016,0,0,0,false,true,false,349.97,-4749.58,17.01,-0.001761401,0.0044641937,0.3696933,0.9291414,1111.031,1048.591,8.1710005,-0.00021,-0.00021,0.02341,1,1,0,0,0,false,false,false,724.01996,-4307.4,16.99,0.000089014145,0.0047716973,-0.022466714,0.9997362,1181.5709,-102.660995,8.571,0.00030999997,0,2.36231
53.866665,821.75,-4448.15,93.15,0.14818755,0.9608885,0.22751288,-0.054511927,-308.101,275.911,0,-3.0236099,-3.37641,3.04881,1,0.007874016,0,0,0,false,true,false,368.63998,-4731.9497,17.01,-0.001761401,0.0044641937,0.36987135,0.92907053,1122.5409,1060.4609,8.1710005,-0.00021,-0.00021,0.02141,1,1,0,0,0,false,false,false,743.74,-4308.92,16.99,0.000002697398,0.004771697,-0.0027864121,0.9999847,1185.8109,-56.231,8.571,0.00030999997,0,2.3619099
53.883335,816.61,-4443.55,93.15,0.118607715,0.9709188,0.20586348,-0.02947999,-307.981,275.801,0,-3.02251,-3.37511,3.04881,1,0.007874016,0,0,0,false,true,false,387.49,-4714.14,17.01,-0.0017614011,0.004464194,0.37003323,0.9290061,1134.0809,1072.2909,8.1710005,-0.00021,-0.00021,0.01991,1,1,0,0,0,false,false,false,763.51,-4309.6597,16.99,-0.00008901414,0.004771697,0.016893888,0.99984586,1188.1909,-9.621,8.571,0.00010999999,0,2.36161
53.9,811.47,-4438.9497,93.15,0.088785194,0.978936,0.18379869,-0.004399456,-307.861,275.701,0,-3.0213099,-3.3738098,3.04881,1,0.007874016,0,0,0,false,true,false,406.53998,-4696.13,17.01,-0.001761401,0.0044641937,0.37018424,0.9289459,1145.651,1084.101,8.1710005,-0.00021,-0.00021,0.01881,1,1,0,0,0,false,false,false,783.32,-4309.62,16.99,-0.00018612047,0.004771697,0.036568794,0.9993197,1188.721,37.080997,8.571,0.00010999999,0,2.3612099
53.916668,810.07996,-4435.96,94.35,0.09943452,0.9795096,0.1688227,0.046608504,240.051,-790.23096,326.311,-0.76181,-4.27531,-4.14011,1,0.007874016,0,0,0,false,true,false,425.78998,-4677.92,17.01,-0.001761401,0.0044641937,0.37032452,0.92889,1157.241,1095.881,8.1710005,-0.00021,-0.00021,0.01801,1,-0.6640625,0,0,0,false,false,false,802.51,-4308.54,16.789999,-0.0022091689,-0.003746686,0.049532488,0.99876297,1113.721,109.050995,9.851,-0.24510999,-1.18021,0.98431
53.933334,814.07996,-4449.12,99.65,0.12678091,0.9742679,0.16432877,0.08788966,239.931,-789.83093,315.311,-0.76181,-4.27531,-4.14011,1,-1,0,0,0,false,false,true,445.22,-4659.51,17.01,-0.0017614007,0.0044641932,0.37046474,0.92883396,1168.851,1107.641,8.1710005,-0.00021,-0.00021,0.01741,1,0,0,0,0,true,true,false,821.1,-4306.77,16.91,-0.004118927,-0.011418128,0.056141198,0.998349,1120.1809,99.840996,24.890999,-0.037509996,-0.37451,0.29251
53.95,818.07996,-4462.28,104.77,0.15380892,0.9665911,0.1594249,0.12894961,239.811,-789.43097,304.311,-0.76181,-4.27531,-4.14011,1,-1,0,0,0,false,false,true,464.75998,-4641.12,17.01,-0.0017667958,0.004458799,0.36936963,0.9292701,1181.411,1091.231,8.271,-0.00331,-0.00311,-0.55331,1,0,0,0,0,true,true,false,839.88,-4305,22.289999,-0.004577485,-0.014525532,0.058390833,0.9981776,1135.241,113.681,324.811,-0.035509996,-0.37371,0.21850999
53.966667,822.07996,-4475.4297,109.7,0.1804539,0.95649844,0.1541218,0.16968587,239.691,-789.03094,293.311,-0.76181,-4.27531,-4.14011,1,-1,0,0,0,false,false,true,484.5,-4623,17.01,-0.0017775854,0.004453404,0.36421752,0.9313015,1192.7909,1076.151,8.311,-0.00351,-0.00321,-0.97401,1,0,0,0,0,true,true,false,859.02997,-4303.04,27.81,-0.005025253,-0.017622188,0.06009559,0.9980244,1156.7009,123.550995,333.261,-0.034009997,-0.37261,0.17251
53.983334,826.07996,-4488.57,114.45,0.20665112,0.94401467,0.1484357,0.20999599,239.571,-788.631,282.321,-0.76181,-4.27531,-4.14011,1,-1,0,0,0,false,false,true,504.43,-4605.13,17.01,-0.0017721907,0.0044534043,0.3559581,0.9344896,1205.151,1059.4609,8.331,-0.00271,-0.00241,-1.31051,1,0,0,0,0,true,true,false,878.5,-4300.9297,33.46,-0.005462231,-0.02070801,0.061357968,0.997886,1172.3209,127.870995,341.021,-0.032009996,-0.37231,0.13391
54,830.07996,-4501.71,119.02,0.23233052,0.9291715,0.14237726,0.24978268,239.451,-788.23096,271.341,-0.76181,-4.27531,-4.14011,1,-1,0,0,0,false,false,true,524.57,-4587.55,17.01,-0.0017452163,0.0044641932,0.34516308,0.9385303,1218.8109,1040.361,8.331,-0.0017099999,-0.00151,-1.58871,1,0,0,0,0,false,false,false,898.25,-4298.76,39.32,-0.005866883,-0.023680542,0.062436927,0.99775064,1188.741,130.241,355.201,-0.028309999,-0.35431,0.12970999
54.016666,834.06,-4514.84,123.409996,0.2574272,0.912007,0.13596284,0.28894368,239.33101,-787.83093,260.361,-0.76181,-4.27531,-4.14011,1,-1,0,0,0,false,false,true,544.95,-4570.3,17.01,-0.0016966634,0.0044803782,0.33222628,0.9431875,1233.4509,1018.79095,8.341001,-0.00091,-0.00071,-1.82461,1,0,0,0,0,false,false,false,918.27997,-4296.57,45.12,-0.006233729,-0.02651281,0.06347812,0.99761146,1206.2109,132.451,345.201,-0.025009999,-0.33711,0.12561
54.033333,838.04,-4527.96,127.61,0.28188187,0.8925611,0.12920856,0.32738715,239.211,-787.43097,249.381,-0.76181,-4.27531,-4.14011,1,-1,0,0,0,false,false,true,565.57,-4553.42,17.01,-0.0016373207,0.004501958,0.31742832,0.94827014,1248.4609,995.121,8.341001,-0.00030999997,-0.00010999999,-2.02811,1,0,0,0,0,false,false,false,938.6,-4294.34,50.75,-0.006568207,-0.029210253,0.06448695,0.9974693,1223.6709,134.701,335.301,-0.02191,-0.32081002,0.12160999
54.05,842.01996,-4541.08,131.62999,0.30562988,0.87088555,0.12213061,0.36501068,239.091,-787.03094,238.421,-0.76181,-4.27531,-4.14011,1,-1,0,0,0,false,false,true,586.44,-4536.94,17.01,-0.0015617935,0.004534326,0.30099574,0.95361334,1263.151,970.03094,8.341001,0.00010999999,0.00010999999,-2.20441,1,0,0,0,0,false,false,false,959.00995,-4292.1,56.199997,-0.0068703154,-0.031778175,0.06546341,0.9973251,1224.771,134.841,324.521,-0.01921,-0.30521,0.117809996
54.066666,846,-4554.19,135.47,0.3286172,0.84703135,0.11475043,0.4017223,238.97101,-786.631,227.461,-0.76181,-4.27531,-4.14011,1,-1,0,0,0,false,false,true,607.55,-4520.88,17.01,-0.0014754768,0.0045666946,0.2831119,0.9590748,1276.8109,944.441,8.341001,0.00040999998,0.00030999997,-2.35631,1,0,0,1,0,true,false,false,979.44,-4289.85,61.469997,-0.00714545,-0.034216624,0.0664075,0.9971801,1225.871,134.981,313.751,-0.01671,-0.29041,0.11401
54.083332,849.98,-4567.29,139.12,0.35078448,0.8210587,0.10708443,0.43743065,238.851,-786.23096,216.501,-0.76181,-4.27531,-4.14011,1,-1,0,0,0,false,false,true,628.88,-4505.2397,17.01,-0.0013783704,0.0045990637,0.26395488,0.964523,1288.7909,919.52094,8.341001,0.00061,0.00030999997,-2.48451,1,0,0,1,0,true,false,false,998.23,-4275.29,66.56,-0.034065567,-0.038295086,0.0673354,0.996413,1127.861,873.311,302.991,-4.22421,-0.84130996,-0.02521
54.1,853.95996,-4580.39,142.59,0.37207243,0.7930367,0.0991432,0.47204375,238.731,-785.83093,205.551,-0.76181,-4.27531,-4.14011,1,-1,0,0,0,false,false,true,650.39996,-4490.02,17.01,-0.0012758692,0.0046314322,0.24370815,0.96983665,1298.531,896.68097,8.341001,0.00081,0.00030999997,-2.58831,1,0,0,1,0,true,false,false,1017.04,-4260.73,71.479996,-0.09091614,-0.044035196,0.06805291,0.99255425,1128.9409,873.4509,292.231,-5.42441,-0.90161,-0.111109994
54.116665,857.94,-4593.4897,145.87999,0.39243248,0.76303184,0.090959296,0.5054754,238.61101,-785.43097,194.61101,-0.76181,-4.27531,-4.14011,1,-1,0,0,0,false,false,true,672.07,-4475.1597,17.01,-0.0011679734,0.0046638013,0.22256586,0.9749057,1305.621,877.58093,8.341001,0.0010099999,0.00030999997,-2.66621,1,0,0,1,0,true,false,false,1035.87,-4246.17,76.22,-0.15227681,-0.049073935,0.06813384,0.9847646,1130.021,873.61096,281.471,-5.4348097,-0.82921,-0.15540999
54.133335,861.92,-4606.57,148.98999,0.41181067,0.7311201,0.08254341,0.5376447,238.491,-785.03094,183.671,-0.76181,-4.27531,-4.14011,1,-1,0,0,0,false,false,true,693.85,-4460.6,17.01,-0.0010546828,0.004685381,0.20073844,0.9796331,1309.891,864.1409,8.341001,0.0012099999,0.00030999997,-2.71591,1,0,0,1,0,true,false,false,1054.72,-4231.61,80.78,-0.21309794,-0.053400602,0.067669876,0.9732206,1131.101,873.77094,270.711,-5.43911,-0.79491,-0.18350999
54.15,865.89996,-4619.65,151.92,0.43015838,0.69738036,0.07392784,0.5684707,238.371,-784.631,172.731,-0.76181,-4.27531,-4.14011,1,-1,0,0,0,false,false,true,715.7,-4446.25,17.01,-0.0009359971,0.0047069597,0.17843625,0.9839397,1313.3009,851.34094,8.341001,0.0012099999,0.00030999997,-2.75611,1,0,0.511811,-1,0.503937,false,false,false,1073.59,-4217.05,85.159996,-0.27312067,-0.057257872,0.06677433,0.95794964,1132.1809,873.93097,259.951,-5.4408097,-0.77911,-0.20051
54.166668,869.88,-4632.7197,154.66,0.4474272,0.6619035,0.065123536,0.5978725,238.251,-784.23096,161.811,-0.76181,-4.27531,-4.14011,1,-1,0,0,0,false,false,true,737.6,-4432.12,17.01,-0.00081731164,0.0047285384,0.15571329,0.9877906,1316.401,837.22095,8.341001,0.00111,0.00030999997,-2.79421,1,0,0.24409449,-1,0.511811,false,false,false,1092.47,-4202.4897,89.36,-0.33327827,-0.061336387,0.063780226,0.9386668,1133.261,874.10095,249.191,-5.41641,-0.87830997,-0.37451
54.183334,873.83997,-4645.78,157.22,0.4635847,0.6247656,0.05616278,0.6257817,238.131,-783.83093,150.891,-0.76181,-4.27531,-4.14011,1,-1,0,0,0,false,false,true,759.55,-4418.23,17.01,-0.0006986261,0.0047501177,0.1325965,0.9911584,1319.031,821.86096,8.341001,0.0010099999,0.00021,-2.8301098,1,0,0.24409449,-1,0.511811,false,false,false,1111.37,-4187.9097,93.38,-0.39204943,-0.0655713,0.059140705,0.9156964,1134.341,874.28094,238.431,-5.39951,-0.94091,-0.45761
54.2,877.8,-4658.84,159.59999,0.47858232,0.58606863,0.047056276,0.6521258,238.011,-783.43097,139.97101,-0.76181,-4.27531,-4.14011,1,-1,0,0,0,false,false,true,781.54,-4404.6,17.01,-0.00057994056,0.004766302,0.10911827,0.9940171,1321.0709,805.371,8.341001,0.00091,0,-2.8638098,1,0,0.24409449,-1,0.511811,false,false,false,1130.2899,-4173.33,97.22,-0.4491913,-0.06979542,0.05355701,0.8890935,1135.4209,874.441,227.671,-5.38931,-0.97881,-0.49621
54.216667,881.76,-4671.9,161.8,0.4923822,0.5459042,0.03783657,0.6768431,237.891,-783.03094,129.061,-0.76181,-4.27531,-4.14011,1,-1,0,0,0,false,false,true,803.57,-4391.25,17.01,-0.0004612551,0.0047770925,0.08530016,0.99634373,1322.391,787.871,8.341001,0.00081,0,-2.89521,1,0,0.24409449,-1,0.511811,false,false,false,1149.23,-4158.75,100.88,-0.50448817,-0.073895514,0.047390755,0.8589442,1136.501,874.60095,216.911,-5.38361,-1.00101,-0.51351
54.233334,885.72,-4684.94,163.81,0.50495213,0.5043803,0.028514279,0.6998647,237.771,-782.631,118.160995,-0.76181,-4.27531,-4.14011,1,-1,0,0,0,false,false,true,825.61,-4378.19,17.01,-0.00034256958,0.004787882,0.061179943,0.9981152,1323.0709,769.48096,8.341001,0.00071,0,-2.92471,1,0,0.24409449,-1,0.511811,false,false,false,1168.19,-4144.17,102.7,-0.5577404,-0.07779595,0.04085226,0.82535106,1137.5809,874.761,82.770996,-5.38061,-1.01361,-0.52091
54.25,889.68,-4697.98,165.64,0.51625425,0.46158862,0.01912194,0.7211461,237.651,-782.23096,107.260994,-0.76181,-4.27531,-4.14011,1,-1,0,0,0,false,false,true,847.67,-4365.4497,17.01,-0.00022388401,0.0047986708,0.036773793,0.9993119,1324.521,750.261,8.341001,0.00061,0,-2.9572098,1,0,0.1023622,-1,0.511811,false,false,false,1187.16,-4129.59,103.32,-0.6087375,-0.08143743,0.034065604,0.78844523,1138.661,874.92096,26.110998,-5.3790097,-1.02061,-0.52391
54.266666,893.63995,-4711.01,167.29,0.5262725,0.41764784,0.009686356,0.74061704,237.531,-781.83093,96.361,-0.76181,-4.27531,-4.14011,1,-1,0,0,0,false,false,true,869.75,-4353.03,17.01,-0.00010519853,0.0047986717,0.012070942,0.9999156,1325.361,730.311,8.341001,0.00061,-0.00010999999,-2.98821,1,0,-0.6015625,-1,0.511811,false,false,false,1206.15,-4115.01,103.439995,-0.6572802,-0.08478226,0.027090054,0.748372,1139.741,875.08093,2.1709998,-5.37811,-1.02451,-0.52501
54.283333,897.6,-4724.03,168.76,0.5349743,0.37266585,0.00022388404,0.7582364,237.411,-781.43097,85.471,-0.76181,-4.27531,-4.14011,1,-1,0,0,0,false,false,true,891.83997,-4340.94,17.01,0.000024276582,0.004798671,-0.012890908,0.99990535,1325.5509,709.71094,8.341001,0.00051,-0.00010999999,-3.01771,1,0,-0.71875,-1,0.511811,false,false,false,1225.1599,-4100.4297,103.34,-0.7031739,-0.08780334,0.019985106,0.7052925,1140.8209,875.24097,-7.9309998,-5.37771,-1.02661,-0.52531
54.3,901.56,-4737.05,170.05,0.54233825,0.32675058,-0.0092386305,0.7739624,237.291,-781.03094,74.590996,-0.76181,-4.27531,-4.14011,1,-1,0,0,0,false,false,true,913.93,-4329.1997,17.01,0.00015375168,0.004798671,-0.03808469,0.9992629,1325.0509,688.561,8.341001,0.00030999997,-0.00010999999,-3.0457098,1,0,-0.828125,-1,0.511811,false,false,false,1244.19,-4085.8298,103.149994,0.74624574,0.09048456,-0.0127884075,-0.65936804,1141.901,875.40094,-12.191,-5.37751,-1.02771,-0.52531
54.316666,905.51996,-4750.07,171.16,0.5483427,0.28001532,-0.018679567,0.78775805,237.171,-780.631,63.711,-0.76181,-4.27531,-4.14011,1,-1,0,0,0,false,false,true,936.00995,-4317.81,17.01,0.00027783203,0.004787882,-0.063488916,0.997971,1323.861,666.96094,8.341001,0.00010999999,-0.00021,-3.07211,1,0,-0.921875,-0.921875,0.511811,false,false,false,1263.23,-4071.23,102.92,0.7863125,0.092809714,-0.0055378005,-0.61079305,1142.981,875.561,-13.991,-5.37741,-1.02831,-0.52521
54.333332,909.48,-4763.07,172.09,0.5529822,0.23258409,-0.02807195,0.7995794,237.051,-780.23096,52.830997,-0.76181,-4.27531,-4.14011,1,-1,0,0,0,false,false,true,958.07,-4306.78,17.01,0.00039651754,0.0047770925,-0.08906573,0.9960142,1321.971,645.02094,8.341001,0.00010999999,-0.00021,-3.0968099,1,0,-1,-0.765625,0.51968503,false,false,false,1282.2899,-4056.63,102.68,0.82322055,0.09470868,0.0016966634,-0.5597635,1144.0609,875.72095,-14.751,-5.37851,-1.02131,-0.52731
54.35,913.42,-4776.07,172.84,0.5562406,0.18457013,-0.037394155,0.8094021,236.931,-779.83093,41.970997,-0.76181,-4.27531,-4.14011,1,-1,0,0,0,false,false,true,980.1,-4296.12,17.01,0.0005259926,0.004766302,-0.1147882,0.99337834,1319.401,622.811,8.341001,0.00010999999,-0.00021,-3.1198099,1,0,-1,-0.59375,0.51968503,false,false,false,1301.37,-4042.03,102.43,0.8568486,0.09606277,0.008823189,-0.5064627,1145.141,875.881,-15.061,-5.38101,-1.00391,-0.53501
54.366665,917.36,-4789.06,173.4,0.55810726,0.13609232,-0.046624694,0.8172033,236.811,-779.43097,31.110998,-0.76181,-4.27531,-4.14011,1,-1,0,0,0,false,false,true,1002.07996,-4285.83,17.01,0.00065546774,0.0047501177,-0.1406186,0.99005216,1316.1609,600.42096,8.341001,0,-0.00021,-3.14101,1,0,-1,-0.40625,0.51968503,false,false,false,1320.47,-4027.43,102.17,0.88705814,0.09678568,0.015766375,-0.45112267,1146.221,876.04095,-15.191,-5.38381,-0.98121,-0.54871
54.383335,921.3,-4802.04,173.78,0.5585766,0.08727465,-0.055736545,0.8229633,236.691,-779.03094,20.251,-0.76181,-4.27531,-4.14011,1,-1,0,0,0,false,false,true,1024,-4275.92,17.01,0.0007849428,0.0047285384,-0.1665245,0.98602563,1312.281,577.93097,8.341001,0,-0.00021,-3.16031,1,0,-1,-0.40625,0.51968503,false,false,false,1339.59,-4012.8298,101.909996,0.91373706,0.09680186,0.022488292,-0.3939646,1147.3009,876.2009,-15.241,-5.38631,-0.95621,-0.56841
54.4,925.24,-4815.02,173.98,0.55765414,0.038241185,-0.064708136,0.8266633,236.571,-778.631,9.401,-0.76181,-4.27531,-4.14011,1,-1,0,0,0,false,false,true,1045.86,-4266.38,17.01,0.000914418,0.00470696,-0.19246818,0.9812915,1307.8109,555.41095,8.341001,0,-0.00021,-3.17781,1,0,-1,-0.2109375,0.51968503,false,false,false,1358.73,-3998.23,101.65,0.9367614,0.09622463,0.029026788,-0.33522582,1148.381,876.36096,-15.261,-5.3871098,-0.94471,-0.57991
54.416668,929.18,-4827.9897,174,0.5553343,-0.010889438,-0.073523276,0.8282991,236.451,-778.23096,-1.431,-0.76181,-4.27531,-4.14011,1,-1,0,0,0,false,false,true,1067.64,-4257.2197,17.01,0.0010438929,0.004679985,-0.21841723,0.97584355,1302.8009,532.92096,8.341001,-0.00010999999,-0.00030999997,-3.19331,1,0,-1,-0.015625,0.51968503,false,false,false,1377.88,-3983.63,101.39,0.95604545,0.09498921,0.035354964,-0.27514374,1149.4609,876.54095,-15.271,-5.38761,-0.92820996,-0.60131
54.433334,933.12,-4840.9497,173.84,0.5516227,-0.05999304,-0.08214955,0.82786745,236.33101,-777.83093,-12.251,-0.76181,-4.27531,-4.14011,1,-1,0,0,0,false,false,true,1089.33,-4248.4297,17.01,0.0011679734,0.0046476168,-0.24433394,0.96967924,1297.3109,510.501,8.341001,-0.00021,-0.00030999997,-3.2067099,1,0,-1,0.18897638,0.51968503,false,false,false,1397.0499,-3969.01,101.13,0.9715184,0.0930309,0.041445687,-0.21396111,1150.5409,876.72095,-15.271,-5.38721,-0.91181,-0.62911
54.45,937.06,-4853.9097,173.5,0.5465354,-0.10894563,-0.09057627,0.825364,236.211,-777.43097,-23.071,-0.76181,-4.27531,-4.14011,1,-1,0,0,0,false,false,true,1110.9299,-4240.02,17.01,0.0012866587,0.0046152477,-0.27017507,0.96279913,1291.391,488.191,8.341001,-0.00021,-0.00030999997,-3.21801,1,0,-1,0.5905512,0.51968503,false,false,false,1416.24,-3954.39,100.869995,0.9831207,0.090306535,0.04727747,-0.15193155,1151.621,876.90094,-15.271,-5.38571,-0.89761,-0.66161
54.466667,941,-4866.87,172.98,0.5400831,-0.15762304,-0.098771006,0.820798,236.091,-777.03094,-33.891,-0.76181,-4.27531,-4.14011,1,-1,0,0,0,false,false,true,1132.4299,-4231.9697,17.01,0.0014053445,0.00457209,-0.29590842,0.9552043,1285.131,466.021,8.341001,-0.00021,-0.00030999997,-3.22711,1,0,-1,0.77165353,0.51968503,false,false,false,1435.45,-3939.77,100.61,0.99082,0.08663267,0.052834105,-0.089324676,1152.7009,877.08093,-15.271,-5.38151,-0.88181,-0.71501
54.483334,944.94,-4879.81,172.28,0.53228223,-0.20591208,-0.10672297,0.81417805,235.97101,-776.631,-44.690998,-0.76181,-4.27531,-4.14011,1,-1,0,0,0,false,false,true,1153.82,-4224.3,17.01,0.00152403,0.004528932,-0.32150143,0.94689703,1278.5809,443.991,8.341001,-0.00010999999,-0.00030999997,-3.23401,1,0,-0.921875,0.93700784,0.51968503,false,false,false,1454.6699,-3925.15,100.35,0.994581,0.082057886,0.058126483,-0.026388729,1153.781,877.261,-15.271,-5.3765097,-0.87431,-0.76021
54.5,948.88,-4892.75,171.4,0.5231489,-0.25368315,-0.11440516,0.80552554,235.851,-776.23096,-55.490997,-0.76181,-4.27531,-4.14011,1,-1,0,0,0,false,false,false,1175.1,-4216.9897,17.01,0.0016427154,0.004485773,-0.34691098,0.9378858,1271.8209,422.111,8.341001,0,-0.00030999997,-3.23861,1,0,-0.8359375,-0.875,0.46456692,false,false,false,1473.9099,-3910.53,100.09,0.99437803,0.07668459,0.06317062,0.036622744,1154.861,877.43097,-15.271,-5.37111,-0.87271,-0.79961
