time,ball_loc_x,ball_loc_y,ball_loc_z,ball_rot_x,ball_rot_y,ball_rot_z,ball_rot_w,ball_vel_x,ball_vel_y,ball_vel_z,ball_ang_x,ball_ang_y,ball_ang_z,player0_throttle,player0_steer,player0_pitch,player0_yaw,player0_roll,player0_jump,player0_boost,player0_handbrake,player0_loc_x,player0_loc_y,player0_loc_z,player0_rot_x,player0_rot_y,player0_rot_z,player0_rot_w,player0_vel_x,player0_vel_y,player0_vel_z,player0_ang_x,player0_ang_y,player0_ang_z,player1_throttle,player1_steer,player1_pitch,player1_yaw,player1_roll,player1_jump,player1_boost,player1_handbrake,player1_loc_x,player1_loc_y,player1_loc_z,player1_rot_x,player1_rot_y,player1_rot_z,player1_rot_w,player1_vel_x,player1_vel_y,player1_vel_z,player1_ang_x,player1_ang_y,player1_ang_z
22,-479.37997,-3245.19,422.00998,0.261128,0.12759551,0.91335154,-0.2851673,-615.441,96.510994,145.22101,-0.93290997,-5.9208097,0.27141002,1,0,0,0,0,false,false,false,1865.83,-4493.14,17,-0.0046098535,-0.0012866589,0.96464556,-0.26350716,-1305.121,-770.73096,8.431,-0.00021,-0.00040999998,-0.0017099999,0.38582677,0.38582677,0,0,0,false,false,false,-388.16998,-2623.8499,17.02,-0.0047878814,0.000277832,0.9987475,0.04980223,-1198.591,110.781,8.191,-0.00051,0.00010999999,0.39561
22.008333,-484.50998,-3244.39,423.16998,0.23947865,0.13843368,0.91869044,-0.28194666,-615.28094,96.480995,139.761,-0.93290997,-5.9208097,0.27141002,1,0,0,0,0,false,false,false,1854.95,-4499.56,17,-0.004609853,-0.0012866588,0.964647,-0.26350173,-1305.131,-770.701,8.431,-0.00021,-0.00040999998,-0.0014099999,0.38582677,0.38582677,0,0,0,false,false,false,-398.16,-2622.93,17.02,-0.004787882,0.00027243723,0.99882823,0.04815682,-1199.9509,106.90099,8.191,-0.00061,0.00010999999,0.46851
22.016666,-489.63998,-3243.5898,424.28998,0.21768357,0.14918558,0.92345303,-0.27855325,-615.121,96.451,134.30101,-0.93290997,-5.9208097,0.27141002,1,0,0,0,0,false,false,false,1844.07,-4505.98,17,-0.0046098535,-0.0012866589,0.9646485,-0.26349637,-1305.141,-770.67096,8.431,-0.00021,-0.00040999998,-0.0012099999,0.11023622,0.11023622,0,0,0,false,false,false,-408.16,-2622.04,17.02,-0.0047878814,0.0002670424,0.9989202,0.046209294,-1200.341,106.361,8.191,0.00030999997,0,0.43151
22.025,-494.75998,-3242.79,425.36,0.19574824,0.1598457,0.92764044,-0.2749819,-614.96094,96.421,128.851,-0.93290997,-5.9208097,0.27141002,1,0,0,0,0,false,false,false,1833.19,-4512.4,17,-0.0046098535,-0.0012866589,0.96465,-0.26349097,-1305.151,-770.6409,8.431,-0.00021,-0.00040999998,-0.0010099999,0.1496063,0.1496063,0,0,0,false,false,false,-418.16,-2621.15,17.02,-0.0047878814,0.0002562528,0.9990017,0.04441283,-1200.9309,104.690994,8.191,0.00071,0,0.41531
22.033333,-499.87997,-3241.99,426.38998,0.17369421,0.17040339,0.93124634,-0.27124327,-614.80096,96.391,123.40099,-0.93290997,-5.9208097,0.27141002,1,0,0,0,0,false,false,false,1822.3099,-4518.82,17,-0.0046098535,-0.0012866589,0.96465147,-0.26348558,-1305.1609,-770.61096,8.431,-0.00021,-0.00040999998,-0.00081,0.43307087,0.43307087,0,0,0,false,false,false,-428.16998,-2620.28,17.02,-0.0047878814,0.00024546322,0.99907696,0.042686492,-1202.4409,98.931,8.201,0,0,0.50601
22.041666,-505,-3241.19,427.37,0.15153232,0.18085852,0.9342706,-0.26733202,-614.641,96.361,117.951,-0.93290997,-5.9208097,0.27141002,1,0,0,0,0,false,false,false,1811.4299,-4525.2397,17,-0.0046098535,-0.0012866589,0.9646529,-0.2634802,-1305.1709,-770.59094,8.431,-0.00021,-0.00040999998,-0.00071,0.39370078,0.39370078,0,0,0,false,false,false,-438.19,-2619.46,17.02,-0.004787881,0.0002346736,0.9991645,0.04058252,-1203.8309,93.951,8.201,-0.00021,0,0.56441
22.05,-510.12,-3240.39,428.31,0.12927331,0.19120044,0.93671143,-0.2632536,-614.48096,96.33099,112.501,-0.93290997,-5.9208097,0.27141002,1,0,0,0,0,false,false,false,1800.5499,-4531.6597,17,-0.0046098535,-0.0012866589,0.9646544,-0.2634748,-1305.1809,-770.571,8.431,-0.00021,-0.00040999998,-0.00061,0.062992126,0.062992126,0,0,0,false,false,false,-448.22,-2618.68,17.02,-0.004787882,0.00022388405,0.99925745,0.038230393,-1204.101,93.020996,8.201,0.00081,-0.00010999999,0.49631
22.058332,-515.24,-3239.5898,429.19998,0.10693337,0.20142357,0.93856585,-0.2590132,-614.321,96.300995,107.050995,-0.93290997,-5.9208097,0.27141002,1,0,0,0,0,false,false,false,1789.6699,-4538.08,17,-0.0046098535,-0.0012866589,0.9646544,-0.2634748,-1305.1909,-770.55096,8.431,-0.00021,-0.00040999998,-0.00051,0.38582677,0.38582677,0,0,0,false,false,false,-458.25,-2617.9,17.02,-0.004787882,0.00021309446,0.99933434,0.036164187,-1205.4609,87.270996,8.201,0.00021,0,0.55641
22.066668,-520.36,-3238.79,430.05,0.0845287,0.21151732,0.93983424,-0.25461105,-614.16095,96.270996,101.601,-0.93290997,-5.9208097,0.27141002,1,0,0,0,0,false,false,false,1778.7899,-4544.5,17,-0.0046098535,-0.0012866589,0.9646544,-0.2634748,-1305.1909,-770.53094,8.431,-0.00021,-0.00040999998,-0.00040999998,0.511811,0.511811,0,0,0,false,false,false,-468.3,-2617.17,17.02,-0.004787882,0.00020230487,0.9994154,0.03384982,-1207.091,80.031,8.201,-0.00040999998,0,0.65021
22.075,-525.48,-3237.99,430.84998,0.062070083,0.22148152,0.94051564,-0.2500471,-614.001,96.241,96.151,-0.93290997,-5.9208097,0.27141002,1,-0.765625,0,0,0,false,false,true,1767.9099,-4550.92,17,-0.0046098535,-0.0012866589,0.9646544,-0.2634748,-1305.1909,-770.511,8.431,-0.00021,-0.00040999998,-0.00030999997,0.22834645,0.22834645,0,0,0,false,false,false,-478.36,-2616.5,17.02,-0.004787882,0.00019151528,0.9995035,0.031141547,-1207.9509,76.550995,8.201,0.00030999997,0,0.62741
22.083334,-530.6,-3237.19,431.61,0.03957369,0.23130539,0.9406095,-0.24532656,-613.84094,96.211,90.701,-0.93290997,-5.9208097,0.27141002,1,-0.765625,0,0,0,false,false,true,1757.0299,-4557.34,17,-0.0046098535,-0.0012866589,0.9646544,-0.2634748,-1309.011,-762.571,8.431,0.0017099999,0.00071,-0.24461,0.503937,0.503937,0,0,0,false,false,false,-488.43,-2615.8599,17.02,-0.0047878814,0.00017533088,0.9995814,0.028530464,-1209.511,68.991,8.201,-0.00021,0,0.71001
22.091667,-535.70996,-3236.39,432.31998,0.017050335,0.24098374,0.9401155,-0.24045506,-613.68097,96.181,85.260994,-0.93290997,-5.9208097,0.27141002,1,-0.765625,0,0,0,false,false,true,1746.12,-4563.69,17,-0.004609853,-0.0012920536,0.96492195,-0.2624929,-1312.241,-755.79095,8.431,0.00251,0.0012099999,-0.44171,0.44094488,0.44094488,0,0,0,false,false,false,-498.50998,-2615.28,17.02,-0.0047878814,0.00016454128,0.9996614,0.025574116,-1210.9109,62.461,8.201,-0.00021,0,0.75330997
22.1,-540.82,-3235.5898,432.99,-0.0054838103,0.25051096,0.9390344,-0.23543249,-613.52094,96.151,79.821,-0.93290997,-5.9208097,0.27141002,1,-0.765625,0,0,0,false,false,true,1735.1799,-4569.9897,17,-0.0046098535,-0.0012974485,0.9654031,-0.26071805,-1315.371,-749.191,8.431,0.00271,0.00131,-0.61401,0.1023622,0.1023622,0,0,0,false,false,false,-508.59998,-2614.76,17.02,-0.0047878814,0.00014835689,0.9997368,0.022434345,-1211.3309,60.021,8.201,0.0010099999,-0.00010999999,0.67021
22.108334,-545.93,-3234.79,433.61,-0.028012605,0.25988182,0.93736595,-0.23026428,-613.36096,96.120995,74.381,-0.93290997,-5.9208097,0.27141002,1,-0.765625,0,0,0,false,false,true,1724.22,-4576.23,17,-0.004609853,-0.0012974484,0.96606696,-0.25824714,-1318.531,-742.49097,8.431,0.00251,0.0012099999,-0.76621,0.41732284,0.41732284,0,0,0,false,false,false,-518.69,-2614.26,17.02,-0.004787881,0.00013217248,0.9997955,0.019639837,-1212.601,52.771,8.201,0.00051,0,0.71531
22.116667,-551.04,-3233.99,434.18,-0.050525177,0.26909077,0.9351121,-0.22495037,-613.201,96.090996,68.940994,-0.93290997,-5.9208097,0.27141002,1,-0.7578125,0,0,0,false,false,true,1713.23,-4582.42,17,-0.004609853,-0.0012920536,0.9668866,-0.25516132,-1321.771,-735.58093,8.431,0.00221,0.0010099999,-0.89950997,0.54330707,0.54330707,0,0,0,false,false,false,-528.79,-2613.8198,17.02,-0.004787882,0.00011598813,0.9998497,0.016661914,-1214.0609,44.010998,8.201,-0.00010999999,0,0.79591
22.125,-556.14996,-3233.19,434.71,-0.07300537,0.2781325,0.93227345,-0.21949622,-613.04095,96.061,63.501,-0.93290997,-5.9208097,0.27141002,1,-0.7421875,0,0,0,false,false,true,1702.22,-4588.55,17,-0.004615248,-0.0012866588,0.967836,-0.251536,-1325.151,-728.261,8.431,0.0018099999,0.00081,-1.01961,0.26771653,0.26771653,0,0,0,false,false,false,-538.91,-2613.45,17.02,-0.0047878814,0.00009980373,0.99989945,0.013344113,-1214.9209,38.931,8.201,0.00051,0,0.76491
22.133333,-561.26,-3232.39,435.19,-0.095442414,0.28700155,0.9288511,-0.21390717,-612.881,96.031,58.060997,-0.93290997,-5.9208097,0.27141002,1,-0.734375,0,0,0,false,false,true,1691.1799,-4594.62,17,-0.0046206424,-0.0012758691,0.9688964,-0.24741974,-1328.631,-720.65094,8.431,0.00131,0.00051,-1.12391,0.5590551,0.5590551,0,0,0,false,false,false,-549.02997,-2613.13,17.02,-0.004787882,0.00008361934,0.99993694,0.010155705,-1216.281,29.560999,8.201,-0.00010999999,0,0.84631
22.141666,-566.37,-3231.5898,435.63,-0.117820114,0.29569256,0.9248481,-0.20818329,-612.72095,96.001,52.621,-0.93290997,-5.9208097,0.27141002,1,-0.71875,0,0,0,false,false,true,1680.11,-4600.63,17,-0.0046260376,-0.0012596849,0.9700451,-0.24287735,-1332.231,-712.631,8.431,0.00091,0.00030999997,-1.21751,0.16535433,0.16535433,0,0,0,false,false,false,-559.17,-2612.88,17.02,-0.0047878814,0.00006743495,0.9999665,0.006627507,-1216.8109,25.460999,8.201,0.00091,0,0.77181
22.158333,-576.57,-3229.99,436.37,-0.16233814,0.31250823,0.91511345,-0.19634706,-612.40094,95.940994,41.760998,-0.93290997,-5.9208097,0.27141002,1,-0.703125,0,0,0,false,false,true,1657.88,-4612.44,17,-0.004636827,-0.0012165265,0.9725347,-0.23270811,-1339.5609,-695.83093,8.431,0.00010999999,0,-1.36791,0,0,0,0,0,false,false,false,-579.41,-2612.48,17.02,-0.004787882,0.000024276584,0.99998826,0.00070402096,-1208.0809,19.501,8.201,0.00241,-0.00051,0.54961
22.166666,-581.67,-3229.19,436.66998,-0.18445148,0.32062745,0.90938663,-0.1902401,-612.24097,95.910995,36.330997,-0.93290997,-5.9208097,0.27141002,1,-0.6640625,0,0,0,false,false,true,1646.72,-4618.2397,17,-0.004642222,-0.0011895525,0.97384506,-0.22716227,-1343.2109,-687.191,8.431,-0.00021,-0.00010999999,-1.42561,0,0,0,0,0,false,false,false,-589.48,-2612.3198,17.02,-0.004787882,0.0000026973983,0.99998724,-0.0015833728,-1203.6909,15.791,8.201,0.00241,-0.00061,0.46561
22.175,-586.76996,-3228.39,436.93,-0.20645157,0.32854706,0.9030909,-0.18401453,-612.08093,95.881,30.901,-0.93290997,-5.9208097,0.27141002,1,-0.640625,0,0,0,false,false,true,1635.5299,-4623.9697,17,-0.0046476168,-0.0011625786,0.9751772,-0.2213736,-1346.881,-678.191,8.431,-0.00040999998,-0.00021,-1.48101,0.27559054,0.27559054,0,0,0,false,false,false,-599.51,-2612.19,17.02,-0.0047878814,-0.000018881787,0.99998224,-0.0035254993,-1204.3109,8.271,8.201,0.0012099999,-0.00030999997,0.49581
22.183332,-591.87,-3227.5898,437.13998,-0.22832215,0.3362616,0.8962301,-0.17767559,-611.92096,95.851,25.470999,-0.93290997,-5.9208097,0.27141002,1,-0.625,0,0,0,false,false,true,1624.3099,-4629.62,17,-0.004653011,-0.0011302097,0.9765244,-0.21535294,-1350.4609,-669.16095,8.431,-0.00061,-0.00030999997,-1.52761,0,0,0,0,0,false,false,false,-609.55,-2612.1199,17.02,-0.0047878814,-0.000035066172,0.9999728,-0.0055917483,-1199.891,4.831,8.201,0.0014099999,-0.00051,0.42021
22.191668,-596.97,-3226.79,437.31,-0.25004706,0.34376585,0.8888094,-0.17122877,-611.761,95.821,20.040998,-0.93290997,-5.9208097,0.27141002,1,-0.6015625,0,0,0,false,false,true,1613.0599,-4635.1997,17,-0.0046584066,-0.0010978411,0.97787553,-0.20913279,-1353.891,-660.29095,8.431,-0.00081,-0.00040999998,-1.56321,0.03937008,0.03937008,0,0,0,false,false,false,-619.55,-2612.0798,17.02,-0.0047878814,-0.000051250565,0.9999615,-0.007345057,-1199.9409,0.681,8.201,0.0012099999,-0.00030999997,0.37111
22.2,-602.07,-3225.99,437.43,-0.2716155,0.3510542,0.88083375,-0.16467407,-611.60095,95.791,14.611,-0.93290997,-5.9208097,0.27141002,1,-0.578125,0,0,0,false,false,true,1601.7799,-4640.6997,17,-0.0046638013,-0.0010654721,0.9792164,-0.20276147,-1357.221,-651.30096,8.431,-0.00091,-0.00051,-1.59841,0.37795275,0.37795275,0,0,0,false,false,false,-629.55,-2612.0698,17.02,-0.0047878814,-0.000062040155,0.9999489,-0.008893363,-1200.641,-7.8409996,8.201,-0.00010999999,-0.00021,0.45291
22.208334,-607.17,-3225.19,437.50998,-0.2930168,0.3581214,0.8723077,-0.15801686,-611.441,95.760994,9.191,-0.93290997,-5.9208097,0.27141002,1,-0.5546875,0,0,0,false,false,true,1590.47,-4646.13,17,-0.0046745907,-0.0010277086,0.9805454,-0.19623376,-1360.361,-642.52094,8.431,-0.0010099999,-0.00061,-1.62721,0.062992126,0.062992126,0,0,0,false,false,false,-639.56,-2612.13,17.02,-0.004787882,-0.00007282975,0.9999304,-0.010781543,-1200.741,-11.521,8.201,0.00021,-0.00010999999,0.40551
22.216667,-612.26,-3224.39,437.53998,-0.31423458,0.3649675,0.86323607,-0.1512572,-611.28094,95.730995,3.771,-0.93290997,-5.9208097,0.27141002,1,-0.53125,0,0,0,false,false,true,1579.13,-4651.48,17,-0.00468538,-0.0009899449,0.98185307,-0.18958193,-1363.261,-634.191,8.431,-0.00111,-0.00061,-1.64621,0,0,0,0,0,false,false,false,-649.57,-2612.23,17.02,-0.0047878814,-0.000083619336,0.9999107,-0.012470113,-1196.2909,-14.371,8.201,0.00051,-0.00040999998,0.34341002
22.225,-617.35,-3223.5898,437.53,-0.33525276,0.3715869,0.85362494,-0.14440575,-611.121,95.701,-1.641,-0.93290997,-5.9208097,0.27141002,1,-0.5,0,0,0,false,false,true,1567.77,-4656.76,17,-0.00469617,-0.0009521815,0.9831302,-0.18284385,-1365.9509,-626.05096,8.431,-0.00111,-0.00061,-1.66571,0.27559054,0.27559054,0,0,0,false,false,false,-659.54,-2612.3499,17.02,-0.0047878814,-0.00009440893,0.9998919,-0.013899734,-1196.7909,-21.050999,8.201,-0.00030999997,-0.00021,0.39211
22.233334,-622.44,-3222.79,437.47,-0.356066,0.37797433,0.8434787,-0.1374626,-610.96094,95.671,-7.0509996,-0.93290997,-5.9208097,0.27141002,1,-0.4765625,0,0,0,false,false,true,1556.39,-4661.98,17,-0.0047069597,-0.00091441796,0.9843759,-0.17601399,-1368.371,-618.441,8.431,-0.00111,-0.00061,-1.67951,0,0,0,0,0,false,false,false,-669.51,-2612.53,17.02,-0.0047878814,-0.00009980373,0.9998678,-0.015534358,-1192.3309,-23.501,8.201,0.00010999999,-0.00040999998,0.33191
22.241667,-627.52997,-3221.99,437.37,-0.37665263,0.38412443,0.8328075,-0.1304332,-610.80096,95.641,-12.461,-0.93290997,-5.9208097,0.27141002,1,-0.453125,0,0,0,false,false,true,1544.99,-4667.13,17,-0.0047123544,-0.00087665435,0.98558384,-0.1691194,-1370.501,-611.52094,8.431,-0.00111,-0.00051,-1.68671,0.03937008,0.03937008,0,0,0,false,false,false,-679.45,-2612.73,17.02,-0.0047878814,-0.000105198524,0.9998454,-0.016915467,-1192.341,-26.741,8.201,0.00021,-0.00021,0.29571
22.25,-632.62,-3221.19,437.22,-0.39700726,0.39003178,0.82161534,-0.12332281,-610.641,95.611,-17.870998,-0.93290997,-5.9208097,0.27141002,1,-0.421875,0,0,0,false,false,true,1533.57,-4672.23,17,-0.004717749,-0.0008388908,0.98674834,-0.16218708,-1372.351,-605.15094,8.431,-0.00111,-0.00051,-1.69471,0.33070865,0.33070865,0,0,0,false,false,false,-689.39,-2612.95,17.02,-0.0047878814,-0.00011059332,0.9998238,-0.018145481,-1192.891,-33.771,8.201,-0.00071,-0.00010999999,0.37141
22.258333,-637.70996,-3220.39,437.03,-0.41711375,0.3956963,0.809909,-0.11613694,-610.48096,95.58099,-23.280998,-0.93290997,-5.9208097,0.27141002,1,-0.3984375,0,0,0,false,false,true,1522.13,-4677.27,17,-0.0047231438,-0.00080112723,0.9878687,-0.15521696,-1373.891,-599.631,8.431,-0.00111,-0.00051,-1.6992099,0.007874016,0.007874016,0,0,0,false,false,false,-699.32996,-2613.23,17.02,-0.0047878814,-0.00011598812,0.99979454,-0.019693786,-1188.4309,-35.810997,8.201,0,-0.00040999998,0.31671
22.266666,-642.8,-3219.5898,436.78998,-0.4369559,0.4011127,0.7976993,-0.1088755,-610.321,95.550995,-28.690998,-0.93290997,-5.9208097,0.27141002,1,-0.375,0,0,0,false,false,true,1510.6799,-4682.27,17,-0.004728539,-0.0007633637,0.9889428,-0.14821988,-1375.101,-595.10095,8.431,-0.00111,-0.00051,-1.70001,0,0,0,0,0,false,false,false,-709.23,-2613.53,17.02,-0.0047878814,-0.00012138292,0.9997676,-0.021015512,-1183.9609,-37.900997,8.201,0.00021,-0.00051,0.26801002
22.275,-647.88,-3218.79,436.50998,-0.45652834,0.40628093,0.7849875,-0.101549335,-610.16095,95.520996,-34.100998,-0.93290997,-5.9208097,0.27141002,1,-0.34375,0,0,0,false,false,true,1499.22,-4687.23,17,-0.0047339336,-0.00072560005,0.9899677,-0.14121203,-1375.991,-591.55096,8.431,-0.0010099999,-0.00051,-1.70151,0.27559054,0.27559054,0,0,0,false,false,false,-719.1,-2613.8499,17.02,-0.0047878814,-0.0001267777,0.9997435,-0.022132235,-1184.411,-43.900997,8.201,-0.00061,-0.00030999997,0.32811
22.283333,-652.95996,-3217.99,436.18,-0.47581473,0.41119567,0.77178526,-0.094158456,-610.001,95.491,-39.501,-0.93290997,-5.9208097,0.27141002,1,-0.3203125,0,0,0,false,false,true,1487.75,-4692.1597,17,-0.0047393283,-0.0006878365,0.99094427,-0.13418797,-1376.881,-587.881,8.431,-0.0010099999,-0.00040999998,-1.6999099,0.35433072,0.35433072,0,0,0,false,false,false,-728.97,-2614.22,17.02,-0.004787882,-0.00013217251,0.9997124,-0.023497121,-1185.001,-50.350998,8.201,-0.0012099999,-0.00021,0.40351
22.291666,-658.04,-3217.19,435.81,-0.4948045,0.41585135,0.7581014,-0.086708196,-609.84094,95.461,-44.900997,-0.93290997,-5.9208097,0.27141002,1,-0.296875,0,0,0,false,false,true,1476.2799,-4697.06,17,-0.004744723,-0.00065007294,0.9918701,-0.12716393,-1377.771,-583.96094,8.431,-0.00091,-0.00040999998,-1.69891,0.07874016,0.07874016,0,0,0,false,false,false,-738.83997,-2614.64,17.02,-0.0047878814,-0.0001375673,0.9996714,-0.025180295,-1185.121,-52.821,8.201,-0.00051,-0.00010999999,0.36811
22.3,-663.12,-3216.39,435.38998,-0.5134813,0.42024812,0.7439456,-0.07920399,-609.68097,95.431,-50.301,-0.93290997,-5.9208097,0.27141002,1,0.6062992,0,0,0,false,false,false,1464.7999,-4701.9297,17,-0.004750117,-0.00061230926,0.9927453,-0.12013986,-1378.651,-579.871,8.431,-0.00081,-0.00040999998,-1.69681,0.42519686,0.42519686,0,0,0,false,false,false,-748.72,-2615.0798,17.02,-0.0047878814,-0.00014296209,0.99963164,-0.026712418,-1185.751,-60.110996,8.201,-0.00131,-0.00010999999,0.46611
22.308332,-668.2,-3215.5898,434.93,-0.5318399,0.42438054,0.7293239,-0.071651235,-609.52094,95.401,-55.700996,-0.93290997,-5.9208097,0.27141002,1,-0.2421875,0,0,0,false,false,true,1453.3099,-4706.76,17,-0.004755513,-0.00057454576,0.9935702,-0.11311581,-1379.231,-577.131,8.431,-0.00131,-0.00051,-1.6317099,0.03937008,0.03937008,0,0,0,false,false,false,-758.6,-2615.5798,17.02,-0.0047878814,-0.00014835689,0.9995778,-0.028654587,-1185.781,-61.821,8.201,-0.00030999997,-0.00010999999,0.40671
22.316668,-673.27997,-3214.79,434.41998,-0.54986405,0.42824864,0.71424794,-0.064049974,-609.36096,95.370995,-61.100998,-0.93290997,-5.9208097,0.27141002,1,0.6771653,0,0,0,false,false,false,1441.82,-4711.57,17,-0.0047609075,-0.0005367822,0.9943165,-0.10635613,-1380.111,-572.501,8.431,-0.0010099999,-0.00040999998,-1.63361,0.38582677,0.38582677,0,0,0,false,false,false,-768.48,-2616.0898,17.02,-0.004787881,-0.00015375167,0.99952775,-0.030348549,-1186.341,-68.501,8.201,-0.0010099999,-0.00010999999,0.48321
22.325,-678.36,-3214,433.87,-0.5675482,0.43184707,0.69872373,-0.0564109,-609.201,95.340996,-66.501,-0.93290997,-5.9208097,0.27141002,1,-0.1875,0,0,0,false,false,true,1430.32,-4716.34,17,-0.004766302,-0.00049901864,0.9950174,-0.099585615,-1380.6909,-569.42096,8.431,-0.0014099999,-0.00040999998,-1.56611,0,0,0,0,0,false,false,false,-778.37,-2616.66,17.02,-0.004787881,-0.00015914647,0.99946463,-0.032360807,-1181.891,-69.501,8.201,0,-0.00030999997,0.40721
22.341667,-688.51,-3212.42,432.63,-0.60183764,0.43823448,0.666377,-0.04103029,-608.881,95.281,-77.291,-0.93290997,-5.9208097,0.27141002,1,0.7401575,0,0,0,false,false,false,1407.2999,-4725.8,17,-0.0047770916,-0.00042349144,0.9962037,-0.086918585,-1382.0509,-561.52094,8.431,-0.0019099999,-0.00040999998,-1.4018099,0,0,0,0,0,false,false,false,-798.02997,-2617.8298,17.02,-0.004787882,-0.00017533089,0.9993587,-0.0354844,-1172.891,-72.660995,8.201,0.00081,-0.00051,0.29001
22.35,-693.57996,-3211.63,431.94,-0.6184213,0.4410182,0.649576,-0.033299506,-608.72095,95.251,-82.681,-0.93290997,-5.9208097,0.27141002,1,-0.1171875,0,0,0,false,false,true,1395.78,-4730.48,17,-0.0047824867,-0.0003857279,0.99669456,-0.081097566,-1382.901,-555.90094,8.431,-0.0012099999,-0.00021,-1.40351,0,0,0,0,0,false,false,false,-807.8,-2618.44,17.02,-0.004787882,-0.00018612048,0.9993151,-0.036692835,-1168.361,-74.520996,8.201,0.00091,-0.00051,0.24551
22.358334,-698.64996,-3210.8398,431.21,0.6346206,-0.44352677,-0.63236696,0.025547143,-608.561,95.221,-88.071,-0.93290997,-5.9208097,0.27141002,1,0.8346457,0,0,0,false,false,false,1384.26,-4735.11,17,-0.0047824867,-0.00035335915,0.9971519,-0.07526579,-1383.621,-550.79095,8.431,-0.00071,-0.00010999999,-1.39781,0.31496063,0.31496063,0,0,0,false,false,false,-817.54,-2619.06,17.02,-0.004787882,-0.00019691007,0.9992771,-0.03771245,-1168.7009,-80.951,8.201,-0.00021,-0.00030999997,0.32381
22.366667,-703.72,-3210.05,430.43,0.6504209,-0.4457602,-0.6147636,0.017778635,-608.40094,95.190994,-93.461,-0.93290997,-5.9208097,0.27141002,1,-0.078125,0,0,0,false,false,true,1372.73,-4739.6997,17,-0.004782487,-0.0003209904,0.9975735,-0.069455564,-1384.131,-547.061,8.431,-0.0010099999,-0.00010999999,-1.32661,0,0,0,0,0,false,false,false,-827.27997,-2619.73,17.02,-0.004787882,-0.00020230487,0.9992253,-0.039061192,-1164.2009,-82.281,8.201,0.00021,-0.00040999998,0.27351
22.375,-708.79,-3209.26,429.61,0.66581994,-0.44771314,-0.59677196,0.009999256,-608.24097,95.160995,-98.851,-0.93290997,-5.9208097,0.27141002,1,-0.078125,0,0,0,false,false,true,1361.2,-4744.26,17,-0.004782487,-0.0002886216,0.9979421,-0.06394208,-1384.8109,-541.41095,8.431,-0.00040999998,-0.00010999999,-1.3293099,0.28346455,0.28346455,0,0,0,false,false,false,-836.98,-2620.42,17.02,-0.004787882,-0.00020769966,0.99918014,-0.040199496,-1164.531,-87.891,8.201,-0.00051,-0.00021,0.33481002
22.383333,-713.86,-3208.47,428.74,0.6808024,-0.44938552,-0.578408,0.002214564,-608.08093,95.131,-104.241,-0.93290997,-5.9208097,0.27141002,1,0.8976378,0,0,0,false,false,false,1349.6599,-4748.77,17,-0.0047824867,-0.0002616476,0.998281,-0.058412366,-1385.4109,-535.951,8.431,-0.00010999999,-0.00010999999,-1.32331,0.63779527,0.63779527,0,0,0,false,false,false,-846.68,-2621.15,17.02,-0.0047878814,-0.00021309445,0.99912316,-0.04159135,-1165.0709,-97.651,8.211,-0.00211,-0.00010999999,0.51141
22.391666,-718.93,-3207.68,427.83,0.6953589,-0.4507774,-0.55968255,-0.005570169,-607.92096,95.101,-109.631,-0.93290997,-5.9208097,0.27141002,1,0.9527559,0,0,0,false,false,false,1338.11,-4753.2397,17,-0.004782487,-0.00023467364,0.9985878,-0.052909676,-1385.851,-531.871,8.431,-0.00051,-0.00010999999,-1.25081,1,1,0,0,0,false,false,false,-856.38995,-2621.96,17.02,-0.004787882,-0.00021309446,0.9990322,-0.043722298,-1165.481,-111.020996,8.221001,-0.00391,-0.00010999999,0.78111
22.408333,-729.05,-3206.0999,425.87,0.7231551,-0.45271954,-0.5211959,-0.021128803,-607.60095,95.041,-120.391,-0.93290997,-5.9208097,0.27141002,1,0.007874016,0,0,0,false,false,true,1315.01,-4762.05,17,-0.004782487,-0.00018072568,0.99908507,-0.04249768,-1386.891,-520.311,8.431,0,-0.00010999999,-1.24251,1,1,0,0,0,false,false,false,-875.82,-2623.92,17.02,-0.004787882,-0.00021309446,0.99867994,-0.051140185,-1166.861,-135.101,8.221001,-0.00451,0,1.18981
22.416666,-734.11,-3205.3098,424.81998,0.7363817,-0.45326442,-0.5014563,-0.028891956,-607.441,95.010994,-125.770996,-0.93290997,-5.9208097,0.27141002,1,1,0,0,0,false,false,false,1303.45,-4766.39,17,-0.0047824867,-0.00015375168,0.9992917,-0.037324023,-1387.221,-516.05096,8.431,-0.00051,-0.00021,-1.16591,1,1,0,0,0,false,false,false,-885.54,-2625.05,17.02,-0.004787882,-0.00021848927,0.99841404,-0.05609261,-1167.521,-147.031,8.221001,-0.00411,0,1.35101
22.425,-739.17,-3204.52,423.72998,0.7491461,-0.45352876,-0.4814038,-0.036633488,-607.28094,94.980995,-131.151,-0.93290997,-5.9208097,0.27141002,1,0.062992126,0,0,0,false,false,true,1291.89,-4770.69,17,-0.0047824867,-0.0001267777,0.99946123,-0.032468706,-1387.591,-511.021,8.431,-0.00081,-0.00021,-1.08281,1,1,0,0,0,false,false,false,-895.26996,-2626.27,17.02,-0.004787882,-0.00022927886,0.99808234,-0.061714027,-1168.0709,-159.22101,8.221001,-0.00341,0,1.48861
22.433332,-744.23,-3203.73,422.59,0.7614411,-0.45350718,-0.46105453,-0.044353485,-607.121,94.951,-136.531,-0.93290997,-5.9208097,0.27141002,1,1,0,0,0,false,false,false,1280.33,-4774.9497,17,-0.0047824867,-0.00009980373,0.99959755,-0.027958658,-1387.971,-504.771,8.431,-0.00021,-0.00021,-1.0843099,1,1,0,0,0,false,false,false,-905,-2627.5999,17.02,-0.0047878814,-0.00024546322,0.9976804,-0.06790185,-1168.4309,-171.83101,8.221001,-0.00261,0,1.60601
22.441668,-749.29,-3202.94,421.41,0.77326363,-0.4531997,-0.44041398,-0.05204651,-606.96094,94.921,-141.91101,-0.93290997,-5.9208097,0.27141002,1,0.09448819,0,0,0,false,false,true,1268.76,-4779.1597,17,-0.004782487,-0.00007822455,0.9997137,-0.023443172,-1388.251,-500.161,8.431,-0.00051,-0.00021,-1.01151,1,1,0,0,0,false,false,false,-914.74,-2629.03,17.02,-0.004787882,-0.00026704243,0.9972038,-0.07457527,-1168.5609,-184.97101,8.221001,-0.0019099999,0,1.70621
22.45,-754.35,-3202.15,420.18,0.7846011,-0.45261165,-0.4194983,-0.05970712,-606.80096,94.891,-147.291,-0.93290997,-5.9208097,0.27141002,1,1,0,0,0,false,false,false,1257.19,-4783.33,17,-0.0047824867,-0.00005664536,0.9998036,-0.019229835,-1388.8209,-493.82098,8.431,0,-0.00021,-1.01241,1,1,0,0,0,false,false,false,-924.48,-2630.5698,17.02,-0.004787882,-0.0002940164,0.9966484,-0.081664026,-1168.401,-198.701,8.221001,-0.0012099999,0.00010999999,1.7918099
22.458334,-759.41,-3201.3599,418.91,0.7954452,-0.4517431,-0.39832363,-0.06733001,-606.641,94.861,-152.671,-0.93290997,-5.9208097,0.27141002,1,0.12598425,0,0,0,false,false,true,1245.62,-4787.4497,17,-0.0047824867,-0.000035066172,0.99987584,-0.015011063,-1389.611,-489.10098,8.431,-0.00030999997,-0.00021,-0.93961,1,1,0,0,0,false,false,false,-934.22,-2632.23,17.02,-0.0047824867,-0.00032638517,0.9960108,-0.08910349,-1167.911,-213.051,8.221001,-0.00061,0.00021,1.8651099
22.466667,-764.45996,-3200.5698,417.59,0.8057966,-0.45058858,-0.37689537,-0.07490973,-606.48096,94.83099,-158.041,-0.93290997,-5.9208097,0.27141002,1,1,0,0,0,false,false,false,1234.0399,-4791.53,17,-0.004782487,-0.0000134869915,0.999927,-0.011094442,-1390.5709,-482.711,8.431,0.00010999999,-0.00021,-0.93951,1,1,0,0,0,false,false,false,-943.94995,-2634.01,17.02,-0.004777092,-0.00035875392,0.99528843,-0.09683967,-1167.0509,-228.021,8.221001,-0.00010999999,0.00021,1.92801
22.475,-769.51,-3199.78,416.22998,0.8156423,-0.44915354,-0.3552352,-0.08244087,-606.321,94.800995,-163.41101,-0.93290997,-5.9208097,0.27141002,1,0.15748031,0,0,0,false,false,true,1222.45,-4795.55,17,-0.0047824867,0.000002697398,0.99996275,-0.0071778186,-1391.5609,-477.861,8.431,-0.00021,-0.00021,-0.86771,1,1,0,0,0,false,false,false,-953.68,-2635.91,17.02,-0.004771697,-0.0003965175,0.99447864,-0.10482936,-1165.7909,-243.601,8.221001,0.00021,0.00021,1.98201
22.483334,-774.56,-3198.99,414.81998,0.8249776,-0.447438,-0.33335382,-0.08992349,-606.16095,94.770996,-168.781,-0.93290997,-5.9208097,0.27141002,1,0.15748031,0,0,0,false,false,true,1210.85,-4799.53,17,-0.004782487,0.000018881788,0.9999822,-0.003563263,-1392.471,-471.411,8.431,0.00010999999,-0.00021,-0.86671,1,1,0,0,0,false,false,false,-963.38995,-2637.94,17.02,-0.0047663017,-0.00043428104,0.99357873,-0.11304027,-1164.111,-259.761,8.221001,0.00051,0.00021,2.0285099
22.491667,-779.61,-3198.2,413.37,0.83379906,-0.4454419,-0.31126204,-0.097346775,-606.001,94.741,-174.151,-0.93290997,-5.9208097,0.27141002,1,0.18110237,0,0,0,false,false,true,1199.25,-4803.46,17,-0.0047824867,0.000035066172,0.9999885,0.000045855766,-1393.381,-465.261,8.431,0.00021,-0.00021,-0.85640997,1,1,0,0,0,false,false,false,-973.08997,-2640.0999,17.02,-0.004760907,-0.0004774394,0.99258775,-0.121434614,-1161.981,-276.471,8.231,0.00081,0.00030999997,2.06861
22.5,-784.66,-3197.41,411.87,0.84209746,-0.4431707,-0.28897604,-0.104710676,-605.84094,94.711,-179.521,-0.93290997,-5.9208097,0.27141002,1,1,0,0,0,false,false,false,1187.64,-4807.34,17,-0.004782487,0.00005125057,0.999982,0.0036118163,-1394.271,-459.111,8.431,0.00030999997,-0.00021,-0.84490997,1,1,0,0,0,false,false,false,-982.76996,-2642.4,17.02,-0.004755513,-0.0005205978,0.9915043,-0.12998542,-1159.391,-293.691,8.231,0.0010099999,0.00030999997,2.1033099
22.508333,-789.70996,-3196.6199,410.33,0.84987223,-0.44061896,-0.2665066,-0.112009875,-605.68097,94.681,-184.891,-0.93290997,-5.9208097,0.27141002,1,0.21259843,0,0,0,false,false,true,1176.02,-4811.17,17,-0.0047824867,0.00006743495,0.99996305,0.007134618,-1395.151,-452.971,8.431,0.00030999997,-0.00021,-0.83201,1,1,0,0,0,false,false,false,-992.43,-2644.8499,17.02,-0.0047501177,-0.00056915096,0.9903269,-0.13867109,-1156.3209,-311.371,8.231,0.00111,0.00030999997,2.13341
22.516666,-794.76,-3195.8298,408.74,0.85711426,-0.4377921,-0.24387538,-0.11923894,-605.52094,94.651,-190.261,-0.93290997,-5.9208097,0.27141002,1,1,0,0,0,false,false,false,1164.39,-4814.94,17,-0.0047824867,0.000083619336,0.9999323,0.010603472,-1396.001,-446.781,8.431,0.00030999997,-0.00021,-0.81961,1,1,0,0,0,false,false,false,-1002.07,-2647.44,17.02,-0.004744723,-0.0006177041,0.9890549,-0.14747,-1152.761,-329.481,8.231,0.00111,0.00030999997,2.15951
22.525,-799.8,-3195.04,407.11,0.8638227,-0.4346901,-0.22108768,-0.12639244,-605.36096,94.620995,-195.621,-0.93290997,-5.9208097,0.27141002,1,0.23622048,0,0,0,false,false,true,1152.76,-4818.6597,17,-0.004782487,0.000099803736,0.99989027,0.014018463,-1396.901,-441.57098,8.431,-0.00010999999,-0.00021,-0.75080997,1,1,0,0,0,false,false,false,-1011.68,-2650.19,17.02,-0.004739328,-0.0006662572,0.9876883,-0.15636064,-1148.7009,-347.961,8.231,0.00111,0.00030999997,2.18221
22.533333,-804.83997,-3194.25,405.44,0.8699889,-0.4313183,-0.19816512,-0.13347048,-605.201,94.590996,-200.981,-0.93290997,-5.9208097,0.27141002,1,0.23622048,0,0,0,false,false,true,1141.12,-4822.34,17,-0.004782487,0.00011598813,0.9998415,0.017147444,-1397.6709,-435.031,8.431,0.00010999999,-0.00021,-0.74681,1,1,0,0,0,false,false,false,-1021.25,-2653.0898,17.02,-0.004733933,-0.00071481045,0.98622614,-0.16533223,-1144.141,-366.771,8.231,0.00111,0.00040999998,2.20201
22.541666,-809.88,-3193.46,403.72,0.875612,-0.4276768,-0.17511846,-0.14046216,-605.04095,94.561,-206.341,-0.93290997,-5.9208097,0.27141002,1,0.25984251,0,0,0,false,false,true,1129.47,-4825.96,17,-0.0047824867,0.0001321725,0.9997832,0.02026024,-1398.4409,-428.771,8.431,0.00021,-0.00021,-0.73441,1,1,0,0,0,false,false,false,-1030.78,-2656.15,17.02,-0.0047285384,-0.00076336367,0.9846678,-0.17437397,-1139.0709,-385.871,8.231,0.00111,0.00040999998,2.21931
22.55,-814.92,-3192.67,401.96,0.88068694,-0.42377093,-0.15195851,-0.14736749,-604.881,94.531,-211.701,-0.93290997,-5.9208097,0.27141002,1,1,0,0,0,false,false,false,1117.82,-4829.53,17,-0.0047824867,0.00014835689,0.9997166,0.02331909,-1399.2009,-422.531,8.431,0.00021,-0.00021,-0.72081,1,1,0,0,0,false,false,false,-1040.27,-2659.3699,17.02,-0.004717749,-0.00081191683,0.9830137,-0.18346964,-1133.491,-405.211,8.231,0.0010099999,0.00051,2.23451
22.558332,-819.95996,-3191.88,400.15,0.8852132,-0.4195954,-0.12870686,-0.15418118,-604.72095,94.501,-217.061,-0.93290997,-5.9208097,0.27141002,1,0.27559054,0,0,0,false,false,true,1106.16,-4833.05,17,-0.0047824867,0.00016454128,0.99964195,0.026323993,-1400.031,-417.151,8.4210005,-0.00021,-0.00010999999,-0.65411,1,1,0,0,0,false,false,false,-1049.72,-2662.75,17.02,-0.0047069597,-0.00086047,0.9812629,-0.19261383,-1127.411,-424.751,8.231,0.0010099999,0.00051,2.24781
22.575,-830.04,-3190.3,396.4,0.8926007,-0.41046733,-0.08197692,-0.16751175,-604.40094,94.440994,-227.781,-0.93290997,-5.9208097,0.27141002,1,1,0,0,0,false,false,false,1082.82,-4839.9497,17,-0.004782487,0.00019151528,0.9994928,0.03148142,-1401.611,-403.811,8.4210005,-0.00061,-0.00010999999,-0.50951,1,1,0,0,0,false,false,false,-1068.45,-2669.99,17.02,-0.0046853805,-0.0009575763,0.9774721,-0.21101016,-1113.721,-464.281,8.231,0.00091,0.00040999998,2.26971
22.583334,-835.07996,-3189.51,394.46,0.89545983,-0.4055149,-0.05852566,-0.17402333,-604.24097,94.410995,-233.131,-0.93290997,-5.9208097,0.27141002,1,0.30708662,0,0,0,false,false,true,1071.14,-4843.31,17,-0.004782487,0.00020230487,0.9994238,0.03360166,-1402.241,-396.841,8.4210005,0,-0.00010999999,-0.50341,1,1,0,0,0,false,false,false,-1077.73,-2673.8599,17.02,-0.004674591,-0.0010061295,0.9754326,-0.2202461,-1106.121,-484.201,8.231,0.00081,0.00040999998,2.27871
22.591667,-840.11,-3188.72,392.47,0.897759,-0.40030888,-0.035036627,-0.18042693,-604.08093,94.381,-238.481,-0.93290997,-5.9208097,0.27141002,1,1,0,0,0,false,false,false,1059.45,-4846.62,17,-0.004782487,0.00021309446,0.999351,0.035700236,-1402.901,-390.631,8.4210005,0.00021,-0.00010999999,-0.49021,1,1,0,0,0,false,false,false,-1086.95,-2677.89,17.02,-0.004663801,-0.0010546825,0.9732972,-0.22949818,-1098.021,-504.181,8.231,0.00071,0.00040999998,2.28671
22.6,-845.13995,-3187.93,390.44,0.8994961,-0.3948547,-0.011526023,-0.18671729,-603.92096,94.351,-243.83101,-0.93290997,-5.9208097,0.27141002,1,0.32283464,0,0,0,false,false,true,1047.76,-4849.88,17,-0.0047824862,0.00022388401,0.999276,0.03773946,-1403.651,-385.221,8.4210005,-0.00010999999,0,-0.42691,1,1,0,0,0,false,false,false,-1096.1,-2682.0898,17.02,-0.004653011,-0.0011032356,0.9710664,-0.23876108,-1089.4209,-524.191,8.231,0.00071,0.00030999997,2.29371
22.608334,-850.17,-3187.14,388.36,0.9006722,-0.38915244,0.011990019,-0.19288898,-603.761,94.321,-249.181,-0.93290997,-5.9208097,0.27141002,1,1,0,0,0,false,false,false,1036.0599,-4853.09,17,-0.0047824867,0.00023467363,0.99920744,0.03951435,-1404.241,-378.791,8.4210005,0.00021,0,-0.42111,1,1,0,0,0,false,false,false,-1105.1799,-2686.46,17.02,-0.004642222,-0.001151789,0.96874064,-0.24802938,-1080.341,-544.201,8.231,0.00061,0.00030999997,2.29991
22.616667,-855.19995,-3186.3499,386.24,0.9012846,-0.3832073,0.035500623,-0.19894196,-603.60095,94.291,-254.531,-0.93290997,-5.9208097,0.27141002,1,0.33070865,0,0,0,false,false,true,1024.36,-4856.25,17,-0.0047824867,0.00024006843,0.99913657,0.04126766,-1404.861,-372.651,8.4210005,0.00030999997,0,-0.40751,1,1,0,0,0,false,false,false,-1114.1799,-2690.99,17.02,-0.0046314322,-0.0012003421,0.96631885,-0.25730306,-1070.771,-564.18097,8.231,0.00051,0.00030999997,2.30541
22.625,-860.23,-3185.5598,384.06998,0.90133286,-0.37702486,0.058984257,-0.20487088,-603.441,94.260994,-259.881,-0.93290997,-5.9208097,0.27141002,1,0.33070865,0,0,0,false,false,true,1012.64996,-4859.36,17,-0.0047824867,0.00024546322,0.99906516,0.042961627,-1405.4609,-366.521,8.4210005,0.00040999998,0,-0.39411,1,1,0,0,0,false,false,false,-1123.1,-2695.69,17.02,-0.004620643,-0.0012488953,0.96380323,-0.26657137,-1060.731,-584.11096,8.231,0.00040999998,0.00030999997,2.31021
22.633333,-865.26,-3184.77,381.86,0.90081865,-0.37060508,0.082435526,-0.2106703,-603.28094,94.230995,-265.231,-0.93290997,-5.9208097,0.27141002,1,1,0,0,0,false,false,false,1000.94,-4862.4097,17,-0.004782487,0.00025085805,0.99899334,0.04460165,-1406.0509,-360.411,8.4210005,0.00040999998,0,-0.38081,1,1,0,0,0,false,false,false,-1131.94,-2700.56,17.02,-0.004609853,-0.0012974484,0.9611932,-0.27583426,-1050.221,-603.96094,8.231,0.00030999997,0.00030999997,2.3145099
22.641666,-870.29,-3183.98,379.61,0.8997412,-0.3639532,0.10583284,-0.21634026,-603.121,94.201,-270.581,-0.93290997,-5.9208097,0.27141002,1,1,0,0,0,false,false,false,989.22,-4865.4097,17,-0.0047824867,0.0002562528,0.9989212,0.046187714,-1406.731,-355.07098,8.4210005,0,0,-0.31881002,1,1,0,0,0,false,false,false,-1140.69,-2705.5898,17.02,-0.004593669,-0.0013460016,0.9584882,-0.2850918,-1039.251,-623.71094,8.231,0.00021,0.00030999997,2.31831
22.658333,-880.32996,-3182.41,374.97,0.89590085,-0.34996986,0.15241706,-0.22727016,-602.80096,94.141,-281.261,-0.93290997,-5.9208097,0.27141002,1,0.35433072,0,0,0,false,false,true,965.76996,-4871.28,17,-0.004782487,0.00026704243,0.99879634,0.048814986,-1407.8209,-342.781,8.4210005,0.00021,0,-0.29801,1,1,0,0,0,false,false,false,-1157.9199,-2716.15,17.02,-0.0045613,-0.0014323184,0.9527974,-0.30356902,-1015.941,-662.83093,8.231,0.00021,0.00021,2.32471
22.675,-890.37,-3180.8499,370.15,0.8898205,-0.3351125,0.19861826,-0.2376336,-602.48096,94.08099,-291.941,-0.93290997,-5.9208097,0.27141002,1,-0.5703125,0,0,0,false,false,false,942.3,-4876.9497,17,-0.0047824867,0.000277832,0.998675,0.051237244,-1408.891,-330.851,8.4210005,0.00021,0,-0.27071002,1,1,0,0,0,false,false,false,-1174.75,-2727.3499,17.02,-0.0045289313,-0.0015186351,0.94673383,-0.32198152,-990.86096,-701.321,8.231,0.00021,0.00010999999,2.3296099
22.683332,-895.38995,-3180.0698,367.66998,0.8859462,-0.32736558,0.22154084,-0.24259143,-602.321,94.050995,-297.281,-0.93290997,-5.9208097,0.27141002,1,-0.5625,0,0,0,false,false,false,930.56,-4879.71,17,-0.004782487,0.0002832268,0.9986165,0.05236476,-1408.271,-321.891,8.431,0.00081,-0.00010999999,-0.31771,1,1,0,0,0,false,false,false,-1183.01,-2733.19,17.02,-0.004512747,-0.0015617935,0.9435631,-0.33115813,-977.68097,-720.29095,8.231,0.00021,0.00010999999,2.3317099
22.691668,-900.41,-3179.29,365.15,0.88151866,-0.3194136,0.24432315,-0.24739818,-602.16095,94.020996,-302.621,-0.93290997,-5.9208097,0.27141002,1,-0.578125,0,0,0,false,false,false,918.82,-4882.3896,17,-0.0047824867,0.00028862158,0.9985463,0.05368648,-1407.6809,-312.531,8.431,0.0010099999,-0.00010999999,-0.35081,1,1,0,0,0,false,false,false,-1191.16,-2739.19,17.02,-0.0044965623,-0.0016049518,0.94030195,-0.34030774,-964.08093,-739.05096,8.231,0.00021,0.00010999999,2.33351
22.7,-905.43,-3178.51,362.58,0.8765402,-0.31126204,0.2669544,-0.25204852,-602.001,93.991,-307.961,-0.93290997,-5.9208097,0.27141002,1,-0.5859375,0,0,0,false,false,false,907.08997,-4884.9897,17,-0.004782487,0.0002940164,0.9984667,0.055148475,-1406.871,-302.141,8.431,0.0012099999,-0.00010999999,-0.38871,1,1,0,0,0,false,false,false,-1199.19,-2745.3499,17.02,-0.0044803787,-0.0016481103,0.9369481,-0.3494358,-950.071,-757.59094,8.231,0.00021,0.00010999999,2.33511
22.708334,-910.44995,-3177.73,359.97,0.8710136,-0.30291623,0.2894184,-0.25654238,-601.84094,93.961,-313.291,-0.93290997,-5.9208097,0.27141002,1,-0.59375,0,0,0,false,false,false,895.37,-4887.51,17,-0.004782487,0.00029941121,0.99837595,0.056766998,-1405.881,-290.821,8.431,0.00131,-0.00010999999,-0.42901,0.70866144,0.70866144,0,0,0,false,false,false,-1207.11,-2751.66,17.02,-0.0044641937,-0.0016912686,0.9335033,-0.3585368,-938.071,-773.121,8.221001,0.0010099999,0.00071,2.23561
22.716667,-915.45996,-3176.95,357.31,0.8649437,-0.29438168,0.311699,-0.26087445,-601.68097,93.931,-318.621,-0.93290997,-5.9208097,0.27141002,1,-0.6015625,0,0,0,false,false,false,883.64996,-4889.9297,17,-0.004782487,0.00030480602,0.9982728,0.05855268,-1404.6809,-278.561,8.431,0.0014099999,-0.00010999999,-0.47271,1,1,0,0,0,false,false,false,-1214.9299,-2758.0999,17.02,-0.004448009,-0.0017398217,0.9301229,-0.36721706,-922.7009,-791.631,8.231,0.00061,0.00030999997,2.25981
22.725,-920.47,-3176.17,354.61,0.8583326,-0.28566363,0.33378538,-0.26504463,-601.52094,93.901,-323.951,-0.93290997,-5.9208097,0.27141002,1,-1,0,0,0,false,false,false,871.94,-4892.25,17,-0.004782487,0.0003102008,0.99815565,0.060516383,-1403.281,-265.391,8.431,0.00151,-0.00010999999,-0.51941,0.9527559,0.9527559,0,0,0,false,false,false,-1222.62,-2764.7,17.02,-0.004431824,-0.0017829799,0.9266248,-0.37595665,-907.80096,-809.131,8.231,0.00051,0.00021,2.25561
22.733334,-925.48,-3175.39,351.87,0.85118395,-0.27676758,0.35566676,-0.2690476,-601.36096,93.870995,-329.281,-0.93290997,-5.9208097,0.27141002,1,-1,0,0,0,false,false,false,860.25,-4894.46,17,-0.004782487,0.0003155956,0.9980225,0.0626743,-1400.5509,-250.11101,8.441,0.0019099999,-0.00010999999,-0.60491,0.63779527,0.63779527,0,0,0,false,false,false,-1230.19,-2771.44,17.02,-0.0044156406,-0.0018261385,0.923051,-0.38464773,-895.28094,-823.48096,8.221001,0.0012099999,0.00091,2.1442099
22.741667,-930.49,-3174.6099,349.08,0.8435047,-0.26769888,0.37732157,-0.27288333,-601.201,93.840996,-334.611,-0.93290997,-5.9208097,0.27141002,1,-1,0,0,0,false,false,false,848.57996,-4896.54,17,-0.004782487,0.0003209904,0.99786144,0.065188274,-1397.741,-234.391,8.451,0.00201,-0.00010999999,-0.68181,0.93700784,0.93700784,0,0,0,false,false,false,-1237.65,-2778.3,17.02,-0.0043994565,-0.001869297,0.9195772,-0.39288026,-879.261,-840.72095,8.221001,0.00071,0.00051,2.16111
22.75,-935.5,-3173.8298,346.25,0.8352956,-0.25846294,0.39874437,-0.27655178,-601.04095,93.811,-339.941,-0.93290997,-5.9208097,0.27141002,1,-1,0,0,0,false,false,false,836.93,-4898.4897,17,-0.0047824867,0.00032638517,0.9976723,0.06802054,-1394.6709,-217.83101,8.461,0.00201,-0.00010999999,-0.76181,1,1,0,0,0,false,false,false,-1244.98,-2785.31,17.02,-0.0043832716,-0.0019124552,0.916002,-0.40114507,-862.77094,-857.871,8.231,0.00030999997,0.00010999999,2.18861
22.758333,-940.50995,-3173.05,343.37,0.8265666,-0.24906524,0.41991368,-0.28004763,-600.881,93.781,-345.271,-0.93290997,-5.9208097,0.27141002,1,-1,0,0,0,false,false,false,825.31,-4900.31,17,-0.0047824867,0.00033177997,0.99745136,0.07118728,-1391.3209,-200.47101,8.471001,0.00201,-0.00010999999,-0.84461,0.70866144,0.70866144,0,0,0,false,false,false,-1252.1699,-2792.46,17.02,-0.004367088,-0.0019556137,0.9123065,-0.4094801,-848.92096,-872.09094,8.221001,0.00071,0.00061,2.11011
22.766666,-945.51996,-3172.27,340.44998,0.8173204,-0.23951101,0.440824,-0.2833655,-600.72095,93.751,-350.601,-0.93290997,-5.9208097,0.27141002,1,-1,0,0,0,false,false,false,813.72,-4901.98,17,-0.004782487,0.00034256958,0.9971945,0.074699305,-1387.6909,-182.341,8.471001,0.0019099999,-0.00010999999,-0.92991,1,1,0,0,0,false,false,false,-1259.24,-2799.73,17.02,-0.004350903,-0.001998772,0.90867066,-0.41748598,-831.59094,-888.751,8.231,0.00010999999,0.00010999999,2.15161
22.775,-950.51996,-3171.49,337.47998,0.8075623,-0.22981109,0.4614591,-0.2865052,-600.561,93.721,-355.921,-0.93290997,-5.9208097,0.27141002,1,-1,0,0,0,false,false,false,802.16,-4903.5,17,-0.0047824867,0.00035335915,0.99689764,0.07856205,-1383.761,-163.47101,8.471001,0.0018099999,-0.00010999999,-1.01721,0.97637796,0.97637796,0,0,0,false,false,false,-1266.1699,-2807.14,17.02,-0.004334719,-0.0020365356,0.9048912,-0.42561597,-814.751,-904.571,8.231,-0.00010999999,0,2.17011
22.783333,-955.51996,-3170.71,334.47,0.79730153,-0.21996556,0.481803,-0.28946698,-600.40094,93.690994,-361.241,-0.93290997,-5.9208097,0.27141002,1,-1,0,0,0,false,false,false,790.63,-4904.86,17,-0.004782487,0.00036414876,0.99655575,0.08278619,-1379.521,-143.891,8.471001,0.0017099999,-0.00010999999,-1.10621,0.68503934,0.68503934,0,0,0,false,false,false,-1272.96,-2814.68,17.02,-0.004318534,-0.002074299,0.9010068,-0.43377838,-800.561,-917.68097,8.221001,0.00040999998,0.00061,2.08621
22.791666,-960.51996,-3169.93,331.41998,0.7865429,-0.20997976,0.5018447,-0.2922507,-600.24097,93.660995,-366.561,-0.93290997,-5.9208097,0.27141002,1,-1,0,0,0,false,false,false,779.13,-4906.06,17,-0.0047824862,0.0003803331,0.9961636,0.087377146,-1374.9509,-123.631,8.481,0.0016099999,-0.00010999999,-1.19641,0.68503934,0.68503934,0,0,0,false,false,false,-1279.63,-2822.3298,17.02,-0.004296955,-0.0021120626,0.8972014,-0.44159544,-785.71094,-930.80096,8.221001,0.00061,0.00091,2.02011
22.8,-965.51996,-3169.15,328.32,0.77529216,-0.19986448,0.52157366,-0.29485103,-600.081,93.631,-371.881,-0.93290997,-5.9208097,0.27141002,1,-1,0,0,0,false,false,false,767.67,-4907.09,17,-0.004782487,0.00039651754,0.9957159,0.09234037,-1370.031,-102.721,8.481,0.00151,0,-1.28741,0.992126,0.992126,0,0,0,false,false,false,-1286.1799,-2830.0898,17.02,-0.004275376,-0.0021498261,0.8934525,-0.44913197,-767.36096,-946.071,8.231,0,0.00021,2.07191
22.808332,-970.51996,-3168.3699,325.18,0.7635549,-0.1896251,0.54097867,-0.29726788,-599.92096,93.601,-377.201,-0.93290997,-5.9208097,0.27141002,1,-1,0,0,0,false,false,false,756.25,-4907.9497,17,-0.004777092,0.0004180967,0.9952061,0.09768121,-1364.751,-81.181,8.481,0.0014099999,0,-1.3788099,0.7007874,1,0,0,0,false,false,false,-1292.57,-2837.97,17.02,-0.0042537972,-0.0021875899,0.8895409,-0.45683044,-748.8909,-959.98096,8.231,-0.00010999999,-0.00010999999,2.10771
22.816668,-975.51996,-3167.5898,321.99,0.75134283,-0.17926705,0.560044,-0.29949594,-599.761,93.571,-382.521,-0.93290997,-5.9208097,0.27141002,1,-1,0,0,0,false,false,false,744.88,-4908.63,17,-0.0047716973,0.0004396759,0.9946283,0.10339979,-1359.0809,-59.040997,8.481,0.00131,0,-1.47021,0.062992126,1,0,0,0,false,false,false,-1298.8099,-2845.97,17.02,-0.004232218,-0.0022253536,0.8854941,-0.46462592,-729.48096,-971.84094,8.231,-0.00010999999,-0.00030999997,2.13431
22.825,-980.51996,-3166.8098,318.75998,0.7386629,-0.1687957,0.5787586,-0.30153516,-599.60095,93.541,-387.841,-0.93290997,-5.9208097,0.27141002,1,-1,0,0,0,false,false,false,733.55,-4909.12,17,-0.004766302,0.00046125508,0.99397624,0.10949051,-1353.001,-36.330997,8.491,0.0012099999,0,-1.5612099,-0.2265625,1,0,0,0,false,false,false,-1304.89,-2854.0698,17.02,-0.0042106383,-0.0022631169,0.881328,-0.47248074,-695.67096,-957.7609,8.231,0.0017099999,-0.00091,2.09631
22.833334,-985.51996,-3166.03,315.47998,0.72552073,-0.15822187,0.59711176,-0.3033856,-599.441,93.510994,-393.151,-0.93290997,-5.9208097,0.27141002,1,-1,0,0,0,false,false,false,722.27997,-4909.42,17,-0.004760907,0.000488229,0.993243,0.11595346,-1346.491,-13.081,8.491,0.0010099999,0,-1.65141,-0.5234375,1,0,0,0,false,false,false,-1310.69,-2862.05,17.02,-0.004199849,-0.0023062755,0.87716615,-0.480163,-662.061,-943.05096,8.231,0.00261,-0.0012099999,2.06401
22.841667,-990.50995,-3165.25,312.16,0.7119251,-0.14754553,0.61509275,-0.30504724,-599.28094,93.480995,-398.461,-0.93290997,-5.9208097,0.27141002,1,-1,0,0,0,false,false,false,711.06,-4909.53,17,-0.004755513,0.000515203,0.9924219,0.12278337,-1339.521,10.681,8.491,0.00081,-0.00010999999,-1.74041,-1,1,0,0,0,false,false,false,-1316.21,-2869.91,17.02,-0.004189059,-0.0023494337,0.8730043,-0.48768872,-628.811,-927.631,8.231,0.00311,-0.0014099999,2.03511
22.85,-995.5,-3164.47,308.8,0.69788235,-0.13677745,0.63269055,-0.30652,-599.121,93.451,-403.771,-0.93290997,-5.9208097,0.27141002,1,-1,0,0,0,false,false,false,699.89996,-4909.44,17,-0.0047501177,0.0005475718,0.99150574,0.12997462,-1332.0709,34.931,8.491,0.00071,-0.00010999999,-1.82791,-1,1,0,0,0,false,false,false,-1321.45,-2877.64,17.02,-0.0041782698,-0.0023925921,0.8688373,-0.49507427,-596.05096,-911.48096,8.231,0.00331,-0.0014099999,2.00841
22.858334,-1000.49,-3163.69,305.38998,0.68340343,-0.12592311,0.6498947,-0.3077986,-598.96094,93.421,-409.081,-0.93290997,-5.9208097,0.27141002,1,-1,0,0,0,false,false,false,688.8,-4909.15,17,-0.0047447234,0.0005799406,0.99048716,0.13752197,-1324.111,59.641,8.491,0.00061,-0.00010999999,-1.91351,-1,1,0,0,0,false,false,false,-1326.4199,-2885.24,17.02,-0.00416748,-0.0024357503,0.8646654,-0.5023249,-563.871,-894.58093,8.231,0.00331,-0.0014099999,1.98311
22.866667,-1005.48,-3162.91,301.94,0.6684987,-0.1149932,0.66668874,-0.30888832,-598.80096,93.391,-414.391,-0.93290997,-5.9208097,0.27141002,1,-1,0,0,0,false,false,false,677.76996,-4908.65,17,-0.0047393283,0.0006177041,0.9893592,0.14541462,-1315.621,84.791,8.491,0.00040999998,-0.00010999999,-1.99681,-1,1,0,0,0,false,false,false,-1331.12,-2892.69,17.02,-0.00415669,-0.0024789087,0.86048573,-0.5094514,-532.35095,-876.92096,8.231,0.00321,-0.00131,1.9584099
22.875,-1010.47,-3162.13,298.44,0.65317476,-0.10399317,0.68306804,-0.30978385,-598.641,93.361,-419.701,-0.93290997,-5.9208097,0.27141002,1,-1,0,0,0,false,false,false,666.81,-4907.94,17,-0.0047339336,0.00065546774,0.988115,0.15364169,-1306.5709,110.340996,8.491,0.00030999997,-0.00010999999,-2.07761,-1,1,0,0,0,false,false,false,-1335.5599,-2900,17.02,-0.0041459007,-0.0025220672,0.8563012,-0.51645386,-501.561,-858.501,8.231,0.00301,-0.0012099999,1.93381
22.883333,-1015.45996,-3161.3499,294.9,0.6374434,-0.092923,0.69902074,-0.31048518,-598.48096,93.33099,-425.011,-0.93290997,-5.9208097,0.27141002,1,-1,0,0,0,false,false,false,655.92,-4907.02,17,-0.0047285384,0.0006932313,0.9867484,0.16218704,-1296.9309,136.27101,8.491,0.00021,-0.00010999999,-2.1556098,-1,1,0,0,0,false,false,false,-1339.74,-2907.15,17.02,-0.0041351104,-0.0025652254,0.85211134,-0.5233376,-471.501,-839.34094,8.231,0.00271,-0.00111,1.90991
22.891666,-1020.44995,-3160.5698,291.31,0.6213129,-0.08179889,0.7145368,-0.3109923,-598.321,93.300995,-430.311,-0.93290997,-5.9208097,0.27141002,1,-1,0,0,0,false,false,false,645.11,-4905.88,17,-0.004723144,0.0007363897,0.98525155,0.1710454,-1286.6809,162.55101,8.501,0.00010999999,-0.00010999999,-2.23051,-1,1,0,0,0,false,false,false,-1343.6699,-2914.14,17.02,-0.0041243215,-0.002602989,0.8479193,-0.5301028,-442.091,-819.46094,8.231,0.00241,-0.0010099999,1.88971
22.9,-1025.4299,-3159.79,287.68,0.60479397,-0.07062083,0.7296066,-0.3113052,-598.16095,93.270996,-435.611,-0.93290997,-5.9208097,0.27141002,1,-1,0,0,0,false,false,false,634.39,-4904.52,17,-0.0047177486,0.00077954796,0.98361915,0.18019494,-1275.8009,189.141,8.501,0,-0.00010999999,-2.30211,-1,1,0,0,0,false,false,false,-1347.35,-2920.97,17.02,-0.0041135317,-0.0026407526,0.8437208,-0.5367599,-413.431,-798.86096,8.231,0.00211,-0.00091,1.87131
22.908333,-1030.41,-3159.01,284.00998,0.5878975,-0.059399612,0.7442199,-0.31142387,-598.001,93.241,-440.911,-0.93290997,-5.9208097,0.27141002,1,-1,0,0,0,false,false,false,623.76,-4902.94,17,-0.004712355,0.0008227065,0.9818459,0.18961976,-1264.271,216.001,8.501,0,0,-2.37021,-1,1,0,0,0,false,false,false,-1350.7999,-2927.63,17.02,-0.0041027423,-0.0026785163,0.8395113,-0.54332006,-385.581,-777.55096,8.241,0.0018099999,-0.00081,1.85351
22.916666,-1035.39,-3158.23,280.29,0.57063407,-0.048140634,0.75836754,-0.31134838,-597.84094,93.211,-446.211,-0.93290997,-5.9208097,0.27141002,1,-1,0,0,0,false,false,false,613.22,-4901.1396,17,-0.004701565,0.00087125966,0.97992504,0.19930881,-1252.0609,243.101,8.501,-0.00010999999,0,-2.43471,-1,1,0,0,0,false,false,false,-1354.01,-2934.1099,17.02,-0.004086558,-0.0027162798,0.8352894,-0.5497885,-358.591,-755.54095,8.241,0.00151,-0.00061,1.83531
22.925,-1040.37,-3157.45,276.53,0.5530145,-0.036854677,0.77204055,-0.3110786,-597.68097,93.181,-451.511,-0.93290997,-5.9208097,0.27141002,1,-1,0,0,0,false,false,false,602.79,-4899.11,17,-0.004690775,0.00091981277,0.97785246,0.20924063,-1239.1609,270.401,8.501,-0.00010999999,0,-2.49541,-1,1,0,0,0,false,false,false,-1357,-2940.41,17.02,-0.004070374,-0.0027486489,0.8310608,-0.5561598,-332.511,-732.86096,8.241,0.00131,-0.00051,1.81591
22.933332,-1045.35,-3156.67,272.72,0.53504986,-0.025541749,0.785231,-0.31061468,-597.52094,93.151,-456.811,-0.93290997,-5.9208097,0.27141002,1,-1,0,0,0,false,false,false,592.45996,-4896.86,17,-0.004679986,0.000968366,0.9756247,0.21939373,-1225.5509,297.861,8.501,-0.00021,0,-2.5522099,-1,1,0,0,0,false,false,false,-1359.77,-2946.52,17.02,-0.004054189,-0.0027810175,0.8268275,-0.5624339,-307.381,-709.54095,8.241,0.00111,-0.00040999998,1.79461
22.941668,-1050.33,-3155.89,268.87,0.5167505,-0.014212631,0.79793084,-0.30995646,-597.36096,93.120995,-462.111,-0.93290997,-5.9208097,0.27141002,1,-1,0,0,0,false,false,false,582.25,-4894.38,17,-0.0046691964,0.0010169192,0.97323626,0.22975713,-1211.221,325.441,8.501,-0.00030999997,0,-2.60501,-1,1,0,0,0,false,false,false,-1362.33,-2952.43,17.02,-0.004038005,-0.0028133865,0.82259923,-0.56860024,-283.241,-685.60095,8.241,0.0010099999,-0.00030999997,1.77081
22.95,-1055.3099,-3155.1099,264.97,0.49812776,-0.0028781237,0.8101327,-0.3091041,-597.201,93.090996,-467.411,-0.93290997,-5.9208097,0.27141002,1,-1,0,0,0,false,false,false,572.16,-4891.67,17,-0.004658406,0.001070867,0.9706845,0.24030943,-1196.161,353.091,8.501,-0.00040999998,0,-2.65371,-1,1,0,0,0,false,false,false,-1364.69,-2958.14,17.02,-0.00402182,-0.0028457548,0.81838214,-0.57465315,-260.121,-661.08093,8.241,0.00091,-0.00010999999,1.74401
22.958334,-1060.2899,-3154.3298,261.03,0.47919193,0.008461737,0.8218296,-0.30805752,-597.04095,93.061,-472.701,-0.93290997,-5.9208097,0.27141002,1,-1,0,0,0,false,false,false,562.19,-4888.73,17,-0.0046476168,0.001124815,0.96796775,0.25102887,-1180.361,380.771,8.501,-0.00040999998,0,-2.69841,-1,1,0,0,0,false,false,false,-1366.86,-2963.65,17.02,-0.004005636,-0.0028781237,0.8141867,-0.580582,-238.041,-636.001,8.241,0.00081,0,1.71381
22.966667,-1065.26,-3153.55,257.05,0.4599594,0.019796288,0.8330119,-0.30681673,-596.881,93.031,-477.991,-0.93290997,-5.9208097,0.27141002,1,-1,0,0,0,false,false,false,552.35,-4885.56,17,-0.0046368265,0.0011787628,0.9650846,0.26189405,-1163.8209,408.431,8.501,-0.00040999998,0.00010999999,-2.73891,-1,1,0,0,0,false,false,false,-1368.84,-2968.95,17.02,-0.0039894516,-0.0029104925,0.81001985,-0.5863815,-217.031,-610.40094,8.241,0.00071,0.00010999999,1.6798099
22.975,-1070.23,-3152.77,253.01999,0.44043553,0.03111457,0.8436747,-0.30538708,-596.72095,93.001,-483.281,-0.93290997,-5.9208097,0.27141002,1,-1,0,0,0,false,false,false,542.64996,-4882.1597,17,-0.004620643,0.0012327109,0.9620337,0.27288866,-1146.5409,436.021,8.501,-0.00040999998,0.00021,-2.77531,-1,1,0,0,0,false,false,false,-1370.65,-2974.04,17.02,-0.0039678724,-0.0029428613,0.8058968,-0.5920353,-197.11101,-584.321,8.241,0.00061,0.00021,1.6417099
22.983334,-1075.2,-3152,248.95,0.42063656,0.04241675,0.85380924,-0.3037686,-596.561,92.971,-488.57098,-0.93290997,-5.9208097,0.27141002,1,-1,0,0,0,false,false,false,533.1,-4878.53,17,-0.0046044583,0.0012866588,0.9588133,0.28399664,-1128.521,463.501,8.501,-0.00051,0.00021,-2.80761,-1,1,0,0,0,false,false,false,-1372.2899,-2978.91,17.02,-0.003946293,-0.0029698352,0.80182934,-0.5975326,-178.291,-557.79095,8.241,0.00051,0.00030999997,1.59921
22.991667,-1080.1699,-3151.23,244.83,0.40057865,0.053691883,0.8634098,-0.301956,-596.40094,92.940994,-493.861,-0.93290997,-5.9208097,0.27141002,1,-0.09375,0,0,0,false,true,false,523.7,-4874.67,17,-0.0045882743,0.001340607,0.95542634,0.29519087,-1109.771,490.811,8.501,-0.00061,0.00030999997,-2.8359098,-1,1,0,0,0,false,false,false,-1373.78,-2983.5598,17.02,-0.003924714,-0.0029968093,0.7978296,-0.60286266,-160.58101,-530.86096,8.241,0.00051,0.00040999998,1.55221
23,-1085.14,-3150.46,240.67,0.3802671,0.064934716,0.8724721,-0.2999545,-596.24097,92.910995,-499.151,-0.93290997,-5.9208097,0.27141002,1,-0.046875,0,0,0,false,true,false,514.39996,-4870.54,17,-0.00457209,0.0013999497,0.9518713,0.30646068,-1104.261,516.99097,8.431,-0.00251,0.0017099999,-2.62141,-1,1,0,0,0,false,false,false,-1375.12,-2987.98,17.02,-0.0039031352,-0.0030237834,0.79391444,-0.6080094,-144.001,-503.551,8.241,0.00051,0.00051,1.50041
23.008333,-1090.11,-3149.69,236.47,0.3597183,0.07613432,0.8809878,-0.29776964,-596.081,92.881,-504.441,-0.93290997,-5.9208097,0.27141002,1,-0.046875,0,0,0,false,true,false,505.13998,-4866.19,17,-0.00455051,0.0014592923,0.9484667,0.31684023,-1097.591,543.811,8.3810005,-0.00351,0.00241,-2.4265099,-1,1,0,0,0,false,false,false,-1376.32,-2992.18,17.02,-0.003881556,-0.0030507573,0.79009706,-0.6129618,-128.541,-475.911,8.241,0.00051,0.00061,1.44371
23.016666,-1095.08,-3148.92,232.22,0.33894283,0.08728544,0.8889545,-0.29539588,-595.92096,92.851,-509.721,-0.93290997,-5.9208097,0.27141002,1,0.03937008,0,0,0,false,true,false,495.94,-4861.62,17,-0.004528932,0.00152403,0.94521594,0.32641074,-1089.991,570.941,8.351,-0.00391,0.00281,-2.2462099,-1,1,0,0,0,false,false,false,-1377.39,-2996.15,17.02,-0.0038599768,-0.0030777312,0.78639525,-0.6177038,-114.181,-447.961,8.241,0.00040999998,0.00061,1.38251
23.025,-1100.0399,-3148.15,227.93,0.31795698,0.09838254,0.8963646,-0.29283875,-595.761,92.821,-515.001,-0.93290997,-5.9208097,0.27141002,1,0.07874016,0,0,0,false,true,false,486.8,-4856.82,17,-0.004507352,0.0015833727,0.9421199,0.33524197,-1082.341,597.49097,8.331,-0.00411,0.00301,-2.05141,-1,1,0,0,0,false,false,false,-1378.34,-2999.88,17.02,-0.0038437918,-0.003104705,0.782823,-0.62222457,-100.861,-419.711,8.241,0.00040999998,0.00061,1.3178099
23.033333,-1105,-3147.38,223.59,0.29677153,0.109420374,0.9032147,-0.29009816,-595.60095,92.791,-520.28094,-0.93290997,-5.9208097,0.27141002,1,0.07874016,0,0,0,false,true,false,477.72998,-4851.8,17,-0.004485773,0.0016427154,0.9392208,0.34328032,-1074.361,623.77094,8.311,-0.00411,0.00311,-1.85991,-1,1,0,0,0,false,false,false,-1379.1799,-3003.38,17.02,-0.003827608,-0.0031262843,0.77939475,-0.62651354,-88.611,-391.211,8.241,0.00030999997,0.00071,1.24841
23.041666,-1109.96,-3146.6099,219.20999,0.27540264,0.120387994,0.9095004,-0.28717417,-595.441,92.760994,-525.561,-0.93290997,-5.9208097,0.27141002,1,0.1496063,0,0,0,false,true,false,468.72,-4846.56,17,-0.0044641937,0.0016966634,0.93653286,0.3505471,-1065.9309,649.92096,8.301001,-0.00381,0.00301,-1.68301,-0.7109375,1,0,0,0,false,false,false,-1379.9199,-3006.64,17.02,-0.0038114234,-0.0031478636,0.77612495,-0.6305596,-77.451,-362.491,8.241,0.00021,0.00081,1.17371
23.05,-1114.9199,-3145.8398,214.79,0.25386113,0.13128017,0.9152174,-0.28407216,-595.28094,92.730995,-530.84094,-0.93290997,-5.9208097,0.27141002,1,0.1496063,0,0,0,false,true,false,459.78998,-4841.1,17,-0.0044480097,0.0017452167,0.93405116,0.3571072,-1057.841,675.201,8.291,-0.00361,0.00291,-1.4959099,-0.2890625,1,0,0,0,false,false,false,-1380.57,-3009.66,17.02,-0.0037952394,-0.003169443,0.7730327,-0.63434684,-67.370995,-333.591,8.241,0.00010999999,0.00091,1.09321
23.058332,-1119.88,-3145.0698,210.31999,0.23216325,0.14209132,0.92036176,-0.28079206,-595.121,92.701,-536.121,-0.93290997,-5.9208097,0.27141002,1,0.18110237,0,0,0,false,true,false,450.91998,-4835.4297,17,-0.004431824,0.0017937695,0.9318068,0.36292273,-1049.601,700.141,8.281,-0.00321,0.00271,-1.32431,0.047244094,1,0,0,0,false,false,false,-1381.13,-3012.44,17.02,-0.0037790549,-0.0031910222,0.7701373,-0.6378589,-58.181,-333.651,8.241,-0.0016099999,-0.00010999999,1.16281
23.066668,-1124.84,-3144.3,205.81,0.21031968,0.1528109,0.92493093,-0.27733946,-594.96094,92.671,-541.40094,-0.93290997,-5.9208097,0.27141002,1,0.22834645,0,0,0,false,true,false,442.12,-4829.55,17,-0.0044156406,0.0018369281,0.9297902,0.3680587,-1041.6909,724.29095,8.271,-0.00281,0.00241,-1.15521,0.48031497,1,0,0,0,false,false,false,-1381.61,-3015.22,17.02,-0.0037574756,-0.0032018116,0.7670391,-0.64158124,-49.740997,-338.111,8.241,-0.00281,-0.00091,1.24751
23.075,-1129.7999,-3143.53,201.25,0.18834119,0.16343863,0.9289219,-0.27371413,-594.80096,92.641,-546.68097,-0.93290997,-5.9208097,0.27141002,1,0.2519685,0,0,0,false,true,false,433.38998,-4823.4697,17,-0.0043994565,0.0018746918,0.92800736,0.37253103,-1034.381,747.46094,8.271,-0.00241,0.00211,-0.98431,0.87401575,1,0,0,0,false,false,false,-1382.02,-3018.04,17.02,-0.003735896,-0.003207206,0.7636959,-0.64555717,-41.850998,-346.571,8.241,-0.00361,-0.0016099999,1.34531
23.083334,-1134.76,-3142.76,196.65,0.16624941,0.17396396,0.9323319,-0.26991615,-594.641,92.611,-551.951,-0.93290997,-5.9208097,0.27141002,1,0.27559054,0,0,0,false,true,false,424.72,-4817.19,17,-0.0043886667,0.0019070605,0.92647153,0.3763343,-1027.591,769.761,8.271,-0.00201,0.0018099999,-0.82050997,0.4488189,1,0,0,0,false,false,false,-1382.37,-3020.93,17.02,-0.0037143172,-0.0032126012,0.7600637,-0.6498299,-34.661,-350.671,8.241,-0.00361,-0.0018099999,1.4104099
23.091667,-1139.71,-3141.99,192.01,0.14404973,0.18438132,0.93515944,-0.26595098,-594.49097,92.58099,-557.22095,-0.93290997,-5.9208097,0.27141002,1,0.2913386,0,0,0,false,true,false,416.11,-4810.73,17,-0.0043778773,0.0019340345,0.9251789,0.3795011,-1021.47095,791.10095,8.271,-0.0016099999,0.00151,-0.66321,0.12598425,1,0,0,0,false,false,false,-1382.6599,-3023.8499,17.02,-0.003692738,-0.0032179959,0.7562312,-0.654286,-28.040998,-351.481,8.231,-0.00331,-0.0016099999,1.45121
23.1,-1144.66,-3141.22,187.31999,0.12176375,0.19468006,0.9374029,-0.26181856,-594.34094,92.550995,-562.49097,-0.93290997,-5.9208097,0.27141002,1,0.2992126,0,0,0,false,true,false,407.55,-4804.09,17,-0.0043670875,0.0019556135,0.9241258,0.3820582,-1016.1409,811.40094,8.271,-0.0012099999,0.0012099999,-0.51241,-0.6015625,1,0,0,0,false,false,false,-1382.89,-3026.78,17.02,-0.0036711588,-0.0032233908,0.752263,-0.6588447,-23.520998,-322.411,8.231,-0.0012099999,-0.00010999999,1.32821
