time,ball_loc_x,ball_loc_y,ball_loc_z,ball_rot_x,ball_rot_y,ball_rot_z,ball_rot_w,ball_vel_x,ball_vel_y,ball_vel_z,ball_ang_x,ball_ang_y,ball_ang_z,player0_throttle,player0_steer,player0_pitch,player0_yaw,player0_roll,player0_jump,player0_boost,player0_handbrake,player0_loc_x,player0_loc_y,player0_loc_z,player0_rot_x,player0_rot_y,player0_rot_z,player0_rot_w,player0_vel_x,player0_vel_y,player0_vel_z,player0_ang_x,player0_ang_y,player0_ang_z,player1_throttle,player1_steer,player1_pitch,player1_yaw,player1_roll,player1_jump,player1_boost,player1_handbrake,player1_loc_x,player1_loc_y,player1_loc_z,player1_rot_x,player1_rot_y,player1_rot_z,player1_rot_w,player1_vel_x,player1_vel_y,player1_vel_z,player1_ang_x,player1_ang_y,player1_ang_z
25.5,3917.25,-1438.9199,327.1,-0.1987909,0.51034147,0.8077393,-0.21815288,-317.051,-525.871,-192.351,-0.97051,-0.70491,5.2024097,1,1,0,0,0,false,false,false,3057.98,-3562.51,17.01,-0.0014916611,0.004523536,0.30975688,0.9508038,690.65094,-160.741,8.401,-0.00010999999,-0.00030999997,2.7225099,1,-1,1,-1,0,false,false,false,4040.94,-1168.16,316.78,0.2163133,0.829484,0.037070513,-0.5136055,43.551,-288.531,193.541,1.6704099,2.44401,2.3998098
25.516666,3911.97,-1447.6799,323.75998,-0.22369339,0.50903064,0.79219353,-0.25155222,-316.891,-525.59094,-203.071,-0.97051,-0.70491,5.2024097,1,1,0,0,0,false,false,false,3069.3499,-3564.95,17.01,-0.0015941623,0.004491168,0.33114737,0.943567,656.061,-103.440994,8.401,0,-0.00021,2.6716099,1,-1,1,-1,0,false,false,false,4041.66,-1172.96,319.88,0.19304004,0.8229758,0.035166144,-0.53311306,43.130997,-288.181,183.671,1.81821,2.24031,2.3352098
25.533333,3906.69,-1456.44,320.24,-0.24815346,0.50671625,0.7750765,-0.2844552,-316.731,-525.311,-213.791,-0.97051,-0.70491,5.2024097,1,1,0,0,0,false,false,false,3080.14,-3566.44,17.01,-0.0016912688,0.0044534043,0.35198215,0.93599457,619.621,-48.100998,8.411,0,-0.00021,2.62831,1,-1,1,-1,0,false,false,false,4042.38,-1177.76,322.82,0.16930826,0.81638646,0.03484785,-0.55102926,42.731,-287.871,173.821,1.96821,2.05341,2.27041
25.55,3901.41,-1465.2,316.53998,-0.27211726,0.5033984,0.7564269,-0.31679714,-316.571,-525.03094,-224.511,-0.97051,-0.70491,5.2024097,1,1,0,0,0,false,false,false,3090.3098,-3567.02,17.01,-0.001788375,0.0044102455,0.372326,0.92808974,581.66095,5.061,8.411,0,-0.00010999999,2.59351,1,-1,1,-1,0,false,false,false,4043.0798,-1182.5599,325.6,0.14511251,0.8097159,0.03607787,-0.56745106,42.361,-287.611,164.001,2.12021,1.88251,2.2053099
25.566668,3896.13,-1473.94,312.66,-0.29554152,0.49908257,0.7362838,-0.34850785,-316.411,-524.751,-235.22101,-0.97051,-0.70491,5.2024097,1,1,0,0,0,false,false,false,3099.8499,-3566.72,17.01,-0.0018854813,0.0043670875,0.39224365,0.919849,542.54095,55.850998,8.411,0,0,2.56751,1,-1,1,-1,0,false,false,false,4043.78,-1187.35,328.22,0.120458126,0.80295503,0.03881303,-0.58244866,42.010998,-287.401,154.201,2.27381,1.72671,2.1398098
25.583334,3890.8499,-1482.6799,308.61,-0.3183832,0.49377945,0.7146805,-0.37953344,-316.251,-524.47095,-245.921,-0.97051,-0.70491,5.2024097,1,1,0,0,0,false,false,false,3108.73,-3565.5798,17.01,-0.0019825876,0.0043239295,0.4117945,0.9112643,502.691,104.120995,8.411,0.00010999999,0,2.54961,1,-1,1,-1,0,false,false,false,4044.48,-1192.13,330.66,0.09533987,0.796066,0.043015573,-0.59610295,41.681,-287.241,144.41101,2.42891,1.58521,2.07391
25.6,3885.5898,-1491.4199,304.38,-0.34059903,0.48749447,0.69166297,-0.4098091,-316.091,-524.191,-256.621,-0.97051,-0.70491,5.2024097,1,1,0,0,0,false,false,false,3116.94,-3563.65,17.01,-0.0020689042,0.0042807707,0.4310378,0.9023213,462.531,149.741,8.411,0.00010999999,0.00010999999,2.53811,1,-1,1,-1,0,false,false,false,4045.17,-1196.91,332.94,0.06975767,0.7890211,0.048642352,-0.6084517,41.380997,-287.131,134.631,2.58511,1.45751,2.0076098
25.616667,3880.3298,-1500.1599,299.97,-0.3621352,0.48024935,0.66727823,-0.4392703,-315.931,-523.91095,-267.321,-0.97051,-0.70491,5.2024097,1,1,0,0,0,false,false,false,3124.48,-3560.97,17.01,-0.0021552208,0.004237612,0.45000586,0.89301276,422.561,192.631,8.411,0.00010999999,0.00010999999,2.5306098,1,-1,1,-1,0,false,false,false,4045.8499,-1201.69,335.06,0.043706108,0.78176093,0.055666458,-0.6195488,41.100998,-287.081,124.870995,2.74221,1.34271,1.94111
25.633333,3875.0698,-1508.88,295.38,-0.38295916,0.47205457,0.64156926,-0.4678628,-315.771,-523.631,-278.001,-0.97051,-0.70491,5.2024097,1,0.992126,0,0,0,false,false,false,3131.3599,-3557.5798,17.01,-0.0022415377,0.004194454,0.46872595,0.88333076,383.251,232.741,8.411,0.00010999999,0.00010999999,2.52441,1,-1,1,-1,0,false,false,false,4046.53,-1206.47,337.02,0.01718521,0.77423364,0.064049974,-0.629416,40.841,-287.091,115.111,2.89991,1.24031,1.87431
25.65,3869.8098,-1517.6,290.61,-0.40302786,0.46292114,0.6145934,-0.49552742,-315.611,-523.35095,-288.681,-0.97051,-0.70491,5.2024097,1,0.9527559,0,0,0,false,false,false,3137.5798,-3553.54,17.01,-0.0023278545,0.0041512954,0.48718163,0.8732876,345.241,270.121,8.401,0.00010999999,0,2.5141098,1,-1,1,-1,0,false,false,false,4047.21,-1211.25,338.82,-0.009799688,0.76637113,0.0737552,-0.6380746,40.611,-287.161,105.351,3.05811,1.1497099,1.80751
25.666666,3864.5498,-1526.32,285.66998,-0.42229816,0.45287594,0.58639437,-0.52221555,-315.451,-523.071,-299.361,-0.97051,-0.70491,5.2024097,1,0.9133858,0,0,0,false,false,false,3143.19,-3548.89,17.01,-0.0024141714,0.004097348,0.50531906,0.86291945,309.531,304.971,8.391,0,0,2.4860098,1,-1,1,1,0,false,false,false,4047.89,-1216.03,340.46,-0.037243105,0.75810415,0.0847445,-0.6455303,40.400997,-287.29102,95.590996,3.2165098,1.07031,1.74071
25.683332,3859.2898,-1535.0399,280.55,-0.44072685,0.4419299,0.55704427,-0.5478679,-315.291,-522.79095,-310.041,-0.97051,-0.70491,5.2024097,1,1,0,0,0,false,false,false,3148.21,-3543.67,17.01,-0.002500488,0.0040433994,0.5230032,0.85231733,276.401,337.431,8.3810005,0,-0.00010999999,2.4388099,1,-1,1,1,0,false,false,false,4048.5698,-1220.82,341.94,-0.06366694,0.7496528,0.09578224,-0.6517613,40.211,-287.481,85.831,3.07281,0.95791,1.61571
25.7,3854.03,-1543.75,275.25,0.458287,-0.43011525,-0.52658534,0.5724348,-315.131,-522.511,-320.701,-0.97051,-0.70491,5.2024097,1,1,0,0,0,false,false,false,3152.67,-3537.92,17.01,-0.0025868048,0.0039894516,0.5402072,0.8415185,243.36101,367.401,8.3810005,0,0,2.42981,1,-1,1,1,1,false,false,false,4049.23,-1225.62,343.24,-0.08852625,0.74169594,0.106474824,-0.65628755,40.051,-287.731,76.061,2.9272099,0.78131,1.4780099
25.716667,3848.78,-1552.45,269.77,0.47494075,-0.41744283,-0.49508503,0.595872,-314.971,-522.23096,-331.361,-0.97051,-0.70491,5.2024097,1,1,0,0,0,false,false,false,3156.5999,-3531.68,17.01,-0.002662332,0.0039355042,0.5571039,0.8304292,212.761,395.291,8.371,0,0,2.41171,1,-1,1,1,1,false,false,false,4049.89,-1230.4199,344.38,-0.10924234,0.73394644,0.11974062,-0.6595838,39.911,-288.04102,66.281,2.8575099,0.78381,0.74290997
25.733334,3843.5398,-1561.15,264.11,0.49065048,-0.40394497,-0.46260825,0.6181295,-314.811,-521.951,-342.021,-0.97051,-0.70491,5.2024097,1,1,0,0,0,false,false,false,3160.02,-3524.98,17.01,-0.002737859,0.0038815557,0.57364434,0.8190906,184.351,421.371,8.361,0,0,2.3900099,1,-1,1,1,1,false,false,false,4050.5498,-1235.22,345.36,-0.12517323,0.72636765,0.13627037,-0.66193056,39.791,-288.401,56.481,2.77231,0.80250996,0.060609996
25.75,3838.2998,-1569.85,258.28,0.5053891,-0.38964877,-0.42921433,0.639164,-314.651,-521.67096,-352.671,-0.97051,-0.70491,5.2024097,1,1,0,0,0,false,false,false,3162.99,-3517.8599,17.01,-0.0028133863,0.003827608,0.5898072,0.80753,158.461,445.57098,8.361,0,0,2.3684099,1,-1,1,1,1,false,false,false,4051.21,-1240.03,346.18,-0.13656168,0.7189877,0.15573487,-0.66344106,39.681,-288.811,46.661,2.6735098,0.83401,-0.57271
25.766666,3833.0598,-1578.5399,252.26999,0.5191296,-0.37458098,-0.394968,0.65893364,-314.491,-521.391,-363.311,-0.97051,-0.70491,5.2024097,1,1,0,0,0,false,false,false,3165.53,-3510.3398,17.01,-0.0028889135,0.0037736602,0.60559785,0.79575664,134.641,468.10098,8.351,0,0,2.3489099,1,-1,1,1,1,false,false,false,4051.8699,-1244.85,346.84,-0.14363429,0.71179795,0.17782125,-0.6641478,39.580997,-289.261,36.830997,2.56271,0.87571,-1.16081
25.783333,3827.8198,-1587.22,246.08,0.5318399,-0.35877416,-0.35993946,0.67740005,-314.331,-521.11096,-373.951,-0.97051,-0.70491,5.2024097,0,-0.0546875,0,0,0,false,false,false,3167.68,-3502.45,17.01,-0.0029644405,0.003719712,0.621027,0.7837747,112.251,489.221,8.351,0,0,2.33251,1,-1,1,1,1,false,false,false,4052.53,-1249.6699,347.33,-0.14659064,0.7047419,0.20222199,-0.6640453,39.481,-289.751,26.980999,2.44121,0.92551,-1.7070099
25.8,3822.5798,-1595.9,239.72,0.5434981,-0.34225526,-0.32419878,0.69452584,-314.171,-520.831,-384.591,-0.97051,-0.70491,5.2024097,0,-0.1328125,0,0,0,false,false,false,3169.55,-3494.3298,17.01,-0.0030453624,0.0036603692,0.63496184,0.7725287,109.321,480.611,8.331,-0.0019099999,-0.00441,1.67201,1,-1,0.8582677,-1,0,false,false,false,4053.19,-1254.51,347.65,-0.14560339,0.6977349,0.22865658,-0.663085,39.380997,-290.281,17.110998,2.31021,0.98210996,-2.21471
25.816668,3817.3398,-1604.58,233.18,0.5540827,-0.32506195,-0.28781617,0.71027374,-314.011,-520.55096,-395.221,-0.97051,-0.70491,5.2024097,0,-0.203125,0,0,0,false,false,false,3171.3499,-3486.3499,17.01,-0.0031316795,0.0036010267,0.6447858,0.7643483,103.881,472.251,8.321,-0.00201,-0.00471,1.15951,1,-1,0.6062992,-1,0,false,false,false,4053.8499,-1259.35,347.81,-0.14481036,0.6912211,0.255334,-0.66033906,39.281,-290.851,7.2209997,2.42501,0.70741,-2.1328099
25.833334,3812.0999,-1613.26,226.45999,0.5635722,-0.30722132,-0.25086707,0.72461504,-313.851,-520.27094,-405.841,-0.97051,-0.70491,5.2024097,0,-0.25,0,0,0,false,false,false,3173.0598,-3478.51,17.01,-0.0032018116,0.0035524734,0.6514376,0.758687,98.131,463.791,8.321,-0.0016099999,-0.00351,0.74681,1,-1,0.7322835,-1,0,false,false,false,4054.51,-1264.21,347.81,-0.14553867,0.6851515,0.28172007,-0.65575886,39.181,-291.441,-2.6809998,2.54041,0.48081,-2.04531
25.85,3806.88,-1621.9199,219.56,0.571945,-0.28877646,-0.21342164,0.73752165,-313.691,-519.99097,-416.461,-0.97051,-0.70491,5.2024097,0,-0.2890625,0,0,0,false,false,false,3174.68,-3470.8098,17.01,-0.0032503647,0.0035254993,0.6555916,0.7551003,92.651,455.261,8.321,-0.00111,-0.00201,0.42171,1,-1,0.8267717,-1,0,false,false,false,4055.17,-1269.07,347.63998,-0.14765342,0.6795556,0.30789027,-0.649312,39.060997,-292.071,-12.611,2.64541,0.23460999,-1.99551
25.866667,3801.66,-1630.58,212.48999,0.5791848,-0.26975968,-0.17555003,0.74897045,-313.531,-519.71094,-427.081,-0.97051,-0.70491,5.2024097,0,-0.3046875,0,0,0,false,false,false,3176.2,-3463.26,17.01,-0.0032773386,0.003509315,0.6578089,0.7531695,87.961,446.631,8.321,-0.00061,-0.00061,0.16611,1,-1,0.9133858,-1,0,false,false,false,4055.9,-1273.9199,347.33,-0.15100902,0.6741925,0.33411986,-0.6411119,50.141,-285.951,-15.491,2.89431,0.048809998,-1.9808099
25.883333,3796.44,-1639.24,205.23999,0.5852756,-0.25020894,-0.13733314,0.75893843,-313.371,-519.43097,-437.681,-0.97051,-0.70491,5.2024097,0,-0.3125,0,0,0,false,false,false,3177.65,-3455.8499,17.01,-0.0032827337,0.0035093152,0.6585265,0.75254214,84.020996,437.981,8.321,-0.00030999997,0.00051,-0.026109999,1,-1,1,-1,0,false,false,false,4056.97,-1278.6599,346.97,-0.15565394,0.6680217,0.36093208,-0.6318598,70.331,-280.351,-18.901,3.0824099,-0.01751,-1.94861
25.9,3791.22,-1647.8999,197.81,0.59020644,-0.23016177,-0.09884114,0.7674061,-313.211,-519.15094,-448.281,-0.97051,-0.70491,5.2024097,0,-0.3203125,0,0,0,false,false,false,3179.04,-3448.5898,17.01,-0.0032773386,0.0035201046,0.65812176,0.7528961,80.921,429.281,8.321,-0.00010999999,0.0012099999,-0.16770999,1,-1,0.9448819,-1,0,false,false,false,4058.3699,-1283.32,346.55,-0.16158289,0.66100985,0.38812205,-0.62154496,87.741,-275.831,-22.700998,3.24841,-0.10331,-1.81111
25.916666,3786,-1656.5399,190.20999,0.5939721,-0.20966147,-0.06015489,0.7743517,-313.051,-518.871,-458.881,-0.97051,-0.70491,5.2024097,0,-0.3125,0,0,0,false,false,false,3180.3699,-3441.47,17.01,-0.0032665492,0.0035308944,0.65688646,0.75397414,78.741,420.501,8.321,0,0.0016099999,-0.27221,1,-1,0.8582677,-1,0,false,false,false,4060.03,-1287.9,346.07,-0.16974519,0.6531061,0.4144973,-0.6105988,96.421,-272.731,-27.440998,3.37091,-0.25491002,-1.37281
25.933332,3780.78,-1665.1799,182.43,0.5965615,-0.18874575,-0.021355385,0.77976483,-312.891,-518.59094,-469.471,-0.97051,-0.70491,5.2024097,0,-0.3046875,0,0,0,false,false,false,3181.68,-3434.5,17.01,-0.0032449698,0.0035524734,0.6550521,0.75556827,77.151,411.701,8.321,0,0.0019099999,-0.34181002,1,-1,0.61417323,-1,0,false,false,false,4061.7998,-1292.4299,345.5,-0.18165155,0.6443821,0.43827763,-0.5997391,98.711,-271.131,-33.551,3.4430099,-0.48301,-0.72301
25.95,3775.5598,-1673.82,174.47,0.59796953,-0.1674578,0.017487315,0.7836353,-312.731,-518.311,-480.051,-0.97051,-0.70491,5.2024097,0,-0.296875,0,0,0,false,false,false,3182.96,-3427.68,17.01,-0.0032233908,0.0035740524,0.6528187,0.7574988,76.101,402.861,8.321,0,0.0019099999,-0.38631,1,-1,0.2992126,-1,0,false,false,false,4063.5898,-1296.95,344.83,-0.19831076,0.6350755,0.45816833,-0.5894349,97.361,-270.801,-41.111,3.4697099,-0.78420997,0.041109998
25.966667,3770.3499,-1682.46,166.34,0.5982015,-0.14583537,0.05629765,0.78595,-312.571,-518.03094,-490.63098,-0.97051,-0.70491,5.2024097,0,-0.28125,0,0,0,false,false,false,3184.22,-3421,17.01,-0.0032018116,0.0035956316,0.6503316,0.7596351,75.501,393.971,8.321,0,0.0019099999,-0.41261,1,-1,0.7401575,-1,0,false,false,false,4065.26,-1301.47,344.02,-0.22143835,0.6255256,0.4722703,-0.5802098,78.861,-271.451,-50.080997,3.41941,-1.37431,1.37401
25.983334,3765.15,-1691.09,158.03,0.5972467,-0.123927034,0.09499461,0.78671116,-312.411,-517.751,-501.211,-0.97051,-0.70491,5.2024097,0,-0.265625,0,0,0,false,false,false,3185.48,-3414.47,17.01,-0.0031802326,0.003617211,0.647699,0.76188105,75.120995,385.07098,8.321,0,0.0018099999,-0.42231,1,-1,1,-1,0,false,false,false,4066.71,-1306,343.06,-0.25214025,0.61594987,0.47918653,-0.5721985,79.131,-273.531,-60.181,3.37521,-1.72541,2.05381
26,3759.95,-1699.71,149.55,0.59510493,-0.10177051,0.13350283,0.78591967,-312.251,-517.47095,-511.781,-0.97051,-0.70491,5.2024097,0,-0.25,0,0,0,false,false,false,3186.73,-3408.0898,17.01,-0.0031586532,0.00363879,0.64501774,0.7641523,74.870995,376.161,8.321,0,0.0016099999,-0.42021,1,-1,1,-1,0,false,false,false,4068.21,-1310.57,341.91998,-0.2864189,0.6060631,0.48189473,-0.5642951,89.131,-276.721,-71.061,3.32691,-1.9161099,2.38361
26.016666,3754.75,-1708.33,140.89,0.5917871,-0.07941439,0.1717521,0.7835703,-312.091,-517.191,-522.34094,-0.97051,-0.70491,5.2024097,0,-0.234375,0,0,0,false,false,false,3187.97,-3401.8599,17.01,-0.003137074,0.0036603692,0.6423581,0.76638937,74.681,367.251,8.321,0,0.0014099999,-0.41001,1,-1,1,-1,0,false,false,false,4069.9,-1315.2,340.6,-0.32218653,0.5956381,0.48197025,-0.5559817,100.531,-279.821,-81.961,3.3001099,-1.97561,2.60271
26.033333,3749.5498,-1716.95,132.05,0.58729863,-0.056901824,0.20966142,0.77966946,-311.931,-516.91095,-532.90094,-0.97051,-0.70491,5.2024097,0,-0.21875,0,0,0,false,false,false,3189.21,-3395.78,17.01,-0.003115495,0.0036819486,0.6397633,0.76855683,74.480995,358.351,8.321,0,0.0012099999,-0.39421,1,-1,1,1,0,false,false,false,4071.76,-1319.87,339.1,-0.358321,0.583738,0.48039496,-0.5477924,108.461,-290.081,-87.050995,3.3145099,-1.7409099,2.80091
26.05,3744.3499,-1725.57,123.04,0.5816502,-0.034275964,0.24715003,0.77422535,-311.771,-516.631,-543.46094,-0.97051,-0.70491,5.2024097,0,-0.203125,0,0,0,false,false,false,3190.45,-3389.8398,17.01,-0.0030939155,0.0037035276,0.6372708,0.7706247,74.211,349.461,8.321,0,0.0010099999,-0.37471,1,-1,1,1,0,false,true,true,4073.75,-1324.78,337.56,-0.39375958,0.56900465,0.47815073,-0.540887,108.811,-311.241,-83.190994,3.20401,-1.33601,2.7887099
26.066668,3739.15,-1734.1699,113.85,0.5748474,-0.011585367,0.2841531,0.76725036,-311.611,-516.35095,-554.001,-0.97051,-0.70491,5.2024097,0,-0.1875,0,0,0,false,false,false,3191.69,-3384.0498,17.01,-0.0030777315,0.0037197121,0.63490254,0.7725771,73.840996,340.591,8.321,0,0.00071,-0.35261,1,-1,1,1,0,false,true,true,4075.63,-1330.27,336.16,-0.42531386,0.5528831,0.476651,-0.5350067,91.701,-350.571,-73.690994,2.98701,-0.96401,2.29121
26.083334,3733.95,-1742.77,104.49,0.5669062,0.011126851,0.32058972,0.75875926,-311.451,-516.071,-564.54095,-0.97051,-0.70491,5.2024097,0,-0.171875,0,0,0,false,false,false,3192.92,-3378.41,17.01,-0.0030669416,0.0037305015,0.63266903,0.77440715,73.340996,331.741,8.321,0.00010999999,0.00051,-0.32881,1,-1,1,-1,0,false,true,true,4077.2,-1336.4099,334.88998,-0.4516082,0.53732175,0.47726598,-0.5287271,69.311,-388.381,-68.511,2.8085098,-0.68341,1.68781
26.1,3728.77,-1751.37,94.95,0.5578429,0.033817448,0.35639507,0.74876565,-311.291,-515.811,-575.081,-0.97051,-0.70491,5.2024097,0,-0.15625,0,0,0,false,false,false,3194.14,-3372.92,17.01,-0.003056152,0.0037412911,0.6305867,0.7761037,72.690994,322.931,8.321,0.00010999999,0.00051,-0.30391002,1,-1,1,1,1,false,true,true,4078.39,-1343.1699,333.68,-0.47304723,0.52307487,0.4803572,-0.5214171,46.150997,-424.541,-68.300995,2.67501,-0.46341,1.11911
26.116667,3724.17,-1758.5299,93.92,0.55921316,0.043085705,0.39676988,0.7266345,-240.61101,-342.941,348.121,3.2499099,-2.28021,4.4987097,0,-0.1484375,0,0,0,false,false,false,3195.3499,-3367.5798,17.01,-0.0030453624,0.0037520807,0.62866604,0.77766025,71.881,314.141,8.321,0.00010999999,0.00040999998,-0.27861002,1,-1,1,1,1,false,true,true,4079.2,-1350.53,332.44998,0.4904239,-0.51021206,-0.48581135,0.5129866,25.310999,-458.921,-72.921,2.58431,-0.28071,0.64691
26.133333,3720.17,-1764.25,99.59,0.56903726,0.039444223,0.43528894,0.6965373,-240.47101,-342.761,337.101,3.2499099,-2.28021,4.4987097,0,-0.1328125,0,0,0,false,false,false,3196.55,-3362.38,17.01,-0.0030345728,0.0037628703,0.6269019,0.7790831,71.031,305.351,8.321,0.00010999999,0.00030999997,-0.25611,1,-1,1,-1,1,false,true,false,4079.6099,-1358.45,331.12,0.50384164,-0.49910417,-0.4940546,0.5029399,-3.1609998,-491.411,-81.760994,2.53391,-0.02221,-0.022809999
26.15,3716.17,-1769.96,105.07,0.57743686,0.035705626,0.47272348,0.66469854,-240.341,-342.581,326.091,3.2499099,-2.28021,4.4987097,0,-0.125,0,0,0,false,false,false,3197.73,-3357.3298,17.01,-0.0030237832,0.00377366,0.6252781,0.7803869,69.971,296.621,8.321,0.00021,0.00021,-0.23270999,1,-1,1,1,1,false,true,true,4079.65,-1366.9099,329.61,0.51409215,-0.48871374,-0.5046662,0.49211785,-11.391,-522.871,-94.08099,2.50021,0.06861,-0.049409997
26.166666,3712.17,-1775.6599,110.369995,0.58439076,0.031875234,0.5089713,0.6312048,-240.22101,-342.401,315.091,3.2499099,-2.28021,4.4987097,0,-0.109375,0,0,0,false,false,false,3198.89,-3352.42,17.01,-0.0030129936,0.0037844495,0.6237999,0.781569,68.840996,287.901,8.321,0.00021,0.00010999999,-0.21211,1,-1,1,1,1,false,true,true,4079.5798,-1375.89,327.88,0.5237383,-0.4780267,-0.5152077,0.48140383,-13.801,-552.59094,-110.010994,2.48981,0.06431,-0.03611
26.183332,3708.17,-1781.36,115.479996,0.58988273,0.027969405,0.5439513,0.5961316,-240.101,-342.221,304.091,3.2499099,-2.28021,4.4987097,0,-0.1015625,0,0,0,false,false,false,3200.03,-3347.66,17.01,-0.003002204,0.0037844495,0.6224566,0.7826393,67.501,279.231,8.321,0.00021,0,-0.19040999,1,-1,1,1,1,false,true,false,4079.48,-1385.35,325.87,0.53322375,-0.4671237,-0.52542007,0.4705332,-14.231,-580.36096,-128.751,2.4999099,0.055409998,-0.02491
26.2,3704.17,-1787.0599,120.409996,0.59389997,0.02399344,0.5775771,0.5595638,-239.981,-342.041,293.091,3.2499099,-2.28021,4.4987097,0,-0.09375,0,0,0,false,false,false,3201.15,-3343.04,17.01,-0.0029914142,0.003784449,0.6212481,0.7835989,66.090996,270.571,8.321,0.00010999999,0,-0.17131,1,-1,1,1,1,false,true,false,4079.38,-1395.27,323.53,0.5426067,-0.45595106,-0.53537345,0.4594145,-13.731,-606.83093,-150.391,2.51841,0.04581,-0.01661
26.216667,3700.17,-1792.76,125.159996,0.59643203,0.019952737,0.6097568,0.52160054,-239.86101,-341.861,282.101,3.2499099,-2.28021,4.4987097,0,-0.078125,0,0,0,false,false,false,3202.24,-3338.5598,17.01,-0.00298602,0.0037844498,0.6201585,0.7844617,64.581,261.931,8.321,0,0,-0.15401,1,-1,1,1,1,false,true,false,4079.2898,-1405.62,320.81,0.5519009,-0.44449243,-0.54509497,0.44799906,-12.851,-632.02094,-175.091,2.54161,0.03681,-0.010709999
26.233334,3696.17,-1798.46,129.73,0.5974732,0.015863482,0.640414,0.4823317,-239.741,-341.681,271.121,3.2499099,-2.28021,4.4987097,0,-0.0703125,0,0,0,false,false,false,3203.3098,-3334.23,17.01,-0.0029860197,0.0037844495,0.61918736,0.7852284,62.880997,253.341,8.321,0,0,-0.13541,1,-1,1,1,1,false,true,true,4079.22,-1416.38,317.66,0.56109524,-0.43273175,-0.5546061,0.43626538,-11.941,-655.72095,-202.80101,2.56761,0.02901,-0.0065099997
26.25,3692.17,-1804.1599,134.11,0.5970255,0.011736464,0.66946447,0.4418598,-239.621,-341.501,260.141,3.2499099,-2.28021,4.4987097,0,-0.0625,0,0,0,false,false,false,3204.3499,-3330.04,17.01,-0.0029860197,0.0037844495,0.6183296,0.785904,61.121,244.761,8.321,0,0.00010999999,-0.11890999,1,-0.0546875,1,1,1,false,true,true,4079.16,-1427.5299,314.03998,0.57018113,-0.42065814,-0.5639121,0.4241971,-11.141,-677.561,-232.061,2.60181,0.02251,-0.00341
26.266666,3688.17,-1809.85,138.31,0.5950887,0.0075769913,0.6968402,0.4002819,-239.501,-341.321,249.161,3.2499099,-2.28021,4.4987097,0,-0.0546875,0,0,0,false,false,false,3205.3599,-3326,17.01,-0.0029860197,0.0037844495,0.6175797,0.7864934,59.290997,236.201,8.321,0,0.00021,-0.10400999,1,1,1,1,1,false,true,true,4079.1199,-1439.0599,309.97,0.5788228,-0.40871942,-0.5726895,0.41223687,-10.461,-703.60095,-249.571,2.26721,0.014709999,-0.00281
26.283333,3684.18,-1815.5299,142.33,0.591663,0.0034014184,0.7224745,0.35770598,-239.381,-341.141,238.201,3.2499099,-2.28021,4.4987097,0,-0.046875,0,0,0,false,false,false,3206.3398,-3322.0999,17.01,-0.0029860197,0.0037844495,0.61692154,0.7870098,57.400997,227.651,8.321,0,0.00030999997,-0.090409994,1,1,1,1,1,false,true,false,4079.0798,-1451.02,305.65,0.58592147,-0.3985448,-0.57986456,0.40201363,-9.961,-727.371,-258.121,1.7179099,0.0083099995,-0.00271
26.3,3680.2,-1821.21,146.16,0.5867538,-0.0007849428,0.7463104,0.31422916,-239.261,-340.961,227.241,3.2499099,-2.28021,4.4987097,0,-0.0390625,0,0,0,false,false,false,3207.29,-3318.3398,17.01,-0.0029860197,0.0037844495,0.6163497,0.7874577,55.431,219.11101,8.321,0,0.00030999997,-0.07781,1,1,1,1,1,false,true,false,4079.0598,-1463.37,301.16,0.59117335,-0.3907763,-0.5851677,0.3941912,-9.521,-750.691,-270.461,1.23751,0.00511,-0.00211
26.316668,3676.22,-1826.89,149.81,0.5803824,-0.0049713044,0.7682757,0.2699701,-239.141,-340.781,216.281,3.2499099,-2.28021,4.4987097,0,-0.03125,0,0,0,false,false,false,3208.2,-3314.72,17.01,-0.00298602,0.0037844498,0.61585885,0.78784174,53.400997,210.591,8.321,0,0.00040999998,-0.06611,1,1,1,1,1,false,true,false,4079.03,-1476.11,296.44998,0.5945707,-0.38529512,-0.5890142,0.38871005,-12.061,-773.73096,-283.371,0.74981,0.12181,-0.057809997
26.333334,3672.24,-1832.57,153.28,0.57255995,-0.009141524,0.7883209,0.22503667,-239.021,-340.601,205.33101,3.2499099,-2.28021,4.4987097,0,-0.0234375,0,0,0,false,false,false,3209.0798,-3311.24,17.01,-0.0029860197,0.0037844495,0.6154434,0.7881662,51.330997,202.08101,8.321,0,0.00040999998,-0.055209998,1,0.18897638,1,1,1,false,false,false,4078.95,-1489.23,291.52,0.59546137,-0.38202587,-0.5921756,0.38575906,-15.681,-796.761,-296.401,0.27381,0.30061,-0.120009996
26.35,3668.26,-1838.25,156.56999,0.56330234,-0.01329012,0.8063983,0.17954217,-238.901,-340.421,194.391,3.2499099,-2.28021,4.4987097,0,-0.015625,0,0,0,false,false,false,3209.93,-3307.91,17.01,-0.0029860197,0.0037844495,0.6150981,0.78843576,49.201,193.58101,8.321,0,0.00051,-0.045009997,1,-0.0078125,1,0.63779527,1,false,false,false,4078.8198,-1502.5399,286.41,-0.5942741,0.380402,0.59491616,-0.38497683,-16.571,-803.03094,-314.371,0.14861,0.36121002,-0.11971
26.366667,3664.28,-1843.9299,159.67,0.5526369,-0.017400999,0.82246006,0.13359992,-238.781,-340.241,183.451,3.2499099,-2.28021,4.4987097,0,-0.0078125,0,0,0,false,false,false,3210.74,-3304.72,17.01,-0.0029860197,0.0037844495,0.614823,0.7886503,47.031,185.101,8.321,0,0.00051,-0.035609998,1,-0.3203125,1,0.38582677,1,false,false,false,4078.68,-1515.94,280.99,-0.59252614,0.37909102,0.5975743,-0.3848473,-16.870998,-808.501,-333.911,0.12601,0.39031,-0.11621
26.383333,3660.2998,-1849.59,162.59,0.5405903,-0.021468677,0.83646685,0.08731782,-238.661,-340.061,172.511,3.2499099,-2.28021,4.4987097,0,-0.0078125,0,0,0,false,false,false,3211.51,-3301.67,17.01,-0.0029860197,0.0037844495,0.6146018,0.7888227,44.830997,176.621,8.321,0,0.00051,-0.02681,1,-0.7578125,1,0.32283464,1,false,false,false,4078.53,-1529.4299,275.22998,-0.59069204,0.37760213,0.60040265,-0.3847287,-18.081,-812.121,-356.271,0.25011,0.37541,-0.116809994
26.4,3656.3198,-1855.25,165.33,0.527195,-0.0254878,0.84838045,0.040819895,-238.541,-339.881,161.591,3.2499099,-2.28021,4.4987097,0,0,0,0,0,false,false,false,3212.24,-3298.76,17.01,-0.0029860197,0.0037844495,0.61443996,0.7889488,42.670998,168.131,8.321,0,0.00051,-0.02051,1,-0.515625,1,0.4094488,1,false,false,false,4078.3599,-1542.96,269.08,-0.5895051,0.37536865,0.6036616,-0.38363346,-20.091,-811.91095,-382.471,0.55501,0.36271,-0.15610999
26.416666,3652.3398,-1860.9099,167.89,0.5124833,-0.029442227,0.8581728,-0.005780566,-238.421,-339.701,150.671,3.2499099,-2.28021,4.4987097,0,0.007874016,0,0,0,false,false,false,3212.95,-3295.99,17.01,-0.0029860197,0.0037844495,0.6143213,0.78904116,40.461,159.651,8.321,0,0.00061,-0.01421,1,-0.0703125,1,0.6771653,1,false,false,false,4078.1199,-1556.51,262.53,-0.5890573,0.37163004,0.60781956,-0.38138923,-27.460999,-816.05096,-402.451,0.71761,0.50411,0.02211
26.433332,3648.3599,-1866.57,170.26,0.4964876,-0.03332108,0.8658218,-0.052364793,-238.301,-339.521,139.751,3.2499099,-2.28021,4.4987097,0,0.015748031,0,0,0,false,false,false,3213.6199,-3293.3599,17.01,-0.0029860197,0.0037844495,0.6142349,0.7891084,38.231,151.181,8.321,0,0.00061,-0.008009999,1,0,1,0.8976378,1,false,false,false,4077.78,-1570.15,255.68,-0.58871204,0.3661004,0.6123914,-0.37995422,-32.981,-825.131,-414.201,0.61561,0.60301,0.09861
26.45,3644.39,-1872.23,172.45,0.47925127,-0.03711902,0.8713065,-0.098819554,-238.181,-339.341,128.841,3.2499099,-2.28021,4.4987097,0,0.015748031,0,0,0,false,false,false,3214.25,-3290.88,17.01,-0.00298602,0.0037844498,0.61419183,0.789142,35.981,142.72101,8.321,0,0.00061,-0.00221,1,0,1,0.8897638,1,false,false,false,4077.3398,-1583.95,248.62999,-0.5877248,0.3607055,0.6168261,-0.37946868,-48.001,-834.79095,-421.211,0.41811,1.11251,-0.119009994
26.466667,3640.43,-1877.89,174.45999,0.4608172,-0.040825292,0.87461317,-0.14502616,-238.061,-339.161,117.940994,3.2499099,-2.28021,4.4987097,0,0.023622047,0,0,0,false,false,false,3214.8398,-3288.54,17.01,-0.0029860197,0.0037844495,0.6141864,0.7891461,33.771,134.241,8.321,0,0.00061,0.00151,1,-0.0078125,1,0.7401575,1,false,false,false,4076.5898,-1597.9099,241.48,-0.58199555,0.3557099,0.6245003,-0.38046134,-62.790997,-844.691,-428.331,0.25021002,1.47411,-0.28751
26.483334,3636.47,-1883.5399,176.29,0.4412339,-0.044423614,0.87573224,-0.19087128,-237.941,-338.981,107.041,3.2499099,-2.28021,4.4987097,0,0.031496063,0,0,0,false,false,false,3215.39,-3286.3398,17.01,-0.0029860197,0.0037844495,0.61420256,0.7891336,31.540998,125.770996,8.321,0,0.00061,0.00521,1,-0.3046875,1,0.53543305,1,false,false,false,4075.63,-1612.0299,234.2,-0.57392484,0.35132936,0.63336205,-0.38213912,-69.751,-854.6409,-437.471,0.14130999,1.5224099,-0.40251002
26.5,3632.51,-1889.1799,177.94,0.42055026,-0.047914054,0.8746623,-0.23623633,-237.821,-338.801,96.141,3.2499099,-2.28021,4.4987097,0,0.031496063,0,0,0,false,false,false,3215.9,-3284.28,17.01,-0.0029860197,0.0037844495,0.61424035,0.78910416,29.290998,117.300995,8.321,0,0.00061,0.00881,1,-1,1,0.4015748,1,false,false,false,4074.5698,-1626.2999,226.73999,-0.56514746,0.3476609,0.6424253,-0.38344467,-73.270996,-861.47095,-452.811,0.24130999,1.49181,-0.52621
26.516666,3628.5498,-1894.82,179.40999,0.39881456,-0.051285844,0.8714059,-0.2810133,-237.701,-338.621,85.251,3.2499099,-2.28021,4.4987097,0,0.03937008,0,0,0,false,false,false,3216.38,-3282.3599,17.01,-0.0029860197,0.0037844495,0.6142997,0.78905797,27.081,108.821,8.321,0,0.00061,0.01091,1,-1,1,0.4015748,1,false,false,false,4073.46,-1640.64,218.97,-0.556683,0.34357703,0.65225303,-0.38291597,-76.870995,-859.1409,-478.271,0.71181,1.48891,-0.69771
26.533333,3624.5898,-1900.46,180.7,0.37607536,-0.054533508,0.86597574,-0.32508352,-237.58101,-338.441,74.370995,3.2499099,-2.28021,4.4987097,0,0.047244094,0,0,0,false,false,false,3216.8298,-3280.5798,17.01,-0.0029860197,0.0037844495,0.61437523,0.78899914,24.870998,100.340996,8.321,0,0.00061,0.013009999,1,-1,1,0.77952754,1,false,false,false,4072.16,-1654.96,210.81999,-0.5501391,0.3373028,0.66284233,-0.3797546,-106.611,-858.59094,-496.021,1.18501,1.23711,-0.30701
26.55,3620.63,-1906.1,181.8,0.35240293,-0.05764091,0.8583774,-0.36834463,-237.461,-338.261,63.490997,3.2499099,-2.28021,4.4987097,0,0.05511811,0,0,0,false,false,false,3217.24,-3278.94,17.01,-0.0029860197,0.0037844495,0.6144669,0.78892773,22.661,91.861,8.321,0,0.00061,0.01481,1,-0.5859375,1,1,1,false,false,false,4070.41,-1669.26,202.36,-0.54644907,0.32737637,0.6729354,-0.37599984,-141.151,-858.66095,-506.541,1.44381,2.04611,-0.26321
26.566668,3616.67,-1911.74,182.72,0.3278457,-0.060602646,0.8486337,-0.4106885,-237.341,-338.081,52.611,3.2499099,-2.28021,4.4987097,0,0.05511811,0,0,0,false,false,false,3217.6099,-3277.44,17.01,-0.0029860197,0.0037844495,0.6145694,0.78884786,20.460999,83.381,8.321,0,0.00061,0.016210001,1,-0.0546875,1,1,1,false,false,false,4068.0398,-1683.6,193.78,-0.5373642,0.3135818,0.68777853,-0.3739876,-167.381,-865.061,-513.061,1.36051,2.6628098,-0.35321
26.583334,3612.71,-1917.38,183.45999,0.30246854,-0.06341339,0.83677095,-0.45200205,-237.22101,-337.901,41.751,3.2499099,-2.28021,4.4987097,0,0.062992126,0,0,0,false,false,false,3217.94,-3276.0798,17.01,-0.0029860195,0.003784449,0.61467725,0.7887638,18.310999,74.881,8.321,0,0.00061,0.01641,1,-0.125,1,1,1,false,false,false,4065.3098,-1698.07,185.09,-0.5246325,0.2993989,0.704121,-0.3732755,-177.001,-876.821,-518.36096,0.98601,2.7822099,-0.35181
26.6,3608.75,-1923,184.01999,0.27633607,-0.06606763,0.8228149,-0.49218804,-237.101,-337.721,30.890999,3.2499099,-2.28021,4.4987097,0,0.07086614,0,0,0,false,false,false,3218.23,-3274.8699,17.01,-0.00298602,0.0037844498,0.61478525,0.7886798,16.161,66.381,8.321,0,0.00061,0.01631,1,-1,1,1,1,false,false,false,4062.45,-1712.72,176.28,-0.51017433,0.2867696,0.71946555,-0.37397143,-179.421,-885.1409,-531.98096,0.77131,2.76951,-0.34881002
26.616667,3604.7998,-1928.62,184.4,0.24951296,-0.06856002,0.80680156,-0.53114396,-236.981,-337.541,20.030998,3.2499099,-2.28021,4.4987097,0,0.07086614,0,0,0,false,false,false,3218.49,-3273.8,17.01,-0.0029860197,0.0037844495,0.61489314,0.7885956,14.031,57.880997,8.321,0,0.00061,0.01581,0,-1,1,0.88188976,1,false,false,false,4059.5398,-1727.44,167.16,-0.4952307,0.27448553,0.73434246,-0.37435982,-213.771,-876.99097,-551.641,1.19641,1.9471099,-0.37121
26.633333,3600.8599,-1934.24,184.59999,0.22206953,-0.07087978,0.78877413,-0.5687674,-236.86101,-337.361,9.181,3.2499099,-2.28021,4.4987097,0,0.07874016,0,0,0,false,false,false,3218.72,-3272.8699,17.01,-0.0029860197,0.0037844495,0.6149956,0.7885157,11.931,49.380997,8.321,0,0.00051,0.014409999,1,-1,1,1,1,false,false,false,4055.78,-1742.02,157.94,-0.48478097,0.26239583,0.74696636,-0.3717218,-274.991,-868.78094,-531.22095,1.21121,2.58711,-0.37201
26.65,3596.92,-1939.86,184.62,0.19407046,-0.07301616,0.7687701,-0.6049774,-236.741,-337.181,-1.651,3.2499099,-2.28021,4.4987097,0,0.08661418,0,0,0,false,false,false,3218.91,-3272.0798,17.01,-0.0029860197,0.0037844495,0.61508733,0.78844416,9.841001,40.871,8.321,0,0.00051,0.012409999,0,-1,1,1,1,false,false,false,4051.1099,-1756.46,148.9,-0.47107267,0.2477003,0.76153666,-0.36986056,-310.611,-859.78094,-546.48096,1.42581,2.8828099,-0.50361
26.666666,3592.98,-1945.48,184.45999,0.16558038,-0.07497448,0.7468528,-0.63966614,-236.621,-337.001,-12.471,3.2499099,-2.28021,4.4987097,0,0.09448819,0,0,0,false,false,false,3219.0598,-3271.43,17.01,-0.0029860195,0.003784449,0.6151682,0.788381,7.7809997,32.350998,8.321,0,0.00051,0.010009999,0,-1,1,1,1,false,false,false,4045.95,-1770.75,139.62999,-0.45567587,0.23162912,0.77730525,-0.3667477,-322.401,-851.761,-554.61096,1.4456099,2.98771,-0.62431
26.683332,3589.04,-1951.1,184.12,0.13668036,-0.07674397,0.7230667,-0.6727579,-236.501,-336.821,-23.290998,3.2499099,-2.28021,4.4987097,0,0.1023622,0,0,0,false,false,false,3219.18,-3270.93,17.01,-0.0029860197,0.0037844495,0.6152276,0.7883347,5.751,23.831,8.321,0,0.00051,0.0068099997,0,-1,1,1,1,false,false,false,4040.63,-1784.9099,130.2,-0.43927026,0.21543394,0.7931735,-0.3626369,-329.951,-842.46094,-565.581,1.38501,3.0027099,-0.87821
26.7,3585.0999,-1956.72,183.59999,-0.10744049,0.07832468,-0.69747156,0.70416975,-236.381,-336.641,-34.111,3.2499099,-2.28021,4.4987097,0,0.1023622,0,0,0,false,false,false,3219.22,-3270.77,17.01,-0.0029914144,0.0037898442,0.615206,0.78835154,0.581,1.171,8.321,-0.00010999999,0.00040999998,0,0,-1,1,1,1,false,false,false,4034.91,-1798.89,120.79,-0.42190972,0.2022058,0.8089135,-0.35603902,-397.191,-828.261,-531.46094,1.1920099,2.74371,-1.21091
26.716667,3581.16,-1962.32,182.9,-0.07793082,0.07971115,-0.67013603,0.73381907,-236.261,-336.461,-44.911,3.2499099,-2.28021,4.4987097,0,0.11811024,0,0,0,false,false,false,3219.23,-3270.76,17.01,-0.0029914144,0.0037898442,0.61520064,0.7883557,0.221,0.031,8.321,0.00051,0.00030999997,0,0,-1,1,1,1,false,false,false,4028.15,-1812.63,111.86,-0.40479732,0.18972763,0.8239304,-0.3482543,-440.481,-812.84094,-517.30096,1.44231,2.8812099,-1.02941
26.733334,3577.22,-1967.9199,182.01999,-0.04822695,0.08089261,-0.6411227,0.76163775,-236.141,-336.281,-55.711,3.2499099,-2.28021,4.4987097,1,0.11811024,0,0,0,false,true,false,3219.23,-3270.76,17.01,-0.0029860197,0.0037898442,0.61520064,0.7883557,0.131,-0.031,8.321,0.00061,0.00030999997,0,0,-1,1,1,1,false,false,false,4020.77,-1826.11,103.09,-0.38725343,0.1744387,0.83875054,-0.3407393,-460.111,-797.04095,-521.821,1.58171,3.02661,-1.01701
26.75,3573.28,-1973.5199,180.95999,-0.018404434,0.08187447,-0.6105072,0.7875524,-236.021,-336.101,-66.511,3.2499099,-2.28021,4.4987097,1,0.12598425,0,0,0,false,true,false,3219.25,-3270.65,17.01,-0.00297523,0.0037844495,0.61523837,0.7883263,5.7409997,25.901,8.321,0.0018099999,0.00010999999,0.022809999,0,-1,1,1,1,false,false,false,4013.0999,-1839.32,94.22,-0.36858198,0.15837292,0.85357094,-0.33238813,-474.461,-778.66095,-530.66095,1.47971,3.08901,-1.29241
26.766666,3569.3398,-1979.12,179.72,0.011466723,0.08265131,-0.5783648,0.8114994,-235.901,-335.921,-77.300995,3.2499099,-2.28021,4.4987097,1,0.12598425,0,0,0,false,true,false,3219.3699,-3270.1099,17.01,-0.0029644405,0.00377366,0.6154272,0.78817904,11.251,51.391,8.321,0.0019099999,0.00010999999,0.045509998,0,-1,1,1,1,false,false,false,4004.96,-1852.2,85.45,-0.34861037,0.14474566,0.86831576,-0.32178733,-532.10095,-754.55096,-490.10098,1.04361,2.94911,-1.85381
26.783333,3565.4,-1984.72,178.3,0.041305423,0.08322316,-0.5447767,0.83341825,-235.781,-335.741,-88.081,3.2499099,-2.28021,4.4987097,1,0.12598425,0,0,0,false,true,false,3219.5798,-3269.15,17.01,-0.002953651,0.0037628703,0.6157617,0.7879178,16.710999,76.440994,8.321,0.0017099999,0.00010999999,0.066209994,1,-1,1,1,1,false,false,false,3995.93,-1864.6699,77.27,-0.3277972,0.1337618,0.88277483,-0.30881283,-578.99097,-728.05096,-462.501,1.56381,3.09501,-1.56501
26.8,3561.48,-1990.32,176.7,0.07104162,0.08358461,-0.5098236,0.85325634,-235.661,-335.561,-98.861,3.2499099,-2.28021,4.4987097,1,0.12598425,0,0,0,false,true,false,3219.88,-3267.77,17.01,-0.0029428613,0.0037520807,0.61622566,0.78755516,22.091,101.061,8.321,0.00131,0.00010999999,0.085209996,1,-1,1,1,1,false,false,false,3986.14,-1876.6699,69.39,-0.30698395,0.11753954,0.8966693,-0.2965288,-619.811,-695.11096,-472.60098,1.66021,3.35271,-1.55141
26.816668,3557.5598,-1995.9099,174.92,0.10060528,0.08373567,-0.47359747,0.87096053,-235.541,-335.381,-109.641,3.2499099,-2.28021,4.4987097,1,0.12598425,0,0,0,false,true,false,3220.27,-3265.99,17.01,-0.0029374666,0.0037412914,0.6168137,0.7870948,27.360998,125.260994,8.321,0.00091,0.00010999999,0.10270999,1,-1,1,1,1,false,false,false,3975.71,-1888.12,61.3,-0.2839481,0.101015285,0.9103441,-0.2836244,-673.67096,-661.93097,-449.791,1.26161,3.45911,-1.8652099
26.833334,3553.64,-2001.49,172.95999,0.1299153,0.083681725,-0.43618986,0.8864862,-235.421,-335.201,-120.40099,3.2499099,-2.28021,4.4987097,1,0.11811024,0,0,0,false,true,false,3220.75,-3263.8098,17.01,-0.0029374664,0.0037305015,0.6175096,0.7865489,32.490997,149.061,8.321,0.00071,0.00010999999,0.119009994,1,-1,1,1,1,false,false,false,3964.27,-1899.01,53.8,-0.25843596,0.08879059,0.9236325,-0.26875627,-727.201,-626.441,-424.061,0.85541,3.55611,-2.20761
26.85,3549.72,-2007.07,170.81999,0.1589016,0.08341737,-0.3976924,0.8997958,-235.301,-335.021,-131.16101,3.2499099,-2.28021,4.4987097,1,0.11811024,0,0,0,false,true,false,3221.3098,-3261.23,17.01,-0.0029374661,0.0037197114,0.61830795,0.78592145,37.580997,172.451,8.321,0.00051,0.00010999999,0.13091,1,-1,-1,1,1,false,false,false,3951.94,-1909.3099,46.77,-0.2316993,0.07627458,0.9362277,-0.2529333,-778.441,-593.79095,-392.761,1.53451,3.76651,-1.87571
26.866667,3545.7998,-2012.6499,168.5,0.18749411,0.08294263,-0.3582023,0.91085535,-235.181,-334.841,-141.921,3.2499099,-2.28021,4.4987097,1,0.11023622,0,0,0,false,true,false,3221.95,-3258.26,17.01,-0.0029374664,0.003719712,0.619182,0.7852331,42.470997,195.461,8.321,0.00030999997,0.00010999999,0.14241,1,-0.515625,1,1,1,false,true,true,3938.8499,-1919.07,40.1,-0.2038782,0.05973953,0.9478519,-0.23757426,-809.58093,-561.41095,-393.541,1.57261,3.9444098,-1.87561
26.883333,3541.88,-2018.23,166,0.21561196,0.08226288,-0.31781134,0.9196413,-235.061,-334.661,-152.681,3.2499099,-2.28021,4.4987097,1,0.11023622,0,0,0,false,true,false,3222.67,-3254.91,17.01,-0.0029374666,0.0037197121,0.6201261,0.7844878,47.290997,218.091,8.321,0.00021,0,0.14990999,1,-0.1171875,-1,1,-1,false,true,true,3924.96,-1928.4199,33.77,-0.17376438,0.04518429,0.95837766,-0.22198324,-874.61096,-544.251,-321.181,0.66191,4.03041,-1.9959099
26.9,3537.96,-2023.8099,163.31999,0.24319024,0.08137814,-0.2766273,0.92612815,-234.941,-334.481,-163.421,3.2499099,-2.28021,4.4987097,1,0.1023622,0,0,0,false,true,false,3223.47,-3251.18,17.01,-0.0029374664,0.003719712,0.6211187,0.7837021,51.871,240.36101,8.321,0.00010999999,0,0.15780999,1,-0.0546875,-1,1,-1,false,true,false,3910.0698,-1937.5,28.51,-0.1394803,0.03929856,0.9675582,-0.20695867,-927.35095,-531.98096,-255.641,0.24490999,4.35381,-1.6604099
26.916666,3534.04,-2029.39,160.45999,0.27016428,0.08028838,-0.23475271,0.9302988,-234.821,-334.301,-174.16101,3.2499099,-2.28021,4.4987097,1,0.1023622,0,0,0,false,true,false,3224.3499,-3247.0898,17.01,-0.0029374661,0.0037197114,0.62215984,0.7828757,56.361,262.261,8.321,0.00010999999,0,0.16171,1,-0.0703125,-1,1,1,false,true,false,3894.3398,-1946.38,24.18,-0.10443554,0.029970875,0.97463936,-0.19563495,-975.631,-519.43097,-208.761,0.053409997,3.28211,-1.2969099
26.933332,3530.1199,-2034.95,157.42,0.29646403,0.078999035,-0.19229013,0.9321441,-234.701,-334.121,-184.901,3.2499099,-2.28021,4.4987097,1,0.09448819,0,0,0,false,true,false,3225.3098,-3242.6199,17.01,-0.0029374661,0.0037197114,0.62322265,0.7820299,60.580997,283.821,8.321,0,-0.00021,0.16651,1,-0.140625,-1,1,-1,false,true,false,3877.78,-1955.0199,20.77,-0.07720252,0.025854645,0.9791225,-0.18625335,-1016.84094,-502.491,-169.521,-0.21841,3.37431,-1.11701
26.95,3526.2,-2040.51,154.2,0.3220193,0.07751006,-0.14934741,0.93166023,-234.58101,-333.941,-195.631,3.2499099,-2.28021,4.4987097,1,0.08661418,0,0,0,false,true,false,3226.3298,-3237.8,17.01,-0.002948256,0.0037143172,0.6243124,0.7811603,64.730995,305.021,8.321,0,-0.00030999997,0.16750999,1,-0.1328125,-1,1,1,false,true,false,3860.5598,-1963.36,17.91,-0.047595754,0.02489437,0.98253703,-0.17814492,-1054.2109,-484.941,-120.910995,0.57421,3.4235098,-0.90200996
26.966667,3522.2998,-2046.07,150.81,0.34677076,0.07583221,-0.106032446,0.9288469,-234.461,-333.761,-206.351,3.2499099,-2.28021,4.4987097,1,0.08661418,0,0,0,false,true,false,3227.43,-3232.63,17.01,-0.0029590456,0.0037035276,0.6253968,0.7802924,68.770996,325.861,8.321,0,-0.00030999997,0.16531,1,-0.203125,-1,1,-1,false,true,false,3842.73,-1971.45,15.9,-0.020880643,0.012772264,0.9848586,-0.17162262,-1089.891,-471.111,-56.380997,0.57731,2.17571,-0.71941
26.983334,3518.4,-2051.63,147.23999,0.3706536,0.07396021,-0.06245311,0.9237128,-234.341,-333.581,-217.071,3.2499099,-2.28021,4.4987097,1,0.07874016,0,0,0,false,true,false,3228.5898,-3227.1099,17.01,-0.0029698352,0.0036981327,0.6264703,0.77943075,72.531,346.381,8.321,0,-0.00010999999,0.16531,1,-0.1328125,-1,0.8503937,-1,true,true,false,3824.2898,-1979.2699,14.99,-0.006071885,0.0073827785,0.9860955,-0.16590409,-1123.9309,-451.391,-28.571,-0.14721,1.2315099,-0.67391
27,3514.5,-2057.19,143.48999,0.39361396,0.0719048,-0.01871733,0.91626817,-234.22101,-333.401,-227.791,3.2499099,-2.28021,4.4987097,1,0.07086614,0,0,0,false,true,false,3229.8098,-3221.25,17.01,-0.0029806248,0.0036981327,0.62753314,0.7785753,76.221,366.561,8.321,0,-0.00010999999,0.16181,1,-0.046875,1,0.7637795,-0.5078125,true,true,false,3805.24,-1986.71,19.47,0.0043077446,0.0069134315,0.9869805,-0.16063339,-1155.751,-434.481,270.591,-0.14310999,1.23741,-0.58751
27.016666,3510.5999,-2062.75,139.56,0.41558707,0.069671355,0.025067007,0.90653455,-234.101,-333.221,-238.491,3.2499099,-2.28021,4.4987097,1,0.07086614,0,0,0,false,true,false,3231.0898,-3215.05,17.01,-0.0029860197,0.0036981327,0.62856895,0.7777392,79.811,386.401,8.321,0.00021,-0.00010999999,0.15561,1,0,1,0.6614173,-0.28125,false,true,false,3785.74,-1993.96,24.08,0.014708996,0.0064117154,0.9876106,-0.1561017,-1180.4209,-427.301,278.761,-0.14051,1.23831,-0.47821
27.033333,3506.7,-2068.31,135.45,0.4365243,0.067265265,0.0687866,0.8945335,-233.981,-333.041,-249.191,3.2499099,-2.28021,4.4987097,1,0.062992126,0,0,0,false,true,false,3232.43,-3208.53,17.01,-0.00298602,0.0036873433,0.629567,0.77693164,83.151,405.941,8.321,0.00010999999,-0.00010999999,0.15211,1,-1,1,-0.65625,-0.2734375,false,true,false,3765.8398,-2001.11,28.529999,0.02510477,0.0058884206,0.98797727,-0.15243326,-1201.611,-424.111,263.051,-0.13481,1.24041,-0.34901
27.05,3502.7998,-2073.8499,131.16,0.45636648,0.06468656,0.11233357,0.88029903,-233.86101,-332.861,-259.891,3.2499099,-2.28021,4.4987097,1,0.062992126,0,0,0,false,true,false,3233.8298,-3201.69,17.01,-0.0029860197,0.003687343,0.6305381,0.77614367,86.440994,425.151,8.321,0,-0.00010999999,0.14550999,1,-0.0234375,1,-0.4375,-0.2734375,false,true,false,3745.5999,-2008.21,32.7,0.03548444,0.0053219665,0.9880575,-0.14984915,-1219.851,-422.841,246.061,-0.123909995,1.24031,-0.22660999
27.066668,3498.9,-2079.39,126.7,0.4750648,0.061946,0.1556,0.8638661,-233.741,-332.681,-270.591,3.2499099,-2.28021,4.4987097,1,0.05511811,0,0,0,false,true,false,3235.28,-3194.53,17.01,-0.0029860197,0.003687343,0.6314714,0.77538455,89.491,444.061,8.321,0,-0.00010999999,0.14141,1,-0.1171875,1,-0.3046875,-0.265625,false,true,false,3725.0698,-2015.32,36.62,0.046198506,0.0052086757,0.9879127,-0.14787461,-1236.121,-427.871,232.991,-0.25081,1.3063099,-0.24940999
27.083334,3495,-2084.93,122.06,0.49257645,0.059049,0.19847801,0.845274,-233.621,-332.501,-281.271,3.2499099,-2.28021,4.4987097,1,0.047244094,0,0,0,false,true,false,3236.79,-3187.05,17.01,-0.0029860197,0.003687343,0.6323723,0.77465,92.531,462.631,8.321,0,-0.00021,0.13401,1,-0.21875,1,-0.2890625,-0.234375,false,true,false,3704.26,-2022.5199,40.39,0.058385428,0.006886456,0.98760015,-0.14556561,-1252.901,-432.991,223.891,-0.48591,1.45181,-0.27141002
27.1,3491.0999,-2090.47,117.24,0.50885797,0.05600633,0.2408597,0.82456857,-233.501,-332.321,-291.951,3.2499099,-2.28021,4.4987097,1,0.047244094,0,0,0,false,true,false,3238.3398,-3179.26,17.01,-0.0029914144,0.003687343,0.6332193,0.7739578,95.531,480.88098,8.321,0,-0.00040999998,0.12401,1,-0.234375,1,-0.34375,-0.046875,false,true,false,3683.17,-2029.7999,44.01,0.07207742,0.010096361,0.98704565,-0.14298153,-1269.651,-438.011,215.231,-0.68841,1.6079099,-0.28971002
27.116667,3487.21,-2096.01,112.24,0.5238663,0.05282331,0.28263712,0.80180407,-233.381,-332.141,-302.631,3.2499099,-2.28021,4.4987097,1,0.03937008,0,0,0,false,true,false,3239.95,-3171.17,17.01,-0.0030022038,0.003676553,0.6340069,0.7733126,98.321,498.85098,8.321,0,-0.00040999998,0.11741,1,-1,1,-0.4375,0.11811024,false,true,false,3661.7998,-2037.1599,47.5,0.087404124,0.013975304,0.98618436,-0.14001977,-1286.361,-442.921,207.08101,-0.76971,1.8004099,-0.33191
27.133333,3483.3298,-2101.55,107.06,0.53756917,0.04951091,0.3237079,0.7770335,-233.261,-331.961,-313.301,3.2499099,-2.28021,4.4987097,1,0.03937008,0,0,0,false,true,false,3241.5999,-3162.78,17.01,-0.003007599,0.0036711588,0.6347461,0.7727061,101.131,516.501,8.321,0,-0.00021,0.108009994,1,-1,-1,-0.5,0.17322835,false,true,false,3640.15,-2044.6,50.85,0.104473345,0.01762758,0.9849599,-0.13648614,-1303.011,-447.701,199.491,-0.75481,2.02051,-0.40751
27.15,3472.0598,-2109.9,103.92,0.54790026,0.03682235,0.3594647,0.75447625,-1770.631,-954.68097,-23.321,3.04671,-3.60301,2.14401,1,0.03937008,0,0,0,false,true,false,3243.29,-3154.0999,17.01,-0.003007599,0.0036711588,0.6354258,0.77214724,103.751,533.881,8.321,0,-0.00021,0.101909995,1,-1,-1,-0.5859375,0.12598425,false,true,false,3619.45,-2051.65,53.71,0.12628458,0.021366173,0.9825361,-0.1349756,-1175.351,-397.041,149.011,-0.96141,3.15311,0.17311
27.166666,3442.45,-2125.8298,103.43,0.55509156,0.014800708,0.38998863,0.7345495,-1769.731,-954.18097,-34.141,3.04671,-3.60301,2.14401,1,1,0,0,0,false,false,false,3245.03,-3145.13,17.01,-0.003007599,0.0036711588,0.6360732,0.771614,106.221,550.99097,8.321,0,-0.00021,0.097909994,1,0,-0.8984375,0.1023622,0,true,true,false,3599.68,-2058.32,56.11,0.15189917,0.02521806,0.9787662,-0.1353047,-1191.7109,-401.611,142.871,-0.84611,2.96871,0.06351
27.183332,3412.97,-2141.73,102.729996,0.56124705,-0.0072425567,0.41978422,0.71325344,-1768.8309,-953.68097,-44.940998,3.04671,-3.60301,2.14401,1,1,0,0,0,false,false,false,3246.69,-3135.89,17.01,-0.003002204,0.0036765535,0.6378265,0.7701654,85.291,565.54095,8.361,0.00061,0.00401,0.70321,1,-1,-1,-0.4140625,0.07086614,false,true,false,3572.02,-2068.66,58.43,0.15400852,0.022660926,0.9784595,-0.13559061,-1663.4609,-621.29095,137.47101,0.63471,-0.58131,-0.043109998
27.2,3383.5,-2157.6199,101.85,0.56635594,-0.029274987,0.44879746,0.69062626,-1767.9309,-953.18097,-55.740997,3.04671,-3.60301,2.14401,1,1,0,0,0,false,false,false,3248.04,-3126.4,17.01,-0.0030022042,0.0036765537,0.6430487,0.76581055,69.800995,580.631,8.361,0.00051,0.00411,1.12601,1,-1,0.6062992,-0.3203125,-0.3046875,false,true,false,3544.0898,-2079.0798,60.649998,0.12656513,0.012070942,0.9825817,-0.13553128,-1679.6609,-625.85095,131.871,2.0487099,-3.9616098,-0.24901
27.216667,3354.04,-2173.5,100.79,0.5704074,-0.051253468,0.4769692,0.6667147,-1767.0309,-952.68097,-66.541,3.04671,-3.60301,2.14401,1,1,0,0,0,false,false,false,3249.14,-3116.66,17.01,-0.0030183885,0.0036711588,0.6507578,0.75927037,55.450996,595.84094,8.361,0.00030999997,0.00291,1.4499099,1,-1,1,-0.2265625,-0.78125,false,true,false,3515.88,-2089.56,62.76,0.07781218,-0.0032341804,0.9878027,-0.13483533,-1696.1809,-630.511,125.031,2.31501,-4.97971,-0.30491
27.233334,3324.5999,-2189.3699,99.549995,0.5733961,-0.07313484,0.5042561,0.6415556,-1766.131,-952.18097,-77.331,3.04671,-3.60301,2.14401,1,1,0,0,0,false,false,false,3250,-3106.66,17.01,-0.0030453624,0.003644185,0.6602959,0.7509904,41.010998,611.02094,8.361,0.00010999999,0.00151,1.6948099,1,-1,0,0,0,false,true,false,3487.41,-2100.1199,64.74,0.035667863,-0.016106205,0.9902528,-0.13367006,-1713.011,-635.21094,116.501,2.15851,-4.75571,-0.31891
27.25,3295.18,-2205.23,98.13,0.57531667,-0.09488135,0.530599,0.6152013,-1765.231,-951.68097,-88.111,3.04671,-3.60301,2.14401,1,1,0,0,0,false,false,false,3250.6199,-3096.42,17.01,-0.0030939155,0.0036064212,0.6711394,0.74131584,25.651,625.96094,8.351,0,0.00021,1.87911,1,-0.203125,0,0,0,false,true,false,3458.64,-2110.76,66.56,-0.021242095,-0.032430947,0.9905153,-0.13181967,-1729.991,-639.871,106.321,2.18421,-5.03821,-0.30841002
27.266666,3265.77,-2221.0898,96.53,0.5761637,-0.11644983,0.55594933,0.58770305,-1764.3309,-951.18097,-98.891,3.04671,-3.60301,2.14401,1,1,0,0,0,false,false,false,3250.98,-3085.92,17.01,-0.0031478636,0.003557868,0.6828894,0.73050624,8.891,640.441,8.351,0,-0.00061,2.01821,1,0,0,0,0,false,true,false,3429.5898,-2121.48,68.18,-0.0793011,-0.04832945,0.9872068,-0.12960778,-1746.9609,-644.40094,94.061,2.1384099,-5.05831,-0.29981
27.283333,3236.3699,-2236.93,94.75,0.5759371,-0.13779709,0.5802668,0.5591053,-1763.4309,-950.68097,-109.671,3.04671,-3.60301,2.14401,1,1,0,0,0,false,false,false,3251.05,-3075.18,17.01,-0.0032126012,0.0034985254,0.6952435,0.7187585,-9.511001,654.27094,8.351,-0.00010999999,-0.00111,2.12391,1,0.27559054,0,0,0,false,false,false,3400.26,-2132.28,69.57,-0.13716589,-0.06371549,0.9803062,-0.12698586,-1763.6909,-648.71094,79.721,2.11351,-5.06891,-0.29811
27.3,3206.99,-2252.77,92.79,0.5746316,-0.15889081,0.6035092,0.5294608,-1762.5309,-950.18097,-120.431,3.04671,-3.60301,2.14401,1,1,0,0,0,false,false,false,3250.8098,-3064.22,17.01,-0.0032827335,0.0034337877,0.7079798,0.7062166,-29.671,667.24097,8.351,-0.00010999999,-0.0014099999,2.20481,1,1,0,0,0,false,false,false,3370.8499,-2143.0999,70.76,-0.19458298,-0.0786915,0.96983874,-0.123927034,-1764.7009,-648.951,68.531,2.10021,-5.07441,-0.29881
27.316668,3178.67,-2268.1099,93.95,0.5673324,-0.189091,0.63050044,0.4948206,-1698.871,-920.27094,66.800995,3.34461,-4.62051,1.86121,1,1,0,0,0,false,false,false,3250.22,-3053.05,17.01,-0.0033582605,0.00336905,0.7209329,0.69298846,-51.560997,679.191,8.351,0,-0.0014099999,2.26741,1,1,0,0,0,false,false,false,3341.43,-2153.92,71.76,-0.2513202,-0.09328444,0.9558418,-0.12042578,-1765.6709,-649.17096,57.220997,2.0931098,-5.07721,-0.30001
27.333334,3150.3699,-2283.44,94.93,0.559073,-0.21666935,0.65395087,0.46134588,-1697.991,-919.79095,55.920998,3.34461,-4.62051,1.86121,1,1,0,0,0,false,false,false,3249.26,-3041.68,17.01,-0.0034337877,0.003293523,0.73396826,0.679167,-75.111,689.96094,8.351,0,-0.0014099999,2.31631,1,1,0,0,0,false,false,false,3311.99,-2164.74,72.14,-0.3071512,-0.107489035,0.93836814,-0.1164876,-1766.591,-649.36096,14.741,2.08931,-5.07871,-0.30101
27.35,3122.0798,-2298.76,95.729996,0.54941624,-0.24370815,0.67576694,0.42671648,-1697.131,-919.311,45.060997,3.34461,-4.62051,1.86121,1,1,0,0,0,false,false,false,3247.9,-3030.14,17.01,-0.0035093152,0.003217996,0.74699605,0.6648114,-100.201,699.441,8.351,0,-0.0012099999,2.35481,1,1,0,0,0,false,false,false,3282.54,-2175.56,72.14,-0.36187622,-0.12126739,0.91747856,-0.11212856,-1767.4309,-649.511,-3.281,2.08741,-5.0795097,-0.30181
27.366667,3093.8,-2314.0798,96.35,0.5383838,-0.27013734,0.695897,0.39101905,-1696.271,-918.83093,34.201,3.34461,-4.62051,1.86121,1,1,0,0,0,false,false,false,3246.13,-3018.45,17.01,-0.0035794473,0.0031424686,0.7599447,0.6499702,-126.690994,707.511,8.351,0.00010999999,-0.0010099999,2.38541,1,1,0,0,0,false,false,false,3253.0698,-2186.38,71.979996,-0.4152849,-0.13459258,0.8932509,-0.107359566,-1768.1909,-649.621,-10.971,2.08641,-5.0798097,-0.30231002
27.383333,3065.54,-2329.38,96.78,0.5260082,-0.29588684,0.714287,0.35434508,-1695.4109,-918.35095,23.341,3.34461,-4.62051,1.86121,1,1,0,0,0,false,false,false,3243.9,-3006.6199,17.01,-0.003644185,0.0030669416,0.77274585,0.6346975,-154.431,714.09094,8.351,0.00010999999,-0.00091,2.40991,1,1,0,0,0,false,false,false,3223.5898,-2197.2,71.75,-0.46718302,-0.14742143,0.8657722,-0.102202095,-1768.861,-649.691,-14.291,2.0859098,-5.08001,-0.30261
27.4,3037.3,-2344.68,97.03,0.51231605,-0.32089716,0.7308946,0.3167809,-1694.5509,-917.871,12.481,3.34461,-4.62051,1.86121,1,1,0,0,0,false,false,false,3241.2,-2994.7,17.01,-0.0037089223,0.0029914144,0.7853605,0.61902016,-183.271,719.11096,8.351,0.00010999999,-0.00091,2.42961,1,1,0,0,0,false,false,false,3194.5,-2207.89,72.89,-0.5127854,-0.14574365,0.8396199,-0.10415501,-1721.7809,-633.54095,151.97101,-1.16451,-5.35871,-0.42151
27.416666,3009.0698,-2359.97,97.1,0.4973455,-0.3451091,0.74567026,0.2784292,-1693.6909,-917.3909,1.641,3.34461,-4.62051,1.86121,1,1,0,0,0,false,false,false,3238.02,-2982.7,17.01,-0.00377366,0.0029104925,0.7977532,0.6029651,-213.071,722.501,8.351,0.00021,-0.00081,2.44541,1,1,0,0,0,false,false,false,3165.8,-2218.45,75.28,-0.5614844,-0.13753814,0.8085281,-0.11000301,-1722.251,-633.561,140.121,0.28111002,-5.48761,-0.23751
27.433332,2980.8499,-2375.25,96.99,0.48113406,-0.3684579,0.758581,0.23938152,-1692.8309,-916.91095,-9.181,3.34461,-4.62051,1.86121,1,1,0,0,0,false,false,false,3234.3398,-2970.65,17.01,-0.0038383976,0.0028241756,0.809892,0.58655953,-243.671,724.22095,8.351,0.00021,-0.00061,2.4581099,1,1,1,1,0,false,false,false,3137.0999,-2229.01,77.47,-0.60937953,-0.1382179,0.77273726,-0.11148657,-1722.601,-633.571,128.231,1.07721,-5.39321,-0.047709998
27.45,2952.65,-2390.53,96.7,0.46371412,-0.39088953,0.7695975,0.19973497,-1691.971,-916.43097,-20.001,3.34461,-4.62051,1.86121,1,1,0,0,0,false,false,false,3230.15,-2958.5698,17.01,-0.0038977403,0.002737859,0.82174855,0.56983024,-274.941,724.23096,8.351,0.00021,-0.00040999998,2.4683099,1,1,1,1,0,false,false,false,3108.38,-2239.57,79.46,-0.6431134,-0.14121743,0.7438713,-0.11453464,-1722.8309,-633.561,116.300995,0.94711,-5.2059097,0.45011
27.466667,2924.46,-2405.79,96.229996,0.44513983,-0.4123394,0.7786893,0.15959215,-1691.111,-915.9509,-30.821,3.34461,-4.62051,1.86121,1,1,0,0,0,false,false,false,3225.44,-2946.5,17.01,-0.003951688,0.0026515422,0.83330464,0.5527934,-306.731,722.511,8.351,0.00010999999,-0.00040999998,2.47641,-1,1,0,0,0,false,false,false,3079.66,-2250.13,81.25,-0.67383146,-0.14557102,0.7142412,-0.12091133,-1722.9609,-633.54095,104.361,0.77270997,-5.0384097,0.90121
27.483334,2896.28,-2421.05,95.579994,0.4254541,-0.4327587,0.7858352,0.11904469,-1690.251,-915.47095,-41.621,3.34461,-4.62051,1.86121,1,1,0,0,0,false,false,false,3220.19,-2934.47,17.01,-0.0040056356,0.0025652254,0.8445403,0.53547055,-338.921,719.03094,8.351,0,-0.00040999998,2.48281,-1,1,0,0,0,false,false,false,3050.94,-2260.69,82.869995,0.71348953,0.153728,-0.6719541,0.12561023,-1722.9109,-633.571,94.620995,1.39141,-5.27101,0.72801
27.5,2868.1199,-2436.3,94.75,0.40470567,-0.45209917,0.79101473,0.07820061,-1689.391,-914.99097,-52.420998,3.34461,-4.62051,1.86121,1,1,0,0,0,false,false,false,3214.41,-2922.51,17.01,-0.0040595834,0.0024789085,0.8554443,0.51787263,-371.381,713.79095,8.351,0,-0.00040999998,2.48771,-1,1,0,0,0,false,false,false,3022.22,-2271.25,84.33,0.7516664,0.1634494,-0.626384,0.12619285,-1722.981,-633.621,84.881,1.70371,-5.18981,0.64241
27.516666,2839.98,-2451.54,93.74,0.38294294,-0.4703066,0.7942199,0.037162222,-1688.5309,-914.511,-63.220997,3.34461,-4.62051,1.86121,1,1,0,0,0,false,false,false,3208.0898,-2910.64,17.01,-0.0041135317,0.002392592,0.86599994,0.5000213,-403.991,706.77094,8.351,0,-0.00030999997,2.49121,-1,1,0,0,0,false,false,false,2993.5,-2281.81,85.63,0.787053,0.17379135,-0.5787047,0.12427773,-1723.1909,-633.72095,75.131,1.87851,-5.13211,0.61841
27.533333,2811.8499,-2466.78,92.549995,0.36022538,-0.48733807,0.7954391,-0.0039678724,-1687.6709,-914.03094,-74.020996,3.34461,-4.62051,1.86121,1,1,0,0,0,false,false,false,3201.22,-2898.89,17.01,-0.00416748,0.0023062753,0.8761953,0.4819325,-436.631,697.99097,8.351,0,-0.00021,2.49371,-1,1,0,0,0,false,false,false,2964.78,-2292.3699,86.759995,0.81948745,0.18424645,-0.52905077,0.12082498,-1723.511,-633.871,65.340996,1.9751099,-5.09571,0.61861
27.55,2784.39,-2481.7,93.24,0.3318001,-0.5048496,0.79548806,-0.047266673,-1647.761,-894.78094,38.970997,3.2506099,-4.79321,1.5677099,1,1,0,0,0,false,false,false,3193.8098,-2887.3,17.01,-0.0042160335,0.0022199587,0.88602,0.46362248,-469.181,687.451,8.351,0,-0.00010999999,2.49531,-1,1,0,0,0,false,false,false,2936.05,-2302.93,87.72,0.84886616,0.19448586,-0.47755727,0.11636348,-1723.9409,-634.071,55.501,2.02761,-5.07401,0.62631
27.566668,2756.94,-2496.5999,93.75,0.30493933,-0.5195397,0.7934528,-0.086735174,-1646.9209,-894.321,28.110998,3.2506099,-4.79321,1.5677099,1,1,0,0,0,false,false,false,3185.8599,-2875.89,17.01,-0.0042591915,0.0021336419,0.8954698,0.44509664,-501.541,675.16095,8.351,0,-0.00010999999,2.49601,-1,1,0,0,0,false,false,false,2907.3098,-2313.5,88.52,0.8751044,0.20429361,-0.42437518,0.11118448,-1724.481,-634.321,45.591,2.05581,-5.0616097,0.63471
27.583334,2729.5,-2511.5,94.079994,0.2773179,-0.5329243,0.7894387,-0.12598784,-1646.0809,-893.86096,17.251,3.2506099,-4.79321,1.5677099,1,1,0,0,0,false,false,false,3177.3699,-2864.69,17.01,-0.00430235,0.002047325,0.90453565,0.42637122,-533.60095,661.15094,8.351,0,-0.00010999999,2.49601,-1,1,0,0,0,false,false,false,2878.5598,-2324.0798,89.159996,0.8981229,0.21351878,-0.36968252,0.1054498,-1725.121,-634.61096,35.611,2.07061,-5.05471,0.64161
27.6,2702.0798,-2526.39,94.229996,0.24900042,-0.5449816,0.7834502,-0.16492222,-1645.241,-893.40094,6.4009995,3.2506099,-4.79321,1.5677099,1,1,0,0,0,false,false,false,3168.3398,-2853.73,17.01,-0.0043455083,0.0019610084,0.91320705,0.40746778,-565.261,645.43097,8.351,0.00010999999,-0.00010999999,2.49531,-1,1,0,0,0,false,false,false,2849.8,-2334.66,89.619995,0.9178539,0.22206415,-0.31365734,0.09925111,-1725.841,-634.96094,25.530998,2.07831,-5.05091,0.64661
27.616667,2674.67,-2541.27,94.2,0.22005728,-0.5556742,0.7755065,-0.20344661,-1644.4009,-892.941,-4.4309998,3.2506099,-4.79321,1.5677099,1,1,0,0,0,false,false,false,3158.79,-2843.04,17.01,-0.0043886662,0.0018692967,0.92148185,0.38839173,-596.42096,628.04095,8.351,0.00021,-0.00010999999,2.49401,-1,1,0,0,0,false,false,false,2821.02,-2345.24,89.92,0.934234,0.22985423,-0.25649384,0.09265326,-1726.631,-635.35095,15.351,2.08211,-5.0489097,0.65001
27.633333,2647.27,-2556.15,93.99,0.19056925,-0.5649803,0.7656211,-0.24146393,-1643.5609,-892.48096,-15.251,3.2506099,-4.79321,1.5677099,1,1,0,0,0,false,false,false,3148.72,-2832.65,17.01,-0.0044264304,0.0017721907,0.9293539,0.36915928,-626.98096,609.011,8.351,0.00021,-0.00010999999,2.49211,-1,1,0,0,0,false,false,false,2792.23,-2355.8398,90.049995,0.94720477,0.23684597,-0.19840248,0.08569398,-1727.481,-635.78094,5.061,2.08391,-5.0479097,0.65221
27.65,2619.89,-2571.02,93.6,0.16060098,-0.5728783,0.75381845,-0.27888232,-1642.721,-892.02094,-26.071,3.2506099,-4.79321,1.5677099,1,1,0,0,0,false,false,false,3138.15,-2822.5798,17.01,-0.004458799,0.0016750842,0.9368173,0.34978643,-656.85095,588.381,8.351,0.00021,-0.00010999999,2.48981,-1,1,0,0,0,false,false,false,2763.43,-2366.44,90.009995,0.9567217,0.24299604,-0.13959359,0.07842179,-1728.391,-636.24097,-5.291,2.08481,-5.04741,0.65361
27.666666,2592.52,-2585.88,93.03,0.13023357,-0.57934123,0.74013495,-0.31559947,-1641.881,-891.561,-36.881,3.2506099,-4.79321,1.5677099,1,1,0,0,0,false,false,false,3127.0798,-2812.8699,17.01,-0.0044911676,0.0015779779,0.9438714,0.33027878,-685.941,566.201,8.351,0,-0.00010999999,2.48711,-1,1,0,0,0,false,false,false,2734.6099,-2377.05,89.85,0.96275586,0.24826676,-0.080277555,0.07085281,-1729.3209,-636.73096,-10.9210005,2.0852098,-5.04711,0.65451
27.683332,2565.5,-2600.56,93.35,0.09694752,-0.58424515,0.72447854,-0.35268885,-1620.8309,-881.121,16.691,3.20711,-4.8660097,1.42671,1,1,0,0,0,false,false,false,3115.53,-2803.53,17.01,-0.0045235367,0.0014808717,0.95051163,0.31065243,-714.17096,542.511,8.351,0,-0.00010999999,2.48401,-1,1,0,0,0,false,false,false,2705.77,-2387.67,89.64,0.96528226,0.2526473,-0.020670244,0.06302495,-1730.2809,-637.251,-13.401,2.08531,-5.04691,0.65501
27.7,2538.5,-2615.24,93.49,0.06498326,-0.5874173,0.70770675,-0.38712934,-1619.991,-880.66095,5.851,3.20711,-4.8660097,1.42671,1,1,0,0,0,false,false,false,3103.51,-2794.5898,17.01,-0.0045559052,0.0013837651,0.956736,0.29091817,-741.47095,517.35095,8.351,0,-0.00010999999,2.48051,-1,1,0,0,0,false,false,false,2676.92,-2398.29,89.4,0.964296,0.25610548,0.03901264,0.054965053,-1731.241,-637.79095,-14.561,2.0854099,-5.04691,0.65531
