time,ball_loc_x,ball_loc_y,ball_loc_z,ball_rot_x,ball_rot_y,ball_rot_z,ball_rot_w,ball_vel_x,ball_vel_y,ball_vel_z,ball_ang_x,ball_ang_y,ball_ang_z,player0_throttle,player0_steer,player0_pitch,player0_yaw,player0_roll,player0_jump,player0_boost,player0_handbrake,player0_loc_x,player0_loc_y,player0_loc_z,player0_rot_x,player0_rot_y,player0_rot_z,player0_rot_w,player0_vel_x,player0_vel_y,player0_vel_z,player0_ang_x,player0_ang_y,player0_ang_z,player1_throttle,player1_steer,player1_pitch,player1_yaw,player1_roll,player1_jump,player1_boost,player1_handbrake,player1_loc_x,player1_loc_y,player1_loc_z,player1_rot_x,player1_rot_y,player1_rot_z,player1_rot_w,player1_vel_x,player1_vel_y,player1_vel_z,player1_ang_x,player1_ang_y,player1_ang_z
458,-2383.17,-2952.3298,93.14,0.34606946,-0.3793932,0.75842345,-0.4013609,-15.251,537.201,0,-5.8871098,-0.16711,0.02151,1,0.007874016,0,0,0,false,true,false,-914.68,-3740.93,16.99,-0.004442615,0.0017721907,0.9310523,0.36485422,-1034.591,958.001,8.531,0.00010999999,-0.00051,0,-1,-1,0,0,0,false,false,true,-3296.03,-979.49,16.93,-0.0027702278,0.004081163,0.5488929,0.835878,604.93097,1722.1809,10.011001,0.00351,-0.00241,-2.37961
458.00833,-2383.3,-2947.8499,93.14,0.3553161,-0.36037102,0.7677024,-0.39308524,-15.241,537.10095,0,-5.8860097,-0.16701,0.02151,1,0.007874016,0,0,0,false,true,false,-923.3,-3732.95,16.99,-0.004442615,0.0017721907,0.9310523,0.36485422,-1034.661,957.93097,8.531,0.00010999999,-0.00051,0.00261,-1,-1,0,0,0,false,false,true,-3290.99,-965.13995,16.949999,-0.0027216745,0.0040919525,0.54057944,0.84127855,618.97095,1714.3109,9.731,0.00311,-0.0019099999,-2.44961
458.01666,-2383.43,-2943.3699,93.14,0.36434698,-0.34113315,0.77652013,-0.3845722,-15.231,537.001,0,-5.8849096,-0.16691,0.02151,1,0.007874016,0,0,0,false,true,false,-931.92,-3724.97,16.99,-0.004442615,0.0017721907,0.93105656,0.36484343,-1034.721,957.871,8.531,0.00010999999,-0.00051,0.00481,-1,-1,0,0,0,false,false,true,-3285.8298,-950.85,16.96,-0.0026731214,0.004108137,0.53196394,0.84675276,632.33093,1706.4209,9.471,0.00271,-0.00151,-2.51371
458.025,-2383.56,-2938.9,93.14,0.3731568,-0.3216956,0.7848667,-0.3758326,-15.221,536.90094,0,-5.88381,-0.16680999,0.02151,1,0.007874016,0,0,0,false,true,false,-940.54,-3716.99,16.99,-0.0044426145,0.0017721906,0.9310629,0.36482722,-1034.781,957.811,8.531,0.00010999999,-0.00051,0.00661,-1,-1,0,0,0,false,false,true,-3280.5598,-936.63,16.97,-0.0026245683,0.0041243215,0.52306795,0.85227686,644.84094,1698.641,9.271,0.00241,-0.0012099999,-2.5717099
458.03333,-2383.69,-2934.43,93.14,0.3817399,-0.30206925,0.79274064,-0.3668664,-15.211,536.80096,0,-5.88271,-0.16670999,0.02151,1,0.007874016,0,0,0,false,true,false,-949.16,-3709.01,16.99,-0.004442615,0.0017721907,0.9310735,0.36480027,-1034.8309,957.751,8.531,0.00010999999,-0.00051,0.00811,-1,-1,0,0,0,false,false,true,-3275.19,-922.47,16.98,-0.0025760152,0.004140506,0.5139075,0.85783166,656.311,1691.131,9.101,0.00221,-0.00091,-2.62341
458.04166,-2383.82,-2929.96,93.14,0.39009112,-0.28226492,0.8001357,-0.35768443,-15.201,536.701,0,-5.88161,-0.16660999,0.02151,1,0.007874016,0,0,0,false,true,false,-957.77997,-3701.03,16.99,-0.0044426145,0.0017721906,0.9310861,0.36476788,-1034.891,957.691,8.531,0.00010999999,-0.00051,0.0094099995,-1,-1,0,0,0,false,false,true,-3269.72,-908.38,16.99,-0.0025220672,0.0041620852,0.50449896,0.8633985,666.561,1684.0609,8.951,0.00201,-0.00061,-2.66851
458.05,-2383.95,-2925.49,93.14,0.3982049,-0.26229328,0.807051,-0.3482867,-15.191,536.60095,0,-5.88051,-0.16651,0.02151,1,0.007874016,0,0,0,false,true,false,-966.39996,-3693.0498,16.99,-0.0044426145,0.0017721906,0.9311009,0.36473012,-1034.9509,957.631,8.531,0.00010999999,-0.00051,0.0105099995,-1,-1,0,0,0,false,false,true,-3264.17,-894.35,17,-0.0024681191,0.0041836645,0.4948692,0.8689538,675.40094,1677.641,8.811,0.0018099999,-0.00040999998,-2.70661
458.05832,-2384.0798,-2921.02,93.14,0.40608132,-0.24217063,0.81347674,-0.3386839,-15.181,536.501,0,-5.87941,-0.16641,0.02151,1,0.007874016,0,0,0,false,true,false,-975.01996,-3685.0698,16.99,-0.0044426145,0.0017721906,0.93111783,0.36468694,-1035.011,957.561,8.531,0.00010999999,-0.00051,0.011409999,-1,-1,0,0,0,false,false,true,-3258.54,-880.37,17.01,-0.0024141711,0.004205243,0.4850399,0.8744785,682.66095,1672.091,8.681,0.0017099999,-0.00021,-2.73731
458.06668,-2384.21,-2916.55,93.14,0.4137096,-0.22190227,0.8194169,-0.32887608,-15.1710005,536.40094,0,-5.8783097,-0.16631,0.02151,1,0.007874016,0,0,0,false,true,false,-983.64996,-3677.0898,16.99,-0.0044426145,0.0017721906,0.93113476,0.36464378,-1035.0809,957.48096,8.531,0.00010999999,-0.00051,0.012209999,-1,-1,0,0,0,false,false,true,-3252.8499,-866.44,17.01,-0.0023602236,0.004226823,0.47503248,0.87995493,688.16095,1667.6609,8.551001,0.0016099999,0,-2.76021
458.075,-2384.3398,-2912.0798,93.14,0.42108965,-0.20150447,0.8248627,-0.3188741,-15.161,536.30096,0,-5.8772097,-0.16621,0.02151,1,0,0,0,0,false,true,false,-992.27997,-3669.1099,16.99,-0.0044426145,0.0017721906,0.9311538,0.36459514,-1035.151,957.40094,8.531,0.00010999999,-0.00051,0.012809999,-1,-1,0,0,0,false,false,true,-3247.1199,-852.54,17.01,-0.0023062753,0.0042484016,0.46487945,0.8853607,693.84094,1662.871,8.471001,0.0014099999,0.00010999999,-2.78231
458.08334,-2384.47,-2907.6099,93.14,0.42821625,-0.18099338,0.8298113,-0.3086833,-15.151,536.201,0,-5.87611,-0.16611,0.02151,1,0,0,0,0,false,true,false,-1000.91,-3661.13,16.99,-0.0044426145,0.0017721906,0.9311728,0.3645466,-1035.1709,957.381,8.531,0.00010999999,-0.00051,0.010709999,-1,-1,0,0,0,false,false,true,-3241.3398,-838.68,17.01,-0.0022523273,0.004269981,0.45458618,0.8906896,699.691,1657.7009,8.4210005,0.00131,0.00010999999,-2.80391
458.09167,-2384.5999,-2903.14,93.14,0.4350839,-0.16037443,0.8342623,-0.2983091,-15.151,536.10095,0,-5.87501,-0.16600999,0.02151,1,0,0,0,0,false,true,false,-1009.54,-3653.15,16.99,-0.0044426145,0.0017721906,0.93118966,0.36450344,-1035.2009,957.35095,8.531,0.00010999999,-0.00051,0.008909999,-1,-1,0,0,0,false,false,true,-3235.51,-824.87,17.01,-0.002198379,0.0042915596,0.4441471,0.8959407,705.68097,1652.1509,8.391,0.00111,0.00021,-2.82511
458.1,-2384.73,-2898.67,93.14,0.44169247,-0.13966371,0.8382109,-0.28775677,-15.141,536.001,0,-5.87391,-0.16600999,0.02151,1,0,0,0,0,false,true,false,-1018.17,-3645.17,16.99,-0.0044426145,0.0017721906,0.93120235,0.36447108,-1035.231,957.311,8.531,0.00010999999,-0.00051,0.00751,-1,-1,0,0,0,false,false,true,-3229.63,-811.1,17.01,-0.0021444317,0.0043185344,0.433568,0.9011079,711.79095,1646.231,8.371,0.0010099999,0.00021,-2.84581
458.10834,-2384.8599,-2894.2,93.14,0.44803143,-0.1188721,0.8416576,-0.27703732,-15.141,535.90094,0,-5.87281,-0.16590999,0.02151,1,0,0,0,0,false,true,false,-1026.7999,-3637.19,16.99,-0.0044426145,0.0017721906,0.9312129,0.3644441,-1035.271,957.27094,8.531,0.00010999999,-0.00051,0.00631,-1,-1,0,0,0,false,false,true,-3223.7,-797.38,17.01,-0.0020904834,0.004340113,0.42285383,0.90618503,717.99097,1639.9309,8.361,0.00091,0.00021,-2.86601
458.11667,-2384.99,-2889.73,93.14,0.45410603,-0.09801573,0.84459716,-0.26615056,-15.1310005,535.80096,0,-5.87181,-0.16580999,0.02151,1,0,0,0,0,false,true,false,-1035.4299,-3629.21,16.99,-0.0044426145,0.0017721906,0.93122345,0.36441714,-1035.3109,957.23096,8.531,0.00010999999,-0.00051,0.00531,-1,-1,0,0,0,false,false,true,-3217.72,-783.70996,17.01,-0.0020365356,0.004361693,0.41200492,0.9111689,724.251,1633.251,8.351,0.00081,0.00021,-2.88571
458.125,-2385.1199,-2885.27,93.14,0.45990545,-0.07710542,0.8470312,-0.25510737,-15.121,535.701,0,-5.87071,-0.16570999,0.02151,1,0,0,0,0,false,true,false,-1044.0599,-3621.23,16.99,-0.0044426145,0.0017721906,0.9312319,0.36439556,-1035.351,957.191,8.531,0.00010999999,-0.00051,0.00451,-1,-1,0,0,0,false,false,true,-3211.68,-770.1,17.01,-0.0019825874,0.0043832716,0.401021,0.91605616,730.55096,1626.2009,8.341001,0.00081,0.00021,-2.9049098
458.13333,-2385.25,-2880.8098,93.14,0.46542972,-0.056151945,0.84895724,-0.24391314,-15.111,535.60095,0,-5.86961,-0.16561,0.02151,1,0,0,0,0,false,true,false,-1052.69,-3613.25,16.99,-0.0044426145,0.0017721906,0.93123823,0.36437938,-1035.391,957.15094,8.531,0.00010999999,-0.00051,0.00381,-1,-1,0,0,0,false,false,true,-3205.5898,-756.55,17.01,-0.0019232448,0.004404851,0.38990232,0.9208436,736.86096,1618.771,8.341001,0.00071,0.00021,-2.9235098
458.14166,-2385.38,-2876.3499,93.14,0.47067347,-0.035166103,0.850376,-0.23257324,-15.101,535.501,0,-5.86851,-0.16551,0.02151,1,0,0,0,0,false,true,false,-1061.32,-3605.27,16.99,-0.004442614,0.0017721903,0.9312445,0.36436313,-1035.4309,957.11096,8.531,0.00010999999,-0.00051,0.00321,-1,-1,0,0,0,false,false,true,-3199.45,-743.06,17.01,-0.0018639021,0.00442643,0.3786541,0.9255257,743.16095,1610.981,8.341001,0.00061,0.00021,-2.94151
458.15,-2385.51,-2871.89,93.14,0.47563675,-0.01416408,0.85128397,-0.22109847,-15.091,535.40094,0,-5.8674097,-0.16541,0.02151,1,0,0,0,0,false,true,false,-1069.95,-3597.29,16.99,-0.004442615,0.0017721907,0.93124884,0.3643524,-1035.471,957.071,8.531,0.00010999999,-0.00051,0.00271,-1,-1,0,0,0,false,false,true,-3193.26,-729.63995,17.01,-0.0018045594,0.004448009,0.36728185,0.9300972,749.43097,1602.8309,8.341001,0.00051,0.00021,-2.95901
458.15833,-2385.64,-2867.43,93.14,0.48031405,0.006843299,0.8516828,-0.20949422,-15.081,535.30096,0,-5.8663096,-0.16531,0.02151,1,0,0,0,0,false,true,false,-1078.58,-3589.3098,16.99,-0.0044426145,0.0017721906,0.931253,0.3643416,-1035.501,957.03094,8.531,0.00010999999,-0.00051,0.0023100001,-1,-1,0,0,0,false,false,true,-3187.01,-716.27997,17.01,-0.0017452165,0.0044695884,0.35578546,0.9345553,755.631,1594.3209,8.341001,0.00040999998,0.00021,-2.97581
458.16666,-2385.77,-2862.97,93.14,0.48470542,0.02783993,0.85157156,-0.19776589,-15.071,535.201,0,-5.86521,-0.16521,0.02151,1,0,0,0,0,false,true,false,-1087.21,-3581.3298,16.99,-0.0044426145,0.0017721906,0.93125725,0.3643308,-1035.531,956.99097,8.531,0.00010999999,-0.00051,0.0019099999,-1,-1,0,0,0,false,false,true,-3180.71,-702.99,17.01,-0.0016858738,0.0044911676,0.34417045,0.93889487,761.751,1585.471,8.341001,0.00030999997,0.00021,-2.9920099
458.175,-2385.9,-2858.51,93.14,0.48880544,0.048814982,0.85095143,-0.18592428,-15.061,535.10095,0,-5.86411,-0.16510999,0.02151,1,0,0,0,0,false,true,false,-1095.84,-3573.3499,16.99,-0.004442614,0.0017721903,0.9312593,0.36432537,-1035.5609,956.96094,8.531,0.00010999999,-0.00051,0.0016099999,-1,-1,0,0,0,false,false,true,-3174.3599,-689.77997,17.01,-0.001626531,0.004512747,0.33243668,0.9431133,767.761,1576.2809,8.341001,0.00030999997,0.00021,-3.00751
458.18332,-2386.03,-2854.05,93.14,0.49261412,0.069757655,0.84982324,-0.17396934,-15.051,535.001,0,-5.86301,-0.16500999,0.02151,1,0,0,0,0,false,true,false,-1104.47,-3565.38,16.99,-0.004442615,0.0017721907,0.9312615,0.36432004,-1035.591,956.93097,8.531,0.00010999999,-0.00051,0.00131,-1,-1,0,0,0,false,false,true,-3167.96,-676.64,17.01,-0.0015671883,0.004534326,0.32059512,0.9472041,773.6409,1566.771,8.341001,0.00021,0.00021,-3.02231
458.19168,-2386.16,-2849.5898,93.14,0.49612615,0.09065718,0.8481878,-0.16191733,-15.051,534.90094,0,-5.86191,-0.16490999,0.02151,1,0.007874016,0,0,0,false,true,false,-1113.1,-3557.41,16.99,-0.0044426145,0.0017721906,0.93126357,0.36431462,-1035.611,956.90094,8.531,0.00010999999,-0.00051,0.00111,-1,-1,0,0,0,false,false,true,-3161.51,-663.57996,17.01,-0.0015078456,0.0045559057,0.30864018,0.95116675,779.371,1556.9509,8.341001,0.00021,0.00010999999,-3.0364099
458.2,-2386.29,-2845.13,93.14,0.49934158,0.11149737,0.8460471,-0.14976822,-15.041,534.80096,0,-5.86081,-0.16490999,0.02151,1,0.007874016,0,0,0,false,true,false,-1121.73,-3549.44,16.99,-0.004442615,0.0017721907,0.9312657,0.36430925,-1035.7009,956.811,8.531,0.00010999999,-0.00051,0.00361,-1,-1,0,0,0,false,false,true,-3155.01,-650.61,17.01,-0.0014485028,0.0045774844,0.2965827,0.95499504,784.93097,1546.8309,8.341001,0.00021,0.00010999999,-3.04971
458.20834,-2386.42,-2840.67,93.14,0.5022602,0.13226743,0.8434007,-0.13753276,-15.041,534.701,0,-5.8597097,-0.16481,0.02151,1,0.007874016,0,0,0,false,true,false,-1130.36,-3541.47,16.99,-0.0044426145,0.0017721906,0.93127203,0.36429304,-1035.781,956.73096,8.531,0.00010999999,-0.00051,0.00561,-1,-1,0,0,0,false,false,true,-3148.47,-637.72,17.01,-0.0013891598,0.0045936685,0.2844228,0.95868677,790.29095,1536.4309,8.341001,0.00021,0,-3.0622098
458.21667,-2386.55,-2836.21,93.14,0.5048766,0.15295115,0.8402537,-0.12521638,-15.031,534.60095,0,-5.8586097,-0.16471,0.02151,1,0.007874016,0,0,0,false,true,false,-1138.99,-3533.5,16.99,-0.004442615,0.0017721907,0.9312805,0.3642715,-1035.851,956.65094,8.531,0.00010999999,-0.00051,0.00731,-1,-1,0,0,0,false,false,true,-3141.88,-624.92,17.01,-0.0013298173,0.0046098535,0.2721658,0.9622384,795.441,1525.761,8.341001,0.00021,0,-3.0738099
458.225,-2386.68,-2831.76,93.14,0.50719106,0.17354318,0.83660585,-0.112829894,-15.021,534.501,0,-5.85751,-0.16461,0.02151,1,0.007874016,0,0,0,false,true,false,-1147.62,-3525.53,16.99,-0.0044426145,0.0017721906,0.931291,0.3642445,-1035.9209,956.58093,8.531,0.00010999999,-0.00051,0.00871,-1,-1,0,0,0,false,false,true,-3135.25,-612.20996,17.01,-0.0012704745,0.0046260376,0.2598225,0.9656444,800.36096,1514.841,8.341001,0.00021,0,-3.0845098
458.23334,-2386.8,-2827.31,93.14,0.50920326,0.1940273,0.83245987,-0.100378655,-15.011,534.40094,0,-5.85641,-0.16451,0.02151,1,0.007874016,0,0,0,false,true,false,-1156.25,-3517.5598,16.99,-0.0044426145,0.0017721906,0.9313037,0.36421213,-1035.991,956.5109,8.531,0.00010999999,-0.00051,0.00991,-1,-1,0,0,0,false,false,true,-3128.5798,-599.58997,17.01,-0.0012111317,0.004642222,0.24739279,0.9689033,805.04095,1503.6909,8.341001,0.00021,0,-3.09421
458.24167,-2386.92,-2822.8599,93.14,0.5109134,0.21439274,0.8278178,-0.08786808,-15.001,534.30096,0,-5.85531,-0.16441,0.02151,1,0.007874016,0,0,0,false,true,false,-1164.88,-3509.5898,16.99,-0.004442614,0.0017721903,0.93131834,0.36417434,-1036.0609,956.441,8.531,0.00010999999,-0.00051,0.01091,-1,-1,0,0,0,false,false,true,-3121.8699,-587.06,17.01,-0.001151789,0.004658406,0.23488227,0.9720119,808.84094,1492.111,8.341001,0.00021,0.00010999999,-3.10081
458.25,-2387.04,-2818.41,93.14,0.51231605,0.23462331,0.8226862,-0.07530895,-14.991,534.201,0,-5.85421,-0.16431,0.02151,1,0.007874016,0,0,0,false,true,false,-1173.51,-3501.6199,16.99,-0.004442614,0.0017721903,0.9313352,0.36413118,-1036.131,956.36096,8.531,0.00010999999,-0.00051,0.011709999,-1,-1,0,0,0,false,false,true,-3115.13,-574.63,17.01,-0.0010924462,0.0046745907,0.2223069,0.97496486,811.98096,1480.231,8.341001,0.00021,0.00010999999,-3.10501
458.25833,-2387.16,-2813.96,93.14,0.5134166,0.2547136,0.8170631,-0.062706664,-14.981,534.10095,0,-5.85311,-0.16420999,0.02151,1,0.007874016,0,0,0,false,true,false,-1182.14,-3493.65,16.99,-0.0044426145,0.0017721906,0.9313522,0.36408806,-1036.2009,956.28094,8.531,0.00010999999,-0.00051,0.012409999,-1,-1,0,0,0,false,false,true,-3108.3599,-562.29,17.01,-0.0010331036,0.0046907756,0.20967762,0.97775877,814.66095,1468.1609,8.341001,0.00021,0.00010999999,-3.1075099
458.26666,-2387.28,-2809.51,93.14,0.5142096,0.27464738,0.8109565,-0.050066616,-14.971,534.001,0,-5.85201,-0.16410999,0.02151,1,0.007874016,0,0,0,false,true,false,-1190.77,-3485.68,16.99,-0.0044426145,0.0017721906,0.93137115,0.36403948,-1036.281,956.191,8.531,0.00010999999,-0.00051,0.013009999,-1,-1,0,0,0,false,false,true,-3101.5698,-550.06,17.01,-0.00097376073,0.0047015646,0.19699983,0.9803917,816.86096,1455.9309,8.341001,0.00030999997,0.00010999999,-3.1082098
458.275,-2387.4,-2805.06,93.14,0.51470053,0.29441398,0.8043661,-0.03739955,-14.961,533.90094,0,-5.8509097,-0.16400999,0.02151,1,0.007874016,0,0,0,false,true,false,-1199.41,-3477.71,16.99,-0.0044426145,0.0017721906,0.9313901,0.36399093,-1036.361,956.10095,8.531,0.00010999999,-0.00051,0.013509999,-1,-1,0,0,0,false,false,true,-3094.76,-537.93,17.01,-0.0009090232,0.004712355,0.18428423,0.9828612,818.561,1443.5809,8.341001,0.00040999998,0.00021,-3.10701
458.28333,-2387.52,-2800.6099,93.14,0.5148839,0.31400254,0.7972991,-0.02471634,-14.951,533.80096,0,-5.8498096,-0.16391,0.02151,1,0.007874016,0,0,0,false,true,false,-1208.0499,-3469.74,16.99,-0.0044426145,0.0017721906,0.9314112,0.363937,-1036.4509,956.0109,8.531,0.00010999999,-0.00051,0.013909999,-1,-1,0,0,0,false,false,true,-3087.94,-525.89996,17.01,-0.0008442856,0.0047231438,0.1715471,0.98516417,819.74097,1431.141,8.341001,0.00040999998,0.00021,-3.1038098
458.29166,-2387.64,-2796.16,93.14,0.51475996,0.3334024,0.7897598,-0.012016951,-14.941,533.701,0,-5.84871,-0.16381,0.02151,1,0.007874016,0,0,0,false,true,false,-1216.69,-3461.77,16.99,-0.0044426145,0.0017721906,0.9314323,0.36388305,-1036.5409,955.91095,8.531,0.00010999999,-0.00051,0.0143099995,-1,-1,0,0,0,false,false,true,-3081.1099,-513.97,17.01,-0.00077954796,0.004733933,0.1587937,0.9873,820.3909,1418.641,8.341001,0.00040999998,0.00030999997,-3.09851
458.3,-2387.76,-2791.71,93.14,0.51433367,0.35259712,0.7817516,0.0006824417,-14.941,533.60095,0,-5.84761,-0.16371,0.02151,1,0,0,0,0,false,true,false,-1225.33,-3453.7998,16.99,-0.0044426145,0.0017721906,0.93145335,0.3638291,-1036.631,955.811,8.531,0.00010999999,-0.00061,0.014609999,-1,-1,0,0,0,false,false,true,-3074.27,-502.15,17.01,-0.00071481057,0.0047447234,0.14603503,0.98926777,820.501,1406.121,8.341001,0.00040999998,0.00030999997,-3.0910099
458.30832,-2387.88,-2787.26,93.14,0.5136,0.3715815,0.7732807,0.013381876,-14.931,533.501,0,-5.84661,-0.16361,0.02151,1,0,0,0,0,false,true,false,-1233.97,-3445.8298,16.99,-0.0044426145,0.0017721906,0.93147653,0.36376974,-1036.661,955.77094,8.531,0.00021,-0.00061,0.012209999,-1,-1,0,0,0,false,false,true,-3067.43,-490.43,17.01,-0.0006500729,0.0047555123,0.13328162,0.99106646,820.061,1393.621,8.341001,0.00040999998,0.00030999997,-3.08121
458.31668,-2388,-2782.81,93.14,0.5125588,0.3903393,0.7643552,0.026070436,-14.9210005,533.40094,0,-5.84551,-0.16351,0.02151,1,0,0,0,0,false,true,false,-1242.61,-3437.8599,16.99,-0.004442615,0.0017721907,0.93149555,0.36372122,-1036.7109,955.72095,8.531,0.00021,-0.00061,0.010209999,-1,-1,0,0,0,false,false,true,-3060.5999,-478.81998,17.01,-0.0005853354,0.0047663026,0.12054985,0.9926956,819.061,1381.1709,8.341001,0.00040999998,0.00030999997,-3.06901
458.325,-2388.1199,-2778.3699,93.14,0.5112155,0.4088651,0.7549747,0.038742896,-14.911,533.30096,0,-5.84441,-0.16341,0.02151,1,0,0,0,0,false,true,false,-1251.25,-3429.9,16.99,-0.004442615,0.0017721907,0.93151027,0.36368346,-1036.761,955.66095,8.531,0.00021,-0.00061,0.008609999,-1,-1,0,0,0,false,false,true,-3053.77,-467.31,17.01,-0.0005205978,0.004777092,0.10784509,0.99415606,817.501,1368.8109,8.341001,0.00040999998,0.00030999997,-3.0543098
458.33334,-2388.24,-2773.93,93.14,0.5095701,0.4271427,0.7451487,0.0513883,-14.901,533.201,0,-5.84331,-0.16330999,0.02151,1,0,0,0,0,false,true,false,-1259.89,-3421.94,16.99,-0.0044426145,0.0017721906,0.9315229,0.36365107,-1036.8209,955.60095,8.531,0.00021,-0.00061,0.00721,-1,-1,0,0,0,false,false,true,-3046.96,-455.9,17.01,-0.00045586028,0.0047824867,0.095183425,0.9954481,815.381,1356.5809,8.341001,0.00040999998,0.00030999997,-3.0369098
458.34167,-2388.3599,-2769.49,93.14,0.50762254,0.44516137,0.73488384,0.06400141,-14.891,533.10095,0,-5.84221,-0.16320999,0.02151,1,0,0,0,0,false,true,false,-1268.53,-3413.98,16.99,-0.0044426145,0.0017721906,0.9315334,0.3636241,-1036.881,955.54095,8.531,0.00021,-0.00061,0.00611,-1,-1,0,0,0,false,false,true,-3040.16,-444.59998,17.01,-0.00039112274,0.004787882,0.082581185,0.99657273,812.701,1344.521,8.341001,0.00040999998,0.00030999997,-3.01681
458.35,-2388.48,-2765.05,93.14,0.50537294,0.46291575,0.72418493,0.07657129,-14.8810005,533.001,0,-5.8411098,-0.16310999,0.02151,1,0,0,0,0,false,true,false,-1277.1699,-3406.02,16.99,-0.004442614,0.0017721903,0.93154174,0.3636025,-1036.9309,955.48096,8.531,0.00021,-0.00061,0.00511,-1,-1,0,0,0,false,false,true,-3033.39,-433.4,17.01,-0.00032638517,0.004793276,0.07004898,0.99753195,809.47095,1332.6709,8.341001,0.00040999998,0.00030999997,-2.99381
458.35834,-2388.5999,-2760.6099,93.14,0.5028266,0.48038957,0.71305937,0.089092694,-14.871,532.90094,0,-5.8400097,-0.16301,0.02151,1,0,0,0,0,false,true,false,-1285.8099,-3398.0598,16.99,-0.0044426145,0.0017721906,0.93155026,0.36358094,-1036.981,955.42096,8.531,0.00021,-0.00061,0.0043099998,-1,-1,0,0,0,false,false,true,-3026.64,-422.28998,17.01,-0.00026704237,0.0047986708,0.057597786,0.99832815,805.691,1321.0709,8.341001,0.00040999998,0.00030999997,-2.96791
458.36667,-2388.72,-2756.17,93.14,0.4999835,0.49757743,0.70151156,0.101560146,-14.861,532.80096,0,-5.83891,-0.16291,0.02151,1,0,0,0,0,false,true,false,-1294.45,-3390.0999,16.99,-0.0044426145,0.0017721906,0.9315566,0.36356476,-1037.031,955.371,8.531,0.00021,-0.00061,0.00361,-1,-1,0,0,0,false,false,true,-3019.93,-411.28,17.01,-0.00020769966,0.0048040664,0.045249023,0.99896413,801.371,1309.751,8.341001,0.00040999998,0.00030999997,-2.93891
458.375,-2388.8398,-2751.73,93.14,0.4968437,0.51446855,0.6895511,0.11396279,-14.851,532.701,0,-5.83781,-0.16281,0.02151,1,0.007874016,0,0,0,false,true,false,-1303.09,-3382.14,16.99,-0.0044426145,0.0017721906,0.9315629,0.36354858,-1037.0809,955.321,8.531,0.00021,-0.00061,0.00301,0,-1,0,0,0,false,false,true,-3013.25,-400.37,17.01,-0.00014835689,0.0048094606,0.033013538,0.9994433,796.52094,1298.761,8.341001,0.00040999998,0.00030999997,-2.90671
458.38333,-2388.96,-2747.29,93.14,0.49341255,0.5310522,0.677183,0.12629536,-14.841,532.60095,0,-5.83671,-0.16271,0.02151,1,0.007874016,0,0,0,false,true,false,-1311.73,-3374.18,16.99,-0.004442614,0.0017721903,0.931567,0.36353776,-1037.1909,955.2009,8.531,0.00021,-0.00061,0.00521,0,-1,0,0,0,false,false,false,-3006.6099,-389.55,17.01,-0.00008901414,0.0048148553,0.020907616,0.99976975,795.691,1287.611,8.341001,0.00030999997,0,-2.8900099
458.39166,-2389.0798,-2742.8499,93.14,0.4896902,0.5473176,0.664417,0.13855235,-14.841,532.501,0,-5.83561,-0.16261,0.02151,1,0.007874016,0,0,0,false,true,false,-1320.37,-3366.22,16.99,-0.0044426145,0.0017721906,0.93157554,0.36351618,-1037.281,955.10095,8.531,0.00021,-0.00061,0.00701,1,-1,0,0,0,false,false,false,-2999.98,-378.81998,17.01,-0.000029671379,0.0048148553,0.008866347,0.99994904,791.15094,1275.491,8.341001,0.00040999998,0,-2.85461
458.4,-2389.2,-2738.41,93.14,0.48567647,0.5632539,0.65126354,0.1507285,-14.831,532.40094,0,-5.83451,-0.16261,0.02151,1,0.007874016,0,0,0,false,true,false,-1329.01,-3358.26,16.99,-0.004442615,0.0017721907,0.9315861,0.36348924,-1037.371,955.001,8.531,0.00021,-0.00061,0.008509999,1,-1,0,0,0,false,false,false,-2993.39,-368.19,17.01,0.00002967138,0.0048148558,-0.0030291781,0.9999838,794.511,1260.751,8.341001,0.00010999999,-0.00051,-2.84941
458.40833,-2389.32,-2733.97,93.14,0.48137683,0.5788557,0.63772583,0.16281284,-14.831,532.30096,0,-5.83341,-0.16251,0.02151,1,0.007874016,0,0,0,false,true,false,-1337.65,-3350.2998,16.99,-0.004442615,0.0017721907,0.9315987,0.36345688,-1037.4509,954.91095,8.531,0.00021,-0.00061,0.009709999,1,-1,0,0,0,false,false,false,-2986.77,-357.68,17.01,0.00008901414,0.0048094606,-0.014903166,0.99987733,797.561,1244.5509,8.341001,0,-0.00071,-2.83991
458.41666,-2389.44,-2729.53,93.14,0.47679663,0.5941123,0.6238126,0.17479476,-14.821,532.201,0,-5.8323097,-0.16240999,0.02151,1,0.007874016,0,0,0,false,true,false,-1346.2999,-3342.3398,16.99,-0.004442615,0.0017721907,0.93161345,0.36341912,-1037.531,954.821,8.531,0.00021,-0.00061,0.010709999,1,-1,0,0,0,false,false,false,-2980.1199,-347.31,17.01,0.00014835689,0.004804066,-0.026733996,0.999631,800.24097,1226.971,8.351,0,-0.00081,-2.8259099
458.425,-2389.56,-2725.0999,93.14,0.47193584,0.6090182,0.6095293,0.1866741,-14.811,532.10095,0,-5.8312097,-0.16230999,0.02151,1,0.007874016,0,0,0,false,true,false,-1354.95,-3334.38,16.99,-0.0044426145,0.0017721906,0.93163025,0.36337593,-1037.611,954.73096,8.531,0.00021,-0.00061,0.011609999,1,-1,0,0,0,false,false,false,-2973.45,-337.09,17.01,0.00020769962,0.0047986708,-0.038500085,0.9992469,802.511,1208.101,8.351,0,-0.00081,-2.80701
458.43332,-2389.68,-2720.67,93.14,0.4667946,0.623558,0.5948945,0.19844024,-14.801,532.001,0,-5.83011,-0.16220999,0.02151,1,0.007874016,0,0,0,false,true,false,-1363.6,-3326.42,16.99,-0.0044426145,0.0017721906,0.93164706,0.36333278,-1037.7009,954.6409,8.531,0.00021,-0.00061,0.012309999,1,-1,0,0,0,false,false,false,-2966.76,-327.02,17.01,0.0002616476,0.004793276,-0.0501853,0.99872833,804.33093,1188.031,8.351,0,-0.00081,-2.78301
458.44168,-2389.8,-2716.24,93.14,0.46137822,0.6377305,0.5799077,0.21008769,-14.791,531.90094,0,-5.82901,-0.16211,0.02151,1,0.007874016,0,0,0,false,true,false,-1372.25,-3318.46,16.99,-0.0044426145,0.0017721906,0.931666,0.36328423,-1037.7909,954.55096,8.531,0.00021,-0.00061,0.012909999,1,-1,0,0,0,false,false,false,-2960.0598,-317.12,17.01,0.0003155956,0.004787882,-0.061762583,0.9980793,805.67096,1166.851,8.361,0,-0.00081,-2.75351
458.45,-2389.92,-2711.81,93.14,0.4556921,0.6515241,0.5645811,0.22160558,-14.781,531.80096,0,-5.82791,-0.16201,0.02151,1,0.007874016,0,0,0,false,true,false,-1380.9,-3310.51,16.99,-0.0044426145,0.0017721906,0.931685,0.36323565,-1037.881,954.4509,8.531,0.00021,-0.00061,0.013409999,1,-1,0,0,0,false,false,false,-2953.3499,-307.4,17.01,0.00036954353,0.0047824867,-0.07321037,0.9973049,806.501,1144.651,8.361,0,-0.00081,-2.7183099
458.45834,-2390.04,-2707.38,93.14,0.44973618,0.6649301,0.5489253,0.23299408,-14.771,531.701,0,-5.82681,-0.16191,0.02151,1,0.007874016,0,0,0,false,true,false,-1389.5499,-3302.5598,16.99,-0.004442615,0.0017721907,0.931706,0.36318174,-1037.971,954.35095,8.531,0.00021,-0.00061,0.013909999,1,-1,0,0,0,false,false,false,-2946.63,-297.86,17.01,0.0004234915,0.004777092,-0.08450173,0.99641174,806.811,1121.531,8.361,0.00010999999,-0.00081,-2.6772099
458.46667,-2390.16,-2702.95,93.14,0.44352135,0.6779404,0.5329458,0.24424224,-14.761,531.60095,0,-5.82571,-0.16181,0.02151,1,0.007874016,0,0,0,false,true,false,-1398.2,-3294.6099,16.99,-0.0044426145,0.0017721906,0.931727,0.36312777,-1038.0609,954.251,8.531,0.00021,-0.00061,0.0143099995,1,-1,0,0,0,false,false,false,-2939.91,-288.50998,17.01,0.00047743946,0.004766302,-0.09560965,0.99540734,806.59094,1097.5809,8.361,0.00021,-0.00081,-2.63011
458.475,-2390.28,-2698.52,93.14,0.43704224,0.69054806,0.5166589,0.2553448,-14.751,531.501,0,-5.8246098,-0.16171,0.02151,1,0.007874016,0,0,0,false,true,false,-1406.85,-3286.66,16.99,-0.0044426145,0.0017721906,0.93174803,0.36307383,-1038.161,954.1409,8.531,0.00021,-0.00061,0.014609999,1,-1,0,0,0,false,false,false,-2933.19,-279.36,17.01,0.0005313874,0.004755513,-0.10651258,0.99429977,805.83093,1072.891,8.361,0.00030999997,-0.00081,-2.57681
458.48334,-2390.4,-2694.0898,93.14,0.43030944,0.70274675,0.5000699,0.26629087,-14.741,531.40094,0,-5.8235097,-0.16160999,0.02151,1,0.007874016,0,0,0,false,true,false,-1415.5,-3278.71,16.99,-0.0044426145,0.0017721906,0.93177116,0.3630145,-1038.261,954.03094,8.531,0.00021,-0.00061,0.014909999,1,-1,0,0,0,false,false,false,-2926.47,-270.41998,17.01,0.0005853354,0.0047447234,-0.11718354,0.99309874,804.53094,1047.5509,8.361,0.00040999998,-0.00081,-2.51731
458.49167,-2390.52,-2689.66,93.14,0.42332315,0.714529,0.48318946,0.2770805,-14.741,531.30096,0,-5.8224096,-0.16150999,0.02151,1,0.007874016,0,0,0,false,true,false,-1424.15,-3270.76,16.99,-0.0044426145,0.0017721906,0.9317943,0.36295512,-1038.371,953.92096,8.531,0.00021,-0.00061,0.015109999,1,-1,0,0,0,false,false,false,-2919.77,-261.69,17.01,0.00063928333,0.0047339336,-0.12759551,0.99181473,802.701,1021.631,8.371,0.00051,-0.00081,-2.4516098
458.5,-2390.64,-2685.23,93.14,0.41608873,0.7258887,0.46602854,0.28770286,-14.731,531.201,0,-5.8214097,-0.16150999,0.02151,1,0.007874016,0,0,0,false,true,false,-1432.7999,-3262.8098,16.99,-0.004442614,0.0017721903,0.9318173,0.36289576,-1038.481,953.80096,8.531,0.00021,-0.00061,0.015309999,1,-1,0,0,0,false,false,false,-2913.0798,-253.18,17.01,0.0006878365,0.0047231438,-0.13772155,0.99045944,800.34094,995.21094,8.371,0.00061,-0.00081,-2.3798099
458.50833,-2390.76,-2680.8,93.14,0.40861145,0.7368218,0.44859242,0.29815257,-14.731,531.10095,0,-5.8203096,-0.16140999,0.02151,1,0.007874016,0,0,0,false,true,false,-1441.45,-3254.8599,16.99,-0.0044426145,0.0017721906,0.9318405,0.36283645,-1038.591,953.68097,8.531,0.00021,-0.00061,0.015509999,1,-1,0,0,0,false,false,false,-2906.41,-244.89,17.01,0.00073638966,0.0047123544,-0.14753473,0.9890453,797.46094,968.36096,8.371,0.00071,-0.00081,-2.30201
458.51666,-2390.88,-2676.3699,93.14,0.4008969,0.7473174,0.43089753,0.30842435,-14.721,531.001,0,-5.81921,-0.16130999,0.02151,1,0.007874016,0,0,0,false,true,false,-1450.1,-3246.91,16.99,-0.0044426145,0.0017721906,0.9318636,0.3627771,-1038.7009,953.561,8.531,0.00021,-0.00061,0.015609999,1,-1,0,0,0,false,false,false,-2899.76,-236.81999,17.01,0.00078494276,0.004701564,-0.15701342,0.9875848,794.071,941.15094,8.371,0.00081,-0.00081,-2.2181098
458.525,-2391,-2671.95,93.14,0.392945,0.7573721,0.41295436,0.31851265,-14.711,530.90094,0,-5.81811,-0.16121,0.02151,1,0.007874016,0,0,0,false,true,false,-1458.76,-3238.96,16.99,-0.0044426145,0.0017721906,0.9318867,0.36271778,-1038.8109,953.441,8.531,0.00021,-0.00061,0.01571,1,-1,0,0,0,false,false,false,-2893.14,-228.98,17.01,0.000833496,0.004690775,-0.16613607,0.98609126,790.201,913.631,8.371,0.00091,-0.00081,-2.12851
458.53333,-2391.1199,-2667.53,93.14,0.38476637,0.7669798,0.39476842,0.32841218,-14.701,530.80096,0,-5.81701,-0.16111,0.02151,1,0.007874016,0,0,0,false,true,false,-1467.4199,-3231.01,16.99,-0.0044426145,0.0017721906,0.9319098,0.3626584,-1038.9309,953.311,8.531,0.00021,-0.00061,0.01581,1,-1,0,0,0,false,false,false,-2886.55,-221.37,17.01,0.00088204903,0.004679985,-0.17487568,0.98457885,785.85095,885.84094,8.371,0.00091,-0.00081,-2.03341
458.54166,-2391.24,-2663.1099,93.14,0.37636128,0.7761346,0.3763559,0.33811742,-14.691,530.701,0,-5.81591,-0.16101,0.02151,1,0.007874016,0,0,0,false,true,false,-1476.08,-3223.0698,16.99,-0.0044426145,0.0017721906,0.93193287,0.36259907,-1039.0509,953.18097,8.531,0.00021,-0.00061,0.01591,1,-1,0,0,0,false,false,false,-2880,-213.98999,17.01,0.00092520757,0.004669196,-0.18321069,0.9830621,781.04095,857.83093,8.371,0.00091,-0.00081,-1.9334099
458.55,-2391.3599,-2658.69,93.14,0.367735,0.78483117,0.3577276,0.3476231,-14.681,530.60095,0,-5.81481,-0.16091,0.02151,1,0.007874016,0,0,0,false,true,false,-1484.74,-3215.13,16.99,-0.004442615,0.0017721907,0.931956,0.36253977,-1039.1709,953.05096,8.531,0.00021,-0.00071,0.01601,1,-1,0,0,0,false,false,false,-2873.49,-206.84,17.01,0.00096836593,0.004658406,-0.19112486,0.98155415,775.78094,829.621,8.371,0.00091,-0.00071,-1.82891
458.55832,-2391.48,-2654.27,93.14,0.35889822,0.7930647,0.33888882,0.35692373,-14.6710005,530.501,0,-5.8137097,-0.16081,0.02151,1,0.007874016,0,0,0,false,true,false,-1493.4,-3207.19,16.99,-0.0044426145,0.0017721906,0.93198115,0.362475,-1039.2909,952.92096,8.531,0.00021,-0.00071,0.01611,1,-1,0,0,0,false,false,false,-2867.02,-199.93,17.01,0.0010061294,0.0046476168,-0.19859669,0.9800697,770.08093,801.23096,8.371,0.00091,-0.00071,-1.7207099
458.56668,-2391.5999,-2649.8499,93.14,0.34985116,0.8008332,0.31985593,0.36600867,-14.661,530.40094,0,-5.8126097,-0.16070999,0.02151,1,0.007874016,0,0,0,false,true,false,-1502.0599,-3199.25,16.99,-0.004442615,0.0017721907,0.93200636,0.36241028,-1039.411,952.79095,8.531,0.00030999997,-0.00071,0.016210001,1,-1,0,0,0,false,false,false,-2860.5999,-193.25,17.01,0.001043893,0.004636827,-0.20562075,0.9786202,763.93097,772.65094,8.371,0.00091,-0.00071,-1.61041
458.575,-2391.72,-2645.43,93.14,0.340599,0.8081303,0.30063966,0.37487772,-14.651,530.30096,0,-5.81151,-0.16060999,0.02151,1,0.007874016,0,0,0,false,true,false,-1510.72,-3191.3098,16.99,-0.0044426145,0.0017721906,0.9320315,0.36234552,-1039.531,952.66095,8.531,0.00030999997,-0.00071,0.016210001,1,-1,0,0,0,false,false,false,-2854.23,-186.81,17.01,0.0010816565,0.0046260376,-0.21218082,0.9772188,757.321,743.8909,8.371,0.00091,-0.00061,-1.49931
458.58334,-2391.8398,-2641.01,93.14,0.33115277,0.8149502,0.28125072,0.3835256,-14.641,530.201,0,-5.81041,-0.16050999,0.02151,1,0.007874016,0,0,0,false,true,false,-1519.38,-3183.3699,16.99,-0.0044426145,0.0017721906,0.93205667,0.3622808,-1039.651,952.52094,8.531,0.00030999997,-0.00071,0.01631,1,-1,0,0,0,false,false,false,-2847.92,-180.61,17.01,0.0011140255,0.0046152486,-0.2182824,0.97587407,750.28094,714.97095,8.371,0.00091,-0.00061,-1.38711
458.59167,-2391.96,-2636.5898,93.14,0.32151222,0.821292,0.26169986,0.39194694,-14.6310005,530.10095,0,-5.80931,-0.16041,0.02151,1,0.007874016,0,0,0,false,true,false,-1528.0399,-3175.43,16.99,-0.0044426145,0.0017721906,0.9320818,0.36221606,-1039.781,952.381,8.531,0.00030999997,-0.00071,0.01631,1,-1,0,0,0,false,false,false,-2841.67,-174.65,17.01,0.0011463943,0.004604459,-0.22391996,0.97459596,742.83093,685.92096,8.371,0.00081,-0.00051,-1.27351
458.6,-2392.0798,-2632.17,93.14,0.31168282,0.8271527,0.241998,0.40013623,-14.6310005,530.001,0,-5.80821,-0.16031,0.02151,1,0.007874016,0,0,0,false,true,false,-1536.7,-3167.49,16.99,-0.0044426145,0.0017721906,0.932107,0.36215132,-1039.911,952.24097,8.531,0.00030999997,-0.00071,0.01631,1,-1,0,0,0,false,false,false,-2835.48,-168.93,17.01,0.0011733681,0.0045990637,-0.2290882,0.97339404,734.98096,656.73096,8.371,0.00071,-0.00040999998,-1.15931
458.60834,-2392.2,-2627.75,93.14,0.30167547,0.8325264,0.22216125,0.40808818,-14.621,529.90094,0,-5.80711,-0.16031,0.02151,1,0.007874016,0,0,0,false,true,false,-1545.37,-3159.55,16.99,-0.0044426145,0.0017721906,0.9321321,0.36208656,-1040.0409,952.10095,8.531,0.00030999997,-0.00071,0.01631,1,-1,0,0,0,false,false,false,-2829.3499,-163.45999,17.01,0.0012003421,0.004593669,-0.23378707,0.97227615,726.701,627.371,8.371,0.00061,-0.00040999998,-1.04711
458.61667,-2392.32,-2623.3298,93.14,0.2914954,0.83741,0.20219502,0.4158028,-14.621,529.80096,0,-5.80601,-0.16021,0.02151,1,0.007874016,0,0,0,false,true,false,-1554.0399,-3151.6199,16.99,-0.0044426145,0.0017721906,0.9321573,0.36202183,-1040.1709,951.96094,8.531,0.00030999997,-0.00071,0.01631,1,-1,0,0,0,false,false,false,-2823.29,-158.23,17.01,0.0012219213,0.004588274,-0.23802742,0.9712468,717.98096,597.84094,8.371,0.00051,-0.00030999997,-0.93790996
458.625,-2392.44,-2618.92,93.14,0.2811428,0.84180504,0.18211551,0.4232692,-14.611,529.701,0,-5.8049097,-0.16011,0.02151,1,0.007874016,0,0,0,false,true,false,-1562.71,-3143.69,16.99,-0.004442615,0.0017721907,0.93218243,0.36195713,-1040.3009,951.821,8.531,0.00030999997,-0.00071,0.01631,1,-1,0,0,0,false,false,false,-2817.31,-153.25,17.01,0.0012435005,0.004582879,-0.24181996,0.97030944,708.821,568.121,8.371,0.00040999998,-0.00030999997,-0.83301
458.63333,-2392.56,-2614.51,93.14,0.27062824,0.8457058,0.16193348,0.43048745,-14.601,529.60095,0,-5.8038096,-0.16001,0.02151,1,0.007874016,0,0,0,false,true,false,-1571.38,-3135.76,16.99,-0.0044426145,0.0017721906,0.9322075,0.36189237,-1040.4309,951.68097,8.531,0.00030999997,-0.00071,0.01631,1,-1,0,0,0,false,false,false,-2811.4,-148.52,17.01,0.001259685,0.004577485,-0.24518634,0.9694643,699.21094,538.21094,8.371,0.00030999997,-0.00021,-0.73351
458.64166,-2392.68,-2610.0999,93.14,0.25995737,0.8491114,0.14165977,0.43745226,-14.591,529.501,0,-5.80271,-0.15991,0.02151,1,0.007874016,0,0,0,false,true,false,-1580.0499,-3127.8298,16.99,-0.0044426145,0.0017721906,0.9322327,0.3618276,-1040.5609,951.54095,8.531,0.00030999997,-0.00071,0.01631,1,-1,0,0,0,false,false,false,-2805.5698,-144.03,17.01,0.0012758692,0.0045720898,-0.24814807,0.9687104,689.16095,508.10098,8.371,0.00021,-0.00010999999,-0.64051
458.65,-2392.8,-2605.69,93.14,0.24913533,0.8520185,0.121305116,0.44416338,-14.581,529.40094,0,-5.80161,-0.15980999,0.02151,1,0.007874016,0,0,0,false,true,false,-1588.72,-3119.9,16.99,-0.004442614,0.0017721903,0.9322577,0.36176285,-1040.6909,951.40094,8.531,0.00030999997,-0.00071,0.01631,1,-1,0,0,0,false,false,false,-2799.8298,-139.8,17.01,0.0012866589,0.004566695,-0.25073224,0.9680448,678.68097,477.801,8.3810005,0,0,-0.55521
458.65833,-2392.92,-2601.28,93.14,0.23817308,0.8544273,0.10088581,0.45061013,-14.571,529.30096,0,-5.80051,-0.15970999,0.02151,1,0.007874016,0,0,0,false,true,false,-1597.39,-3111.97,16.99,-0.0044426145,0.0017721906,0.9322829,0.36169815,-1040.8209,951.2609,8.531,0.00030999997,-0.00071,0.01631,1,-1,0,0,0,false,false,false,-2794.17,-135.81999,17.01,0.0012974484,0.0045613,-0.25297105,0.9674622,667.78094,447.311,8.3810005,-0.00010999999,0,-0.47851
458.66666,-2393.04,-2596.8699,93.14,0.22707051,0.8563371,0.08041247,0.45679265,-14.561,529.201,0,-5.79941,-0.15960999,0.02151,1,0.007874016,0,0,0,false,true,false,-1606.0599,-3104.04,16.99,-0.004442615,0.0017721907,0.9323081,0.36163345,-1040.9509,951.121,8.531,0.00030999997,-0.00071,0.01631,1,-1,0,0,0,false,false,false,-2788.5999,-132.09,17.01,0.001308238,0.0045613,-0.25489697,0.9669565,656.47095,416.651,8.3810005,-0.00021,0.00010999999,-0.41141
458.675,-2393.16,-2592.46,93.14,0.21583855,0.85774696,0.059895977,0.46270534,-14.551,529.10095,0,-5.79831,-0.15951,0.02151,1,0.007874016,0,0,0,false,true,false,-1614.73,-3096.1099,16.99,-0.0044426145,0.0017721906,0.9323331,0.36156866,-1041.0809,950.98096,8.531,0.00030999997,-0.00071,0.01631,1,-1,0,0,0,false,false,false,-2783.13,-128.62,17.01,0.0013136328,0.0045613,-0.25655317,0.9665184,644.78094,385.841,8.3810005,-0.00040999998,0.00021,-0.35471
458.68332,-2393.28,-2588.05,93.14,0.2044824,0.85865504,0.039347112,0.4683483,-14.541,529.001,0,-5.79731,-0.15941,0.02151,1,0.007874016,0,0,0,false,true,false,-1623.4099,-3088.18,16.99,-0.0044426145,0.0017721906,0.93235826,0.36150393,-1041.2109,950.83093,8.531,0.00030999997,-0.00071,0.01631,1,-1,0,0,0,false,false,false,-2777.76,-125.399994,17.01,0.0013190276,0.0045613,-0.25798282,0.96613777,632.74097,354.901,8.391,-0.00061,0.00030999997,-0.30901
458.69168,-2393.4,-2583.64,93.14,0.19300768,0.8590625,0.018776672,0.47371614,-14.531,528.90094,0,-5.79621,-0.15931,0.02151,1,0.007874016,0,0,0,false,true,false,-1632.09,-3080.26,16.99,-0.0044426145,0.0017721906,0.93238336,0.3614392,-1041.341,950.691,8.531,0.00030999997,-0.00071,0.01631,1,-1,0,0,0,false,false,false,-2772.49,-122.439995,17.01,0.0013244224,0.0045613,-0.259229,0.96580416,620.381,323.871,8.391,-0.00081,0.00040999998,-0.27501002
458.7,-2393.52,-2579.23,93.14,0.18142498,0.8589696,-0.0017991646,0.47880352,-14.531,528.80096,0,-5.7951097,-0.15921,0.02151,1,0.007874016,0,0,0,false,true,false,-1640.77,-3072.3398,16.99,-0.004442614,0.0017721903,0.93240833,0.36137444,-1041.471,950.54095,8.531,0.00030999997,-0.00071,0.01631,1,-1,0,0,0,false,false,false,-2767.3198,-119.74,17.01,0.0013244224,0.0045613,-0.26033497,0.9655066,607.751,292.79102,8.401,-0.0010099999,0.00051,-0.25301
458.70834,-2393.64,-2574.8198,93.14,0.16973984,0.85837275,-0.022369606,0.48361567,-14.521,528.701,0,-5.7940097,-0.15921,0.02151,1,0.007874016,0,0,0,false,true,false,-1649.45,-3064.42,16.99,-0.0044426145,0.0017721906,0.9324335,0.36130974,-1041.601,950.40094,8.531,0.00030999997,-0.00071,0.01631,1,-1,0,0,0,false,false,false,-2762.25,-117.299995,17.01,0.0013244224,0.0045613,-0.2613546,0.9652311,594.891,261.711,8.401,-0.0012099999,0.00061,-0.24340999
458.71667,-2393.76,-2570.41,93.14,0.15795752,0.8572773,-0.042923864,0.4881419,-14.521,528.60095,0,-5.79291,-0.15911,0.02151,1,0.007874016,0,0,0,false,true,false,-1658.13,-3056.5,16.99,-0.004442614,0.0017721903,0.9324585,0.36124495,-1041.731,950.251,8.531,0.00030999997,-0.00071,0.01631,1,-1,0,0,0,false,false,false,-2757.29,-115.119995,17.01,0.0013244224,0.0045613,-0.26233107,0.9649662,581.85095,230.69101,8.401,-0.00131,0.00071,-0.24621
458.725,-2393.88,-2566.01,93.14,0.14608358,0.85568285,-0.06345114,0.4923822,-14.511,528.501,0,-5.79181,-0.15901,0.02151,1,0.007874016,0,0,0,false,true,false,-1666.8099,-3048.5798,16.99,-0.0044426145,0.0017721906,0.9324837,0.36118025,-1041.861,950.11096,8.531,0.00030999997,-0.00081,0.01631,1,-1,0,0,0,false,false,false,-2752.44,-113.2,17.01,0.0013244224,0.0045613,-0.2633183,0.96469724,568.691,199.791,8.411,-0.00151,0.00081,-0.26141
458.73334,-2394,-2561.6099,93.14,0.13412863,0.85358906,-0.083935276,0.4963366,-14.501,528.40094,0,-5.79071,-0.15890999,0.02151,1,0.007874016,0,0,0,false,true,false,-1675.49,-3040.66,16.99,-0.004448009,0.0017721906,0.9325087,0.36111552,-1041.991,949.96094,8.531,0.00040999998,-0.00081,0.01631,1,-1,0,0,0,false,false,false,-2747.7,-111.54,17.01,0.0013244225,0.0045613004,-0.26437032,0.96440953,555.47095,169.091,8.411,-0.0016099999,0.00091,-0.28871
458.74167,-2394.1199,-2557.21,93.14,0.12209823,0.8509994,-0.10436541,0.49999973,-14.491,528.30096,0,-5.78961,-0.15880999,0.02151,1,0.007874016,0,0,0,false,true,false,-1684.1699,-3032.74,16.99,-0.004448009,0.0017667958,0.9325338,0.36105078,-1042.121,949.821,8.531,0.00040999998,-0.00081,0.01631,1,-1,0,0,0,false,false,false,-2743.0698,-110.13,17.01,0.0013244223,0.0045612995,-0.26553014,0.9640907,542.251,138.66101,8.411,-0.0018099999,0.0010099999,-0.32771
458.75,-2394.24,-2552.81,93.14,0.109997615,0.84791493,-0.12473085,0.5033715,-14.481,528.201,0,-5.78851,-0.15870999,0.02151,1,0.007874016,0,0,0,false,true,false,-1692.85,-3024.8198,16.99,-0.004448009,0.001761401,0.9325589,0.36098602,-1042.251,949.67096,8.531,0.00040999998,-0.00081,0.01631,1,-1,0,0,0,false,false,false,-2738.55,-108.97,17.01,0.0013244224,0.0045613,-0.2668465,0.9637273,529.09094,108.58099,8.411,-0.0019099999,0.00111,-0.37791002
458.75833,-2394.3599,-2548.41,93.14,0.09783227,0.8443398,-0.14502075,0.5064465,-14.471,528.10095,0,-5.78741,-0.15861,0.02151,1,0.007874016,0,0,0,false,true,false,-1701.5399,-3016.91,16.99,-0.004448009,0.0017560062,0.9325839,0.3609213,-1042.381,949.53094,8.531,0.00040999998,-0.00071,0.01631,1,-1,0,0,0,false,false,false,-2734.14,-108.07,17.01,0.0013244224,0.0045613,-0.26836243,0.96330625,516.061,78.940994,8.4210005,-0.00201,0.0012099999,-0.43851
458.76666,-2394.48,-2544.01,93.14,0.08561305,0.84027123,-0.16522436,0.5092302,-14.461,528.001,0,-5.7863097,-0.15851,0.02151,1,0.007874016,0,0,0,false,true,false,-1710.23,-3009,16.99,-0.004448009,0.0017506114,0.932609,0.36085656,-1042.511,949.381,8.531,0.00030999997,-0.00071,0.01631,1,-1,0,0,0,false,false,false,-2729.8398,-107.409996,17.01,0.0013244224,0.0045613,-0.27012113,0.96281457,503.231,49.821,8.4210005,-0.00211,0.00131,-0.50861
458.775,-2394.5999,-2539.6099,93.14,0.07335059,0.83571494,-0.18532544,0.5117172,-14.451,527.90094,0,-5.7852097,-0.15841,0.02151,1,0.007874016,0,0,0,false,true,false,-1718.9199,-3001.0898,16.99,-0.004448009,0.0017506114,0.93263406,0.36079183,-1042.641,949.24097,8.531,0.00021,-0.00071,0.01631,1,-1,0,0,0,false,false,false,-2725.65,-106.99,17.01,0.0013244224,0.0045613,-0.2721604,0.9622401,490.661,21.300999,8.4210005,-0.00221,0.0014099999,-0.58711
458.78333,-2394.72,-2535.21,93.14,0.06104507,0.8306758,-0.20531864,0.5139021,-14.441,527.80096,0,-5.78411,-0.15831,0.02151,1,0.015748031,0,0,0,false,true,false,-1727.61,-2993.18,16.99,-0.0044480097,0.0017506115,0.93265915,0.3607271,-1042.771,949.09094,8.531,0.00021,-0.00071,0.01631,1,-1,0,0,0,false,false,false,-2721.56,-106.81,17.01,0.0013244224,0.0045613,-0.27451256,0.96157175,478.421,-6.5309997,8.4210005,-0.00221,0.0014099999,-0.67291
458.79166,-2394.8398,-2530.81,93.14,0.048707087,0.8251535,-0.22518773,0.5157903,-14.431,527.701,0,-5.78301,-0.15821,0.02151,1,0.015748031,0,0,0,false,true,false,-1736.2999,-2985.27,16.99,-0.004448009,0.0017506114,0.9326841,0.36066234,-1042.971,948.881,8.531,0.00010999999,-0.00061,0.01901,1,-1,0,0,0,false,false,false,-2717.5698,-106.86,17.01,0.0013244223,0.0045612995,-0.2772099,0.9607975,466.581,-33.600998,8.4210005,-0.00221,0.0014099999,-0.76461
458.8,-2394.96,-2526.41,93.14,0.03634221,0.81915444,-0.24492198,0.51737636,-14.431,527.60095,0,-5.78191,-0.15811,0.02151,1,0.015748031,0,0,0,false,true,false,-1744.99,-2977.3599,16.99,-0.004448009,0.0017506114,0.9327133,0.36058682,-1043.161,948.67096,8.531,0.00010999999,-0.00061,0.02121,1,-1,0,0,0,false,false,false,-2713.68,-107.14,17.01,0.0013298172,0.0045613,-0.2802688,0.95990974,455.201,-59.850998,8.4210005,-0.00211,0.0014099999,-0.86081
458.80832,-2395.0798,-2522.01,93.14,0.02396107,0.8126816,-0.26451054,0.5186603,-14.4210005,527.501,0,-5.78081,-0.15811,0.02151,1,0.015748031,0,0,0,false,true,false,-1753.6799,-2969.45,16.99,-0.004448009,0.0017506114,0.9327446,0.3605059,-1043.341,948.47095,8.531,0.00010999999,-0.00061,0.02311,1,-1,0,0,0,false,false,false,-2709.89,-107.64,17.01,0.001335212,0.0045613,-0.28371072,0.95889807,444.331,-85.221,8.4210005,-0.00201,0.00131,-0.96011
458.81668,-2395.2,-2517.6099,93.14,0.01156383,0.8057351,-0.2839427,0.51964766,-14.4210005,527.40094,0,-5.77971,-0.15800999,0.02151,1,0.015748031,0,0,0,false,true,false,-1762.37,-2961.55,16.99,-0.004448009,0.0017506114,0.9327801,0.36041418,-1043.521,948.27094,8.531,0.00010999999,-0.00061,0.02471,1,-1,0,0,0,false,false,false,-2706.19,-108.35,17.01,0.0013460016,0.0045613,-0.28754643,0.95775485,434.031,-109.671,8.4210005,-0.0019099999,0.0012099999,-1.06101
458.825,-2395.32,-2513.22,93.14,-0.00083349604,0.7983241,-0.30320218,0.5203329,-14.411,527.30096,0,-5.7786098,-0.15800999,0.02151,1,0.015748031,0,0,0,false,true,false,-1771.07,-2953.65,16.99,-0.004448009,0.0017506114,0.9328176,0.36031708,-1043.7109,948.071,8.531,0.00010999999,-0.00061,0.02601,1,-1,0,0,0,false,false,false,-2702.5698,-109.259995,17.01,0.0013567912,0.0045559052,-0.29177594,0.95647484,424.341,-133.171,8.4210005,-0.0018099999,0.00111,-1.16201
458.83334,-2395.44,-2508.8298,93.14,-0.013230779,0.79045117,-0.32228363,0.52071583,-14.411,527.201,0,-5.7775097,-0.15790999,0.02151,1,0.015748031,0,0,0,false,true,false,-1779.77,-2945.75,16.99,-0.004448009,0.0017506114,0.93285716,0.3602146,-1043.901,947.86096,8.531,0.00010999999,-0.00061,0.02711,1,-1,0,0,0,false,false,false,-2699.03,-110.369995,17.01,0.0013729756,0.0045505106,-0.29640472,0.9550505,415.291,-155.701,8.4210005,-0.0016099999,0.0010099999,-1.26161
458.84167,-2395.56,-2504.44,93.14,-0.025617274,0.7821209,-0.3411763,0.5207967,-14.401,527.10095,0,-5.77641,-0.15780999,0.02151,1,0.015748031,0,0,0,false,true,false,-1788.47,-2937.8499,16.99,-0.0044480097,0.0017506115,0.9328989,0.3601067,-1044.091,947.65094,8.531,0.00010999999,-0.00061,0.02801,1,-1,0,0,0,false,false,false,-2695.5698,-111.67,17.01,0.00138916,0.004545116,-0.3014219,0.953479,406.911,-177.261,8.411,-0.0014099999,0.00091,-1.35861
458.85,-2395.68,-2500.05,93.14,-0.037987582,0.77333826,-0.3598693,0.5205755,-14.391,527.001,0,-5.77531,-0.15771,0.02151,1,0.015748031,0,0,0,false,true,false,-1797.1699,-2929.95,16.99,-0.004448009,0.0017506114,0.9329405,0.3599988,-1044.2909,947.43097,8.531,0.00010999999,-0.00061,0.02881,1,-1,0,0,0,false,false,false,-2692.18,-113.149994,17.01,0.0014107391,0.0045397207,-0.30681673,0.95175666,399.211,-197.871,8.411,-0.0012099999,0.00081,-1.45171
458.85834,-2395.8,-2495.66,93.14,-0.05033096,0.76411134,-0.37834656,0.52005225,-14.3810005,526.90094,0,-5.77421,-0.15761,0.02151,1,0.015748031,0,0,0,false,true,false,-1805.87,-2922.05,16.99,-0.004448009,0.0017506114,0.9329842,0.35988548,-1044.491,947.2009,8.531,0.00010999999,-0.00061,0.02951,1,-1,0,0,0,false,false,false,-2688.8499,-114.799995,17.01,0.0014323184,0.004534326,-0.31256756,0.9498836,392.181,-217.561,8.401,-0.0010099999,0.00071,-1.54001
458.86667,-2395.92,-2491.27,93.14,-0.06264732,0.7544435,-0.39660266,0.5192268,-14.371,526.80096,0,-5.77311,-0.15751,0.02151,1,0.015748031,0,0,0,false,true,false,-1814.57,-2914.16,16.99,-0.004448009,0.0017506114,0.93302786,0.3597722,-1044.7009,946.97095,8.531,0.00010999999,-0.00061,0.03011,1,-1,0,0,0,false,false,false,-2685.5798,-116.61,17.01,0.0014538976,0.0045289313,-0.31865832,0.9478577,385.811,-236.381,8.401,-0.00081,0.00051,-1.62261
458.875,-2396.04,-2486.88,93.14,-0.07492053,0.74434173,-0.41462675,0.51809925,-14.361,526.701,0,-5.77201,-0.15741,0.02151,1,0.023622047,0,0,0,false,true,false,-1823.2799,-2906.27,16.99,-0.0044480097,0.0017506115,0.93307364,0.35965356,-1044.911,946.73096,8.531,0.00010999999,-0.00061,0.030609999,1,-1,0,0,0,false,false,false,-2682.3599,-118.579994,17.01,0.0014808716,0.0045181415,-0.32506195,0.94568074,380.061,-254.381,8.391,-0.00061,0.00030999997,-1.69901
458.88333,-2396.16,-2482.49,93.14,-0.087150574,0.7338084,-0.43240803,0.51667506,-14.351,526.60095,0,-5.77101,-0.15731,0.02151,1,0.023622047,0,0,0,false,true,false,-1831.99,-2898.38,16.99,-0.004448009,0.0017506114,0.93311936,0.35953483,-1045.1909,946.42096,8.531,0.00010999999,-0.00061,0.033609997,1,-1,0,0,0,false,false,false,-2679.19,-120.7,17.01,0.0015078455,0.004507352,-0.33174616,0.94335663,374.891,-271.631,8.3810005,-0.00040999998,0.00021,-1.7689099
458.89166,-2396.28,-2478.0999,93.14,-0.09932667,0.72285527,-0.44993576,0.51494867,-14.341001,526.501,0,-5.76991,-0.15720999,0.02151,1,0.023622047,0,0,0,false,true,false,-1840.7,-2890.49,16.99,-0.004448009,0.0017506114,0.93316925,0.35940537,-1045.471,946.11096,8.531,0.00010999999,-0.00061,0.036209997,1,-1,0,0,0,false,false,false,-2676.0698,-122.96,17.01,0.0015402143,0.0044965623,-0.3386893,0.9408862,370.361,-288.011,8.3810005,-0.00021,0.00010999999,-1.83151
458.9,-2396.4,-2473.71,93.14,-0.11144342,0.71148604,-0.4671992,0.5129256,-14.331,526.40094,0,-5.76881,-0.15710999,0.02151,1,0.023622047,0,0,0,false,true,false,-1849.4099,-2882.6099,16.99,-0.004448009,0.0017506114,0.93322325,0.3592651,-1045.751,945.80096,8.531,0.00010999999,-0.00061,0.03831,1,-1,0,0,0,false,false,false,-2672.98,-125.36,17.01,0.0015725831,0.004485773,-0.345859,0.9382744,366.371,-303.641,8.371,0,0,-1.8873099
458.90833,-2396.52,-2469.3198,93.14,-0.12349544,0.6997091,-0.4841875,0.5106059,-14.321,526.30096,0,-5.7677097,-0.15700999,0.02151,1,0.023622047,0,0,0,false,true,false,-1858.12,-2874.73,16.99,-0.004448009,0.0017506114,0.93328136,0.35911405,-1046.031,945.49097,8.531,0.00010999999,-0.00061,0.04011,1,-1,0,0,0,false,false,false,-2669.93,-127.89,17.01,0.0016103467,0.0044749836,-0.35322836,0.935525,362.811,-318.631,8.371,0.00010999999,-0.00010999999,-1.93661
458.91666,-2396.64,-2464.93,93.14,-0.13547191,0.6875262,-0.5008952,0.5079948,-14.321,526.201,0,-5.7666097,-0.15690999,0.02151,1,0.023622047,0,0,0,false,true,false,-1866.84,-2866.8499,16.99,-0.004448009,0.0017506114,0.93334156,0.3589576,-1046.3209,945.17096,8.531,0.00010999999,-0.00061,0.04161,1,-1,0,0,0,false,false,false,-2666.91,-130.55,17.01,0.0016481102,0.0044641937,-0.36076486,0.9326446,359.581,-333.081,8.361,0.00010999999,-0.00021,-1.9801099
458.925,-2396.76,-2460.55,93.14,-0.14736749,0.6749548,-0.51730627,0.505087,-14.311,526.10095,0,-5.76551,-0.15690999,0.02151,1,0.023622047,0,0,0,false,true,false,-1875.5599,-2858.97,16.99,-0.004448009,0.0017506114,0.9334038,0.35879576,-1046.621,944.84094,8.531,0.00010999999,-0.00061,0.04291,1,-1,0,0,0,false,false,false,-2663.91,-133.33,17.01,0.0016858738,0.004448009,-0.36844712,0.9296365,356.601,-347.071,8.361,0.00021,-0.00030999997,-2.01831
458.93332,-2396.88,-2456.17,93.14,-0.15917674,0.6619965,-0.53341514,0.5018879,-14.311,526.001,0,-5.76441,-0.15681,0.02151,1,0.031496063,0,0,0,false,true,false,-1884.2799,-2851.0999,16.99,-0.0044480097,0.0017506115,0.9334681,0.35862854,-1046.9209,944.5109,8.531,0.00010999999,-0.00061,0.04401,1,-1,0,0,0,false,false,false,-2660.94,-136.22,17.01,0.0017236375,0.004431825,-0.37625343,0.92650455,353.771,-360.681,8.361,0.00030999997,-0.00040999998,-2.05171
458.94168,-2397,-2451.79,93.14,-0.17089427,0.6486529,-0.54921657,0.49840283,-14.301,525.90094,0,-5.76331,-0.15671,0.02151,1,0.031496063,0,0,0,false,true,false,-1893,-2843.23,16.99,-0.004448009,0.0017506114,0.9335344,0.35845587,-1047.2909,944.10095,8.531,0.00010999999,-0.00061,0.047509998,1,-1,0,0,0,false,false,false,-2657.99,-139.23,17.01,0.001761401,0.0044156406,-0.38416222,0.9232533,350.991,-373.991,8.351,0.00030999997,-0.00040999998,-2.0817099
458.95,-2397.1199,-2447.41,93.14,-0.18250936,0.63493603,-0.5646997,0.49463183,-14.291,525.80096,0,-5.76221,-0.15661,0.02151,1,0.031496063,0,0,0,false,true,false,-1901.73,-2835.3599,16.99,-0.004448009,0.0017506114,0.9336048,0.35827246,-1047.661,943.691,8.531,0.00010999999,-0.00061,0.050509997,1,-1,0,0,0,false,false,false,-2655.06,-142.34999,17.01,0.0017991646,0.004399456,-0.39215735,0.9198858,348.181,-387.051,8.351,0.00040999998,-0.00040999998,-2.1091099
458.95834,-2397.24,-2443.03,93.14,-0.19401652,0.6208569,-0.57985383,0.490575,-14.281,525.701,0,-5.76111,-0.15651,0.02151,1,0.031496063,0,0,0,false,true,false,-1910.46,-2827.5,16.99,-0.004448009,0.0017506114,0.9336793,0.35807824,-1048.0409,943.27094,8.531,0.00021,-0.00071,0.053009998,1,-1,0,0,0,false,false,false,-2652.16,-145.58,17.01,0.0018423229,0.0043832716,-0.40022796,0.91640323,345.291,-399.911,8.351,0.00040999998,-0.00051,-2.13411
458.96667,-2397.3599,-2438.65,93.14,-0.20541036,0.6064279,-0.5946679,0.48623213,-14.271,525.60095,0,-5.76001,-0.15641,0.02151,1,0.031496063,0,0,0,false,true,false,-1919.19,-2819.64,16.99,-0.004453404,0.0017452165,0.93375784,0.35787323,-1048.4209,942.85095,8.531,0.00021,-0.00071,0.055109996,1,-1,0,0,0,false,false,false,-2649.28,-148.91,17.01,0.0018854813,0.0043670875,-0.40836334,0.912807,342.261,-412.60098,8.351,0.00040999998,-0.00051,-2.15711
458.975,-2397.48,-2434.27,93.14,0.2166855,-0.5916522,0.6091326,-0.48161414,-14.261,525.501,0,-5.7589097,-0.15630999,0.02151,1,0.031496063,0,0,0,false,true,false,-1927.9299,-2811.78,16.99,-0.0044587995,0.0017398219,0.9338406,0.35765746,-1048.8109,942.42096,8.531,0.00021,-0.00071,0.056909997,1,-1,0,0,0,false,false,false,-2646.43,-152.34999,17.01,0.0019286396,0.004350903,-0.4165527,0.90909904,339.051,-425.141,8.351,0.00040999998,-0.00051,-2.17841
458.98334,-2397.5999,-2429.89,93.14,0.22783117,-0.57653594,0.62325054,-0.47671568,-14.251,525.40094,0,-5.7578096,-0.15620999,0.02151,1,0.03937008,0,0,0,false,true,false,-1936.6699,-2803.93,16.99,-0.0044641937,0.001734427,0.9339252,0.35743627,-1049.2109,941.97095,8.531,0.00021,-0.00061,0.058409996,1,-1,0,0,0,false,false,false,-2643.5999,-155.89,17.01,0.0019717978,0.0043347185,-0.42478517,0.9052816,335.621,-437.561,8.351,0.00040999998,-0.00051,-2.19821
458.99167,-2397.72,-2425.51,93.14,0.23884743,-0.5610906,0.63700247,-0.47154742,-14.241,525.30096,0,-5.75671,-0.15610999,0.02151,1,0.03937008,0,0,0,false,true,false,-1945.4099,-2796.0798,16.99,-0.0044641937,0.0017290321,0.9340119,0.35720968,-1049.6809,941.441,8.531,0.00021,-0.00051,0.062309995,1,-1,0,0,0,false,false,false,-2640.8,-159.54,17.01,0.0020149562,0.0043131392,-0.43306082,0.90135205,331.941,-449.871,8.351,0.00030999997,-0.00051,-2.21661
459,-2397.8398,-2421.13,93.14,0.24972336,-0.545327,0.6503873,-0.4661041,-14.231,525.201,0,-5.75561,-0.15601,0.02151,1,0.03937008,0,0,0,false,true,false,-1954.1599,-2788.23,16.99,-0.0044641937,0.0017290321,0.9341047,0.3569669,-1050.151,940.91095,8.531,0.00010999999,-0.00040999998,0.06561,1,-1,0,0,0,false,false,false,-2638.03,-163.29,17.01,0.0020581144,0.0042915596,-0.4413688,0.897313,327.991,-462.081,8.351,0.00030999997,-0.00051,-2.23381
459.00833,-2397.96,-2416.75,93.14,0.26045364,-0.5292503,0.663395,-0.46039632,-14.221,525.10095,0,-5.75451,-0.15591,0.02151,1,0.03937008,0,0,0,false,true,false,-1962.9099,-2780.39,16.99,-0.0044641937,0.0017290321,0.93420154,0.35671335,-1050.631,940.371,8.531,0.00010999999,-0.00040999998,0.06831,1,-1,0,0,0,false,false,false,-2635.3,-167.14,17.01,0.002101273,0.004269981,-0.4497038,0.893165,323.741,-474.201,8.351,0.00021,-0.00051,-2.25001
459.01666,-2398.0798,-2412.3699,93.14,0.27103287,-0.5128717,0.6760194,-0.4544243,-14.221,525.001,0,-5.75341,-0.15581,0.02151,1,0.047244094,0,0,0,false,true,false,-1971.6699,-2772.55,16.99,-0.0044641937,0.0017290321,0.93430245,0.356449,-1051.121,939.83093,8.531,0.00010999999,-0.00040999998,0.070609994,1,-1,0,0,0,false,false,false,-2632.5999,-171.09,17.01,0.0021444317,0.004248402,-0.45805505,0.88891107,319.171,-486.231,8.351,0.00021,-0.00051,-2.26521
459.025,-2398.2,-2408,93.14,0.2814503,-0.49620175,0.688253,-0.44819325,-14.211,524.90094,0,-5.75231,-0.15581,0.02151,1,0.047244094,0,0,0,false,true,false,-1980.4299,-2764.72,16.99,-0.0044641937,0.0017290321,0.93440735,0.35617387,-1051.6809,939.2009,8.531,0.00010999999,-0.00040999998,0.07521,1,-1,0,0,0,false,false,false,-2629.94,-175.14,17.01,0.0021875896,0.0042268224,-0.46642235,0.88454926,314.261,-498.171,8.351,0.00021,-0.00040999998,-2.27961
459.03333,-2398.32,-2403.63,93.14,0.29170582,-0.47925127,0.70008856,-0.44170332,-14.211,524.80096,0,-5.7512097,-0.15571,0.02151,1,0.047244094,0,0,0,false,true,false,-1989.19,-2756.89,16.99,-0.0044641932,0.0017290319,0.9345183,0.35588253,-1052.241,938.571,8.531,0.00010999999,-0.00040999998,0.07911,1,-1,0,0,0,false,false,false,-2627.3198,-179.29,17.01,0.0022307478,0.0042052427,-0.47480047,0.8800804,309.011,-510.021,8.351,0.00010999999,-0.00040999998,-2.29321
459.04166,-2398.44,-2399.26,93.14,0.30179417,-0.462031,0.7115177,-0.43495983,-14.201,524.701,0,-5.7501097,-0.15571,0.02151,1,0.05511811,0,0,0,false,true,false,-1997.96,-2749.0698,16.99,-0.0044641932,0.0017290319,0.93463534,0.35557503,-1052.8109,937.93097,8.531,0.00010999999,-0.00040999998,0.08231,1,-1,0,0,0,false,false,false,-2624.74,-183.54,17.01,0.0022739067,0.004183665,-0.4831895,0.8755028,303.391,-521.77094,8.351,0.00010999999,-0.00040999998,-2.30611
459.05,-2398.56,-2394.89,93.14,0.3117044,-0.44454637,0.7225386,-0.42796808,-14.201,524.60095,0,-5.74901,-0.15561,0.02151,1,0.05511811,0,0,0,false,true,false,-2006.73,-2741.25,16.99,-0.0044641932,0.0017290319,0.93475634,0.35525674,-1053.4509,937.2009,8.531,0.00010999999,-0.00040999998,0.08770999,1,-1,0,0,0,false,false,false,-2622.21,-187.89,17.01,0.002317065,0.0041620852,-0.49157837,0.8708202,297.411,-533.42096,8.351,0,-0.00040999998,-2.31831
459.05832,-2398.68,-2390.52,93.14,0.3214367,-0.4268082,0.73314136,-0.42073366,-14.191,524.501,0,-5.74791,-0.15551,0.02151,1,0.062992126,0,0,0,false,true,false,-2015.51,-2733.44,16.99,-0.0044641932,0.0017290319,0.93488544,0.35491687,-1054.101,936.47095,8.531,0.00010999999,-0.00040999998,0.092209995,1,-1,0,0,0,false,false,false,-2619.73,-192.34,17.01,0.0023602233,0.004140506,-0.49996737,0.86603105,291.051,-544.97095,8.351,0,-0.00030999997,-2.32991
459.06668,-2398.8,-2386.15,93.14,0.3309801,-0.4088327,0.7433216,-0.41325647,-14.181,524.40094,0,-5.74691,-0.15540999,0.02151,1,0.062992126,0,0,0,false,true,false,-2024.2899,-2725.64,16.99,-0.004464194,0.0017236375,0.9350227,0.35455546,-1054.8209,935.65094,8.531,0.00010999999,-0.00040999998,0.09861,1,-1,0,0,0,false,false,false,-2617.3,-196.87999,17.01,0.0024033815,0.004118927,-0.50835085,0.86113673,284.311,-556.40094,8.351,0,-0.00030999997,-2.34091
459.075,-2398.92,-2381.78,93.14,0.34033468,-0.3906252,0.7530707,-0.40554723,-14.1710005,524.30096,0,-5.74581,-0.15530999,0.02151,1,0.07086614,0,0,0,false,true,false,-2033.08,-2717.8398,16.99,-0.0044641937,0.0017182425,0.93516785,0.3541724,-1055.5509,934.83093,8.531,0.00010999999,-0.00040999998,0.10391,1,-1,0,0,0,false,false,false,-2614.93,-201.51999,17.01,0.00244654,0.0040919525,-0.51672363,0.8561389,277.181,-567.71094,8.351,0,-0.00030999997,-2.35141
459.08334,-2399.04,-2377.41,93.14,0.34948972,-0.3721965,0.7623883,-0.39760607,-14.161,524.201,0,-5.74471,-0.15520999,0.02151,1,0.07086614,0,0,0,false,true,false,-2041.88,-2710.05,16.99,-0.0044641937,0.0017128477,0.935321,0.3537678,-1056.351,933.92096,8.531,0,-0.00040999998,0.11100999,1,-1,0,0,0,false,false,false,-2612.6199,-206.25,17.01,0.0024896984,0.0040649786,-0.5250856,0.85103595,269.671,-578.881,8.351,0,-0.00030999997,-2.36141
459.09167,-2399.16,-2373.04,93.14,0.35844508,-0.3535574,0.77126646,-0.38943833,-14.151,524.10095,0,-5.74361,-0.15511,0.02151,1,0.07874016,0,0,0,false,true,false,-2050.68,-2702.27,16.99,-0.0044641937,0.0017128477,0.9354841,0.35333622,-1057.161,933.001,8.531,0,-0.00040999998,0.11701,1,-1,0,0,0,false,false,false,-2610.3699,-211.06999,17.01,0.002532857,0.004038005,-0.5334314,0.84582984,261.771,-589.91095,8.351,0,-0.00021,-2.37091
459.1,-2399.28,-2368.67,93.14,0.36719552,-0.33471867,0.77970004,-0.38104936,-14.141,524.001,0,-5.74251,-0.15501,0.02151,1,0.07874016,0,0,0,false,true,false,-2059.49,-2694.49,16.99,-0.0044641937,0.0017074529,0.9356572,0.35287765,-1058.0409,931.99097,8.531,0,-0.00040999998,0.12470999,1,-1,0,0,0,false,false,false,-2608.19,-215.98999,17.01,0.0025706203,0.004011031,-0.541761,0.840519,253.481,-600.79095,8.351,0,-0.00010999999,-2.37991
