time,ball_loc_x,ball_loc_y,ball_loc_z,ball_rot_x,ball_rot_y,ball_rot_z,ball_rot_w,ball_vel_x,ball_vel_y,ball_vel_z,ball_ang_x,ball_ang_y,ball_ang_z,player0_throttle,player0_steer,player0_pitch,player0_yaw,player0_roll,player0_jump,player0_boost,player0_handbrake,player0_loc_x,player0_loc_y,player0_loc_z,player0_rot_x,player0_rot_y,player0_rot_z,player0_rot_w,player0_vel_x,player0_vel_y,player0_vel_z,player0_ang_x,player0_ang_y,player0_ang_z,player1_throttle,player1_steer,player1_pitch,player1_yaw,player1_roll,player1_jump,player1_boost,player1_handbrake,player1_loc_x,player1_loc_y,player1_loc_z,player1_rot_x,player1_rot_y,player1_rot_z,player1_rot_w,player1_vel_x,player1_vel_y,player1_vel_z,player1_ang_x,player1_ang_y,player1_ang_z
256.8,-2589.39,1361.7899,194.11,0.15468287,0.45870242,0.8505975,-0.20530246,-292.221,-2000.751,115.510994,-1.05671,-0.52021,4.03321,1,0,0.5511811,-0.0078125,0.015748031,false,false,false,-381.71,-2803.53,49.28,-0.12117566,-0.18951719,-0.540574,0.8106659,727.371,-1899.241,-211.61101,1.89471,0.76501,-0.10561,1,0.16535433,0,0,0,false,true,false,-2809.28,1632.46,16.96,-0.0042915605,-0.0021714056,0.89089066,-0.45419234,-1152.531,-1691.721,8.741,-0.00071,-0.00051,-0.81661
256.80832,-2591.8198,1345.12,195.03,0.14601344,0.46541893,0.8453341,-0.21788856,-292.141,-2000.241,110.061,-1.05671,-0.52021,4.03321,1,0,0.52755904,-0.0078125,0.015748031,false,false,false,-375.65,-2819.3599,47.469997,-0.11676813,-0.18286543,-0.5419822,0.81189936,727.561,-1899.7009,-216.781,1.82001,0.73811,-0.106709994,1,0.16535433,0,0,0,false,true,false,-2818.92,1618.3099,16.96,-0.004296955,-0.002155221,0.8924298,-0.45116043,-1165.7909,-1692.221,8.741,-0.00131,-0.0014099999,-0.65251
256.81668,-2594.25,1328.46,195.9,0.13729538,0.4719952,0.83981055,-0.23040995,-292.061,-1999.731,104.611,-1.05671,-0.52021,4.03321,1,0,0.496063,-0.0078125,0.015748031,false,false,false,-369.59,-2835.19,45.62,-0.11254396,-0.17645097,-0.54331464,0.8130239,727.751,-1900.1609,-221.961,1.7474099,0.71200997,-0.10771,1,0.2047244,0,0,0,false,true,false,-2828.68,1604.15,16.96,-0.004307744,-0.0021336416,0.8936529,-0.44873267,-1179.241,-1692.521,8.741,-0.00151,-0.0017099999,-0.51531
256.825,-2596.68,1311.7999,196.73,0.1285396,0.47842586,0.83402914,-0.24286117,-291.981,-1999.221,99.160995,-1.05671,-0.52021,4.03321,1,0,0.496063,-0.0078125,0.015748031,false,false,false,-363.52,-2851.03,43.73,-0.10849247,-0.17026849,-0.54457706,0.81404775,727.941,-1900.621,-227.151,1.67731,0.68691,-0.10861,1,0.2047244,0,0,0,false,true,false,-2838.55,1589.99,16.96,-0.0043185344,-0.0021174576,0.8946148,-0.4468122,-1192.1809,-1693.1509,8.741,-0.00151,-0.0018099999,-0.38781
256.83334,-2599.1099,1295.14,197.51,0.119740605,0.48471075,0.8279925,-0.25523683,-291.901,-1998.7109,93.711,-1.05671,-0.52021,4.03321,1,0,0.4488189,0,0.015748031,false,false,false,-357.44998,-2866.8699,41.79,-0.10461357,-0.16431804,-0.5457748,0.8149757,729.49097,-1900.5209,-232.33101,1.6122099,0.65261,-0.13441,1,0.22047244,0,0,0,false,true,false,-2848.53,1575.83,16.96,-0.004323929,-0.002101273,0.89533544,-0.44536638,-1204.751,-1694.021,8.741,-0.0014099999,-0.0016099999,-0.27991
256.84167,-2601.54,1278.49,198.25,0.11090394,0.4908447,0.8217046,-0.26753163,-291.821,-1998.2009,88.270996,-1.05671,-0.52021,4.03321,1,0,0.4488189,0,0.015748031,false,false,false,-351.37,-2882.71,39.78,-0.10066458,-0.15792514,-0.54711264,0.81583935,732.21094,-1899.391,-240.921,1.69261,0.72811,-0.20581,1,0.23622048,0,0,0,false,true,false,-2858.6099,1561.6599,16.96,-0.004329324,-0.0020904834,0.8958553,-0.44431978,-1216.621,-1695.4009,8.741,-0.0012099999,-0.00131,-0.18340999
256.85,-2603.97,1261.84,198.94,0.1020349,0.4968329,0.81516147,-0.2797455,-291.741,-1997.6909,82.831,-1.05671,-0.52021,4.03321,1,0,0.5511811,0.07086614,-0.0078125,false,false,false,-345.27,-2898.54,37.7,-0.09665624,-0.15108454,-0.5486717,0.8165722,734.701,-1898.361,-244.171,1.84841,0.83201,-0.27071002,1,0.2519685,0,0,0,false,true,false,-2868.79,1547.48,16.96,-0.0043347185,-0.0020796938,0.89619476,-0.44363466,-1227.6809,-1697.381,8.741,-0.0010099999,-0.0010099999,-0.09641
256.85834,-2606.4,1245.2,199.58,0.093133405,0.5026648,0.8083714,-0.29187307,-291.661,-1997.1809,77.391,-1.05671,-0.52021,4.03321,1,0,0.5511811,0.07086614,-0.0078125,false,false,false,-339.15,-2914.3599,35.59,-0.092394315,-0.14353178,-0.5504574,0.81722605,736.821,-1897.491,-243.041,2.07671,0.95471,-0.32491,1,0.2519685,0,0,0,false,true,false,-2879.0598,1533.2799,16.96,-0.004340113,-0.002074299,0.89637357,-0.44327322,-1237.861,-1700.021,8.741,-0.00081,-0.00071,-0.01741
256.86667,-2608.8298,1228.5599,200.18,0.08420501,0.5083455,0.8013303,-0.3039143,-291.581,-1996.6709,71.951,-1.05671,-0.52021,4.03321,1,0,1,0.1496063,-0.0390625,false,false,false,-333.00998,-2930.17,33.489998,-0.087663084,-0.13504036,-0.55246437,0.81784004,738.451,-1896.8309,-238.701,2.36411,1.09211,-0.36641002,1,0.26771653,0,0,0,false,true,false,-2889.42,1519.0599,16.96,-0.004340113,-0.0020689042,0.8964056,-0.44320846,-1247.251,-1703.251,8.741,-0.00061,-0.00040999998,0.05021
256.875,-2611.26,1211.9299,200.73,0.075249575,0.5138698,0.7940458,-0.31585845,-291.501,-1996.1609,66.511,-1.05671,-0.52021,4.03321,1,0,1,0.1496063,-0.0390625,false,false,false,-326.86,-2945.98,31.429998,-0.08228442,-0.12542677,-0.55465454,0.81844705,739.48096,-1896.4109,-232.281,2.69521,1.23851,-0.39371002,1,0.26771653,0,0,0,false,true,false,-2899.8599,1504.8099,16.96,-0.004340113,-0.0020689042,0.89631224,-0.44339728,-1255.6809,-1707.2109,8.741,-0.00040999998,-0.00021,0.112909995
256.88333,-2613.69,1195.2999,201.23999,0.06627263,0.51923764,0.78651494,-0.32771087,-291.421,-1995.6509,61.071,-1.05671,-0.52021,4.03321,1,0,1,0.21259843,-0.0625,false,false,false,-320.69998,-2961.78,29.42,-0.07612357,-0.114561625,-0.5569744,0.8190606,739.85095,-1896.261,-224.781,3.05371,1.38731,-0.40591002,1,0.27559054,0,0,0,false,true,false,-2910.3699,1490.5299,16.96,-0.004340113,-0.0020689042,0.8961039,-0.4438181,-1263.281,-1711.8009,8.741,-0.00021,0,0.16670999
256.89166,-2616.1199,1178.6699,201.7,0.05727411,0.5244437,0.77874565,-0.3394608,-291.341,-1995.141,55.630997,-1.05671,-0.52021,4.03321,1,0,1,0.23622048,-0.0703125,false,false,false,-314.53,-2977.5798,27.47,-0.069077924,-0.10237473,-0.55934817,0.81968117,739.55096,-1896.371,-217.041,3.4244099,1.53201,-0.40301,1,0.27559054,0,0,0,false,true,false,-2920.94,1476.21,16.96,-0.0043401136,-0.0020689045,0.8957964,-0.44443852,-1269.991,-1717.0709,8.741,-0.00010999999,0.00010999999,0.21541
256.9,-2618.55,1162.0499,202.12,0.04825932,0.5294878,0.77073777,-0.3511082,-291.261,-1994.631,50.201,-1.05671,-0.52021,4.03321,1,0,1,0.24409449,-0.078125,false,false,false,-308.37,-2993.38,25.59,-0.06109362,-0.08884993,-0.5616948,0.82028776,738.631,-1896.721,-209.72101,3.79351,1.6668099,-0.38631,1,0.27559054,0,0,0,false,true,false,-2931.5598,1461.85,16.96,-0.004340113,-0.002074299,0.8953971,-0.44524232,-1275.901,-1722.9409,8.741,0,0.00030999997,0.25731
256.90833,-2620.98,1145.4299,202.48999,0.03922843,0.53437006,0.76249343,-0.36264768,-291.181,-1994.121,44.771,-1.05671,-0.52021,4.03321,1,0,1,0.23622048,-0.078125,false,false,false,-302.21,-3009.19,23.769999,-0.052035715,-0.07409512,-0.5639121,0.8208564,737.1409,-1897.2909,-203.33101,4.15821,1.76341,-0.35111,1,0.27559054,0,0,0,false,true,false,-2942.23,1447.44,16.96,-0.0043347185,-0.0020796938,0.894919,-0.44620258,-1281.031,-1729.4009,8.741,0,0.00040999998,0.29341
256.91666,-2623.41,1128.82,202.81999,0.030186668,0.5390906,0.7540151,-0.37407392,-291.101,-1993.611,39.341,-1.05671,-0.52021,4.03321,1,0,1,0.22834645,-0.0703125,false,false,false,-296.07,-3025,22,-0.041968983,-0.05815881,-0.56591356,0.8213391,735.54095,-1897.891,-178.251,3.73271,1.54961,-0.29751,1,0.27559054,0,0,0,false,true,false,-2952.95,1432.97,16.96,-0.004329324,-0.0020850885,0.89437217,-0.44729772,-1285.4109,-1736.4109,8.741,0.00010999999,0.00051,0.32451
256.94168,-2630.67,1079,203.53,0.0030129936,0.5522485,0.7272089,-0.40765125,-290.861,-1992.0809,23.050999,-1.05671,-0.52021,4.03321,1,0,1,0.22834645,-0.0703125,false,false,false,-277.75,-3072.47,18.13,-0.015901202,-0.02070801,-0.56965756,0.8214673,726.85095,-1901.141,-90.181,2.62651,0.92111,-0.17370999,1,0.26771653,0,0,0,false,true,false,-2985.29,1389.19,16.96,-0.0043131397,-0.0021120629,0.8924081,-0.4512036,-1294.531,-1760.391,8.741,0.00030999997,0.00071,0.39211
256.95,-2633.0898,1062.4,203.68,-0.006050306,0.5563,0.717823,-0.4185973,-290.781,-1991.5709,17.620998,-1.05671,-0.52021,4.03321,1,0.23622048,0,0,0,false,false,false,-271.69,-3088.3098,17.31,-0.009109155,-0.011310232,-0.5703805,0.8212521,723.99097,-1902.2009,-68.721,2.14641,0.75351,-0.14781,1,0.26771653,0,0,0,false,true,false,-2996.1199,1374.46,16.96,-0.004307744,-0.002122852,0.89167,-0.45266014,-1296.391,-1769.221,8.741,0.00030999997,0.00071,0.40751
256.95834,-2635.51,1045.8099,203.78,-0.015108169,0.5601788,0.7082195,-0.42941394,-290.701,-1991.0609,12.191,-1.05671,-0.52021,4.03321,1,0.2519685,0,0,0,false,false,false,-265.66,-3104.16,16.67,-0.0035632628,-0.0036226057,-0.5709308,0.8209824,723.54095,-1902.3309,-50.161,1.6862099,0.59151,-0.057409998,1,0.25984251,0,0,0,false,true,false,-3006.96,1359.6599,16.96,-0.00430235,-0.0021336419,0.8908989,-0.45417613,-1297.721,-1778.4109,8.741,0.00030999997,0.00071,0.42101002
256.96667,-2637.93,1029.22,203.84,-0.024166074,0.5638905,0.6983941,-0.44010106,-290.621,-1990.5509,6.771,-1.05671,-0.52021,4.03321,1,0.25984251,0,0,0,false,false,false,-259.63,-3120.01,16.18,0.0007957324,0.0024141711,-0.57113034,0.8208553,723.23096,-1902.4109,-14.651,0.56271,0.18381,0.02461,1,0.25984251,0,0,0,false,true,false,-3017.8098,1344.78,16.96,-0.004296955,-0.0021444315,0.8900996,-0.45574063,-1298.621,-1787.891,8.741,0.00030999997,0.00071,0.43051
256.975,-2640.3499,1012.63995,203.84999,-0.033213187,0.5674241,0.6883591,-0.4506533,-290.54102,-1990.0409,1.3510001,-1.05671,-0.52021,4.03321,1,0.25984251,0,0,0,false,false,false,-253.59999,-3135.8599,15.99,0.002284696,0.0043832716,-0.57103866,0.8209082,723.131,-1902.4109,3.461,0.16991,0.040209997,0.09601,1,0.25984251,0,0,0,false,true,false,-3028.67,1329.83,16.96,-0.00429156,-0.002155221,0.88928014,-0.45733753,-1299.0709,-1797.6709,8.741,0.00030999997,0.00071,0.43891
256.98334,-2642.77,996.06,203.81999,-0.042249516,0.57078516,0.6781135,-0.46106535,-290.461,-1989.5309,-4.061,-1.05671,-0.52021,4.03321,1,0.26771653,0,0,0,false,false,false,-247.56999,-3151.71,15.95,0.0027702278,0.004928146,-0.5707096,0.8211324,723.311,-1902.3109,12.261,0.03431,-0.0057099997,0.15610999,1,0.2519685,0,0,0,false,true,false,-3039.54,1314.7899,16.96,-0.0042861653,-0.0021660107,0.8884432,-0.45896137,-1299.101,-1807.721,8.741,0.00030999997,0.00071,0.44641
256.99167,-2645.19,979.48,203.73999,-0.051275056,0.5739735,0.6676576,-0.47133705,-290.381,-1989.0209,-9.471,-1.05671,-0.52021,4.03321,1,0.26771653,0,0,0,false,false,false,-241.54,-3167.5598,15.98,0.0028997029,0.0049928837,-0.57017547,0.82150257,723.96094,-1902.0309,15.821,-0.00921,-0.01911,0.20900999,1,0.2519685,0,0,0,false,true,false,-3050.41,1299.6699,16.96,-0.0042807707,-0.0021768003,0.88758844,-0.46061218,-1298.8309,-1817.9609,8.741,0.00030999997,0.00071,0.45071
257,-2647.6099,962.91,203.62,-0.06028436,0.5769837,0.65699583,-0.48146853,-290.301,-1988.511,-14.8810005,-1.05671,-0.52021,4.03321,1,0.26771653,0,0,0,false,false,false,-235.51,-3183.41,16.039999,0.0029104925,0.004906567,-0.56945795,0.82200056,725.05096,-1901.5809,17.351,-0.01211,-0.01881,0.25361001,1,0.24409449,0,0,0,false,true,false,-3061.27,1284.46,16.96,-0.004275376,-0.0021875896,0.8867214,-0.46227917,-1298.2109,-1828.4109,8.741,0.00030999997,0.00061,0.45471
257.00833,-2650.03,946.33997,203.45,-0.069277525,0.579816,0.6461361,-0.4914489,-290.221,-1988.001,-20.290998,-1.05671,-0.52021,4.03321,1,0.26771653,0,0,0,false,false,false,-229.47,-3199.26,16.119999,0.0029104925,0.0048148553,-0.5685894,0.82260215,726.6409,-1900.9409,18.060999,-0.013309999,-0.01781,0.29121,1,0.23622048,0,0,0,false,true,false,-3072.13,1269.1699,16.96,-0.004269981,-0.0021983793,0.88584465,-0.46395695,-1297.351,-1839.001,8.741,0.00030999997,0.00061,0.45601
257.01666,-2652.45,929.77997,203.23999,-0.07824911,0.58247024,0.635079,-0.5012783,-290.141,-1987.491,-25.700998,-1.05671,-0.52021,4.03321,1,0.25984251,0,0,0,false,false,false,-223.40999,-3215.0999,16.199999,0.0028997029,0.0047285384,-0.5675913,0.82329166,728.74097,-1900.101,18.181,-0.013509999,-0.01641,0.32311,1,0.23622048,0,0,0,false,true,false,-3082.98,1253.7899,16.96,-0.004264586,-0.0022091689,0.88496107,-0.46564013,-1296.271,-1849.7109,8.741,0.00030999997,0.00061,0.45511
257.025,-2654.8699,913.22,202.98,-0.087193735,0.5849465,0.62382543,-0.5109566,-290.061,-1986.981,-31.110998,-1.05671,-0.52021,4.03321,1,0.25984251,0,0,0,false,false,false,-217.34,-3230.93,16.279999,0.0028835186,0.004642222,-0.56648,0.8240573,731.261,-1899.091,17.921,-0.01311,-0.014909999,0.34781,1,0.22834645,0,0,0,false,true,false,-3093.8198,1238.32,16.96,-0.0042591915,-0.0022199585,0.88407624,-0.4673179,-1294.9309,-1860.5709,8.741,0.00030999997,0.00061,0.45451
257.03333,-2657.29,896.67,202.68,-0.09611137,0.5872447,0.6123792,-0.5204784,-289.981,-1986.471,-36.510998,-1.05671,-0.52021,4.03321,1,0.2519685,0,0,0,false,false,false,-211.25,-3246.76,16.359999,0.002867334,0.0045666946,-0.56528234,0.82487977,734.28094,-1897.881,17.421,-0.012309999,-0.013309999,0.36901,1,0.22834645,0,0,0,false,false,false,-3104.65,1222.76,16.96,-0.0042537972,-0.0022307483,0.8831902,-0.46899033,-1293.4309,-1871.501,8.741,0.00030999997,0.00061,0.45191
257.04166,-2659.71,880.12,202.33,-0.10500204,0.5893648,0.60074514,-0.52983844,-289.901,-1985.9609,-41.911,-1.05671,-0.52021,4.03321,1,0.2519685,0,0,0,false,false,false,-205.12999,-3262.5798,16.44,0.0028511498,0.0044965623,-0.56401455,0.8257476,737.691,-1896.511,16.771,-0.011309999,-0.011809999,0.38491002,1,0.22047244,0,0,0,false,false,false,-3115.43,1207.1599,16.97,-0.0042484016,-0.0022415377,0.88230586,-0.4706519,-1287.101,-1875.6909,8.791,0.00021,0.00051,0.45001
257.05,-2662.13,863.57,201.94,-0.113860294,0.59130293,0.58892787,-0.5390366,-289.821,-1985.4509,-47.310997,-1.05671,-0.52021,4.03321,1,0.24409449,0,0,0,false,false,false,-198.98,-3278.38,16.51,0.0028349655,0.004431825,-0.5626875,0.8266529,741.54095,-1894.9509,16.030998,-0.01031,-0.01041,0.39871,1,0.22047244,0,0,0,false,false,false,-3126.16,1191.53,16.98,-0.004243007,-0.0022523273,0.8814233,-0.47230268,-1280.6909,-1879.9009,8.781,0.00021,0.00051,0.44631
257.05832,-2664.54,847.02997,201.5,-0.12268083,0.59306264,0.57692975,-0.5480675,-289.741,-1984.9409,-52.711,-1.05671,-0.52021,4.03321,1,0.24409449,0,0,0,false,false,false,-192.8,-3294.17,16.58,0.002818781,0.004377877,-0.5613118,0.82758796,745.71094,-1893.241,15.271,-0.00931,-0.009009999,0.40831,1,0.21259843,0,0,0,false,false,false,-3136.8298,1175.86,16.99,-0.0042376127,-0.002263117,0.8805425,-0.4739428,-1274.1609,-1884.1509,8.731,0.00010999999,0.00051,0.44341
257.06668,-2666.95,830.49,201.01999,-0.13146359,0.5946411,0.5647537,-0.5569312,-289.661,-1984.4309,-58.110996,-1.05671,-0.52021,4.03321,1,0.23622048,0,0,0,false,false,false,-186.59,-3309.95,16.64,0.0028025967,0.004329324,-0.55990374,0.8285415,750.251,-1891.371,14.501,-0.008409999,-0.00781,0.41681,1,0.21259843,0,0,0,false,false,false,-3147.45,1160.16,17,-0.004232218,-0.0022739067,0.87966657,-0.47556663,-1267.601,-1888.391,8.661,0.00010999999,0.00040999998,0.43881
257.075,-2669.3599,813.95996,200.48999,-0.1402086,0.59603316,0.55240494,-0.56562763,-289.581,-1983.9209,-63.510998,-1.05671,-0.52021,4.03321,1,0.23622048,0,0,0,false,false,false,-180.34,-3325.71,16.69,0.002786412,0.004286165,-0.5584632,0.8295134,755.04095,-1889.381,13.761,-0.00751,-0.00671,0.42201,1,0.21259843,0,0,0,false,false,false,-3158.01,1144.4199,17,-0.004226823,-0.0022846963,0.8787955,-0.47717425,-1260.9509,-1892.6509,8.571,0,0.00040999998,0.43501002
257.08334,-2671.77,797.43,199.92,-0.1489104,0.59724,0.5398889,-0.57415146,-289.501,-1983.4109,-68.910995,-1.05671,-0.52021,4.03321,1,0.22834645,0,0,0,false,false,false,-174.05,-3341.45,16.74,0.0027702278,0.0042484016,-0.5570013,0.830496,760.121,-1887.251,13.091001,-0.00671,-0.0057099997,0.42671,1,0.21259843,0,0,0,false,false,false,-3168.52,1128.65,17,-0.0042214277,-0.0022954857,0.8779295,-0.47876573,-1254.241,-1896.9209,8.521,0,0.00030999997,0.43191
257.09167,-2674.18,780.91,199.3,-0.1575637,0.5982679,0.52720577,-0.58249724,-289.421,-1982.9009,-74.311,-1.05671,-0.52021,4.03321,1,0.22047244,0,0,0,false,false,false,-167.72,-3357.18,16.779999,0.002754043,0.0042160326,-0.55552304,0.83148575,765.381,-1885.0209,12.461,-0.00591,-0.00481,0.42861,1,0.3464567,0,0,0,false,false,false,-3178.97,1112.84,17,-0.004216033,-0.0023062753,0.8770656,-0.4803464,-1247.481,-1901.1809,8.481,0,0.00021,0.42941
257.1,-2676.5898,764.38995,198.64,-0.16616845,0.5991126,0.5143607,-0.59066504,-289.341,-1982.391,-79.701,-1.05671,-0.52021,4.03321,1,0.22047244,0,0,0,false,false,false,-161.34,-3372.89,16.82,0.002737859,0.004189059,-0.55403954,0.83247524,770.80096,-1882.7109,11.891,-0.00521,-0.00411,0.42821,1,0.33858266,0,0,0,false,false,false,-3189.3699,1097,17,-0.0042106383,-0.00231167,0.876204,-0.4819163,-1239.491,-1906.121,8.461,-0.00021,-0.00010999999,0.46561
257.10834,-2679,747.87,197.93,-0.17472464,0.5997741,0.5013592,-0.5986493,-289.261,-1981.881,-85.090996,-1.05671,-0.52021,4.03321,1,0.21259843,0,0,0,false,false,false,-154.92,-3388.5798,16.85,0.0027216745,0.00416748,-0.552556,0.83346087,776.41095,-1880.2909,11.361,-0.00461,-0.00351,0.42811,1,0.33858266,0,0,0,false,false,false,-3199.7,1081.12,17,-0.004205243,-0.002317065,0.8752672,-0.48361567,-1231.6609,-1910.9309,8.451,-0.00021,-0.00021,0.49301
257.11667,-2681.41,731.36,197.18,0.18322682,-0.60025156,-0.48820123,0.6064531,-289.181,-1981.371,-90.480995,-1.05671,-0.52021,4.03321,1,0.2047244,0,0,0,false,false,false,-148.45,-3404.25,16.88,0.00270549,0.004151295,-0.551067,0.8344461,782.11096,-1877.8109,10.901,-0.00401,-0.00291,0.42591,1,0.33070865,0,0,0,false,false,false,-3209.96,1065.2,17,-0.0041998485,-0.0023224596,0.8742722,-0.48541212,-1223.8009,-1915.721,8.441,-0.00021,-0.00021,0.51611
257.125,-2683.8198,714.85,196.37999,0.19167517,-0.60054284,-0.47489762,0.6140692,-289.101,-1980.861,-95.870995,-1.05671,-0.52021,4.03321,1,0.2047244,0,0,0,false,false,false,-141.93,-3419.9,16.9,0.002689306,0.004135111,-0.54958344,0.8354242,787.881,-1875.2809,10.491,-0.00351,-0.00241,0.42201,1,0.33070865,0,0,0,false,false,false,-3220.16,1049.24,17,-0.004194454,-0.0023278545,0.87322724,-0.48728952,-1215.9109,-1920.481,8.431,-0.00010999999,-0.00021,0.53341
257.13333,-2686.23,698.35,195.54,0.20006408,-0.6006508,-0.46144837,0.62149674,-289.021,-1980.351,-101.260994,-1.05671,-0.52021,4.03321,1,0.19685039,0,0,0,false,false,false,-135.36,-3435.53,16.92,0.0026731214,0.0041243215,-0.5481161,0.83638775,793.77094,-1872.6709,10.151,-0.00301,-0.00201,0.41891,1,0.32283464,0,0,0,false,false,false,-3230.29,1033.24,17,-0.0041890596,-0.0023386443,0.87214065,-0.48923168,-1207.881,-1925.2809,8.431,0,-0.00010999999,0.54821
257.14166,-2688.64,681.85,194.65,0.20838824,-0.60057527,-0.4478534,0.6287375,-288.941,-1979.841,-106.65099,-1.05671,-0.52021,4.03321,1,0.18897638,0,0,0,false,false,false,-128.75,-3451.14,16.94,0.0026623318,0.0041135317,-0.5466541,0.83734405,799.67096,-1870.0309,9.851,-0.00261,-0.0017099999,0.41411,1,0.31496063,0,0,0,false,false,false,-3240.3599,1017.19995,17,-0.004183665,-0.002349434,0.871021,-0.49122235,-1199.751,-1930.091,8.431,0,0,0.55861
257.15,-2691.05,665.36,193.72,0.21665315,-0.6003163,-0.43412364,0.6357816,-288.861,-1979.3309,-112.041,-1.05671,-0.52021,4.03321,1,0.18897638,0,0,0,false,false,false,-122.09,-3466.72,16.949999,0.0026515422,0.004108137,-0.5452082,0.83828634,805.571,-1867.371,9.571,-0.0023100001,-0.0014099999,0.40781,1,0.31496063,0,0,0,false,false,false,-3250.3599,1001.12,17,-0.0041782693,-0.0023602233,0.8698739,-0.49325076,-1191.511,-1934.9209,8.431,0,0,0.56531
257.15833,-2693.46,648.87,192.73999,0.22484785,-0.5998739,-0.4202589,0.6426329,-288.781,-1978.8209,-117.421,-1.05671,-0.52021,4.03321,1,0.18110237,0,0,0,false,false,false,-115.38,-3482.28,16.96,0.0026407524,0.004102742,-0.54378396,0.83921087,811.53094,-1864.6609,9.361,-0.00201,-0.0012099999,0.40271,1,0.30708662,0,0,0,false,false,false,-3260.29,985,17,-0.0041728746,-0.002371013,0.8687082,-0.49530083,-1183.0809,-1939.8109,8.431,0,0,0.57121
257.16666,-2695.8699,632.38,191.72,0.2329779,-0.5992481,-0.40626478,0.64928555,-288.701,-1978.3109,-122.800995,-1.05671,-0.52021,4.03321,1,0.18110237,0,0,0,false,false,false,-108.619995,-3497.8198,16.97,0.0026299632,0.004097348,-0.54237604,0.8401217,817.451,-1861.9409,9.181,-0.0018099999,-0.0010099999,0.39611,1,0.2992126,0,0,0,false,false,false,-3270.15,968.82996,17,-0.0041674795,-0.0023818023,0.86752677,-0.497367,-1174.5509,-1944.7109,8.431,0,0,0.57411
257.175,-2698.27,615.89996,190.65,0.24103233,-0.5984389,-0.39214656,0.6557402,-288.621,-1977.8009,-128.181,-1.05671,-0.52021,4.03321,1,0.18110237,0,0,0,false,false,false,-101.81,-3513.3398,16.98,0.0026191734,0.0040919525,-0.5409895,0.8410152,823.3909,-1859.1909,9.031,-0.0016099999,-0.00091,0.39061,1,0.2913386,0,0,0,false,false,false,-3279.94,952.62,17,-0.0041620852,-0.002392592,0.86633587,-0.49943864,-1165.9209,-1949.611,8.431,0,0,0.57461
257.18332,-2700.67,599.42,189.54,0.24901663,-0.59744626,-0.3779096,0.66199154,-288.54102,-1977.2909,-133.561,-1.05671,-0.52021,4.03321,1,0.16535433,0,0,0,false,false,false,-94.95,-3528.8298,16.99,0.002608384,0.004091953,-0.53961927,0.84189516,829.33093,-1856.4209,8.891,-0.0014099999,-0.00081,0.38601,1,0.2913386,0,0,0,false,false,false,-3289.66,936.37,17,-0.00415669,-0.0024033815,0.8651383,-0.50151026,-1157.2009,-1954.511,8.431,0,0,0.57291
257.19168,-2703.0698,582.95,188.37999,0.25692007,-0.5962702,-0.3635594,0.6680407,-288.461,-1976.7809,-138.94101,-1.05671,-0.52021,4.03321,1,0.16535433,0,0,0,false,false,false,-88.04,-3544.2998,17,0.0025975944,0.0040919525,-0.5382651,0.8427616,835.11096,-1853.7009,8.761001,-0.0012099999,-0.00071,0.37751,1,0.28346455,0,0,0,false,false,false,-3299.2998,920.07996,17,-0.0041512954,-0.0024141711,0.8639372,-0.50357646,-1148.341,-1959.4409,8.431,0,0,0.57171
257.2,-2705.47,566.48,187.18,0.26474795,-0.59491074,-0.34909594,0.6738855,-288.381,-1976.2709,-144.321,-1.05671,-0.52021,4.03321,1,0.15748031,0,0,0,false,false,false,-81.08,-3559.75,17.01,0.0025868048,0.0040919525,-0.53693795,0.8436078,840.8909,-1850.9609,8.641,-0.0010099999,-0.00061,0.37041,1,0.27559054,0,0,0,false,false,false,-3308.8699,903.75,17,-0.0041459007,-0.0024249607,0.86273587,-0.50563186,-1139.4209,-1964.341,8.431,0,0,0.56861
257.20834,-2707.8699,550.01996,185.93,0.27249485,-0.5933678,-0.33452448,0.6795251,-288.301,-1975.761,-149.701,-1.05671,-0.52021,4.03321,1,0.15748031,0,0,0,false,false,false,-74.07,-3575.17,17.01,0.0025760152,0.0040919525,-0.5356378,0.8444339,846.571,-1848.251,8.521,-0.00091,-0.00051,0.36211002,1,0.26771653,0,0,0,false,false,false,-3318.3599,887.38,17,-0.0041405065,-0.0024357506,0.8615343,-0.50767654,-1130.471,-1969.2109,8.431,0,0,0.56391
257.21667,-2710.27,533.56,184.64,0.28015557,-0.59164155,-0.31985062,0.6849589,-288.221,-1975.251,-155.071,-1.05671,-0.52021,4.03321,1,0.15748031,0,0,0,false,false,false,-67.02,-3590.5698,17.01,0.0025652256,0.0040919525,-0.53436464,0.8452402,852.22095,-1845.5309,8.441,-0.00081,-0.00051,0.35511002,1,0.26771653,0,0,0,false,false,false,-3327.78,870.97,17,-0.0041351104,-0.0024465397,0.86033887,-0.5096995,-1121.491,-1974.0409,8.431,0,0.00010999999,0.55781
257.225,-2712.67,517.1,183.3,0.28772983,-0.5897371,-0.30507958,0.69017965,-288.141,-1974.741,-160.44101,-1.05671,-0.52021,4.03321,1,0.14173228,0,0,0,false,false,false,-59.92,-3605.95,17.01,0.0025598307,0.0040919525,-0.53311306,0.8460301,857.821,-1842.8109,8.391,-0.00061,-0.00051,0.34921,1,0.25984251,0,0,0,false,false,false,-3337.13,854.51996,17,-0.004129716,-0.0024573295,0.8591533,-0.5116956,-1112.4409,-1978.861,8.431,0,0.00010999999,0.55281
257.23334,-2715.0698,500.65,181.92,0.2952178,-0.5876493,-0.29021683,0.6951897,-288.061,-1974.231,-165.811,-1.05671,-0.52021,4.03321,1,0.14173228,0,0,0,false,false,false,-52.77,-3621.3098,17.01,0.002554436,0.0040919525,-0.53188306,0.846804,863.22095,-1840.1809,8.361,-0.00051,-0.00040999998,0.33951,1,0.2519685,0,0,0,false,false,false,-3346.4,838.02997,17,-0.004124321,-0.002468119,0.8579709,-0.51367545,-1103.411,-1983.621,8.431,0,0.00010999999,0.54641
257.24167,-2717.47,484.19998,180.48999,0.3026142,-0.58538353,-0.27526245,0.69998664,-287.981,-1973.721,-171.181,-1.05671,-0.52021,4.03321,1,0.13385826,0,0,0,false,false,false,-45.579998,-3636.64,17.01,0.002549041,0.0040919525,-0.5306854,0.84755504,868.58093,-1837.5509,8.341001,-0.00040999998,-0.00030999997,0.33141,1,0.2519685,0,0,0,false,false,false,-3355.5898,821.5,17,-0.004118927,-0.0024789087,0.8567987,-0.51562846,-1094.411,-1988.3109,8.431,0,0.00010999999,0.53881
257.25,-2719.8699,467.75998,179.01999,0.30991876,-0.5829397,-0.26022172,0.70456815,-287.901,-1973.221,-176.55101,-1.05671,-0.52021,4.03321,1,0.13385826,0,0,0,false,false,false,-38.34,-3651.95,17.01,0.0025436466,0.004091953,-0.5295148,0.848287,873.811,-1834.971,8.331,-0.00040999998,-0.00021,0.32221,1,0.24409449,0,0,0,false,false,false,-3364.71,804.93,17,-0.0041135317,-0.0024896984,0.85563993,-0.51754904,-1085.381,-1992.971,8.431,0,0.00010999999,0.53241
257.25833,-2722.27,451.31998,177.5,0.31713158,-0.5803177,-0.2451054,0.70893025,-287.821,-1972.721,-181.921,-1.05671,-0.52021,4.03321,1,0.12598425,0,0,0,false,false,false,-31.06,-3667.24,17.01,0.0025382512,0.004091952,-0.52837634,0.8489964,878.98096,-1832.4009,8.321,-0.00040999998,-0.00021,0.31441,1,0.24409449,0,0,0,false,false,false,-3373.75,788.32,17,-0.004108137,-0.002500488,0.85448843,-0.519448,-1076.411,-1997.5509,8.431,0,0.00010999999,0.52481
257.26666,-2724.67,434.88,175.94,0.3242474,-0.5775178,-0.2299136,0.71307534,-287.741,-1972.221,-187.291,-1.05671,-0.52021,4.03321,1,0.12598425,0,0,0,false,false,false,-23.74,-3682.51,17.01,0.0025328568,0.0040919525,-0.5272651,0.8496871,884.001,-1829.891,8.321,-0.00030999997,-0.00010999999,0.30541,1,0.22834645,0,0,0,false,false,false,-3382.72,771.67,17,-0.0041027423,-0.0025112776,0.85335094,-0.5213146,-1067.4409,-2002.0809,8.431,0,0.00010999999,0.51841
257.275,-2727.0698,418.44998,174.33,0.33126065,-0.5745399,-0.21465166,0.7170041,-287.661,-1971.721,-192.661,-1.05671,-0.52021,4.03321,1,0.11811024,0,0,0,false,false,false,-16.369999,-3697.76,17.01,0.0025274619,0.0040919525,-0.52618074,0.8503591,888.9509,-1827.391,8.321,-0.00030999997,0,0.29781002,1,0.22834645,0,0,0,false,false,false,-3391.6199,754.99,17,-0.0040973476,-0.0025220672,0.85222435,-0.52315426,-1058.631,-2006.481,8.431,0,0.00010999999,0.50851
257.28333,-2729.47,402.02,172.68,0.3381714,-0.57138395,-0.19932501,0.7207149,-287.581,-1971.221,-198.021,-1.05671,-0.52021,4.03321,1,0.11811024,0,0,0,false,false,false,-8.96,-3712.99,17.01,0.0025220672,0.0040919525,-0.52512336,0.85101247,893.751,-1824.9609,8.321,-0.00030999997,0,0.28901002,1,0.22834645,0,0,0,false,false,false,-3400.44,738.26996,17,-0.0040919525,-0.0025328568,0.8511156,-0.5249561,-1049.8309,-2010.8309,8.431,-0.00010999999,0.00010999999,0.50021
257.29166,-2731.8699,385.6,170.98999,0.34497967,-0.56805533,-0.18393359,0.7242033,-287.501,-1970.721,-203.381,-1.05671,-0.52021,4.03321,1,0.11023622,0,0,0,false,false,false,-1.51,-3728.2,17.01,0.0025166725,0.004091953,-0.5240984,0.85164416,898.47095,-1822.5509,8.321,-0.00021,0,0.28161,1,0.22047244,0,0,0,false,false,false,-3409.19,721.51,17,-0.004086558,-0.0025436464,0.8500183,-0.526731,-1041.0709,-2015.121,8.431,-0.00010999999,0.00010999999,0.49311
257.3,-2734.26,369.18,169.25,0.3516854,-0.5645487,-0.1684882,0.7274708,-287.421,-1970.221,-208.741,-1.05671,-0.52021,4.03321,1,0.11023622,0,0,0,false,false,false,5.98,-3743.39,17.01,0.0025112776,0.0040919525,-0.5231003,0.8522575,903.04095,-1820.2109,8.321,-0.00021,0,0.27291,1,0.21259843,0,0,0,false,false,false,-3417.8699,704.72,17,-0.0040811626,-0.0025544357,0.8489326,-0.52847886,-1032.4309,-2019.3109,8.431,-0.00021,0.00010999999,0.48481
257.30832,-2736.65,352.77,167.47,0.35828325,-0.5608694,-0.15298891,0.7305155,-287.341,-1969.721,-214.101,-1.05671,-0.52021,4.03321,1,0.11023622,0,0,0,false,false,false,13.509999,-3758.5598,17.01,0.0025058826,0.0040919525,-0.52212924,0.85285276,907.53094,-1817.9009,8.321,-0.00010999999,0,0.26551,1,0.2047244,0,0,0,false,false,false,-3426.47,687.89,17,-0.0040757684,-0.0025598307,0.8478623,-0.53019446,-1023.90094,-2023.4009,8.431,-0.00021,0.00010999999,0.47551
257.31668,-2739.04,336.36,165.64,0.36476788,-0.5570175,-0.13744642,0.7333377,-287.261,-1969.221,-219.461,-1.05671,-0.52021,4.03321,1,0.1023622,0,0,0,false,false,false,21.07,-3773.71,17.01,0.002500488,0.0040919525,-0.5211851,0.8534301,911.93097,-1815.621,8.321,0,0,0.25921002,1,0.2047244,0,0,0,false,false,false,-3435,671.02997,17,-0.004070374,-0.0025652258,0.8468109,-0.53187233,-1015.501,-2027.391,8.431,-0.00021,0.00010999999,0.46541
257.325,-2741.43,319.94998,163.76999,0.37113914,-0.55299836,-0.12186082,0.7359336,-287.181,-1968.721,-224.821,-1.05671,-0.52021,4.03321,1,0.1023622,0,0,0,false,false,false,28.67,-3788.8398,17.01,0.0024950933,0.0040973476,-0.5202626,0.85399276,916.17096,-1813.4109,8.321,0,0,0.25151,1,0.2047244,0,0,0,false,false,false,-3443.46,654.14,17,-0.004064979,-0.0025706205,0.8457786,-0.53351235,-1007.15094,-2031.3209,8.431,-0.00021,0.00010999999,0.45681
257.33334,-2743.8198,303.55,161.84999,0.3773971,-0.5488066,-0.10623744,0.7383063,-287.101,-1968.221,-230.181,-1.05671,-0.52021,4.03321,1,0.09448819,0,0,0,false,false,false,36.3,-3803.95,17.01,0.0024896984,0.0040973476,-0.5193671,0.85453767,920.33093,-1811.231,8.321,0,0,0.24500999,1,0.19685039,0,0,0,false,false,false,-3451.8499,637.20996,17,-0.004059584,-0.0025760152,0.8447623,-0.53511995,-998.881,-2035.1709,8.431,-0.00021,0.00010999999,0.44951
257.34167,-2746.21,287.15,159.89,0.3835418,-0.5444476,-0.09058167,0.7404508,-287.021,-1967.721,-235.531,-1.05671,-0.52021,4.03321,1,0.09448819,0,0,0,false,false,false,43.969997,-3819.0398,17.01,0.0024843037,0.0040973476,-0.5184931,0.85506827,924.34094,-1809.121,8.321,0,0,0.23710999,1,0.18897638,0,0,0,false,false,false,-3460.17,620.25,17,-0.004054189,-0.0025814099,0.84375894,-0.5367006,-990.7609,-2038.9209,8.431,-0.00010999999,0.00010999999,0.44101
257.35,-2748.5999,270.75998,157.87999,0.38956785,-0.5399214,-0.07489895,0.7423691,-286.941,-1967.221,-240.881,-1.05671,-0.52021,4.03321,1,0.09448819,0,0,0,false,false,false,51.67,-3834.1199,17.01,0.002478909,0.004097348,-0.5176462,0.85558134,928.27094,-1807.0409,8.321,0,0,0.23041,1,0.18897638,0,0,0,false,false,false,-3468.43,603.26,17,-0.0040487945,-0.0025868048,0.8427721,-0.53824896,-982.79095,-2042.5609,8.431,-0.00010999999,0.00010999999,0.43151
257.35834,-2750.99,254.37,155.83,0.39547515,-0.5352332,-0.059189215,0.7440573,-286.861,-1966.721,-246.231,-1.05671,-0.52021,4.03321,1,0.08661418,0,0,0,false,false,false,59.41,-3849.18,17.01,0.002473514,0.0040973476,-0.51682615,0.8560769,932.121,-1805.001,8.321,0,0,0.22470999,1,0.18110237,0,0,0,false,false,false,-3476.6199,586.24,17,-0.0040434,-0.0025921997,0.84180206,-0.53976494,-974.90094,-2046.131,8.431,0,0.00010999999,0.42341
257.36667,-2753.38,237.98,153.73,0.40126377,-0.530378,-0.043463346,0.74551827,-286.781,-1966.221,-251.58101,-1.05671,-0.52021,4.03321,1,0.08661418,0,0,0,false,false,false,67.18,-3864.22,17.01,0.0024681191,0.0040973476,-0.51602226,0.8565617,935.811,-1803.0309,8.321,0,0.00010999999,0.21741,1,0.18110237,0,0,0,false,false,false,-3484.74,569.19,17,-0.004038005,-0.0025975946,0.8408489,-0.5412485,-967.17096,-2049.6008,8.431,0,0.00010999999,0.41421
257.375,-2755.77,221.59999,151.59,0.4069283,-0.52536076,-0.027726682,0.74675065,-286.701,-1965.721,-256.931,-1.05671,-0.52021,4.03321,1,-1,0,0,0,false,false,true,74.979996,-3879.25,17.01,0.0024627245,0.0040973476,-0.5152454,0.85702926,939.42096,-1801.091,8.321,0.00010999999,0.00010999999,0.21121,1,0.18110237,0,0,0,false,false,false,-3492.7998,552.11,17,-0.00403261,-0.002602989,0.839913,-0.54269964,-959.52094,-2053.001,8.431,0,0.00010999999,0.40641
257.38333,-2758.16,205.22,149.4,0.41246882,-0.5201817,-0.011979187,0.7477545,-286.621,-1965.221,-262.281,-1.05671,-0.52021,4.03321,1,-1,0,0,0,false,false,true,82.81,-3894.26,17.01,0.0024573295,0.0041027423,-0.5144901,0.8574829,932.10095,-1804.0809,8.321,-0.0012099999,0.00291,-0.12061,1,0.18110237,0,0,0,false,false,false,-3500.7998,535,17,-0.0040272158,-0.002608384,0.8389946,-0.5441185,-951.96094,-2056.3308,8.431,0,0.00010999999,0.39971
257.4,-2762.94,172.48,144.9,0.42316133,-0.50934887,0.019526549,0.74907726,-286.461,-1964.221,-272.971,-1.05671,-0.52021,4.03321,1,-1,0,0,0,false,false,true,98.299995,-3924.3398,17.01,0.0024357503,0.0041135317,-0.51632977,0.8563764,919.29095,-1809.271,8.321,-0.0019099999,0.00441,-0.63451,1,0.17322835,0,0,0,false,false,false,-3516.5999,500.69998,17,-0.0040164255,-0.0026191734,0.8371897,-0.54689145,-937.131,-2062.781,8.431,0,0.00010999999,0.38901
257.40833,-2765.3298,156.12,142.58,0.42831334,-0.50369513,0.035268646,0.7493963,-286.381,-1963.721,-278.311,-1.05671,-0.52021,4.03321,1,-1,0,0,0,false,false,true,105.96,-3939.42,17.01,0.0024303556,0.004118927,-0.5185902,0.85500944,912.131,-1812.2109,8.321,-0.0018099999,0.00421,-0.84661,1,0.30708662,0,0,0,false,false,false,-3524.41,483.50998,17,-0.004011031,-0.0026245683,0.8363036,-0.54824555,-929.93097,-2065.8708,8.431,0,0.00010999999,0.38251
257.41666,-2767.72,139.76,140.22,0.43333602,-0.49789035,0.050999876,0.7494825,-286.301,-1963.221,-283.651,-1.05671,-0.52021,4.03321,1,-1,0,0,0,false,false,true,113.56,-3954.52,17.01,0.0024303556,0.004118927,-0.52160054,0.8531763,904.03094,-1815.5409,8.321,-0.0016099999,0.00381,-1.03581,1,0.30708662,0,0,0,false,false,false,-3532.16,466.28998,17,-0.004005636,-0.002629963,0.83542854,-0.5495781,-921.53094,-2069.3909,8.431,0,-0.00021,0.41531
257.425,-2770.1099,123.399994,137.81,0.43822366,-0.49193445,0.06672039,0.7493389,-286.221,-1962.721,-288.991,-1.05671,-0.52021,4.03321,1,-1,0,0,0,false,false,true,121.09,-3969.65,17.01,0.0024357506,0.0041189273,-0.5252799,0.850916,894.85095,-1819.2909,8.321,-0.00131,0.00321,-1.20621,1,0.30708662,0,0,0,false,false,false,-3539.8398,449.05,17,-0.0040002405,-0.0026353577,0.8344756,-0.5510238,-913.34094,-2072.791,8.431,0,-0.00030999997,0.44201002
257.43332,-2772.49,107.049995,135.36,0.4429819,-0.48582754,0.082419336,0.748963,-286.141,-1962.221,-294.331,-1.05671,-0.52021,4.03321,1,-1,0,0,0,false,false,true,128.55,-3984.8098,17.01,0.00244654,0.0041135317,-0.5295525,0.84826356,884.53094,-1823.4309,8.331,-0.0010099999,0.00261,-1.36101,1,0.2992126,0,0,0,false,false,false,-3547.45,431.78,17,-0.0039948463,-0.0026407526,0.83345836,-0.5525614,-905.22095,-2076.1309,8.431,0,-0.00030999997,0.46441
257.44168,-2774.8699,90.7,132.86,0.44759983,-0.47956955,0.098091215,0.7483618,-286.061,-1961.721,-299.671,-1.05671,-0.52021,4.03321,1,-1,0,0,0,false,false,true,135.92,-4000,17.01,0.0024627245,0.004108137,-0.53435385,0.8452472,873.09094,-1827.9009,8.331,-0.00071,0.00201,-1.50271,1,0.2992126,0,0,0,false,false,false,-3554.99,414.47998,17,-0.0039894516,-0.0026461475,0.83238673,-0.5541744,-897.17096,-2079.411,8.431,0,-0.00030999997,0.48101
257.45,-2777.25,74.36,130.31999,0.4520829,-0.4731659,0.11373082,0.74752945,-285.981,-1961.221,-305.011,-1.05671,-0.52021,4.03321,1,-1,0,0,0,false,false,true,143.2,-4015.23,17.01,0.0024789087,0.0040973476,-0.5396354,0.8418851,860.58093,-1832.631,8.331,-0.00051,0.00151,-1.63331,1,0.2992126,0,0,0,false,false,false,-3562.47,397.15,17,-0.003984057,-0.0026515422,0.83127445,-0.55584145,-889.05096,-2082.681,8.431,0,-0.00021,0.49511
257.45834,-2779.63,58.02,127.729996,0.45642582,-0.46661657,0.12933804,0.746469,-285.901,-1960.721,-310.351,-1.05671,-0.52021,4.03321,1,-1,0,0,0,false,false,true,150.37,-4030.5,17.01,0.002500488,0.004086558,-0.5453539,0.8381921,847.08093,-1837.5409,8.341001,-0.00030999997,0.0010099999,-1.75441,1,0.2913386,0,0,0,false,false,false,-3569.88,379.78998,17,-0.003978662,-0.002656937,0.8301248,-0.557557,-880.83093,-2085.951,8.431,0.00010999999,-0.00010999999,0.50701
257.46667,-2782.01,41.68,125.1,0.46062836,-0.45992163,0.1449075,0.7451814,-285.821,-1960.221,-315.681,-1.05671,-0.52021,4.03321,1,-1,0,0,0,false,false,true,157.43,-4045.8098,17.01,0.0025274619,0.0040703737,-0.5514662,0.8341834,832.71094,-1842.5309,8.341001,-0.00010999999,0.00061,-1.86701,1,0.28346455,0,0,0,false,false,false,-3577.22,362.41,17,-0.003973267,-0.0026677267,0.8289445,-0.55931026,-872.561,-2089.211,8.431,0.00010999999,0,0.51491
257.475,-2784.39,25.35,122.42,0.46469057,-0.45308632,0.16042832,0.7436652,-285.741,-1959.721,-321.011,-1.05671,-0.52021,4.03321,1,-1,0,0,0,false,false,true,164.37,-4061.16,17.01,0.002559831,0.0040541897,-0.55794007,0.82986736,817.60095,-1847.511,8.341001,0,0.00021,-1.97201,1,0.28346455,0,0,0,false,false,false,-3584.49,345,17,-0.003967872,-0.002678516,0.82774407,-0.56108516,-864.23096,-2092.451,8.431,0.00010999999,0,0.51951
257.48334,-2786.77,9.0199995,119.7,0.46861264,-0.44611627,0.1759007,0.7419173,-285.661,-1959.221,-326.341,-1.05671,-0.52021,4.03321,1,-1,0,0,0,false,false,true,171.18,-4076.5598,17.01,0.0025921995,0.00403261,-0.5647375,0.8252566,801.90094,-1852.391,8.341001,0,0,-2.07001,1,0.27559054,0,0,0,false,false,false,-3591.69,327.56,17,-0.0039624777,-0.002689306,0.8265272,-0.5628763,-855.751,-2095.711,8.431,0.00010999999,0,0.52361
257.49167,-2789.15,-7.2999997,116.939995,0.472389,-0.4390059,0.19131911,0.7399455,-285.581,-1958.721,-331.671,-1.05671,-0.52021,4.03321,1,-1,0,0,0,false,false,true,177.86,-4092,17.01,0.0026245683,0.004011031,-0.5718317,0.82035685,785.79095,-1857.0809,8.341001,0.00010999999,-0.00021,-2.16151,1,0.27559054,0,0,0,false,false,false,-3598.8198,310.1,17,-0.003957083,-0.0027000955,0.82529724,-0.56467813,-847.22095,-2098.951,8.431,0.00010999999,0,0.52491
257.5,-2791.53,-23.619999,114.13,0.4760198,-0.43176067,0.20667809,0.73774785,-285.501,-1958.221,-337.001,-1.05671,-0.52021,4.03321,1,-1,0,0,0,false,false,true,184.40999,-4107.48,17.01,0.0026623318,0.0039894516,-0.57919556,0.8151744,769.441,-1861.501,8.341001,0.00021,-0.00040999998,-2.24681,1,0.26771653,0,0,0,false,false,false,-3605.88,292.61,17,-0.003951688,-0.002710885,0.82406145,-0.56648,-838.55096,-2102.201,8.431,0.00010999999,0,0.52621
257.50833,-2793.91,-39.93,111.28,0.47950482,-0.42438594,0.22197783,0.7353213,-285.421,-1957.721,-342.331,-1.05671,-0.52021,4.03321,1,-1,0,0,0,false,false,true,190.81999,-4122.9897,17.01,0.0027000955,0.0039624777,-0.5868023,0.8097159,753.061,-1865.5809,8.341001,0.00021,-0.00061,-2.3259099,1,0.25984251,0,0,0,false,false,false,-3612.8699,275.09,17,-0.003946293,-0.0027216745,0.82281613,-0.5682873,-829.84094,-2105.421,8.431,0.00010999999,0,0.52511
257.51666,-2796.29,-56.239998,108.38,0.4828442,-0.41688177,0.23720741,0.73266876,-285.341,-1957.221,-347.661,-1.05671,-0.52021,4.03321,1,-1,0,0,0,false,false,true,197.09999,-4138.54,17.01,0.0027432537,0.003935504,-0.5946194,0.8039929,736.86096,-1869.251,8.341001,0.00021,-0.00081,-2.39901,1,0.2519685,0,0,0,false,false,false,-3619.78,257.54,17,-0.0039408985,-0.002732464,0.8215725,-0.57008374,-821.10095,-2108.6208,8.431,0.00010999999,0,0.52211
257.525,-2798.67,-72.549995,105.439995,0.4860379,-0.40924808,0.25236678,0.7297904,-285.261,-1956.721,-352.981,-1.05671,-0.52021,4.03321,1,-1,0,0,0,false,false,true,203.23999,-4154.12,17.01,0.0027864121,0.003903135,-0.60262525,0.7980098,721.071,-1872.471,8.341001,0.00021,-0.00091,-2.46591,1,0.2519685,0,0,0,false,false,false,-3626.6199,239.97,17,-0.003935504,-0.0027432537,0.82033056,-0.57186943,-812.34094,-2111.781,8.431,0.00010999999,0,0.51751
257.53333,-2801.05,-88.85,102.45,0.48908058,-0.40149033,0.26744533,0.7266901,-285.181,-1956.221,-358.301,-1.05671,-0.52021,4.03321,1,-1,0,0,0,false,false,true,209.25,-4169.7197,17.01,0.0028295706,0.0038707664,-0.61079305,0.7917757,705.951,-1875.2109,8.341001,0.00021,-0.0010099999,-2.52651,1,0.24409449,0,0,0,false,false,false,-3633.39,222.37,17,-0.0039301086,-0.0027540433,0.8190941,-0.5736389,-803.49097,-2114.931,8.431,0,0,0.51371
257.54166,-2803.43,-105.149994,99.42,0.49197224,-0.39360857,0.28244296,0.72336817,-285.101,-1955.721,-363.621,-1.05671,-0.52021,4.03321,1,-1,0,0,0,false,false,true,215.12999,-4185.35,17.01,0.002872729,0.0038383976,-0.6190957,0.78530085,691.751,-1877.4509,8.341001,0.00021,-0.00111,-2.58051,1,0.23622048,0,0,0,false,false,false,-3640.0898,204.75,17,-0.0039247135,-0.0027648327,0.8178634,-0.5753922,-794.66095,-2118.031,8.431,0,0,0.50831
257.55,-2805.8,-121.439995,96.35,0.49471277,-0.38560802,0.29735416,0.71982366,-285.021,-1955.221,-368.941,-1.05671,-0.52021,4.03321,1,-1,0,0,0,false,false,true,220.89,-4201,17.01,0.0029158874,0.0038060287,-0.6275008,0.77860105,678.77094,-1879.1909,8.341001,0.00021,-0.0012099999,-2.62761,1,0.22834645,0,0,0,false,false,false,-3646.71,187.09999,17,-0.0039193192,-0.0027756225,0.8166423,-0.577124,-785.85095,-2121.0908,8.431,0,0,0.50161
257.55832,-2808.17,-137.73,93.229996,0.49730235,-0.3774888,0.31217375,0.7160587,-284.941,-1954.721,-374.261,-1.05671,-0.52021,4.03321,1,-1,0,0,0,false,false,true,226.54999,-4216.6597,17.01,0.0029590456,0.0037682652,-0.63598686,0.77168494,667.30096,-1880.4409,8.341001,0.00021,-0.00131,-2.66751,1,0.22834645,0,0,0,false,false,false,-3653.26,169.42,17,-0.0039139246,-0.0027864121,0.8154349,-0.57882875,-777.08093,-2124.0908,8.431,0,0,0.49381
257.56668,-2810.54,-154.01999,90.07,0.49974078,-0.36925095,0.32689622,0.71207553,-284.861,-1954.221,-379.581,-1.05671,-0.52021,4.03321,1,-1,0,0,0,false,false,true,232.11,-4232.33,17.01,0.0030075992,0.0037305017,-0.6445269,0.7645666,657.65094,-1881.261,8.341001,0.00030999997,-0.0014099999,-2.69971,1,0.21259843,0,0,0,false,false,false,-3659.74,151.72,17,-0.00390853,-0.0027918073,0.81424135,-0.58050656,-768.29095,-2127.061,8.431,0,0,0.48731
257.575,-2812.71,-168.53,92.909996,0.518315,-0.37077767,0.33388248,0.6945472,-260.131,-1740.741,227.69101,4.50351,-1.12681,3.80111,1,-1,0,0,0,false,false,true,237.59,-4248.01,17.01,0.003056152,0.003692738,-0.6530884,0.7572664,650.16095,-1881.7109,8.341001,0.00030999997,-0.00151,-2.72381,-1,1,0,0,0,false,false,false,-3666.14,133.98999,17,-0.003903135,-0.0027972017,0.81306183,-0.5821574,-759.66095,-2129.941,8.431,0,0,0.47731
257.58334,-2814.88,-183.03,94.759995,0.5354868,-0.37198076,0.34025377,0.6775777,-260.061,-1740.2909,222.211,4.50351,-1.12681,3.80111,1,-1,0,0,0,false,false,true,243.01,-4263.69,17.01,0.0031047051,0.0036549745,-0.6616392,0.7498069,642.24097,-1882.011,8.341001,0.00030999997,-0.00151,-2.74721,-1,1,0,0,0,false,false,false,-3672.47,116.24,17,-0.0038977403,-0.0028025967,0.8119045,-0.5837704,-734.74097,-2106.781,8.431,0.0010099999,-0.0023100001,0.66831
257.59167,-2817.05,-197.53,96.57,0.552324,-0.37295178,0.3464147,0.6601832,-259.991,-1739.841,216.731,4.50351,-1.12681,3.80111,1,-1,0,0,0,false,false,true,248.36,-4279.37,17.01,0.0031532585,0.003617211,-0.67017925,0.74218374,633.90094,-1882.141,8.341001,0.00021,-0.0014099999,-2.77021,-1,1,0,0,0,false,false,false,-3678.5898,98.68,17,-0.0038977403,-0.0028133863,0.81027436,-0.58603084,-710.93097,-2083.231,8.431,0.0017099999,-0.00331,0.81931
257.6,-2819.22,-212.01999,98.329994,0.568816,-0.37368548,0.35235435,0.6423813,-259.921,-1739.391,211.251,4.50351,-1.12681,3.80111,1,-1,0,0,0,false,false,true,253.64,-4295.05,17.01,0.0032018116,0.0035794473,-0.67870295,0.7343971,625.16095,-1882.0709,8.341001,0.00010999999,-0.00131,-2.79281,-1,1,0,0,0,false,false,false,-3684.51,81.32,17,-0.0039031352,-0.0028241759,0.80826944,-0.58879304,-687.30096,-2059.541,8.431,0.00201,-0.00361,0.94811
257.60834,-2821.39,-226.51,100.04,0.58495724,-0.3741872,0.35807824,0.6241705,-259.851,-1738.9409,205.781,4.50351,-1.12681,3.80111,1,-1,0,0,0,false,false,true,258.85,-4310.73,17.01,0.0032449698,0.0035362889,-0.6872052,0.7264474,616.03094,-1881.7909,8.341001,0,-0.0012099999,-2.8150098,0,1,0,0,0,false,false,false,-3690.24,64.159996,17,-0.0039085294,-0.0028349652,0.8059371,-0.59198135,-663.561,-2035.761,8.431,0.00221,-0.00351,1.05821
257.61667,-2823.55,-241,101.71,0.6007317,-0.3744569,0.36357555,0.6055709,-259.781,-1738.491,200.311,4.50351,-1.12681,3.80111,1,-1,0,0,0,false,false,true,263.97998,-4326.4097,17.01,0.0032881284,0.0034931307,-0.69568056,0.7183352,606.54095,-1881.2709,8.341001,0,-0.00111,-2.8368099,0,1,0,0,0,false,false,false,-3695.77,47.2,17,-0.0039139246,-0.0028511498,0.80331755,-0.5955311,-645.881,-2035.871,8.431,0.00071,-0.00291,1.17631
257.625,-2825.71,-255.48,103.329994,0.6161279,-0.37448934,0.36884636,0.5865974,-259.711,-1738.0409,194.841,4.50351,-1.12681,3.80111,1,-1,0,0,0,false,false,true,269.03,-4342.09,17.01,0.0033312866,0.0034499723,-0.7041234,0.7100613,596.71094,-1880.501,8.341001,0,-0.0010099999,-2.8582098,0,1,0,0,0,false,false,false,-3701.15,30.23,17,-0.0039139246,-0.002867334,0.800391,-0.5994585,-627.60095,-2035.991,8.431,0,-0.0023100001,1.27691
257.63333,-2827.8699,-269.96,104.909996,0.63113916,-0.3742897,0.37388507,0.56725687,-259.641,-1737.591,189.371,4.50351,-1.12681,3.80111,1,-1,0,0,0,false,false,true,274,-4357.76,17.01,-0.003374445,-0.0034068138,0.71252954,-0.7016256,586.561,-1879.4609,8.341001,0,-0.00091,-2.8791099,0,1,0,0,0,false,false,false,-3706.38,13.259999,17,-0.0039085294,-0.0028835186,0.7971894,-0.60370964,-608.55096,-2036.131,8.441,-0.00040999998,-0.0017099999,1.3630099
257.64166,-2830.03,-284.44,106.439995,0.6457554,-0.3738581,0.37869185,0.5475604,-259.571,-1737.1509,183.901,4.50351,-1.12681,3.80111,1,-1,0,0,0,false,false,true,278.88998,-4373.42,17.01,-0.0034176034,-0.0033636554,0.7208963,-0.69302624,576.11096,-1878.131,8.341001,0,-0.00081,-2.89961,0,1,0,0,0,false,false,false,-3711.45,-3.7099998,17,-0.0038977403,-0.0028997029,0.7937496,-0.6082251,-588.61096,-2036.2909,8.441,-0.00061,-0.00111,1.4370099
257.65,-2832.19,-298.91,107.93,0.65997314,-0.37318915,0.38326123,0.52751863,-259.501,-1736.7109,178.431,4.50351,-1.12681,3.80111,1,-1,0,0,0,false,false,true,283.69,-4389.07,17.01,-0.0034607616,-0.003320497,0.72921747,-0.6842651,565.391,-1876.491,8.341001,0,-0.00071,-2.91961,0,1,0,0,0,false,false,false,-3716.3499,-20.68,17,-0.003881556,-0.0029158876,0.79009336,-0.61296725,-567.751,-2036.4309,8.441,-0.00071,-0.00061,1.50081
257.65833,-2834.3499,-313.38,109.369995,0.6737758,-0.37228823,0.38759333,0.5071478,-259.431,-1736.271,172.961,4.50351,-1.12681,3.80111,1,-1,0,0,0,false,false,true,288.4,-4404.71,17.01,-0.00350392,-0.0032773386,0.737489,-0.675342,554.42096,-1874.5409,8.341001,0,-0.00061,-2.93911,0,1,0,0,0,false,false,false,-3721.0798,-37.649998,17,-0.0038653717,-0.0029374666,0.7862432,-0.61789805,-545.941,-2036.5209,8.441,-0.00061,-0.00021,1.55601
257.66666,-2836.51,-327.85,110.77,0.6871543,-0.37115532,0.3916826,0.4864641,-259.361,-1735.8309,167.501,4.50351,-1.12681,3.80111,1,-1,0,0,0,false,false,true,293.02,-4420.33,17.01,-0.0035470785,-0.0032341804,0.74570173,-0.6662625,543.23096,-1872.261,8.341001,0,-0.00061,-2.95801,0,1,0,0,0,false,false,false,-3725.63,-54.62,17,-0.0038437925,-0.0029590458,0.7822227,-0.62298,-523.201,-2036.5309,8.441,-0.00061,0.00010999999,1.60391
257.675,-2838.67,-342.31,112.119995,0.70010775,-0.36979043,0.3955237,0.46547288,-259.29102,-1735.391,162.041,4.50351,-1.12681,3.80111,1,-1,0,0,0,false,false,true,297.55,-4435.9297,17.01,-0.0035902364,-0.0031910217,0.75385666,-0.65702116,531.84094,-1869.641,8.341001,0,-0.00051,-2.97641,0,1,0,0,0,false,false,false,-3729.99,-71.59,17,-0.003822213,-0.0029806248,0.7780437,-0.62819135,-499.561,-2036.4109,8.441,-0.00051,0.00030999997,1.64561
257.68332,-2840.8298,-356.77,113.42,0.71262187,-0.3681936,0.39912206,0.44419035,-259.221,-1734.9509,156.58101,4.50351,-1.12681,3.80111,1,-1,0,0,0,false,false,true,301.97998,-4451.51,17.01,-0.0036333955,-0.0031424689,0.7619453,-0.64762354,520.27094,-1866.6609,8.341001,-0.00010999999,-0.00051,-2.9941099,0,1,0,0,0,false,false,false,-3734.15,-88.56,17,-0.0038006334,-0.0030075987,0.7737187,-0.63351053,-475.061,-2036.121,8.441,-0.00040999998,0.00051,1.68211
257.69168,-2842.99,-371.22,114.68,0.7246923,-0.3663647,0.4024668,0.42263263,-259.151,-1734.511,151.121,4.50351,-1.12681,3.80111,1,-1,0,0,0,false,false,true,306.32,-4467.06,17.01,-0.0036711583,-0.0030939153,0.76996386,-0.6380692,508.561,-1863.3209,8.341001,-0.00010999999,-0.00040999998,-3.01121,0,1,0,0,0,false,false,false,-3738.1099,-105.53,17,-0.0037790546,-0.0030345728,0.7692609,-0.63891625,-449.761,-2035.621,8.441,-0.00030999997,0.00071,1.71411
257.7,-2845.15,-385.66998,115.89,0.73630685,-0.3643093,0.40556344,0.40081063,-259.081,-1734.0709,145.66101,4.50351,-1.12681,3.80111,1,-1,0,0,0,false,false,true,310.56,-4482.59,17.01,-0.0037089225,-0.0030453627,0.777909,-0.6283586,496.731,-1859.621,8.341001,-0.00010999999,-0.00040999998,-3.0276098,1,-0.0234375,0,0,0,false,true,false,-3741.8599,-122.49,17,-0.0037520807,-0.0030615467,0.76467997,-0.64439195,-423.711,-2034.871,8.441,-0.00030999997,0.00081,1.7423099
257.70834,-2847.3098,-400.12,117.06,0.7474624,-0.3620273,0.40840647,0.378735,-259.011,-1733.631,140.201,4.50351,-1.12681,3.80111,1,-1,0,0,0,false,false,true,314.69998,-4498.09,17.01,-0.0037466863,-0.0029968095,0.78577256,-0.6184969,484.811,-1855.5509,8.341001,-0.00010999999,-0.00040999998,-3.04331,1,-0.0234375,0,0,0,false,true,false,-3745.4,-139.52,17,-0.0037251068,-0.0030885208,0.75998104,-0.6499271,-409.311,-2045.491,8.391,0,0.00361,1.48131
257.71667,-2849.47,-414.56,118.18,0.7581506,-0.35951865,0.41099066,0.35642743,-258.941,-1733.1909,134.741,4.50351,-1.12681,3.80111,1,-1,0,0,0,false,false,true,318.74,-4513.55,17.01,-0.003784449,-0.0029482557,0.7935515,-0.60848397,472.82098,-1851.101,8.341001,-0.00010999999,-0.00040999998,-3.05821,1,1,0,0,0,false,false,false,-3748.8198,-156.62999,17,-0.0036927375,-0.0031208894,0.7559561,-0.65460426,-393.021,-2056.191,8.351,0,0.00491,1.26621
257.725,-2851.63,-429,119.259995,0.768366,-0.35678348,0.4133212,0.33389327,-258.871,-1732.751,129.291,4.50351,-1.12681,3.80111,1,-1,0,0,0,false,false,true,322.68,-4528.98,17.01,-0.003822213,-0.0028997029,0.8012426,-0.59832025,460.791,-1846.271,8.341001,-0.00010999999,-0.00040999998,-3.0722098,1,1,0,0,0,false,false,false,-3752.0999,-173.83,17,-0.0036603692,-0.0031532582,0.75249004,-0.6585857,-364.961,-2067.251,8.341001,-0.00040999998,0.00241,1.38711
257.73334,-2853.79,-443.44,120.29,0.77809906,-0.35382715,0.41539282,0.31115413,-258.801,-1732.3109,123.840996,4.50351,-1.12681,3.80111,1,-1,0,0,0,false,false,true,326.52,-4544.37,17.01,-0.0038599768,-0.0028511498,0.8088349,-0.5880161,448.751,-1841.0609,8.341001,-0.00010999999,-0.00040999998,-3.0854099,1,1,0,0,0,false,false,false,-3755.15,-191.12999,17,-0.0036333953,-0.0031802324,0.74867177,-0.66292316,-338.311,-2077.901,8.331,-0.00051,0.0010099999,1.46851
257.74167,-2855.95,-457.87,121.28,0.78734565,-0.3506496,0.41720545,0.28822076,-258.731,-1731.871,118.391,4.50351,-1.12681,3.80111,1,-1,0,0,0,false,false,true,330.25998,-4559.71,17.01,-0.0038977403,-0.0027972017,0.8163257,-0.57757175,436.731,-1835.481,8.341001,-0.00010999999,-0.00040999998,-3.09761,1,1,0,0,0,false,false,false,-3757.98,-208.51,17,-0.003611816,-0.0032018116,0.74460065,-0.66749257,-311.851,-2088.221,8.321,-0.00061,0.00021,1.53781
257.75,-2858.1099,-472.3,122.21999,0.79610133,-0.34725085,0.41875917,0.26510397,-258.661,-1731.4309,112.940994,4.50351,-1.12681,3.80111,1,-1,0,0,0,false,false,true,333.9,-4575.01,17.01,-0.0039355042,-0.002743254,0.82371265,-0.56698716,424.761,-1829.5309,8.341001,-0.00010999999,-0.00040999998,-3.10881,1,1,0,0,0,false,false,false,-3760.5898,-225.98,17,-0.0035902364,-0.0032233906,0.7403076,-0.67225075,-285.331,-2098.221,8.321,-0.00061,-0.00010999999,1.59681
257.75833,-2860.26,-486.72,123.119995,0.8043608,-0.34363636,0.42004856,0.24181998,-258.591,-1730.991,107.491,4.50351,-1.12681,3.80111,1,-1,0,0,0,false,false,true,337.44,-4590.26,17.01,-0.003973267,-0.002689306,0.8309893,-0.5562676,412.861,-1823.2109,8.341001,-0.00010999999,-0.00030999997,-3.11901,1,1,0,0,0,false,false,false,-3762.97,-243.53,17,-0.003568658,-0.00324497,0.7358198,-0.67716014,-258.571,-2107.8809,8.321,-0.00061,-0.00030999997,1.64721
257.76666,-2862.41,-501.13998,123.96999,0.8121187,-0.339806,0.42107347,0.21838486,-258.521,-1730.5509,102.041,4.50351,-1.12681,3.80111,1,-1,0,0,0,false,false,true,340.88,-4605.4497,17.01,-0.004011031,-0.002635358,0.8381464,-0.54542404,401.061,-1816.5309,8.341001,-0.00010999999,-0.00021,-3.12811,1,1,0,0,0,false,false,false,-3765.13,-261.16,17,-0.0035470785,-0.003266549,0.7311557,-0.68219346,-231.44101,-2117.201,8.321,-0.00051,-0.00030999997,1.69031
257.775,-2864.5598,-515.56,124.77,0.8193656,-0.33576527,0.4218396,0.19481494,-258.451,-1730.111,96.590996,4.50351,-1.12681,3.80111,1,-1,0,0,0,false,false,true,344.22,-4620.59,17.01,-0.0040433994,-0.0025814099,0.84518236,-0.5344564,389.391,-1809.501,8.341001,-0.00010999999,-0.00021,-3.13601,1,0.992126,0,0,0,false,false,false,-3767.0598,-278.87,17,-0.0035254993,-0.0032881282,0.7263349,-0.6873239,-203.851,-2126.161,8.321,-0.00051,-0.00021,1.72731
257.78333,-2866.71,-529.97,125.53,0.82610035,-0.33151418,0.42234132,0.1711263,-258.381,-1729.6709,91.141,4.50351,-1.12681,3.80111,1,-1,0,0,0,false,false,true,347.46,-4635.67,17.01,-0.004075769,-0.002527462,0.85209525,-0.5233647,377.871,-1802.131,8.341001,-0.00010999999,-0.00021,-3.14271,1,0.96850395,0,0,0,false,false,false,-3768.76,-296.66,17,-0.0034985254,-0.0033097074,0.7213678,-0.69253534,-175.811,-2134.751,8.321,-0.00051,-0.00010999999,1.75691
257.79166,-2868.8599,-544.38,126.24,0.8323185,-0.32705805,0.42257863,0.14732976,-258.311,-1729.231,85.701,4.50351,-1.12681,3.80111,1,-1,0,0,0,false,false,true,350.61,-4650.69,17.01,-0.004108137,-0.002473514,0.8588768,-0.5121596,366.301,-1794.741,8.341001,-0.00010999999,-0.00021,-3.14941,1,0.93700784,0,0,0,false,false,false,-3770.23,-314.52,17,-0.0034715512,-0.0033312866,0.716281,-0.6977953,-147.44101,-2142.961,8.321,-0.00040999998,0,1.7760099
257.8,-2871.01,-558.79,126.909996,0.8380168,-0.3223969,0.42255163,0.12344152,-258.241,-1728.7909,80.260994,4.50351,-1.12681,3.80111,1,-1,0,0,0,false,false,true,353.66,-4665.65,17.01,-0.004140506,-0.002419566,0.8655226,-0.5008467,354.501,-1787.591,8.341001,-0.00010999999,-0.00010999999,-3.15711,1,0.9133858,0,0,0,false,false,false,-3771.46,-332.44998,17,-0.0034445773,-0.0033582605,0.71109754,-0.7030768,-118.781,-2150.791,8.321,-0.00030999997,0.00021,1.78431
257.81668,-2875.3098,-587.58997,128.11,0.8478416,-0.31247047,0.4217047,0.075443774,-258.101,-1727.9109,69.381,4.50351,-1.12681,3.80111,1,-1,0,0,0,false,false,true,359.47,-4695.39,17.01,-0.004205243,-0.00231167,0.8784114,-0.47788098,331.141,-1772.8209,8.341001,-0.00010999999,-0.00010999999,-3.17061,0,0.8503937,0,0,0,false,false,false,-3773.2,-368.28998,17,0.0033906293,0.0034122085,-0.7005574,0.7135797,-60.630997,-2144.3408,8.401,0,0.00051,1.77581
257.825,-2877.46,-601.99,128.64,0.8519619,-0.30721056,0.42088476,0.051366724,-258.031,-1727.471,63.940998,4.50351,-1.12681,3.80111,1,-1,0,0,0,false,false,false,362.22998,-4710.1597,17.01,-0.0042376122,-0.0022577222,0.88464856,-0.46623355,319.591,-1765.221,8.341001,-0.00021,0,-3.1763098,0,0.8188976,0,0,0,false,false,false,-3773.71,-386.16,17,0.0033636556,0.0034391829,-0.69525975,0.71874243,-31.591,-2138.3308,8.4210005,0.00010999999,0.00071,1.7596099
257.84167,-2881.76,-630.76996,129.56999,0.85860014,-0.29612422,0.4184571,0.0031316795,-257.891,-1726.591,53.060997,4.50351,-1.12681,3.80111,1,-1,0,0,0,false,false,false,367.44998,-4739.5,17.01,-0.00429156,-0.0021390365,0.89668816,-0.4426366,292.29102,-1745.5709,8.351,-0.00030999997,0,-3.1837099,0,0.8188976,0,0,0,false,false,false,-3773.99,-421.75,17,0.0033097074,0.0034931304,-0.6847128,0.72879696,26.501,-2125.061,8.431,0.00010999999,0.00081,1.7207099
257.85,-2883.91,-645.14996,129.97,0.86111546,-0.2903032,0.41684943,-0.020993935,-257.821,-1726.1509,47.630997,4.50351,-1.12681,3.80111,1,-1,0,0,0,false,false,false,369.88998,-4754.05,17.01,-0.0043185344,-0.002079694,0.90248084,-0.4307033,276.751,-1733.4509,8.361,-0.00030999997,0,-3.1849098,0,0.78740156,0,0,0,false,false,false,-3773.77,-439.46,17,0.0032827335,0.0035201046,-0.6794691,0.73368824,55.661,-2117.761,8.431,0.00010999999,0.00081,1.70611
257.85834,-2886.0598,-659.52997,130.31999,0.8630924,-0.28429875,0.4149828,-0.045108754,-257.751,-1725.7109,42.201,4.50351,-1.12681,3.80111,1,-1,0,0,0,false,false,false,372.19998,-4768.4897,17.01,-0.0043455088,-0.0020203514,0.908117,-0.41868907,260.111,-1719.761,8.361,-0.00030999997,0,-3.18391,0,0.7637795,0,0,0,false,false,false,-3773.3098,-457.11,17,0.0032557594,0.0035470785,-0.67423606,0.7385001,84.480995,-2110.1108,8.431,0.00010999999,0.00081,1.68521
257.86667,-2888.21,-673.91,130.62999,0.86452985,-0.2781163,0.41285726,-0.069196604,-257.681,-1725.271,36.771,4.50351,-1.12681,3.80111,1,-1,0,0,0,false,false,false,374.37,-4782.82,17.01,-0.004372482,-0.0019610084,0.91359156,-0.40660465,242.481,-1704.501,8.371,-0.00030999997,0,-3.18041,0,0.7322835,0,0,0,false,false,false,-3772.6099,-474.69,17,0.0032287855,0.0035740524,-0.6690355,0.7432148,113.010994,-2102.1008,8.431,0.00010999999,0.00081,1.66151
257.875,-2890.3599,-688.27997,130.89,0.865427,-0.2717612,0.41047275,-0.0932413,-257.611,-1724.8309,31.341,4.50351,-1.12681,3.80111,1,-1,0,0,0,false,false,false,376.38998,-4797.02,17.01,-0.004399456,-0.0019016657,0.91890013,-0.39446092,223.991,-1687.6809,8.371,-0.00030999997,0,-3.17401,0,0.70866144,0,0,0,false,false,false,-3771.67,-492.21,17,0.0032018116,0.0036010265,-0.66387266,0.74783,141.11101,-2093.761,8.431,0,0.00081,1.63291
257.88333,-2892.51,-702.64996,131.11,0.86578536,-0.26523346,0.40782923,-0.11722669,-257.54102,-1724.391,25.911,4.50351,-1.12681,3.80111,1,-1,0,0,0,false,false,false,378.25998,-4811.08,17.01,-0.004421035,-0.0018423226,0.92403644,-0.38227397,204.771,-1669.3209,8.371,-0.00040999998,0,-3.16431,0,0.6771653,0,0,0,false,false,false,-3770.49,-509.66,17,0.0031748374,0.0036226057,-0.6587692,0.7523296,168.83101,-2085.1008,8.431,0,0.00081,1.60251
257.89166,-2894.66,-717.01996,131.28,0.8656011,-0.25854388,0.40493223,-0.1411365,-257.471,-1723.9509,20.480999,4.50351,-1.12681,3.80111,1,-1,0,0,0,false,false,false,379.97,-4824.9897,17.01,-0.004442614,-0.0017829799,0.9289953,-0.37006015,184.94101,-1649.4409,8.3810005,-0.00040999998,0,-3.15111,0,0.6535433,0,0,0,false,false,false,-3769.0798,-527.04,17,0.0031478638,0.0036441851,-0.65373045,0.75671214,196.031,-2076.171,8.431,0,0.00081,1.56811
257.9,-2896.8,-731.38,131.41,0.864876,-0.25169247,0.40178165,-0.16496001,-257.401,-1723.511,15.051,4.50351,-1.12681,3.80111,1,-1,0,0,0,false,false,false,381.50998,-4838.7397,17.01,-0.0044641937,-0.0017236373,0.9337744,-0.35783008,164.621,-1628.0709,8.3810005,-0.00051,0,-3.1342099,0,0.62204725,0,0,0,false,false,false,-3767.45,-544.33997,17,0.0031208897,0.003665764,-0.64877254,0.7609671,222.751,-2066.961,8.431,0,0.00081,1.5325099
257.90833,-2898.94,-745.74,131.48999,0.86361015,-0.24467921,0.39838293,-0.188681,-257.331,-1723.0709,9.6310005,4.50351,-1.12681,3.80111,1,-1,0,0,0,false,false,false,382.88,-4852.31,17.01,-0.004485773,-0.0016642946,0.93836766,-0.34560543,143.94101,-1605.271,8.391,-0.00051,-0.00010999999,-3.11321,0,0.5984252,0,0,0,false,false,false,-3765.5898,-561.56,17,0.0030939158,0.0036873433,-0.6439011,0.76509356,248.86101,-2057.531,8.431,0,0.00081,1.49361
257.91666,-2901.0798,-760.1,131.53,0.8618038,-0.2375149,0.39473608,-0.21228334,-257.261,-1722.631,4.211,4.50351,-1.12681,3.80111,1,-1,0,0,0,false,false,false,384.08,-4865.69,17.01,-0.0045073526,-0.0016049519,0.94277245,-0.3334024,123.020996,-1581.101,8.391,-0.00061,-0.00010999999,-3.08791,0,0.5748032,0,0,0,false,false,false,-3763.52,-578.70996,17,0.0030669419,0.0037089225,-0.63912666,0.7690864,274.401,-2047.891,8.431,0,0.00081,1.45401
257.925,-2903.22,-774.45,131.52,0.8594593,-0.2302049,0.39084098,-0.23575075,-257.191,-1722.1909,-1.201,4.50351,-1.12681,3.80111,1,-1,0,0,0,false,false,false,385.11,-4878.87,17.01,-0.0045289313,-0.0015456091,0.9469848,-0.32124245,101.971,-1555.621,8.391,-0.00071,-0.00010999999,-3.05811,0,0.5511811,0,0,0,false,false,false,-3761.23,-595.77997,17,0.0030399675,0.0037305015,-0.63445467,0.772945,299.331,-2038.0609,8.431,0,0.00081,1.41371
