time,ball_loc_x,ball_loc_y,ball_loc_z,ball_rot_x,ball_rot_y,ball_rot_z,ball_rot_w,ball_vel_x,ball_vel_y,ball_vel_z,ball_ang_x,ball_ang_y,ball_ang_z,player0_throttle,player0_steer,player0_pitch,player0_yaw,player0_roll,player0_jump,player0_boost,player0_handbrake,player0_loc_x,player0_loc_y,player0_loc_z,player0_rot_x,player0_rot_y,player0_rot_z,player0_rot_w,player0_vel_x,player0_vel_y,player0_vel_z,player0_ang_x,player0_ang_y,player0_ang_z,player1_throttle,player1_steer,player1_pitch,player1_yaw,player1_roll,player1_jump,player1_boost,player1_handbrake,player1_loc_x,player1_loc_y,player1_loc_z,player1_rot_x,player1_rot_y,player1_rot_z,player1_rot_w,player1_vel_x,player1_vel_y,player1_vel_z,player1_ang_x,player1_ang_y,player1_ang_z
281.00833,-1207.4,1692.32,93.14,-0.13943715,-0.46095747,0.31365734,0.81834865,-1007.96094,509.621,0,-4.49201,-3.9642098,-0.32661,1,1,0,0,0,false,false,false,-329.28,1640.5299,17.01,-0.0046044583,0.0011841577,0.9680615,0.25066742,-750.96094,429.951,8.351,-0.00021,0,2.49371,1,0,0.92913383,1,0.015748031,false,false,false,-959.89996,1957.21,90.479996,0.058067143,0.017859556,0.940584,0.3340821,-1051.8309,804.821,-282.621,-1.2667099,-1.71621,0.36021
281.025,-1224.14,1700.7999,93.14,-0.18164077,-0.47572845,0.32360005,0.79747856,-1003.7009,508.771,0,-4.44841,-4.01341,-0.32221,1,1,0,0,0,false,false,false,-341.9,1647.58,17.01,-0.004626037,0.0010870512,0.9730602,0.23050158,-774.77094,403.011,8.351,-0.00021,0,2.4920099,1,0,0.93700784,1,0.031496063,false,false,false,-977.44,1970.63,85.64,0.04221175,0.022687899,0.9423385,0.33121207,-1052.6809,805.52094,-293.351,-1.12081,-1.56331,0.49611
281.04166,-1240.82,1709.27,93.14,-0.22320783,-0.48973337,0.3325068,0.77445376,-999.441,507.901,0,-4.4053097,-4.06101,-0.31781,1,1,0,0,0,false,false,false,-354.91,1654.1799,17.01,-0.0046476168,0.000989945,0.97763616,0.21024953,-797.46094,374.731,8.351,-0.00021,-0.00010999999,2.4897099,1,0,1,-0.40625,0.05511811,false,false,false,-995,1984.07,80.619995,0.027915454,0.026814915,0.9441942,0.3271066,-1053.5409,806.201,-304.121,-0.97211,-1.41251,0.63241
281.05832,-1257.4199,1717.73,93.14,-0.2640466,-0.5029291,0.34033468,0.74934226,-995.18097,507.001,0,-4.36261,-4.10711,-0.31341,1,1,0,0,0,false,false,false,-368.3,1660.2999,17.01,-0.004669196,0.00089283875,0.9817866,0.18992725,-818.96094,345.181,8.351,-0.00021,-0.00010999999,2.48701,1,0,1,-0.8828125,0.05511811,false,false,false,-1012.57,1997.51,75.42,0.015167554,0.030181272,0.94576234,0.3230983,-1054.401,806.881,-314.911,-0.82741,-1.26871,0.54641
281.075,-1273.96,1726.1699,93.14,-0.30406538,-0.515267,0.34705126,0.7222184,-990.941,506.07098,0,-4.32051,-4.15171,-0.30901,1,1,0,0,0,false,false,false,-382.03,1665.9299,17.01,-0.0046907756,0.0007957325,0.9855108,0.16954564,-839.2009,314.421,8.351,-0.00021,-0.00010999999,2.4839098,1,0,1,-0.890625,0.05511811,false,false,false,-1030.15,2010.97,70.04,0.0039516883,0.03279775,0.9468299,0.320034,-1055.281,807.55096,-325.731,-0.68661,-1.12681,0.39721
281.09167,-1290.4199,1734.59,93.14,-0.34316698,-0.52669865,0.3526241,0.6931674,-986.7009,505.121,0,-4.2789097,-4.19491,-0.30461,1,1,0,0,0,false,false,false,-396.09,1671.0399,17.01,-0.0047069592,0.00069862604,0.9888074,0.14912082,-858.131,282.531,8.351,-0.00021,0,2.48051,1,0,1,-0.890625,0.05511811,false,false,false,-1047.75,2024.44,64.479996,-0.005726618,0.034669824,0.94741744,0.31806487,-1056.161,808.21094,-336.581,-0.54551,-0.98451,0.24840999
281.10834,-1306.8099,1743,93.14,-0.38127056,-0.53716993,0.35702625,0.6622789,-982.46094,504.141,0,-4.23791,-4.23671,-0.30021,1,1,0,0,0,false,false,false,-410.47,1675.61,17.01,-0.004717749,0.0006015198,0.9916775,0.1286583,-875.68097,249.58101,8.351,-0.00021,0,2.47681,1,0,1,-0.890625,0.05511811,false,false,false,-1065.36,2037.9199,58.73,-0.013861972,0.035802737,0.9475824,0.31719634,-1057.0409,808.871,-347.451,-0.40401,-0.84181,0.101009995
281.125,-1323.13,1751.39,93.14,-0.4182898,-0.5466433,0.36023077,0.6296414,-978.24097,503.141,0,-4.19751,-4.27701,-0.29581,1,1,0,0,0,false,false,false,-425.13998,1679.63,17.01,-0.0047285384,0.00050441345,0.99412054,0.108174175,-891.811,215.651,8.351,-0.00021,-0.00010999999,2.47271,1,0,1,-0.8125,0.05511811,false,false,false,-1082.99,2051.41,52.8,-0.020443665,0.03621274,0.94736457,0.3174445,-1057.9209,809.53094,-358.331,-0.26211,-0.69881,-0.044809997
281.14166,-1339.38,1759.76,93.14,-0.45413297,-0.55507535,0.36222684,0.5953538,-974.02094,502.111,0,-4.15771,-4.31601,-0.29141,1,1,0,0,0,false,false,false,-440.06,1683.08,17.01,-0.0047393283,0.00040730712,0.9961378,0.087673865,-906.47095,180.811,8.351,-0.00021,-0.00010999999,2.4683099,1,0,1,-0.3203125,0.062992126,false,false,false,-1100.63,2064.91,46.69,-0.025471615,0.035905235,0.94682133,0.3187338,-1058.8009,810.191,-369.231,-0.11980999,-0.55451,-0.17701
281.15833,-1355.5599,1768.12,93.14,0.48872992,0.5624266,-0.36299834,-0.55950993,-969.811,501.061,0,-4.11851,-4.3537097,-0.28701,1,1,0,0,0,false,false,false,-455.22,1685.95,17.01,-0.004750118,0.0003102008,0.9977299,0.06717356,-919.61096,145.151,8.351,-0.00010999999,-0.00010999999,2.46371,1,0,0.96062994,0.97637796,0.08661418,false,false,false,-1118.2899,2078.42,40.399998,-0.028935118,0.034864042,0.94614124,0.32056817,-1059.6809,810.85095,-380.131,0.02461,-0.40631,-0.22930999
281.175,-1371.6699,1776.46,93.14,0.52199984,0.568658,-0.3625398,-0.5222156,-965.61096,499.981,0,-4.08011,-4.39001,-0.28281,1,1,0,0,0,false,false,false,-470.59,1688.22,17.01,-0.0047609075,0.00021309445,0.998898,0.046689432,-931.2009,108.730995,8.351,-0.00010999999,-0.00010999999,2.4588099,1,0,0.8897638,1,0.05511811,false,false,false,-1135.96,2091.94,33.93,-0.03086106,0.0330567,0.94577533,0.32165793,-1061.1809,810.871,-383.471,0.53151,-0.18600999,-0.053309996
281.19168,-1387.71,1784.7799,93.14,0.5538669,0.57374024,-0.36084038,-0.4835779,-961.41095,498.88098,0,-4.0423098,-4.42511,-0.27861002,1,1,0,0,0,false,false,false,-486.15,1689.88,17.01,-0.004760907,0.00011598811,0.9996445,0.026226882,-941.2009,71.651,8.351,-0.00010999999,0,2.4537098,1,0,0.97637796,0.78740156,0.11811024,false,false,false,-1153.65,2105.45,27.47,-0.028201425,0.02747848,0.9458827,0.32211107,-1064.9409,809.071,-338.381,0.94541,0.39901,-0.014709999
281.20834,-1403.6799,1793.08,93.14,0.584265,0.5776365,-0.3579056,-0.44370478,-957.23096,497.751,0,-4.00531,-4.45891,-0.27441,1,1,0,0,0,false,false,false,-501.87,1690.9199,17.01,-0.004760908,0.000018881788,0.99997187,0.005791314,-949.571,33.981,8.351,-0.00010999999,0,2.44841,-1,1,0,0,0,false,false,true,-1171.41,2118.93,22.029999,-0.022493687,0.021220515,0.9461213,0.32233223,-1068.9409,809.49097,-254.371,0.87511,0.40451,-0.013409999
281.225,-1419.58,1801.36,93.14,0.6131261,0.5803177,-0.3537408,-0.40270957,-953.05096,496.60098,0,-3.9690099,-4.49141,-0.27021,1,1,0,0,0,false,false,false,-517.72,1691.32,17.01,-0.004760908,-0.00007822455,0.99988204,-0.014601059,-956.30096,-4.1809998,8.351,-0.00010999999,0,2.44291,1,1,0,0,0,false,true,false,-1189.27,2132.3298,18.01,-0.017093495,0.015631506,0.94673187,0.32118854,-1077.9309,787.10095,-157.391,1.31821,0.47861,0.60291
281.24167,-1435.4099,1809.62,93.14,0.64038277,0.5817635,-0.3483568,-0.3607055,-948.881,495.421,0,-3.9335098,-4.52281,-0.26601002,1,1,0,0,0,false,false,false,-533.68,1691.08,17.01,-0.0047609075,-0.00017533088,0.999378,-0.034939524,-961.36096,-42.760998,8.351,-0.00010999999,0,2.43731,1,1,0,0,0,false,true,false,-1207.2899,2145.39,15.679999,-0.008100329,0.0067246137,0.9488502,0.31555092,-1090.371,772.60095,-41.071,0.67761,0.37691,1.05661
281.25833,-1451.1699,1817.86,93.14,0.66597843,0.5819469,-0.34176433,-0.31781673,-944.72095,494.221,0,-3.89871,-4.55311,-0.26181,1,1,0,0,0,false,false,false,-549.72,1690.2,17.01,-0.004760907,-0.00027243717,0.99846274,-0.05521864,-964.74097,-81.690994,8.351,-0.00010999999,0,2.43151,1,1,0,0,0,false,true,false,-1225.52,2158.21,15.16,-0.0047285384,0.0033151023,0.95185184,0.3065038,-1102.751,758.561,13.491,0.16741,0.048309997,1.37821
281.275,-1466.87,1826.08,93.14,0.6898574,0.5808518,-0.333985,-0.27415648,-940.561,493.001,0,-3.8647099,-4.58221,-0.25761,1,1,0,0,0,false,false,false,-565.81,1688.6799,17.01,-0.004750118,-0.00036954356,0.9971399,-0.075427644,-966.441,-120.881,8.351,-0.00010999999,0,2.42561,1,1,0,0,0,false,true,false,-1243.96,2170.79,15.32,-0.0042861653,0.0023764076,0.95546067,0.29507756,-1116.6809,741.86096,24.761,0.041309997,-0.009109999,1.59831
281.29166,-1482.49,1834.2799,93.14,0.7119681,0.57846737,-0.3250404,-0.2298381,-936.42096,491.751,0,-3.8315098,-4.61031,-0.25361001,1,1,0,0,0,false,false,false,-581.92,1686.5,17.01,-0.0047393288,-0.0004666499,0.9954132,-0.09555032,-966.441,-160.251,8.351,-0.00010999999,0,2.41951,1,1,0,0,0,false,true,false,-1262.64,2183.07,15.61,-0.0043077446,0.0020041666,0.95940715,0.2819844,-1132.3109,721.3909,25.841,0.02381,-0.01101,1.75581
281.30832,-1498.0499,1842.46,93.14,0.73226804,0.57477725,-0.3149521,-0.18498558,-932.28094,490.481,0,-3.79911,-4.63721,-0.24960999,1,1,0,0,0,false,false,false,-598.01996,1683.6599,17.01,-0.0047285384,-0.00056375616,0.99328595,-0.11558662,-964.73096,-199.711,8.351,-0.00010999999,-0.00010999999,2.41331,1,1,0,0,0,false,true,false,-1281.59,2194.99,15.9,-0.004372482,0.0017452165,0.96349853,0.2676719,-1149.241,697.16095,24.251,0.01481,-0.009509999,1.8702099
281.325,-1513.5299,1850.62,93.14,0.7507087,0.5697763,-0.30375785,-0.13972308,-928.15094,489.191,0,-3.76751,-4.66311,-0.24561,1,1,0,0,0,false,false,false,-614.08997,1680.1699,17.01,-0.004717749,-0.00066086254,0.9907623,-0.13552587,-961.321,-239.181,8.351,-0.00010999999,-0.00010999999,2.4070098,1,1,0,0,0,false,true,false,-1300.82,2206.5,16.15,-0.0044426145,0.0015510039,0.96760046,0.2524423,-1167.011,669.391,21.720999,0.00991,-0.00741,1.95481
281.34167,-1528.95,1858.76,93.14,0.76725334,0.5634643,-0.29148462,-0.09416385,-924.03094,487.88098,0,-3.7367098,-4.68811,-0.24160999,1,1,0,0,0,false,false,false,-630.08997,1676.02,17.01,-0.0047069597,-0.00075796887,0.9878468,-0.15535723,-956.22095,-278.591,8.351,-0.00010999999,-0.00010999999,2.40061,1,1,0,0,0,false,true,false,-1320.34,2217.53,16.359999,-0.0045019574,0.0013891599,0.9716172,0.23651148,-1185.151,638.391,19.091,0.00701,-0.00551,2.01841
281.35834,-1544.2999,1866.87,93.14,0.78186494,0.55584145,-0.27817562,-0.04843195,-919.92096,486.541,0,-3.7067099,-4.71201,-0.23761,1,1,0,0,0,false,false,false,-646,1671.21,17.01,-0.0046961703,-0.00085507525,0.98454344,-0.17507531,-949.42096,-317.861,8.351,-0.00010999999,-0.00010999999,2.3942099,1,1,0,0,0,false,true,false,-1340.1699,2228.03,16.529999,-0.004555905,0.0012488952,0.97548145,0.22003028,-1203.261,604.49097,16.691,0.00511,-0.00421,2.06691
281.375,-1559.58,1874.96,93.14,0.7945157,0.5469076,-0.26387393,-0.0026569369,-915.821,485.181,0,-3.67751,-4.7350097,-0.23381,1,1,0,0,0,false,false,false,-661.79,1665.75,17.01,-0.0046745907,-0.0009467867,0.98085725,-0.19466928,-940.93097,-356.931,8.351,-0.00021,0,2.38821,1,1,0,0,0,false,true,false,-1360.2999,2237.96,16.66,-0.0045990637,0.001124815,0.979144,0.20311214,-1220.981,568.02094,14.651,0.00381,-0.00311,2.10461
281.39166,-1574.7899,1883.0299,93.14,0.8051764,0.536679,-0.24862285,0.043047942,-911.72095,483.801,0,-3.6491098,-4.75721,-0.23000999,1,1,0,0,0,false,false,false,-677.43,1659.64,17.01,-0.0046530114,-0.0010331034,0.9767915,-0.21413915,-930.73096,-395.761,8.351,-0.00021,0,2.38411,1,1,0,0,0,false,true,false,-1380.72,2247.26,16.76,-0.0046368274,0.0010115243,0.9825679,0.18584332,-1238.011,529.28094,13.041,0.00291,-0.0023100001,2.1342099
281.40833,-1589.9299,1891.08,93.14,0.8138316,0.52516115,-0.23246536,0.08856401,-907.6409,482.401,0,-3.62141,-4.77851,-0.22621,1,1,0,0,0,false,false,false,-692.89996,1652.88,17.01,-0.0046314327,-0.0011194203,0.9723461,-0.23349577,-918.85095,-434.271,8.351,0,0,2.38131,1,1,0,0,0,false,false,false,-1401.4199,2255.91,16.84,-0.0046691964,0.0009036284,0.98572624,0.16828865,-1254.111,488.561,11.761,0.0023100001,-0.0017099999,2.15771
281.425,-1605.01,1899.1,93.14,0.82046455,0.51237,-0.21545552,0.13376717,-903.561,480.981,0,-3.59441,-4.7989097,-0.22241,1,0.18897638,0,0,0,false,true,false,-708.16,1645.48,17.01,-0.0046098535,-0.0012111318,0.9675227,-0.2527391,-905.29095,-472.361,8.351,0,0,2.37951,1,1,0,0,0,false,false,false,-1422.38,2263.88,16.9,-0.004690775,0.0007957324,0.988599,0.15049651,-1269.0609,446.131,10.741,0.0018099999,-0.0012099999,2.17671
281.44168,-1620.02,1907.1,93.14,0.82506335,0.49832737,-0.19764182,0.17854416,-899.501,479.541,0,-3.56831,-4.8186097,-0.21880999,1,0.11811024,0,0,0,false,true,false,-723.42,1637.4199,17.01,-0.004582879,-0.0013028432,0.96264476,-0.2707254,-916.67096,-503.081,8.241,0.00331,0.0019099999,1.8515099,1,1,0,0,0,false,false,false,-1443.59,2271.14,16.94,-0.004712355,0.00069862616,0.99117017,0.1325102,-1282.7109,402.221,9.971,0.0014099999,-0.0010099999,2.19211
281.45834,-1634.96,1915.07,93.14,0.8276184,0.48306,-0.17907824,0.22278164,-895.441,478.081,0,-3.5429099,-4.83741,-0.21520999,1,0.047244094,0,0,0,false,true,false,-738.86,1628.83,17.01,-0.0045505106,-0.0013999495,0.9586262,-0.28462783,-925.49097,-535.701,8.191,0.00401,0.0023100001,1.42941,1,1,0,0,0,false,false,false,-1465.02,2277.65,16.97,-0.0047339336,0.0006015198,0.99342823,0.114356615,-1294.9209,357.051,9.391,0.0012099999,-0.00071,2.20471
281.475,-1649.84,1923.0199,93.14,0.8281324,0.4665896,-0.15982951,0.26635557,-891.3909,476.60098,0,-3.5183098,-4.8555098,-0.21160999,1,-0.0078125,0,0,0,false,true,false,-754.43,1619.69,17.01,-0.0045289313,-0.0014862664,0.95540136,-0.2952718,-933.42096,-567.96094,8.161,0.00351,0.00201,1.08101,1,1,0,0,0,false,false,false,-1486.65,2283.41,16.99,-0.0047447225,0.0005044134,0.9953632,0.09606816,-1305.5809,310.801,8.991,0.0010099999,-0.00051,2.21511
281.49167,-1664.64,1930.95,93.14,0.8266058,0.44895396,-0.13994427,0.3091581,-887.35095,475.10098,0,-3.49441,-4.87291,-0.20800999,1,-0.046875,0,0,0,false,true,false,-770.13995,1610.02,17.01,-0.004507352,-0.0015563987,0.9529005,-0.3032453,-941.43097,-598.74097,8.151,0.00251,0.00151,0.79241,1,1,0,0,0,false,false,false,-1508.45,2288.39,17.01,-0.004755513,0.00040730712,0.9969683,0.07766112,-1314.621,263.651,8.701,0.00081,-0.00040999998,2.22371
281.50833,-1679.38,1938.85,93.14,0.8230433,0.43018538,-0.11949251,0.35108662,-883.321,473.581,0,-3.47121,-4.88961,-0.20450999,1,-0.078125,0,0,0,false,true,false,-785.82,1599.96,17.01,-0.0044965628,-0.0016049519,0.95104074,-0.30902863,-936.85095,-617.98096,8.241,0.0010099999,0.00051,0.55641,1,1,0,0,0,false,false,false,-1530.39,2292.5898,17.01,-0.004766302,0.00031020076,0.9982372,0.05915689,-1321.9509,215.761,8.491,0.00061,-0.00030999997,2.23101
281.525,-1694.0499,1946.72,93.14,0.8174609,0.4103217,-0.098528236,0.39202785,-879.30096,472.051,0,-3.4488099,-4.90561,-0.20110999,1,-0.1015625,0,0,0,false,false,false,-801.42,1589.59,17.01,-0.0044857734,-0.0016319259,0.9497325,-0.31302616,-933.7009,-634.78094,8.281,0,0,0.36311,0,0,0,0,0,true,false,false,-1552.45,2295.99,17.01,-0.004777092,0.00021309445,0.9991651,0.04057173,-1327.5409,167.271,8.401,0.00040999998,-0.00021,2.23721
281.54166,-1708.6499,1954.57,93.14,0.80987567,0.3894006,-0.077126995,0.4318794,-875.28094,470.501,0,-3.4270098,-4.92091,-0.19770999,1,-0.125,0,0,0,false,false,false,-816.97,1578.95,17.01,-0.004485773,-0.0016427154,0.94889295,-0.3155617,-932.131,-649.121,8.301001,-0.00051,-0.00040999998,0.20571,0,0,0,0,0,true,false,false,-1574.6,2298.68,22.109999,-0.0047824867,0.00011059332,0.99971884,0.023221985,-1323.131,142.641,308.101,0.00561,-0.00091,1.68401
281.55832,-1723.19,1962.39,93.14,0.80030733,0.36747605,-0.055342726,0.4705386,-871.28094,468.931,0,-3.40601,-4.93571,-0.19431,1,-0.1328125,0,0,0,false,false,false,-832.51,1568.08,17.01,-0.0044857734,-0.0016427155,0.9484434,-0.31691045,-932.22095,-660.96094,8.301001,-0.00091,-0.00061,0.074609995,1,0,0,0,0,false,false,false,-1596.62,2300.95,27.34,-0.004793276,-0.000008092194,0.9999385,0.009999255,-1315.271,117.291,316.141,0.00881,-0.0014099999,1.33701
281.575,-1737.6599,1970.1799,93.14,0.7887804,0.34459126,-0.03325095,0.5079139,-867.28094,467.35098,0,-3.3856099,-4.94981,-0.19101,1,-0.1484375,0,0,0,false,false,false,-848.05,1557.02,17.01,-0.004485773,-0.0016319258,0.9483171,-0.31728807,-933.71094,-670.71094,8.301001,-0.00111,-0.00081,-0.02641,1,0,0,0,0,false,false,false,-1618.5599,2302.81,32.41,-0.004804066,-0.0001375673,0.9999882,-0.0006284937,-1317.4509,105.340996,299.881,0.00991,-0.0012099999,1.2136099
281.59167,-1752.0599,1977.95,93.14,0.77532715,0.32080013,-0.0109056225,0.5439081,-863.29095,465.751,0,-3.3659098,-4.96331,-0.18780999,1,-0.1484375,0,0,0,false,false,false,-863.62,1545.8099,17.01,-0.0044857725,-0.0016211361,0.9484469,-0.3168996,-936.65094,-678.311,8.301001,-0.00111,-0.00091,-0.11091,1,0,-1,1,0,true,false,false,-1640.5299,2304.57,37.27,-0.0048148553,-0.0002616476,0.9999332,-0.010501012,-1318.5509,105.33099,289.021,0.008509999,-0.0010099999,1.17511
281.60834,-1766.3999,1985.69,93.14,0.7599839,0.29615656,0.011617779,0.5784296,-859.311,464.131,0,-3.34691,-4.97631,-0.18461,1,-0.15625,0,0,0,false,false,false,-879.25,1534.48,17.01,-0.004496562,-0.0016049517,0.9487834,-0.3158908,-940.66095,-684.30096,8.301001,-0.00111,-0.0010099999,-0.17261,1,0,-1,1,0,true,false,false,-1668.23,2297.29,41.95,-0.02091301,-0.0194726,0.99936426,-0.021317622,-1662.0509,-437.121,278.161,3.07681,-2.52441,1.35451
281.625,-1780.6699,1993.3999,93.14,0.742792,0.27071458,0.034254424,0.6113919,-855.33093,462.501,0,-3.32851,-4.98871,-0.18141,1,-0.15625,0,0,0,false,false,false,-894.94995,1523.0599,17.01,-0.0045073526,-0.0015833728,0.9492726,-0.31441802,-945.73096,-688.65094,8.301001,-0.00111,-0.00091,-0.22300999,1,0,-1,1,0,true,false,false,-1695.94,2290.01,46.45,-0.055990107,-0.060964152,0.9960247,-0.03291108,-1663.1509,-437.161,267.261,4.17881,-3.41751,1.05221
281.64166,-1794.87,2001.09,93.14,0.72379386,0.24453895,0.056934234,0.64271414,-851.371,460.861,0,-3.3108099,-5.00061,-0.17830999,1,-0.15625,0,0,0,false,false,false,-910.73,1511.57,17.01,-0.0045181415,-0.0015617935,0.9498817,-0.31257296,-951.59094,-691.73096,8.301001,-0.0010099999,-0.00071,-0.25961,1,0,-1,1,0,true,false,false,-1723.6699,2282.73,50.77,-0.09478965,-0.10686324,0.9888876,-0.04118674,-1664.241,-437.221,256.271,4.24671,-3.4223099,0.70891
281.65833,-1809.01,2008.75,93.14,0.70303184,0.21768896,0.07959246,0.67232627,-847.41095,459.201,0,-3.29371,-5.01201,-0.17531,1,-0.1484375,0,0,0,false,false,false,-926.62,1500.0399,17.01,-0.0045289313,-0.0015402143,0.95057493,-0.3104582,-958.10095,-693.71094,8.301001,-0.00091,-0.00061,-0.28621,1,0,-1,1,0,true,false,false,-1751.4199,2275.45,54.899998,-0.13335176,-0.15274073,0.9781093,-0.04679193,-1665.3109,-437.281,245.191,4.29201,-3.3998098,0.51911
281.675,-1823.09,2016.38,93.14,0.6805642,0.19022936,0.10216437,0.7001481,-843.46094,457.531,0,-3.27721,-5.02291,-0.17231,1,-0.1484375,0,0,0,false,false,false,-942.61,1488.47,17.01,-0.004534326,-0.0015186351,0.95132244,-0.30816,-965.03094,-694.91095,8.301001,-0.00081,-0.00040999998,-0.30041,1,0,-1,1,0,true,false,false,-1779.19,2268.17,58.85,-0.17136367,-0.19826761,0.96371317,-0.050805703,-1666.361,-437.32098,234.031,4.32291,-3.37461,0.41641
281.69168,-1837.1,2023.99,93.14,0.6564441,0.16223021,0.12457985,0.7261146,-839.52094,455.85098,0,-3.2613099,-5.03331,-0.16930999,0,0,0,0,0,true,false,false,-958.72,1476.89,17.01,-0.0045343265,-0.001497056,0.95209855,-0.30575398,-972.381,-695.311,8.301001,-0.00061,-0.00040999998,-0.31111002,1,0,-1,1,0,true,false,false,-1806.97,2260.89,62.609997,-0.208658,-0.24319021,0.945738,-0.05384836,-1667.391,-437.331,222.771,4.34371,-3.35421,0.36191002
281.70834,-1851.0399,2031.5599,93.14,0.6307377,0.13375638,0.14677411,0.75015754,-835.58093,454.151,0,-3.2460098,-5.0433097,-0.16631,0,0,0,0,0,true,false,false,-974.94,1465.2899,22.109999,-0.004545116,-0.0014754769,0.95282835,-0.30347192,-968.18097,-691.30096,308.001,-0.00091,-0.00131,-0.22570999,0,0,0,0,0,false,false,false,-1834.77,2253.6099,66.18,-0.2451054,-0.28729826,0.92423934,-0.056254447,-1668.381,-437.32098,211.451,4.3572097,-3.33951,0.33361
281.725,-1864.9199,2039.11,93.14,0.6035101,0.10487796,0.16868247,0.7722191,-831.66095,452.441,0,-3.23121,-5.05291,-0.16351,0,0,0,0,0,true,false,false,-991.05,1453.7899,27.34,-0.0045559052,-0.0014538976,0.95335937,-0.3017995,-962.2009,-684.98096,316.041,-0.00091,-0.0019099999,-0.17221,0,0,0,0,0,false,false,false,-1862.57,2246.3298,69.57,-0.28032276,-0.33062947,0.8993397,-0.057371173,-1668.381,-437.32098,200.61101,4.41381,-3.27211,0.24680999
281.74167,-1878.73,2046.63,93.14,0.57482046,0.075664975,0.19023477,0.7922543,-827.74097,450.721,0,-3.21701,-5.06211,-0.16070999,0,0,0,0,0,false,false,false,-1007.06,1442.4,32.71,-0.00457209,-0.0014323185,0.95376825,-0.3005048,-959.35095,-681.811,324.081,-0.00091,-0.00221,-0.15331,0,0,0,0,0,false,false,false,-1890.37,2239.05,72.78,-0.31422377,-0.37297875,0.8711182,-0.05747367,-1668.381,-437.32098,189.771,4.44661,-3.23031,0.20571
281.75833,-1892.48,2054.1199,93.14,0.54474974,0.046187714,0.21137705,0.8102062,-823.83093,448.981,0,-3.2032099,-5.07091,-0.15790999,0,0,0,0,0,false,false,false,-1023.04,1431.0399,37.98,-0.0045882734,-0.001410739,0.9541412,-0.29931787,-959.35095,-681.811,313.241,-0.00071,-0.00201,-0.14830999,0,0,0,0,0,false,false,false,-1917.86,2231.77,75.409996,-0.33889973,-0.40534225,0.84712833,-0.056729194,-1630.361,-436.82098,197.97101,3.3638098,-2.16631,0.15371
281.775,-1906.1599,2061.5798,93.14,0.51336807,0.016527044,0.2320446,0.8260359,-819.93097,447.231,0,-3.1900098,-5.07931,-0.15511,0,0,0,0,0,false,false,false,-1039.02,1419.6799,43.07,-0.0045990637,-0.0013999495,0.95450264,-0.2981634,-959.35095,-681.811,302.401,-0.00051,-0.0018099999,-0.14351,0,0,0,0,0,false,false,false,-1944.7799,2224.51,77.759995,-0.3614392,-0.43772197,0.8214403,-0.054743905,-1615.091,-435.881,107.83099,4.62421,-2.97211,0.18221
281.79166,-1920.34,2063.01,93.49,0.484085,-0.0020581146,0.26993772,0.83234066,-770.41095,-916.871,-17.081,-1.86141,-3.89181,4.16991,0,0,0,0,0,false,false,false,-1055,1408.32,47.969997,-0.004609853,-0.0013891599,0.95484906,-0.2970521,-959.35095,-681.811,291.561,-0.00030999997,-0.0016099999,-0.13891,0,0,0,0,0,false,false,false,-1970.89,2218.23,80.58,-0.3755521,-0.4781885,0.79145604,-0.062399168,-1551.0409,-328.031,159.30101,4.27241,-2.16061,2.70691
281.80832,-1933.1699,2047.71,93.07,0.46189612,-0.008040985,0.31423995,0.82936144,-770.011,-916.3909,-27.901,-1.86141,-3.89181,4.16991,0,0,-1,0,0,true,false,false,-1070.98,1396.96,52.69,-0.004620643,-0.0013783704,0.95518404,-0.29597312,-959.35095,-681.811,280.721,-0.00010999999,-0.0014099999,-0.13441,0,0,0,0,0,false,false,false,-1996.5,2212.76,82.58,-0.38883948,-0.5208776,0.75649464,-0.072152995,-1531.751,-329.031,112.370995,4.62181,-2.50121,1.6224099
281.825,-1945.89,2032.71,93.299995,0.4412016,-0.016354365,0.35838574,0.8225772,-763.36096,-899.561,11.311,-1.41301,-4.0630097,4.16991,0,0,-1,0,0,true,false,false,-1093.84,1380.88,57.23,-0.026739392,-0.00821362,0.9551437,-0.29481867,-1371.751,-964.5109,269.881,2.08391,-3.04471,-0.12970999,0,0,0,0,0,false,false,false,-2022.0199,2207.28,84.32,-0.40801805,-0.56147355,0.7159081,-0.07578908,-1531.751,-329.031,101.531,4.72161,-2.67911,0.88201
281.84167,-1958.61,2017.73,93.35,0.41940653,-0.024630025,0.401636,0.81374437,-762.96094,-899.10095,0.471,-1.41301,-4.0630097,4.16991,0,0,-1,0,0,true,false,false,-1116.7,1364.7999,61.59,-0.07710542,-0.023772253,0.95271146,-0.29296824,-1371.751,-964.5109,259.04102,3.10151,-4.54101,-0.09560999,0,0,0,0,0,false,false,false,-2047.5399,2201.8,85.88,-0.4292575,-0.5984066,0.6722741,-0.0754654,-1531.751,-329.031,90.690994,4.76231,-2.71001,0.47491
281.85834,-1971.32,2002.75,93.22,0.3965703,-0.032846343,0.44388282,0.8028829,-762.561,-898.6409,-10.351,-1.41301,-4.0630097,4.16991,0,0,0,0,0,false,false,false,-1139.5599,1348.72,65.77,-0.1343498,-0.041418713,0.94653755,-0.2903463,-1371.751,-964.5109,248.201,3.09581,-4.54561,-0.05391,0,0,0,0,0,false,false,false,-2072.55,2196.24,89.02,-0.44492942,-0.6258176,0.63643473,-0.0730809,-1498.9309,-334.161,190.561,4.8418097,-2.58571,0.34731
281.875,-1983.99,1987.86,93.17,0.37345353,-0.041855697,0.4851532,0.7895612,-758.35095,-888.16095,9.451,-1.13771,-4.16451,4.16681,0,0,0,0,0,false,false,false,-1162.4199,1332.64,69.77,-0.19111948,-0.058887113,0.93683535,-0.28695843,-1371.751,-964.5109,237.36101,3.09021,-4.5496097,-0.03121,0,0,0,0,0,false,false,false,-2097.53,2190.68,92.06,0.46494958,0.6578018,-0.5885502,0.068754226,-1498.9309,-334.161,179.72101,4.83521,-2.61461,0.18620999
281.89166,-1996.63,1973.0599,93.189995,0.3501263,-0.051631108,0.5253014,0.77382433,-757.951,-887.7009,-1.381,-1.13771,-4.16451,4.16681,0,0,0,0,0,false,false,false,-1185.28,1316.5599,73.59,-0.24720939,-0.07610739,0.9236779,-0.28269112,-1371.751,-964.5109,226.521,3.0859098,-4.55261,-0.01911,0,0,0,0,0,false,false,false,-2122.51,2185.1199,94.92,0.48404723,0.686796,-0.5384863,0.06357522,-1498.9309,-334.161,168.881,4.83451,-2.6205099,0.09951
281.90833,-2009.24,1958.3099,93.159996,0.32626507,-0.061789554,0.5641819,0.75593114,-755.53094,-881.92096,4.0709996,-0.98971,-4.21101,4.1578097,0,0,0,0,0,false,false,false,-1208.14,1300.48,77.229996,-0.3024091,-0.0930309,0.90713775,-0.27747968,-1371.751,-964.5109,215.681,3.08281,-4.55471,-0.012709999,0,0,0,0,0,false,false,false,-2147.49,2179.56,97.6,0.50175303,0.7129377,-0.48643714,0.057813585,-1498.9309,-334.161,158.041,4.83611,-2.61881,0.053409997
281.925,-2021.8099,1943.64,93.159996,0.30212325,-0.07252523,0.60162723,0.73587096,-754.191,-878.99097,0.80099994,-0.92081,-4.23161,4.15271,0,0,0,0,0,false,false,false,-1231,1284.4,80.689995,-0.35651374,-0.109598406,0.88728684,-0.27130803,-1371.751,-964.5109,204.841,3.08071,-4.55611,-0.0094099995,0,0,0,0,0,false,false,false,-2172.47,2174,100.1,0.5177972,0.7362693,-0.43258068,0.05164725,-1498.9309,-334.161,147.201,4.83811,-2.61551,0.02931
281.94168,-2034.36,1929.0299,93.14,0.27763614,-0.08373566,0.6375513,0.71374685,-752.201,-874.35095,2.761,-0.80421,-4.26501,4.1427097,0,0,0,0,0,false,false,false,-1253.86,1268.32,83.97,-0.40932363,-0.12576124,0.86420435,-0.26417607,-1371.751,-964.5109,194.001,3.0794098,-4.5570097,-0.00771,0,0,0,0,0,false,false,false,-2197.45,2168.44,102.42,0.5320126,0.7567697,-0.37712198,0.04517889,-1498.9309,-334.161,136.36101,4.83981,-2.61251,0.01681
281.95834,-2046.88,1914.49,93.14,0.25293863,-0.09550176,0.671803,0.68962455,-750.80096,-871.261,0,-0.73051,-4.28521,4.13551,0,0,0,0,0,false,false,false,-1276.72,1252.24,87.07,-0.46064454,-0.1414602,0.83797866,-0.25610003,-1371.751,-964.5109,183.161,3.07851,-4.55761,-0.00691,0,0,0,0,0,false,false,false,-2222.43,2162.88,104.56,0.54429114,0.77440244,-0.32026058,0.038483948,-1498.9309,-334.161,125.520996,4.84101,-2.6103098,0.0105099995
281.975,-2059.3699,1900.0199,93.14,0.22800918,-0.10775876,0.70430475,0.66359204,-749.061,-867.27094,0,-0.63171,-4.3112097,4.12471,0,0,0,0,0,false,false,false,-1299.58,1236.1599,88.59,-0.5102983,-0.15664117,0.8087025,-0.24710144,-1371.751,-964.5109,68.440994,3.0780098,-4.55801,-0.00661,0,0,0,0,0,false,false,false,-2247.41,2157.32,106.52,0.5545629,0.7891206,-0.2622016,0.0316055,-1498.9309,-334.161,114.681,4.8418097,-2.60881,0.00731
281.99167,-2071.8298,1885.62,93.14,0.20289095,-0.120490536,0.73494196,0.63574946,-747.321,-863.29095,0,-0.53311,-4.33591,4.11281,0,0,0,0,0,false,false,false,-1322.44,1220.08,89.09,-0.5580964,-0.17125037,0.7764867,-0.23721275,-1371.751,-964.5109,19.970999,3.07771,-4.55821,-0.00641,0,0,0,0,0,false,false,false,-2272.39,2151.76,108.299995,0.56277376,0.8008773,-0.2031661,0.024592264,-1498.9309,-334.161,103.840996,4.84231,-2.60791,0.0057099997
282.00833,-2084.26,1871.2799,93.14,0.17762163,-0.13367006,0.7636153,0.60619664,-745.561,-859.311,0,-0.43461,-4.3593097,4.09961,0,0,0,0,0,false,false,false,-1345.2999,1204,89.15,-0.6038661,-0.18523374,0.74145097,-0.2264609,-1371.751,-964.5109,-0.501,3.07761,-4.55831,-0.00641,0,0,0,0,0,false,false,false,-2297.3699,2146.2,109.899994,0.5688915,0.80963063,-0.14336994,0.017481921,-1498.9309,-334.161,93.001,4.84261,-2.60731,0.00491
282.025,-2096.67,1857.01,93.14,0.15224443,-0.14728117,0.7902298,0.57503617,-743.80096,-855.33093,0,-0.33641002,-4.38141,4.08531,0,0,0,0,0,false,false,false,-1368.1599,1187.9199,89.02,-0.64744544,-0.19854274,0.7037171,-0.21488902,-1371.751,-964.5109,-9.141,3.0775099,-4.55831,-0.00641,0,0,0,0,0,false,false,false,-2322.3499,2140.64,111.31,0.5728783,0.815358,-0.08303974,0.0102959685,-1498.9309,-334.161,82.160995,4.8428097,-2.60701,0.00451
282.04166,-2109.04,1842.8099,93.14,0.12679711,-0.16128616,0.8146972,0.54238147,-742.04095,-851.35095,0,-0.23851,-4.4022098,4.06971,0,0,0,0,0,false,false,false,-1391.02,1171.84,88.82,0.68867373,0.21112889,-0.66342485,0.2025349,-1371.751,-964.5109,-12.791,3.0775099,-4.55831,-0.00641,0,0,0,0,0,false,false,false,-2347.3298,2135.0798,112.54,0.5747286,0.8180316,-0.022396578,0.003072336,-1498.9309,-334.161,71.321,4.84291,-2.6068099,0.0043099998
282.05832,-2121.39,1828.6699,93.14,0.1013066,-0.17566332,0.8369406,0.50834006,-740.28094,-847.371,0,-0.14101,-4.4218097,4.05301,0,0,0,0,0,false,false,false,-1413.88,1155.76,88.59,0.7273967,0.22294888,-0.6207249,0.18944173,-1371.751,-964.5109,-14.341001,3.0775099,-4.55831,-0.00641,0,0,0,0,0,false,false,false,-2372.31,2129.52,113.59,0.57442665,0.81764764,0.0383275,-0.0041674804,-1498.9309,-334.161,60.481,4.84301,-2.60661,0.0043099998
282.075,-2133.7,1814.6,93.14,0.07581603,-0.190375,0.85688144,0.4730364,-738.52094,-843.41095,0,-0.043909997,-4.4401097,4.03521,0,0,0,0,0,false,false,false,-1436.74,1139.6799,88.35,0.76347506,0.23395976,-0.57576996,0.17566334,-1371.751,-964.5109,-14.991,3.0775099,-4.55831,-0.00641,0,0,0,0,0,false,false,false,-2397.29,2123.96,114.46,0.5719773,0.8142043,0.098911226,-0.0113911545,-1498.9309,-334.161,49.641,4.84301,-2.60661,0.0043099998
282.09167,-2145.99,1800.59,93.14,0.050363287,-0.20538339,0.8744601,0.43657827,-736.74097,-839.4509,0,0.05261,-4.45711,4.01621,0,0,0,0,0,false,false,false,-1459.6,1123.6,88.09,0.79677844,0.24412355,-0.5287217,0.16124834,-1371.751,-964.5109,-15.271,3.0775099,-4.55831,-0.00641,0,0,0,0,0,false,false,false,-2422.27,2118.4,115.149994,0.5673864,0.8077175,0.1591228,-0.01857167,-1498.9309,-334.161,38.801,4.84301,-2.60661,0.0043099998
282.10834,-2158.24,1786.6499,93.14,0.024975292,-0.22064531,0.8896126,0.39910045,-734.96094,-835.49097,0,0.14851,-4.47301,3.9962099,0,0,0,0,0,false,false,false,-1482.46,1107.52,87.83,0.8271874,0.2533972,-0.479753,0.14624542,-1371.751,-964.5109,-15.3810005,3.0775099,-4.55831,-0.00641,0,0,0,0,0,false,false,false,-2447.25,2112.8398,115.659996,0.56067514,0.798208,0.21874094,-0.025682012,-1498.9309,-334.161,27.960999,4.84301,-2.60661,0.0043099998
282.125,-2170.47,1772.77,93.14,-0.000304806,-0.23612303,0.90229124,0.36071628,-733.18097,-831.53094,0,0.24381,-4.48761,3.9751098,0,0,0,0,0,false,false,false,-1505.32,1091.44,87.57,0.8545904,0.2617484,-0.42904168,0.13071372,-1371.751,-964.5109,-15.431,3.0775099,-4.55831,-0.00641,0,0,0,0,0,false,false,false,-2472.23,2107.28,115.99,0.5518709,0.78571063,0.2775391,-0.032700684,-1498.9309,-334.161,17.120998,4.84301,-2.60661,0.0043099998
282.14166,-2182.66,1758.96,93.14,-0.025450038,-0.25176263,0.9124527,0.3215554,-731.3909,-827.58093,0,0.33841002,-4.50101,3.95291,0,0,0,0,0,false,false,false,-1528.1799,1075.36,87.31,0.8788901,0.26915008,-0.3767659,0.114707276,-1371.751,-964.5109,-15.451,3.0775099,-4.55831,-0.00641,0,0,0,0,0,false,false,false,-2497.21,2101.72,116.14,0.5410003,0.7702752,0.33530137,-0.039595276,-1498.9309,-334.161,6.2809997,4.84301,-2.60661,0.0043099998
282.15833,-2194.8298,1745.22,93.14,-0.050428066,-0.26751545,0.920057,0.2817578,-729.59094,-823.6409,0,0.43221,-4.51331,3.92971,0,0,0,0,0,false,false,false,-1551.0399,1059.28,87.049995,0.89999515,0.27556992,-0.32312524,0.09828544,-1371.751,-964.5109,-15.451,3.0775099,-4.55831,-0.00641,0,0,0,0,0,false,false,false,-2522.19,2096.16,116.11,0.52810663,0.7519565,0.39181206,-0.04634416,-1498.9309,-334.161,-4.5509996,4.84301,-2.60661,0.0043099998
282.175,-2206.96,1731.5399,93.14,-0.075201064,-0.28333312,0.9250798,0.24144235,-727.79095,-819.7009,0,0.52521,-4.52441,3.90551,0,0,0,0,0,false,false,false,-1573.9,1043.2,86.79,0.9178282,0.28099176,-0.2683139,0.08150223,-1371.751,-964.5109,-15.451,3.0775099,-4.55831,-0.00641,0,0,0,0,0,false,false,false,-2547.17,2090.5999,115.95,0.51323855,0.73082536,0.44685534,-0.052920464,-1498.9309,-334.161,-10.851,4.84301,-2.60661,0.0043099998
282.19168,-2219.07,1717.9299,93.14,-0.09974207,-0.29915607,0.92750263,0.20073843,-725.98096,-815.761,0,0.61741,-4.53441,3.8803098,0,0,0,0,0,false,false,false,-1596.76,1027.12,86.53,0.9323264,0.28539386,-0.21252607,0.0644222,-1371.751,-964.5109,-15.451,3.0775099,-4.55831,-0.00641,0,0,0,0,0,false,false,false,-2572.15,2085.04,115.74,0.4964499,0.7069655,0.5002209,-0.059297115,-1498.9309,-334.161,-13.511,4.84301,-2.60661,0.0043099998
282.20834,-2231.14,1704.38,93.14,-0.12402413,-0.31493592,0.92731065,0.15977557,-724.16095,-811.84094,0,0.70881,-4.5433097,3.85421,0,0,0,0,0,false,false,false,-1619.62,1011.04,86.27,0.94343734,0.28876024,-0.15596144,0.047110226,-1371.751,-964.5109,-15.451,3.0775099,-4.55831,-0.00641,0,0,0,0,0,false,false,false,-2597.13,2079.48,115.5,0.47780547,0.68045795,0.5517198,-0.06545261,-1498.9309,-334.161,-14.641,4.84301,-2.60661,0.0043099998
282.225,-2243.19,1690.8999,93.14,-0.14800407,-0.33061323,0.92450184,0.11868323,-722.33093,-807.92096,0,0.79921,-4.55121,3.82721,0,0,0,0,0,false,false,false,-1642.48,994.95996,86.009995,0.9511206,0.2910746,-0.09883035,0.029625608,-1371.751,-964.5109,-15.451,3.0775099,-4.55831,-0.00641,0,0,0,0,0,false,false,false,-2622.1099,2073.92,115.25,0.4573753,0.65140146,0.6011579,-0.07136531,-1498.9309,-334.161,-15.121,4.84301,-2.60661,0.0043099998
282.24167,-2255.2,1677.48,93.14,-0.171655,-0.34612334,0.9190825,0.07759099,-720.49097,-804.001,0,0.88861,-4.55801,3.79931,0,0,0,0,0,false,false,false,-1665.34,978.88,85.75,0.95534706,0.2923316,-0.04134319,0.012033177,-1371.751,-964.5109,-15.451,3.0775099,-4.55831,-0.00641,0,0,0,0,0,false,false,false,-2647.0898,2068.3599,114.99,0.43522957,0.61991566,0.64834356,-0.07700831,-1498.9309,-334.161,-15.321,4.84301,-2.60661,0.0043099998
282.25833,-2267.19,1664.13,93.14,-0.19495521,-0.36140686,0.911063,0.03662814,-718.6409,-800.09094,0,0.97701,-4.5637097,3.77051,0,0,0,0,0,false,false,false,-1688.2,962.8,85.49,0.95610225,0.29252583,0.016295066,-0.0056025377,-1371.751,-964.5109,-15.451,3.0775099,-4.55831,-0.00641,0,0,0,0,0,false,false,false,-2672.0698,2062.8,114.689995,0.41471845,0.5909671,0.6870799,-0.08177731,-1498.9309,-334.161,-20.780998,4.68581,-2.5176098,0.047609996
282.275,-2279.14,1650.85,93.14,-0.21786699,-0.37640443,0.90046483,-0.004081163,-716.78094,-796.191,0,1.06431,-4.56851,3.74101,0,0,0,0,0,false,false,false,-1711.0599,946.72,85.229996,0.95338315,0.2916572,0.073873885,-0.023216587,-1371.751,-964.5109,-15.451,3.0775099,-4.55831,-0.00641,0,0,0,0,0,false,false,false,-2697.05,2057.24,114.21,0.39708278,0.566917,0.71661997,-0.085942134,-1498.9309,-334.161,-31.600998,4.38481,-2.35391,0.12641
282.29166,-2291.07,1637.63,93.14,-0.24035259,-0.3910514,0.88732,-0.04441283,-714.91095,-792.29095,0,1.1504099,-4.57231,3.71081,0,0,0,0,0,false,false,false,-1733.9199,930.63995,84.97,0.947199,0.2897313,0.13118304,-0.04074976,-1371.751,-964.5109,-15.451,3.0775099,-4.55831,-0.00641,0,0,0,0,0,false,false,false,-2722.03,2051.68,113.549995,0.37955502,0.54376787,0.7430533,-0.09014468,-1498.9309,-334.161,-42.420998,4.10131,-2.20701,0.19490999
282.30832,-2302.96,1624.47,93.14,-0.26239583,-0.4052829,0.871663,-0.08424818,-713.03094,-788.41095,0,1.23551,-4.57511,3.6798098,0,0,0,0,0,false,false,false,-1756.7799,914.56,84.71,0.9375743,0.286748,0.18801749,-0.058131836,-1371.751,-964.5109,-15.451,3.0775099,-4.55831,-0.00641,0,0,0,0,0,false,false,false,-2747.01,2046.12,112.71,0.36223763,0.52158976,0.7666971,-0.09435806,-1498.9309,-334.161,-53.240997,3.83441,-2.07481,0.25381002
282.325,-2314.82,1611.38,93.14,-0.28395888,-0.4190397,0.8535388,-0.123468466,-711.1409,-784.53094,0,1.31941,-4.57711,3.64811,0,0,0,0,0,false,false,false,-1779.64,898.48,84.45,0.92454267,0.28272343,0.24416667,-0.07530355,-1371.751,-964.5109,-15.451,3.0775099,-4.55831,-0.00641,0,0,0,0,0,false,false,false,-2771.99,2040.5599,111.689995,0.3452063,0.50043136,0.7878388,-0.098544426,-1498.9309,-334.161,-64.061,3.58371,-1.95531,0.30371
282.34167,-2326.65,1598.35,93.14,-0.30502027,-0.43225703,0.83299774,-0.16196051,-709.24097,-780.65094,0,1.40191,-4.57821,3.61571,0,0,0,0,0,false,false,false,-1802.5,882.39996,84.189995,0.9081504,0.27767393,0.29943123,-0.0922001,-1371.751,-964.5109,-15.451,3.0775099,-4.55831,-0.00641,0,0,0,0,0,false,false,false,-2796.97,2035,110.49,0.32853085,0.48030865,0.8067387,-0.10268223,-1498.9309,-334.161,-74.881,3.34831,-1.84681,0.34531
282.35834,-2338.44,1585.39,93.14,-0.32554746,-0.44487,0.8101017,-0.1996109,-707.321,-776.79095,0,1.48321,-4.57861,3.58271,0,0,0,0,0,false,false,false,-1825.36,866.32,83.93,0.8884557,0.2716155,0.35361135,-0.10876761,-1371.751,-964.5109,-15.451,3.0775099,-4.55831,-0.00641,0,0,0,0,0,false,false,false,-2821.95,2029.44,109.11,0.3122601,0.4612326,0.82362765,-0.10674996,-1498.9309,-334.161,-85.701,3.1275098,-1.74791,0.37951002
282.375,-2350.21,1572.49,93.14,-0.34551373,-0.45681423,0.78491724,-0.23631723,-705.391,-772.93097,0,1.56321,-4.5781097,3.54911,0,0,0,0,0,false,false,false,-1848.22,850.24,83.67,0.86553425,0.26456988,0.40650207,-0.124935836,-1371.751,-964.5109,-15.451,3.0775099,-4.55831,-0.00641,0,0,0,0,0,false,false,false,-2846.93,2023.88,107.549995,0.29642627,0.44318688,0.8387224,-0.11073131,-1498.9309,-334.161,-96.520996,2.9207098,-1.65731,0.40691
282.39166,-2361.94,1559.65,93.14,-0.36489195,-0.46803004,0.7575158,-0.27197704,-703.451,-769.08093,0,1.64191,-4.57691,3.5150099,0,0,0,0,0,false,false,false,-1871.08,834.16,83.409996,0.83946776,0.25656402,0.45791477,-0.14065097,-1371.751,-964.5109,-15.451,3.0775099,-4.55831,-0.00641,0,0,0,0,0,false,false,false,-2871.91,2018.32,105.81,0.28105107,0.42615002,0.8522145,-0.11461557,-1498.9309,-334.161,-107.340996,2.72711,-1.57401,0.42811
282.40833,-2373.64,1546.88,93.14,-0.38364965,-0.47845283,0.727982,-0.306493,-701.49097,-765.24097,0,1.71921,-4.57501,3.48031,0,0,0,0,0,false,false,false,-1893.94,818.07996,83.15,0.81035227,0.24762477,0.5076603,-0.15585895,-1371.751,-964.5109,-15.451,3.0775099,-4.55831,-0.00641,0,0,0,0,0,false,false,false,-2896.89,2012.76,103.89,0.26616135,0.41010052,0.8642678,-0.11839196,-1498.9309,-334.161,-118.160995,2.54601,-1.49711,0.44401
282.425,-2385.31,1534.1799,93.14,-0.40176547,-0.48802862,0.69639784,-0.33976826,-699.52094,-761.41095,0,1.79521,-4.57241,3.4451098,0,0,0,0,0,false,false,false,-1916.7999,802,82.89,0.7782903,0.23778462,0.55556625,-0.17049505,-1371.751,-964.5109,-15.451,3.0775099,-4.55831,-0.00641,1,0,-0.53125,1,0.31496063,false,false,false,-2921.8699,2007.2,101.79,0.2517626,0.39500043,0.8750395,-0.122049645,-1498.9309,-334.161,-128.981,2.37671,-1.42581,0.45511
282.44168,-2396.94,1521.5399,93.14,-0.41920695,-0.49670348,0.6628529,-0.37172177,-697.54095,-757.59094,0,1.86981,-4.56921,3.40951,0,0,0,0,0,false,false,false,-1939.6599,785.92,82.63,0.7434033,0.2270813,0.6014492,-0.18451084,-1371.751,-964.5109,-15.451,3.0775099,-4.55831,-0.00641,1,0,-0.5,1,0.30708662,false,false,false,-2946.8599,2001.64,99.509995,0.23837811,0.3794741,0.88502675,-0.12610653,-1499.861,-334.171,-139.211,2.43711,-1.2416099,0.44381002
282.45834,-2408.54,1508.96,93.14,-0.4359471,-0.50441813,0.62745345,-0.40226182,-695.54095,-753.78094,0,1.94301,-4.56551,3.37341,0,0,0,0,0,false,false,false,-1962.5199,769.83997,82.369995,0.7058098,0.21555263,0.6451527,-0.19785762,-1371.751,-964.5109,-15.451,3.0775099,-4.55831,-0.00641,1,0,-0.46875,1,0.32283464,false,false,false,-2971.8699,1996.07,97.06,0.226148,0.36315474,0.8943544,-0.13078924,-1500.8009,-334.221,-149.47101,2.48991,-1.0606099,0.44921
282.475,-2420.1099,1496.44,93.14,-0.4519696,-0.51111835,0.59029293,-0.43131822,-693.52094,-749.98096,0,2.01471,-4.5612097,3.33701,0,0,0,0,0,false,false,false,-1985.38,753.76,82.07,0.67097217,0.20487623,0.68130934,-0.2089008,-1371.751,-964.5109,-20.860998,3.00371,-4.44901,-0.00621,1,0,-0.4375,1,0.3464567,false,false,false,-2996.89,1990.49,94.439995,0.21503472,0.34605324,0.9030353,-0.13614088,-1501.761,-334.291,-159.751,2.54811,-0.88251,0.46291
282.49167,-2431.64,1483.99,93.14,-0.46723697,-0.516756,0.5514851,-0.4588211,-691.49097,-746.191,0,2.08501,-4.55641,3.30021,0,0,0,0,0,false,false,false,-2008.24,737.68,81.59,0.6409662,0.19567809,0.7096105,-0.21754327,-1371.751,-964.5109,-31.680998,2.86141,-4.2382097,-0.00581,1,0,-0.40625,1,0.36220473,false,false,false,-3021.93,1984.9099,91.65,0.2050111,0.32811007,0.91109717,-0.1421831,-1502.721,-334.401,-170.041,2.6154099,-0.70691,0.48251
282.50833,-2443.14,1471.6,93.14,0.48172748,0.52127683,-0.51114535,0.48470542,-689.441,-742.41095,0,2.15381,-4.55111,3.26311,0,0,0,0,0,false,false,false,-2031.1,721.6,80.93,0.6112732,0.18657699,0.73534155,-0.22540352,-1371.751,-964.5109,-42.501,2.72581,-4.03741,-0.0054099998,1,0,-0.375,1,0.38582677,false,false,false,-3046.99,1979.33,88.689995,0.19603415,0.3092983,0.9185437,-0.14893736,-1503.6809,-334.541,-180.351,2.68671,-0.53441,0.51081
282.525,-2454.6099,1459.27,93.14,0.49541408,0.5246498,-0.4693841,0.50890654,-687.381,-738.6409,0,2.2211099,-4.5454097,3.22571,0,0,0,0,0,false,false,false,-2053.96,705.51996,80.09,0.5820224,0.17761624,0.75870246,-0.23253548,-1371.751,-964.5109,-53.321,2.5966098,-3.8461099,-0.00501,1,0,-0.375,1,0.38582677,false,false,false,-3072.0598,1973.75,85.549995,0.18808223,0.28956947,0.9253669,-0.1564308,-1504.641,-334.711,-190.681,2.76601,-0.36441,0.54531
282.54166,-2466.04,1447.01,93.14,0.5082699,0.5268281,-0.42632806,0.53137374,-685.30096,-734.881,0,2.28691,-4.53931,3.1881099,0,0,0,0,0,false,false,false,-2076.82,689.44,79.07,0.55333287,0.16882811,0.7798714,-0.23899849,-1371.751,-964.5109,-64.141,2.47351,-3.66391,-0.00471,1,0,-0.3046875,1,0.41732284,false,false,false,-3097.15,1968.1699,82.24,0.18109588,0.26895046,0.9315284,-0.16469567,-1505.621,-334.911,-201.021,2.8394098,-0.19981,0.59281
282.55832,-2477.43,1434.8099,93.14,0.5202788,0.5277668,-0.38209596,0.552064,-683.201,-731.131,0,2.35131,-4.5328097,3.15031,0,0,0,0,0,false,false,false,-2099.68,673.36,77.869995,0.5252851,0.1602395,0.79903156,-0.24484102,-1371.751,-964.5109,-74.961,2.35631,-3.4902098,-0.00451,1,0,-0.2734375,1,0.44094488,false,false,false,-3122.25,1962.59,78.759995,0.17487569,0.24734963,0.9370352,-0.17378594,-1506.5809,-335.141,-211.381,2.94221,-0.071609996,0.66211
282.575,-2488.79,1422.6699,93.14,0.53140837,0.5274378,-0.3368173,0.57093656,-681.09094,-727.3909,0,2.4142098,-4.52601,3.11231,0,0,0,0,0,false,false,false,-2122.54,657.27997,76.49,0.49794972,0.1518668,0.81634617,-0.25012258,-1371.751,-964.5109,-85.781,2.24461,-3.32481,-0.0043099998,1,0,-0.234375,1,0.4488189,false,false,false,-3147.3699,1957,75.11,0.1689522,0.22462668,0.9419161,-0.1838257,-1507.5409,-335.411,-221.751,3.06471,0.02771,0.74851
282.59167,-2500.1199,1410.59,93.14,0.54163694,0.5258139,-0.29062685,0.5879499,-678.96094,-723.67096,0,2.47561,-4.51881,3.07421,0,0,0,0,0,false,false,false,-2145.4,641.2,74.92,0.47137478,0.14372605,0.8319745,-0.25488618,-1371.751,-964.5109,-96.601,2.13831,-3.16731,-0.00411,1,0,0.30708662,1,0.1496063,false,false,false,-3172.51,1951.3999,71.29,0.1633793,0.20079237,0.94607043,-0.19478257,-1508.501,-335.721,-232.131,3.17911,0.13240999,0.83700997
282.60834,-2511.41,1398.57,93.14,0.550943,0.5228684,-0.24365422,0.60307795,-676.811,-719.951,0,2.53551,-4.5114098,3.03601,0,0,0,0,0,false,false,false,-2168.26,625.12,73.17,0.44560915,0.13583337,0.8460555,-0.25917506,-1371.751,-964.5109,-107.421,2.03691,-3.01721,-0.00391,1,0,0.5905512,1,0.09448819,false,false,false,-3197.66,1945.7999,67.29,0.15854016,0.17716847,0.94907457,-0.20672129,-1509.4609,-336.051,-242.531,3.07651,0.26291,0.97331
282.625,-2522.66,1386.62,93.14,0.5593049,0.51857936,-0.19602337,0.61630195,-674.65094,-716.251,0,2.59391,-4.50381,2.99781,0,0,0,0,0,false,false,false,-2191.1199,609.04,71.24,0.42066887,0.12819433,0.8587302,-0.26303235,-1371.751,-964.5109,-118.241,1.94031,-2.87421,-0.00371,1,0,0.6771653,1,0.09448819,false,false,false,-3222.8298,1940.2,63.12,0.15471524,0.15441853,0.9507713,-0.21966346,-1510.4109,-336.421,-252.941,2.93331,0.40621,1.11691
282.64166,-2533.8699,1374.73,93.14,0.5667013,0.5129311,-0.14788541,0.62759954,-672.47095,-712.561,0,2.65081,-4.49601,2.9595098,0,0,0,0,0,false,false,false,-2213.98,592.95996,69.13,0.39657566,0.12081417,0.8701198,-0.2665012,-1371.751,-964.5109,-129.061,1.84841,-2.73801,-0.00351,1,0,0.7637795,1,0.09448819,false,false,false,-3248.01,1934.58,58.78,0.15200704,0.13260187,0.9511767,-0.23360902,-1511.351,-336.831,-263.361,2.79241,0.55181,1.26261
282.65833,-2545.05,1362.9,93.14,0.5731157,0.50591785,-0.09936444,0.6369554,-670.27094,-708.881,0,2.70631,-4.48801,2.92111,0,0,0,0,0,false,false,false,-2236.8398,576.88,66.84,0.3733348,0.11370384,0.88034123,-0.26961404,-1371.751,-964.5109,-139.881,1.76081,-2.6082098,-0.00331,1,0,0.8346457,0.984252,0.09448819,false,false,false,-3273.21,1928.96,54.26,0.15048033,0.11170777,0.95031494,-0.24855268,-1512.2809,-337.281,-273.801,2.65221,0.70071,1.4111099
282.675,-2556.2,1351.13,93.14,0.5785266,0.49752352,-0.050606094,0.6443727,-668.05096,-705.21094,0,2.76031,-4.47991,2.8828099,0,0,0,0,0,false,false,false,-2259.7,560.8,64.369995,0.3509571,0.10685245,0.8894988,-0.27240318,-1371.751,-964.5109,-150.701,1.67741,-2.48451,-0.00311,1,0,0.8346457,0.984252,0.09448819,false,false,false,-3298.43,1923.34,49.559998,0.15018901,0.09172536,0.9482003,-0.26447278,-1513.1909,-337.771,-284.251,2.51161,0.85061,1.56031
282.69168,-2567.31,1339.4199,93.14,0.582918,0.4877481,-0.0017398217,0.64985013,-665.821,-701.55096,0,2.8129098,-4.47161,2.8445098,0,0,0,0,0,false,false,false,-2282.56,544.72,61.719997,0.32942638,0.10026001,0.8976945,-0.27490097,-1371.751,-964.5109,-161.521,1.5979099,-2.36671,-0.00291,1,0,-0.21875,0.8976378,0.11023622,false,false,false,-3323.66,1917.7,44.69,0.15111692,0.07263848,0.9448362,-0.28137472,-1514.0809,-338.301,-294.711,2.37651,0.99311,1.7150099
282.70834,-2578.38,1327.77,93.14,0.58626825,0.47660244,0.047099438,0.653392,-663.571,-697.91095,0,2.86411,-4.46331,2.80631,0,0,0,0,0,false,false,false,-2305.42,528.64,58.89,0.30873725,0.09392644,0.90501684,-0.27713442,-1371.751,-964.5109,-172.341,1.52221,-2.25451,-0.00271,1,0,-0.8359375,0.9133858,0.11811024,false,false,false,-3348.9,1912.0599,39.649998,0.15205562,0.05401557,0.9404439,-0.29921004,-1492.8009,-370.591,-295.581,1.99851,0.51191,1.25041
282.725,-2589.41,1316.1799,93.14,0.58856106,0.46408102,0.09577685,0.65502006,-661.30096,-694.28094,0,2.91381,-4.45491,2.76821,0,0,0,0,0,false,false,false,-2328.28,512.56,55.879997,0.28888434,0.087846495,0.91154695,-0.2791251,-1371.751,-964.5109,-183.161,1.45011,-2.14761,-0.00251,1,0,-0.8359375,0.9133858,0.11811024,false,false,false,-3373.5898,1905.62,34.62,0.1482361,0.039573696,0.9385847,-0.30906096,-1448.601,-432.161,-280.711,1.64361,-0.63671,0.02121
282.74167,-2600.4,1304.65,93.14,0.58978564,0.4502055,0.14415224,0.6547426,-659.011,-690.66095,0,2.96211,-4.44651,2.7302098,0,0,0,0,0,false,false,false,-2351.14,496.47998,52.69,0.26984063,0.08201473,0.9173646,-0.2808946,-1371.751,-964.5109,-193.981,1.38131,-2.04581,-0.0023100001,1,0,-0.9921875,1,0.09448819,false,false,false,-3397.5598,1898.1799,29.9,0.13620561,0.029118497,0.9409293,-0.30862936,-1408.2009,-488.32098,-255.001,1.61791,-1.8593099,-1.13321
282.75833,-2611.3499,1293.1799,93.14,0.5899259,0.4349922,0.19209597,0.6525858,-656.71094,-687.061,0,3.0090098,-4.43811,2.6923099,0,0,0,0,0,false,false,false,-2374,480.4,49.32,0.25158995,0.076431036,0.92253536,-0.28246996,-1371.751,-964.5109,-204.801,1.31591,-1.94881,-0.00211,1,0,-0.2265625,1,0.33070865,false,false,false,-3420.88,1889.83,25.619999,0.114906885,0.020093001,0.9470914,-0.2990158,-1375.881,-534.92096,-227.161,1.8522099,-2.99371,-2.1177099
282.775,-2622.26,1281.77,93.14,0.588971,0.41845706,0.23947324,0.64858246,-654.391,-683.47095,0,3.0545099,-4.42971,2.65461,0,0,0,0,0,false,false,false,-2396.8599,464.31998,45.77,0.2341162,0.07108478,0.92712235,-0.28386718,-1371.751,-964.5109,-215.621,1.25351,-1.8564099,-0.0019099999,1,0,-0.0546875,1,0.08661418,false,false,false,-3443.72,1880.76,21.89,0.08287789,0.01220581,0.9557451,-0.28201675,-1351.9309,-573.691,-180.261,1.48761,-4.42121,-2.45271
282.79166,-2633.13,1270.4199,93.14,0.5869156,0.40062717,0.28615457,0.64276224,-652.05096,-679.891,0,3.0987098,-4.42131,2.61711,0,0,0,0,0,false,false,false,-2419.72,448.24,42.04,0.21739225,0.06596512,0.93118507,-0.28510258,-1371.1709,-961.4509,-226.44101,1.22271,-1.77871,0.03461,-1,1,0,0,0,false,false,false,-3466.13,1871,19.039999,0.04603666,0.007938442,0.96346503,-0.26372832,-1325.151,-617.93097,-115.190994,1.56301,-3.36791,-1.98311
282.80832,-2643.96,1259.13,93.14,0.5837542,0.3815403,0.3320159,0.6351561,-649.691,-676.33093,0,3.14161,-4.41301,2.57981,0,0,0,0,0,false,false,false,-2442.5698,432.24,38.079998,0.20044711,0.060694408,0.9348412,-0.28672102,-1369.721,-955.7609,-233.901,1.33421,-1.91481,0.10301,-1,1,0,0,0,false,false,false,-3487.88,1860.6499,17.18,0.018231798,0.0022037742,0.9680915,-0.24992299,-1248.771,-625.621,-70.151,1.14131,-2.23781,-1.09751
282.825,-2654.75,1247.9,93.14,0.5794762,0.36123422,0.37693855,0.62580705,-647.321,-672.78094,0,3.18311,-4.40471,2.54271,0,0,0,0,0,false,false,false,-2465.39,416.34,34.07,0.18146811,0.054808594,0.9384054,-0.2888951,-1367.741,-950.871,-224.911,1.59461,-2.29371,0.15651,-1,1,0,0,0,false,false,false,-3508.41,1850.24,16.029999,0.000035066172,-0.0019825874,0.97009677,-0.24271011,-1181.731,-619.59094,-24.761,0.15321,-1.14151,-0.34991
282.84167,-2665.5,1236.73,93.14,0.5740813,0.33974123,0.4207984,0.6147643,-644.93097,-669.24097,0,3.22341,-4.39651,2.50581,0,0,0,0,0,false,false,false,-2488.18,400.50998,30.25,0.15836753,0.047736023,0.94214976,-0.29153857,-1365.0709,-947.001,-208.551,1.94951,-2.82571,0.18860999,-1,1,0,0,0,false,false,false,-3527.8398,1839.96,15.7,-0.006260703,-0.000989945,0.9704615,-0.2411726,-1118.761,-607.441,12.931,-0.04051,-0.09231,0.24441
282.85834,-2676.21,1225.62,93.14,0.5675644,0.31711543,0.46347144,0.6020819,-642.53094,-665.72095,0,3.26241,-4.3885098,2.46921,0,0,0,0,0,false,false,false,-2510.92,384.74,26.71,0.12993146,0.039125927,0.94598866,-0.29443562,-1361.6709,-944.2009,-191.94101,2.33501,-3.40531,0.19670999,-1,1,0,0,0,false,false,false,-3546.23,1829.8999,15.82,-0.0065304427,-0.0006338885,0.96972597,-0.24410737,-1057.5409,-592.72095,19.911,-0.02241,0.01971,0.68491
282.875,-2686.88,1214.57,93.14,0.55992526,0.29340518,0.5048496,0.58781266,-640.11096,-662.21094,0,3.3001099,-4.38051,2.43291,0,0,0,0,0,false,false,false,-2533.5999,369.00998,23.43,0.09589554,0.028870339,0.94953245,-0.29725173,-1357.631,-942.34094,-179.651,2.69681,-3.9416099,0.18301,1,1,0,0,0,false,false,false,-3563.5999,1820.09,16.02,-0.0063038613,-0.00056915096,0.96813905,-0.25033298,-996.86096,-577.121,20.681,-0.009009999,0.03041,1.00211
282.89166,-2697.51,1203.58,93.14,0.5511695,0.26865914,0.54482526,0.5720137,-637.67096,-658.71094,0,3.33671,-4.3727098,2.39691,0,0,0,0,0,false,false,false,-2556.2,353.33,20.47,0.05722555,0.0185393,0.95213825,-0.29969016,-1351.391,-937.881,-133.681,2.26221,-3.59111,0.17151,1,1,0,0,0,false,false,false,-3580.19,1810.38,16.22,-0.0060233325,-0.0006284938,0.965807,-0.25919127,-989.91095,-597.97095,19.620998,-0.00421,0.033809997,1.3601099
282.90833,-2708.0999,1192.65,93.14,0.5413024,0.24293669,0.5832974,0.5547409,-635.21094,-655.23096,0,3.37201,-4.36501,2.3612099,0,0,0,0,0,false,false,false,-2578.69,337.71,18.3,0.025719775,0.010031623,0.95314056,-0.30126542,-1342.9209,-934.68097,-89.861,1.67071,-2.44981,0.11850999,1,1,0,0,0,false,false,false,-3596.66,1800.33,16.41,-0.005737407,-0.0007471792,0.96265125,-0.27068216,-981.941,-619.93097,17.831,-0.00081,0.03121,1.61741
282.925,-2718.65,1181.77,93.14,0.5303348,0.21630251,0.620156,0.5360641,-632.74097,-651.761,0,3.40621,-4.35751,2.32571,0,0,0,0,0,false,false,false,-2601.03,322.13998,16.82,0.0044372194,0.00349313,0.95322806,-0.3021987,-1334.0409,-932.061,-52.850998,1.08521,-1.49851,0.08571,-1,1,0,0,0,false,false,false,-3612.98,1789.8999,16.56,-0.0054838103,-0.00089283875,0.95879954,-0.284029,-972.11096,-643.691,15.911,0.00091,0.02661,1.8033099
282.94168,-2729.16,1170.95,93.14,0.51827186,0.18882132,0.6553162,0.51604384,-630.261,-648.30096,0,3.4393098,-4.35011,2.2906098,0,0,0,0,0,false,false,false,-2623.23,306.61,16.02,-0.0063578095,-0.0017020581,0.9530287,-0.30280834,-1324.5509,-930.321,-2.261,0.30991,-0.11060999,0.06251,-1,1,0,0,0,false,false,false,-3628.92,1779.24,16.68,-0.005278808,-0.0010492879,0.95442206,-0.29841158,-909.311,-628.891,14.201,0.00451,0.01981,1.80741
282.95834,-2739.63,1160.19,93.14,0.5051302,0.1605632,0.68868333,0.49475053,-627.761,-644.86096,0,3.47121,-4.34291,2.25581,0,0,0,0,0,false,false,false,-2645.27,291.12,15.94,-0.0071562394,-0.0031262843,0.95287704,-0.3032561,-1316.1709,-926.99097,15.241,-0.01781,0.057409998,0.044309996,1,1,0,0,0,false,false,false,-3643.8098,1768.82,16.77,-0.0051277536,-0.0012111317,0.9498187,-0.3127564,-845.24097,-614.10095,12.751,0.00501,0.015209999,1.80581
282.975,-2750.06,1149.48,93.14,0.49091482,0.13159846,0.7201737,0.47226492,-625.24097,-641.43097,0,3.50211,-4.33591,2.22131,0,0,0,0,0,false,false,false,-2667.17,275.69,16.08,-0.0066545224,-0.003072336,0.95277596,-0.30358517,-1308.101,-923.23096,18.110998,-0.038809996,0.046509996,0.032209996,1,1,0,0,0,false,false,false,-3657.8298,1758.46,16.84,-0.004998279,-0.0013567914,0.94490033,-0.32731706,-830.02094,-643.451,11.591001,0.0014099999,0.013609999,1.94901
282.99167,-2760.45,1138.83,93.14,0.47565836,0.10200254,0.749704,0.44865185,-622.71094,-638.011,0,3.53191,-4.3291097,2.1872098,0,0,0,0,0,false,false,false,-2688.94,260.32,16.25,-0.006206755,-0.002867334,0.9527041,-0.30382255,-1300.2009,-919.23096,18.220999,-0.042209998,0.035509996,0.02351,1,1,0,0,0,false,false,false,-3671.5999,1747.62,16.89,-0.0048741987,-0.0014808717,0.9393807,-0.34283793,-813.65094,-672.60095,10.681,0,0.011309999,2.05411
283.00833,-2770.8,1128.24,93.14,0.45937136,0.07185624,0.77720344,0.42399213,-620.17096,-634.61096,0,3.5606098,-4.32251,2.15341,0,0,0,0,0,false,false,false,-2710.5698,245.01999,16.41,-0.005839909,-0.0026191734,0.952652,-0.30399522,-1292.4309,-915.03094,17.101,-0.038609996,0.02651,0.01741,1,1,0,0,0,false,false,false,-3685.0898,1736.2899,16.93,-0.0047609075,-0.0015941622,0.9333133,-0.3590277,-795.701,-701.79095,10.021,-0.00030999997,0.009009999,2.13201
283.025,-2781.1099,1117.71,93.14,0.44207555,0.04123529,0.80260634,0.39836136,-617.61096,-631.22095,0,3.58831,-4.31611,2.11991,0,0,0,0,0,false,false,false,-2732.0798,229.78,16.55,-0.00554859,-0.0023871972,0.952613,-0.3041247,-1284.781,-910.67096,15.611,-0.032709997,0.01961,0.012909999,1,1,0,0,0,false,false,false,-3698.27,1724.47,16.96,-0.0046638013,-0.0017020581,0.9267398,-0.37567076,-775.941,-731.03094,9.481,-0.00040999998,0.00711,2.1902099
283.04166,-2791.38,1107.23,93.14,0.4238033,0.010225836,0.8258454,0.37184045,-615.03094,-627.84094,0,3.61501,-4.30991,2.0868099,0,0,0,0,0,false,false,false,-2753.46,214.62,16.67,-0.0053273616,-0.0021875899,0.9525838,-0.30422184,-1277.221,-906.18097,14.101,-0.02661,0.014609999,0.009609999,1,1,0,0,0,false,false,false,-3711.1199,1712.1699,16.98,-0.004577485,-0.0018045595,0.9196916,-0.39261052,-754.27094,-760.23096,9.111,-0.00040999998,0.00561,2.2339098
283.05832,-2801.5898,1096.8099,93.14,0.40458155,-0.021085644,0.8468658,0.34451032,-612.441,-624.48096,0,3.64081,-4.30401,2.05411,0,0,0,0,0,false,false,false,-2774.71,199.54,16.76,-0.0051547275,-0.0020257458,0.95256263,-0.30429196,-1269.741,-901.571,12.731,-0.02101,0.01091,0.00721,1,1,0,0,0,false,false,false,-3723.5999,1699.37,17,-0.0045019574,-0.0019016657,0.91219205,-0.40973362,-730.67096,-789.24097,8.821,-0.00040999998,0.0043099998,2.2669098
283.075,-2811.76,1086.44,93.14,0.3844373,-0.05262375,0.8656213,0.31644642,-609.84094,-621.131,0,3.6656098,-4.2982097,2.02181,0,0,0,0,0,false,false,false,-2795.8398,184.54,16.83,-0.0050252527,-0.0018962709,0.95254636,-0.3043459,-1262.3309,-896.871,11.611,-0.01641,0.00821,0.0054099998,1,1,0,0,0,false,false,false,-3735.67,1686.09,17.01,-0.0044318247,-0.001998772,0.90426534,-0.42694306,-705.18097,-817.8909,8.571,-0.00040999998,0.00331,2.29201
283.09167,-2821.89,1076.13,93.14,0.36340827,-0.084291324,0.88206434,0.2877352,-607.22095,-617.79095,0,3.6895099,-4.2926097,1.98991,0,0,0,0,0,false,false,false,-2816.8499,169.62,16.89,-0.0049227513,-0.0017937698,0.95253503,-0.30438367,-1254.981,-892.09094,10.731,-0.01261,0.00631,0.00411,1,1,0,0,0,false,false,false,-3747.3098,1672.34,17.01,-0.0043670875,-0.0020904834,0.8959273,-0.44417414,-677.85095,-846.001,8.441,-0.00040999998,0.00251,2.31131
283.10834,-2831.98,1065.88,93.14,0.34153232,-0.11600202,0.8961562,0.258463,-604.60095,-614.46094,0,3.7125099,-4.28731,1.9584099,0,0,0,0,0,false,false,false,-2837.74,154.78,16.93,-0.004841829,-0.0017128477,0.95252526,-0.30441603,-1247.6709,-887.251,10.011001,-0.009609999,0.00481,0.00311,1,1,0,0,0,false,false,false,-3758.49,1658.12,17.01,-0.00430235,-0.0021768003,0.8871932,-0.46137282,-648.77094,-873.42096,8.391,-0.00030999997,0.0019099999,2.32611
283.125,-2842.03,1055.6799,93.14,0.31884173,-0.14765881,0.9078715,0.22870514,-601.96094,-611.141,0,3.73471,-4.28221,1.92731,0,0,0,0,0,false,false,false,-2858.51,140.02,16.96,-0.0047824867,-0.001653505,0.95251876,-0.3044376,-1240.401,-882.36096,9.451,-0.00721,0.00351,0.0023100001,1,1,0,0,0,false,false,false,-3769.18,1643.45,17.01,-0.004248402,-0.002263117,0.8780706,-0.47850683,-618.03094,-899.99097,8.361,-0.00021,0.00151,2.33761
283.14166,-2852.02,1045.53,93.14,0.29537967,-0.17918073,0.91718125,0.19855353,-599.311,-607.84094,0,3.75591,-4.27731,1.89661,0,0,0,0,0,false,false,false,-2879.16,125.34,16.98,-0.0047393288,-0.0016103467,0.95251393,-0.30445382,-1233.151,-877.43097,9.061,-0.00551,0.00261,0.0017099999,1,1,0,0,0,false,false,false,-3779.3499,1628.34,17.01,-0.004194454,-0.0023494337,0.8685728,-0.4955382,-585.72095,-925.59094,8.361,-0.00021,0.0012099999,2.34651
283.15833,-2861.97,1035.44,93.14,0.2711947,-0.21047607,0.92406666,0.16808903,-596.65094,-604.55096,0,3.7764099,-4.2726097,1.86631,1,-1,0,0,0,false,false,true,-2899.69,110.74,17,-0.0047069597,-0.0015779779,0.95251065,-0.30446458,-1225.9309,-872.46094,8.771,-0.00421,0.00201,0.00131,1,1,0,0,0,false,false,false,-3788.97,1612.8099,17.01,-0.0041405065,-0.0024357506,0.85870945,-0.51244015,-551.951,-950.08093,8.361,-0.00021,0.0010099999,2.35351
283.175,-2871.88,1025.41,93.14,0.24633002,-0.24145313,0.9285185,0.13738708,-593.97095,-601.27094,0,3.79611,-4.26811,1.8364099,1,-1,0,0,0,false,false,true,-2920.17,96.28,17.01,-0.004679986,-0.0015563988,0.95291173,-0.30320758,-1236.151,-853.98096,8.541,0,0.00461,-0.57141,1,1,0,0,0,false,false,false,-3798.02,1596.87,17.01,-0.004086558,-0.0025220672,0.84848905,-0.529191,-516.27094,-973.43097,10.591001,-0.044609997,0.09991,2.36661
283.19168,-2881.75,1015.43,93.14,0.22083409,-0.27202553,0.9305292,0.106534146,-591.29095,-598.001,0,3.81511,-4.2638097,1.8069099,1,-1,0,0,0,false,false,true,-2940.8098,82.11,17.01,-0.004653012,-0.0015456092,0.9546218,-0.29778042,-1245.2009,-837.35095,8.4210005,0.00091,0.0043099998,-0.99011,1,1,0,0,0,false,false,false,-3806.46,1580.5499,17.09,-0.0022631169,-0.002872729,0.83786064,-0.54587185,-477.781,-995.84094,16.700998,-0.15931,0.39451,2.39171
283.20834,-2891.5698,1005.5,93.14,0.194761,-0.3021016,0.93009937,0.07561641,-588.59094,-594.74097,0,3.83331,-4.25971,1.77771,1,-1,0,0,0,false,false,true,-2961.6099,68.229996,17.01,-0.0046368274,-0.0015186352,0.95725703,-0.28919727,-1254.7909,-819.33093,8.371,0.00061,0.00331,-1.32321,1,1,0,0,0,false,false,false,-3814.26,1563.86,17.24,0.001443108,-0.0036711588,0.8268034,-0.56247705,-438.331,-1016.881,17.151,-0.16481,0.44721,2.40451
