time,ball_loc_x,ball_loc_y,ball_loc_z,ball_rot_x,ball_rot_y,ball_rot_z,ball_rot_w,ball_vel_x,ball_vel_y,ball_vel_z,ball_ang_x,ball_ang_y,ball_ang_z,player0_throttle,player0_steer,player0_pitch,player0_yaw,player0_roll,player0_jump,player0_boost,player0_handbrake,player0_loc_x,player0_loc_y,player0_loc_z,player0_rot_x,player0_rot_y,player0_rot_z,player0_rot_w,player0_vel_x,player0_vel_y,player0_vel_z,player0_ang_x,player0_ang_y,player0_ang_z,player1_throttle,player1_steer,player1_pitch,player1_yaw,player1_roll,player1_jump,player1_boost,player1_handbrake,player1_loc_x,player1_loc_y,player1_loc_z,player1_rot_x,player1_rot_y,player1_rot_z,player1_rot_w,player1_vel_x,player1_vel_y,player1_vel_z,player1_ang_x,player1_ang_y,player1_ang_z
419.00833,-3011.5698,-4660.73,906.82,0.48787215,-0.221379,0.414972,0.73537076,993.3909,-811.92096,756.40094,4.30391,0.96251,-4.06811,0,-0.0703125,0,0,0,false,false,false,-509.16,-2500.3499,17.01,0.0033312866,0.0034985254,-0.6887481,0.7249845,0,0.011,8.321,-0.00071,0,0,0,0,0.46456692,0.97637796,-0.203125,true,true,false,-3253.97,-4524.83,126.21999,-0.00090362836,0.707343,0.003978662,-0.7068586,66.090996,-1852.0509,-1362.1709,0.52751,0.38321,0.008509999
419.025,-2995.02,-4674.25,919.29,0.5094514,-0.24661595,0.377683,0.7327996,992.871,-811.501,745.18097,4.30391,0.96251,-4.06811,0,-0.0703125,0,0,0,false,false,false,-509.16,-2500.3499,17.01,0.0033312866,0.0034985254,-0.6887481,0.7249845,0,0.011,8.321,-0.00071,0,0,0,0,0.68503934,0.984252,-0.125,true,true,false,-3252.8699,-4555.67,103.39,0.0039516883,-0.7055369,-0.005823725,0.7086382,65.891,-1846.881,-1369.1809,0.37851,0.27691,0.13441
419.04166,-2978.48,-4687.77,931.57,0.5297575,-0.2712379,0.3394553,0.7283934,992.35095,-811.08093,733.96094,4.30391,0.96251,-4.06811,0,-0.0703125,0,0,0,false,false,false,-509.16,-2500.3499,17.01,0.0033312866,0.0034985254,-0.6887481,0.7249845,0,0.011,8.321,-0.00071,0,0,0,0,0.6929134,0.97637796,0.031496063,true,true,false,-3244.97,-4576.98,94.18,-0.06239377,-0.64087456,-0.02452213,0.7647126,881.46094,-710.67096,269.261,-1.75421,4.25861,-3.00611
419.05832,-2961.94,-4701.28,943.66,0.54874194,-0.2951801,0.30038077,0.72216505,991.83093,-810.66095,722.74097,4.30391,0.96251,-4.06811,0,-0.0703125,0,0,0,false,false,false,-509.16,-2500.3499,17.01,0.0033312866,0.0034985254,-0.6887481,0.7249845,0,0.011,8.321,-0.00071,0,0,0,0,0.61417323,-0.8203125,-0.1875,true,true,false,-3230.27,-4588.82,98.53,-0.08997205,-0.6128647,-0.030386316,0.7844606,881.46094,-710.67096,258.421,-1.87991,4.08681,-2.74611
419.075,-2945.42,-4714.78,955.57,0.5663506,-0.3183832,0.26055077,0.71413743,991.311,-810.24097,711.54095,4.30391,0.96251,-4.06811,0,-0.0703125,0,0,0,false,false,false,-509.16,-2500.3499,17.01,0.0033312866,0.0034985254,-0.6887481,0.7249845,0,0.011,8.321,-0.00071,0,0,0,0,-0.140625,-0.796875,0.09448819,true,true,false,-3215.5698,-4600.6597,102.7,-0.115068726,-0.5851731,-0.034885574,0.8019442,881.46094,-710.67096,247.58101,-1.6948099,3.88731,-2.42781
419.09167,-2928.9,-4728.28,967.29,0.58254576,-0.34079328,0.22006807,0.7043225,990.79095,-809.821,700.34094,4.30391,0.96251,-4.06811,0,-0.0703125,0,0,0,false,false,false,-509.16,-2500.3499,17.01,0.0033312866,0.0034985254,-0.6887481,0.7249845,0,0.011,8.321,-0.00071,0,0,0,0,-0.1171875,-0.7421875,0.047244094,true,true,false,-3200.8699,-4612.5,106.689995,-0.13811542,-0.55767024,-0.0391529,0.81755424,881.46094,-710.67096,236.741,-1.55231,3.7453098,-2.31811
419.10834,-2912.4,-4741.77,978.82,0.59728444,-0.36235097,0.17904046,0.6927463,990.27094,-809.40094,689.141,4.30391,0.96251,-4.06811,0,-0.0703125,0,0,0,false,false,false,-509.16,-2500.3499,17.01,0.0033312866,0.0034985254,-0.6887481,0.7249845,0,0.011,8.321,-0.00071,0,0,0,0,-0.1015625,-0.6953125,0.015748031,true,true,false,-3186.17,-4624.34,110.5,-0.15936556,-0.5304211,-0.043377027,0.83148926,881.46094,-710.67096,225.901,-1.40781,3.60041,-2.19351
419.125,-2895.9,-4755.25,990.17,0.61053413,-0.38300228,0.1375651,0.67943573,989.751,-808.98096,677.951,4.30391,0.96251,-4.06811,0,-0.0703125,0,0,0,false,false,false,-509.16,-2500.3499,17.01,0.0033312866,0.0034985254,-0.6887481,0.7249845,0,0.011,8.321,-0.00071,0,0,0,0,-0.0859375,-0.6484375,-0.0078125,true,true,false,-3171.47,-4636.1797,114.13,-0.17878692,-0.5035819,-0.047493257,0.8439104,881.46094,-710.67096,215.061,-1.2632099,3.45541,-2.0652099
419.14166,-2879.41,-4768.73,1001.32996,0.62225163,-0.40269879,0.09574448,0.66443163,989.23096,-808.561,666.77094,4.30391,0.96251,-4.06811,0,-0.0703125,0,0,0,false,false,false,-509.16,-2500.3499,17.01,0.0033312866,0.0034985254,-0.6887481,0.7249845,0,0.011,8.321,-0.00071,0,0,0,0,-0.0703125,-0.609375,-0.03125,true,true,false,-3156.77,-4648.02,117.579994,-0.1963956,-0.47728747,-0.05146926,0.85497135,881.46094,-710.67096,204.22101,-1.12061,3.31031,-1.93781
419.15833,-2862.93,-4782.1997,1012.3,0.6324155,-0.42138642,0.053681087,0.6477672,988.72095,-808.1409,655.59094,4.30391,0.96251,-4.06811,0,-0.0703125,0,0,0,false,false,false,-509.16,-2500.3499,17.01,0.0033312866,0.0034985254,-0.6887481,0.7249845,0,0.011,8.321,-0.00071,0,0,0,0,-0.0546875,-0.5625,-0.0625,true,true,false,-3142.0698,-4659.86,120.85,-0.2122186,-0.45165676,-0.05528878,0.86481935,881.46094,-710.67096,193.381,-0.97941,3.16531,-1.81161
419.175,-2846.45,-4795.6597,1023.08997,0.64099896,-0.4390167,0.011482907,0.629486,988.22095,-807.72095,644.41095,4.30391,0.96251,-4.06811,0,-0.0703125,0,0,0,false,false,false,-509.16,-2500.3499,17.01,0.0033312866,0.0034985254,-0.6887481,0.7249845,0,0.011,8.321,-0.00071,0,0,0,0,-0.03125,-0.5234375,-0.0859375,true,true,false,-3127.3699,-4671.6997,123.939995,-0.2262613,-0.42679206,-0.058914088,0.8736037,881.46094,-710.67096,182.541,-0.83731,3.02171,-1.6820099
419.19168,-2829.99,-4809.12,1033.69,0.64797866,-0.4555572,-0.030742373,0.6096278,987.72095,-807.30096,633.251,4.30391,0.96251,-4.06811,0,-0.0703125,0,0,0,false,false,false,-509.16,-2500.3499,17.01,0.0033312866,0.0034985254,-0.6887481,0.7249845,0,0.011,8.321,-0.00071,0,0,0,0,-0.015625,-0.484375,-0.109375,true,true,false,-3112.67,-4683.54,126.85,-0.23855612,-0.4027905,-0.062323637,0.881457,881.46094,-710.67096,171.701,-0.69721,2.87661,-1.5527099
419.20834,-2813.53,-4822.57,1044.1,0.6533405,-0.470954,-0.07288668,0.58824813,987.22095,-806.881,622.09094,4.30391,0.96251,-4.06811,0,-0.0703125,0,0,0,false,false,false,-509.16,-2500.3499,17.01,0.0033312866,0.0034985254,-0.6887481,0.7249845,0,0.011,8.321,-0.00071,0,0,0,0,0.03937008,-0.4453125,-0.1328125,true,true,false,-3097.97,-4695.38,129.58,-0.24914616,-0.37972766,-0.06549578,0.88850623,881.46094,-710.67096,160.86101,-0.55801,2.73311,-1.42461
419.225,-2797.0898,-4836.01,1054.33,0.6570706,-0.48517475,-0.114852935,0.5653957,986.72095,-806.46094,610.93097,4.30391,0.96251,-4.06811,0,-0.0703125,0,0,0,false,false,false,-509.16,-2500.3499,17.01,0.0033312866,0.0034985254,-0.6887481,0.7249845,0,0.011,8.321,-0.00071,0,0,0,0,0.14173228,-0.40625,-0.15625,true,true,false,-3083.27,-4707.2197,132.12999,-0.25806373,-0.35767365,-0.06841436,0.8948698,881.46094,-710.67096,150.02101,-0.42051,2.58881,-1.29631
419.24167,-2780.65,-4849.4497,1064.37,0.6591592,-0.49818164,-0.1565333,0.5411297,986.22095,-806.04095,599.78094,4.30391,0.96251,-4.06811,0,-0.0703125,0,0,0,false,false,false,-509.16,-2500.3499,17.01,0.0033312866,0.0034985254,-0.6887481,0.7249845,0,0.011,8.321,-0.00071,0,0,0,0,0.22834645,-0.3671875,-0.1796875,true,true,false,-3068.5698,-4719.06,134.5,-0.26535216,-0.3366878,-0.07105242,0.9006559,881.46094,-710.67096,139.181,-0.28471002,2.4437099,-1.16751
419.25833,-2764.22,-4862.87,1074.23,0.65960264,-0.5099423,-0.19781984,0.5155097,985.72095,-805.621,588.641,4.30391,0.96251,-4.06811,0,-0.0703125,0,0,0,false,false,false,-509.16,-2500.3499,17.01,0.0033312866,0.0034985254,-0.6887481,0.7249845,0,0.011,8.321,-0.00071,0,0,0,0,0.2992126,-0.328125,-0.203125,true,true,false,-3053.8699,-4730.9,136.68,-0.27104908,-0.3168295,-0.07338301,0.9059615,881.46094,-710.67096,128.341,-0.15031,2.29811,-1.03811
419.275,-2747.8,-4876.29,1083.9,0.6583976,-0.52042985,-0.23861006,0.48860046,985.22095,-805.201,577.501,4.30391,0.96251,-4.06811,0,-0.0703125,0,0,0,false,false,false,-509.16,-2500.3499,17.01,0.0033312866,0.0034985254,-0.6887481,0.7249845,0,0.011,8.321,-0.00071,0,0,1,-1,0,0,0,false,false,false,-3039.17,-4742.7397,138.68,-0.2751923,-0.29814723,-0.075384475,0.9108757,881.46094,-710.67096,117.501,-0.01701,2.15261,-0.90801
419.29166,-2731.38,-4889.71,1093.39,0.6555424,-0.5296172,-0.27880138,0.46047723,984.72095,-804.78094,566.36096,4.30391,0.96251,-4.06811,0,-0.0703125,0,0,0,false,false,false,-509.16,-2500.3499,17.01,0.0033312866,0.0034985254,-0.6887481,0.7249845,0,0.011,8.321,-0.00071,0,0,1,0.9527559,0,0,0,false,false,false,-3024.47,-4754.58,140.51,-0.2786773,-0.2803335,-0.07713238,0.91531545,882.36096,-710.631,107.300995,-0.00821,2.0559099,-0.85021
419.30832,-2714.98,-4903.11,1102.69,0.6510473,-0.53748286,-0.31830227,0.43119964,984.22095,-804.36096,555.24097,4.30391,0.96251,-4.06811,0,-0.0703125,0,0,0,false,false,false,-509.16,-2500.3499,17.01,0.0033312866,0.0034985254,-0.6887481,0.7249845,0,0.011,8.321,-0.00071,0,0,0.7559055,1,0,0,0,false,false,false,-3009.75,-4766.42,142.17,-0.28181714,-0.26325896,-0.0786753,0.9192844,883.28094,-710.61096,97.071,-0.00021,1.9635099,-0.79621
419.325,-2698.5798,-4916.51,1111.7999,0.644924,-0.5440052,-0.35701007,0.40084296,983.72095,-803.941,544.121,4.30391,0.96251,-4.06811,0,-0.0703125,0,0,0,false,false,false,-509.16,-2500.3499,17.01,0.0033312866,0.0034985254,-0.6887481,0.7249845,0,0.011,8.321,-0.00071,0,0,0.53543305,1,0,0,0,false,false,false,-2995.02,-4778.26,143.66,-0.284644,-0.24690726,-0.0800294,0.92282706,883.99097,-710.60095,86.671,0.00701,1.8751099,-0.74581
419.34167,-2682.19,-4929.9097,1120.73,0.6371907,-0.54916805,-0.39482236,0.36948293,983.22095,-803.52094,533.001,4.30391,0.96251,-4.06811,0,-0.0703125,0,0,0,false,false,false,-509.16,-2500.3499,17.01,0.0033312866,0.0034985254,-0.6887481,0.7249845,0,0.011,8.321,-0.00071,0,0,0.2913386,1,0,0,0,false,false,false,-2980.28,-4790.1,144.97,-0.28718492,-0.2312515,-0.08120546,0.92598754,884.501,-710.60095,76.120995,0.013609999,1.79071,-0.69861
419.35834,-2665.81,-4943.29,1129.48,0.627864,-0.5529552,-0.4316474,0.33720568,982.72095,-803.10095,521.891,4.30391,0.96251,-4.06811,0,-0.0703125,0,0,0,false,false,false,-509.16,-2500.3499,17.01,0.0033312866,0.0034985254,-0.6887481,0.7249845,0,0.011,8.321,-0.00071,0,0,0.1023622,1,0,0,0,false,false,false,-2965.54,-4801.94,146.11,-0.28946695,-0.2162701,-0.08222507,0.9288029,884.78094,-710.60095,65.431,0.019510001,1.71011,-0.65451
419.375,-2649.43,-4956.67,1138.0399,0.6169696,-0.5553613,-0.46739343,0.30408156,982.22095,-802.68097,510.791,4.30391,0.96251,-4.06811,0,-0.0703125,0,0,0,false,false,false,-509.16,-2500.3499,17.01,0.0033312866,0.0034985254,-0.6887481,0.7249845,0,0.011,8.321,-0.00071,0,0,-0.0546875,1,0,0,0,false,false,false,-2950.8,-4813.78,147.06999,-0.2915062,-0.20194146,-0.083099075,0.93130994,884.881,-710.60095,54.630997,0.02481,1.63321,-0.61331
419.39166,-2633.0698,-4970.05,1146.41,0.6045293,-0.5563809,-0.5019742,0.27019668,981.72095,-802.261,499.691,4.30391,0.96251,-4.06811,0,-0.0703125,0,0,0,false,false,false,-509.16,-2500.3499,17.01,0.0033312866,0.0034985254,-0.6887481,0.7249845,0,0.011,8.321,-0.00071,0,0,-0.1796875,1,0,0,0,false,false,false,-2936.0598,-4825.62,147.84,-0.29333508,-0.18823864,-0.08384356,0.93353677,884.821,-710.58093,43.771,0.02951,1.55971,-0.57471
419.40833,-2616.71,-4983.4097,1154.6,0.59058535,-0.5560087,-0.5352926,0.23563755,981.22095,-801.84094,488.591,4.30391,0.96251,-4.06811,0,-0.0703125,0,0,0,false,false,false,-509.16,-2500.3499,17.01,0.0033312866,0.0034985254,-0.6887481,0.7249845,0,0.011,8.321,-0.00071,0,0,-0.2421875,1,0,0,0,false,false,false,-2921.3198,-4837.46,148.43,-0.2949643,-0.17514004,-0.08446396,0.9355147,884.621,-710.561,32.850998,0.03371,1.4895099,-0.53851
419.425,-2600.3699,-4996.77,1162.61,0.5751624,-0.55424994,-0.567273,0.20049027,980.72095,-801.42096,477.511,4.30391,0.96251,-4.06811,0,-0.0703125,0,0,0,false,false,false,-509.16,-2500.3499,17.01,0.0033312866,0.0034985254,-0.6887481,0.7249845,0,0.011,8.321,-0.00071,0,0,-0.3203125,1,0,0,0,false,false,false,-2906.5798,-4849.3,148.84,-0.29642093,-0.16261868,-0.08497647,0.93726665,884.36096,-710.54095,21.911,0.03741,1.42251,-0.50471
419.44168,-2584.03,-5010.12,1170.4299,-0.558296,0.5510994,0.59784937,-0.16483593,980.22095,-801.001,466.431,4.30391,0.96251,-4.06811,0,-0.0703125,0,0,0,false,false,false,-509.16,-2500.3499,17.01,0.0033312866,0.0034985254,-0.6887481,0.7249845,0,0.011,8.321,-0.00071,0,0,-0.390625,1,0,0,0,false,false,false,-2891.8398,-4861.1396,149.06999,-0.29771027,-0.15065835,-0.08538647,0.9388183,884.02094,-710.501,10.951,0.04071,1.35851,-0.47301
419.45834,-2567.7,-5023.46,1178.0599,-0.54004,0.54657316,0.62692285,-0.12877159,979.72095,-800.58093,455.35098,4.30391,0.96251,-4.06811,0,-0.0703125,0,0,0,false,false,false,-509.16,-2500.3499,17.01,0.0033312866,0.0034985254,-0.6887481,0.7249845,0,0.011,8.321,-0.00071,0,0,-0.4296875,1,0,0,0,false,false,false,-2877.1099,-4872.98,149.12,-0.29885396,-0.13923214,-0.08569937,0.9401895,883.60095,-710.46094,-0.021,0.043409996,1.29741,-0.44331
419.475,-2552.63,-5025.2197,1185.38,-0.509268,0.5500528,0.65723133,-0.07832464,827.24097,450.021,428.991,2.78561,0.56241,-5.28431,0,-0.0703125,0,0,0,false,false,false,-509.16,-2500.3499,17.01,0.0033312866,0.0034985254,-0.6887481,0.7249845,0,0.011,8.321,-0.00071,0,0,-0.453125,1,0,0,0,false,false,false,-2862.39,-4884.82,148.98,-0.29986817,-0.12831843,-0.08593674,0.94139695,883.1409,-710.42096,-10.991,0.04581,1.23911,-0.41541
419.49167,-2538.8499,-5017.7197,1192.39,-0.48315713,0.55616516,0.6750072,-0.04005923,826.821,449.781,417.931,2.78561,0.56241,-5.28431,0,-0.078125,0,0,0,false,false,false,-509.16,-2500.3499,17.01,0.0033312866,0.0034985254,-0.6887481,0.7249845,0,0.011,8.321,-0.00071,0,0,-0.4609375,1,0,0,0,false,false,false,-2847.67,-4896.6597,148.66,-0.3007583,-0.11789564,-0.08609319,0.9424611,882.66095,-710.36096,-21.960999,0.047909997,1.1834099,-0.38921002
419.50833,-2525.0698,-5010.2197,1199.22,-0.45583776,0.56088555,0.6910979,-0.0016912686,826.40094,449.541,406.871,2.78561,0.56241,-5.28431,0,-0.078125,0,0,0,false,false,false,-509.16,-2500.3499,17.01,0.0033312866,0.0034985254,-0.6887481,0.7249845,0,0.011,8.321,-0.00071,0,0,-1,1,0,0,0,false,false,false,-2832.97,-4908.5,148.16,-0.30154055,-0.1079422,-0.086184904,0.94339484,882.16095,-710.30096,-32.920998,0.049609996,1.13021,-0.36461002
419.525,-2511.3,-5002.73,1205.86,-0.42738006,0.56420344,0.70546114,0.03667669,825.98096,449.301,395.831,2.78561,0.56241,-5.28431,0,-0.078125,0,0,0,false,false,false,-509.16,-2500.3499,17.01,0.0033312866,0.0034985254,-0.6887481,0.7249845,0,0.011,8.321,-0.00071,0,0,-0.703125,1,0,0,0,false,false,false,-2818.28,-4920.34,147.47,-0.3022257,-0.09844192,-0.086211875,0.94421196,881.08093,-710.18097,-44.021,0.050909996,1.07941,-0.34151
419.54166,-2497.54,-4995.25,1212.32,-0.39785424,0.5661132,0.7180592,0.07495824,825.561,449.061,384.791,2.78561,0.56241,-5.28431,0,-0.078125,0,0,0,false,false,false,-509.16,-2500.3499,17.01,0.0033312866,0.0034985254,-0.6887481,0.7249845,0,0.011,8.321,-0.00071,0,0,-0.6484375,1,0,0,0,false,false,false,-2803.5999,-4932.1797,146.59999,-0.3028191,-0.089373216,-0.0861849,0.94492584,880.321,-710.09094,-55.031,0.052009996,1.03101,-0.31981
419.55832,-2483.78,-4987.77,1218.59,-0.3673358,0.56660956,0.7288604,0.11305108,825.1409,448.82098,373.751,2.78561,0.56241,-5.28431,0,-0.078125,0,0,0,false,false,false,-509.16,-2500.3499,17.01,0.0033312866,0.0034985254,-0.6887481,0.7249845,0,0.011,8.321,-0.00071,0,0,-0.5859375,1,0,0,0,false,false,false,-2788.94,-4944.02,145.55,-0.303337,-0.080719925,-0.086103976,0.94554573,879.621,-710.011,-66.011,0.05281,0.98481,-0.29931
419.575,-2470.04,-4980.29,1224.6799,-0.33590013,0.56568694,0.737841,0.15086335,824.72095,448.581,362.721,2.78561,0.56241,-5.28431,0,-0.078125,0,0,0,false,false,false,-509.16,-2500.3499,17.01,0.0033312866,0.0034985254,-0.6887481,0.7249845,0,0.011,8.321,-0.00071,0,0,-0.5234375,1,0,0,0,false,false,false,-2774.28,-4955.86,144.31,-0.3037848,-0.072460495,-0.08597451,0.9460827,878.98096,-709.93097,-76.971,0.053409997,0.94071,-0.28011
419.59167,-2456.3,-4972.81,1230.59,-0.30362293,0.5633509,0.74497813,0.188298,824.30096,448.341,351.701,2.78561,0.56241,-5.28431,0,-0.078125,0,0,0,false,false,false,-509.16,-2500.3499,17.01,0.0033312866,0.0034985254,-0.6887481,0.7249845,0,0.011,8.321,-0.00071,0,0,-0.4375,1,0,0,0,false,false,false,-2759.64,-4967.6997,142.89,-0.30416784,-0.06457865,-0.08580186,0.94654596,878.40094,-709.85095,-87.910995,0.053809997,0.89861,-0.26201
419.60834,-2442.56,-4965.34,1236.32,-0.27059045,0.55961233,0.7502473,0.22526322,823.881,448.10098,340.681,2.78561,0.56241,-5.28431,0,-0.078125,0,0,0,false,false,false,-509.16,-2500.3499,17.01,0.0033312866,0.0034985254,-0.6887481,0.7249845,0,0.011,8.321,-0.00071,0,0,-0.4375,1,0,0,0,false,false,false,-2745,-4979.52,141.29,-0.30448616,-0.05705827,-0.08559147,0.9469459,877.92096,-709.79095,-98.821,0.054009996,0.85841,-0.24500999
419.625,-2428.8398,-4957.88,1241.86,-0.23687829,0.55447114,0.7536466,0.2616621,823.46094,447.861,329.661,2.78561,0.56241,-5.28431,0,-0.078125,0,0,0,false,false,false,-509.16,-2500.3499,17.01,0.0033312866,0.0034985254,-0.6887481,0.7249845,0,0.011,8.321,-0.00071,0,0,-0.359375,1,0,0,0,false,false,false,-2730.38,-4991.34,139.51,-0.3047559,-0.049883194,-0.08534871,0.9472861,877.441,-709.72095,-109.721,0.054009996,0.82010996,-0.22900999
419.64166,-2415.1199,-4950.42,1247.22,-0.20257266,0.5479434,0.7551626,0.2974081,823.04095,447.621,318.661,2.78561,0.56241,-5.28431,0,-0.078125,0,0,0,false,false,false,-509.16,-2500.3499,17.01,0.0033312866,0.0034985254,-0.6887481,0.7249845,0,0.011,8.321,-0.00071,0,0,-0.2734375,1,0,0,0,false,false,false,-2715.76,-5003.1597,137.54,-0.3049771,-0.043037154,-0.085073575,0.9475754,877.04095,-709.66095,-120.601,0.053809997,0.78350997,-0.21401
419.65833,-2401.4,-4942.96,1252.39,-0.1677599,0.5400507,0.7547883,0.33240968,822.621,447.381,307.661,2.78561,0.56241,-5.28431,0,-0.078125,0,0,0,false,false,false,-509.16,-2500.3499,17.01,0.0033312866,0.0034985254,-0.6887481,0.7249845,0,0.011,8.321,-0.00071,0,0,-0.1796875,1,0,0,0,false,false,false,-2701.14,-5014.98,135.39,-0.30516052,-0.036498617,-0.08477146,0.9478178,876.74097,-709.621,-131.461,0.05351,0.74851,-0.19981
419.675,-2387.7,-4935.5,1257.38,-0.13252637,0.5308041,0.75253063,0.36658052,822.2009,447.141,296.661,2.78561,0.56241,-5.28431,0,-0.078125,0,0,0,false,false,false,-509.16,-2500.3499,17.01,0.0033312866,0.0034985254,-0.6887481,0.7249845,0,0.011,8.321,-0.00071,0,0,-0.078125,1,0,0,0,false,false,false,-2686.52,-5026.8,133.06,-0.30530074,-0.030262232,-0.08444238,0.94802153,876.54095,-709.58093,-142.30101,0.053109996,0.71511,-0.18641
419.69168,-2374,-4928.05,1262.19,-0.09696375,0.5202303,0.7483923,0.39983413,821.78094,446.901,285.671,2.78561,0.56241,-5.28431,0,-0.078125,0,0,0,false,false,false,-509.16,-2500.3499,17.01,0.0033312866,0.0034985254,-0.6887481,0.7249845,0,0.011,8.321,-0.00071,0,0,0.12598425,1,0,0,0,false,false,false,-2671.92,-5038.62,130.55,-0.30540866,-0.02431173,-0.084091716,0.9481892,876.441,-709.561,-153.141,0.05261,0.68331,-0.17380999
419.70834,-2360.31,-4920.61,1266.8099,-0.06115836,0.5083563,0.74238247,0.4320898,821.36096,446.661,274.691,2.78561,0.56241,-5.28431,0,-0.078125,0,0,0,false,false,false,-509.16,-2500.3499,17.01,0.0033312866,0.0034985254,-0.6887481,0.7249845,0,0.011,8.321,-0.00071,0,0,0.24409449,1,0,0,0,false,false,false,-2657.31,-5050.44,127.86,-0.3054896,-0.018636407,-0.08371948,0.9483247,876.561,-709.58093,-163.961,0.052009996,0.65291,-0.16201
419.725,-2346.63,-4913.17,1271.25,-0.025201874,0.49521446,0.73451793,0.463261,820.941,446.421,263.711,2.78561,0.56241,-5.28431,0,-0.078125,0,0,0,false,false,false,-509.16,-2500.3499,17.01,0.0033312866,0.0034985254,-0.6887481,0.7249845,0,0.011,8.321,-0.00071,0,0,0.3464567,1,0,0,0,false,false,false,-2642.69,-5062.26,124.99,-0.30553815,-0.01321999,-0.08333645,0.94843376,876.821,-709.621,-174.761,0.051409997,0.62391,-0.15090999
419.74167,-2332.95,-4905.73,1275.51,0.010819264,0.48083195,0.7248176,0.49327773,820.52094,446.181,252.731,2.78561,0.56241,-5.28431,1,-0.3203125,0,0,0,false,true,false,-509.16,-2500.3499,17.01,0.0033312866,0.0034985254,-0.6887481,0.7249845,0,0.011,8.321,-0.00071,0,0,0.48031497,1,0,0,0,false,false,false,-2628.02,-5073.56,121.979996,-0.30776083,-0.008456386,-0.08182047,0.9479014,891.71094,-569.15094,-174.351,-1.29091,0.68261,0.38351
419.75833,-2319.28,-4898.29,1279.58,0.04681351,0.4652463,0.7133081,0.52205914,820.10095,445.941,241.771,2.78561,0.56241,-5.28431,1,-0.3203125,0,0,0,false,true,false,-509.16,-2500.67,17.01,0.003325892,0.0034931304,-0.68885064,0.72488713,-0.26099998,-42.690998,8.231,-0.0019099999,0.00051,-0.068409994,1,1,0,0,0,false,false,false,-2613.8298,-5080.46,119.14,-0.35685903,-0.02977131,-0.054279953,0.9321045,865.6409,-307.611,-168.451,-5.36411,0.12521,1.20821
419.775,-2305.6199,-4890.86,1283.47,0.08268908,0.44849536,0.7000141,0.5495403,819.68097,445.701,230.811,2.78561,0.56241,-5.28431,1,-0.3203125,0,0,0,false,true,false,-509.16,-2501.69,17.01,0.0033151023,0.0034823408,-0.68936855,0.72439474,-0.581,-84.671,8.191,-0.00221,0.00071,-0.13701,1,1,0,0,0,false,false,false,-2599.39,-5085.13,116.229996,-0.39919758,-0.031039089,-0.046586934,0.91515434,869.881,-173.30101,-164.101,-5.44371,0.78201,0.061509997
419.79166,-2291.96,-4883.44,1287.1799,0.11835955,0.4306223,0.6849724,0.5756458,819.261,445.461,219.851,2.78561,0.56241,-5.28431,1,-1,0,0,0,false,false,false,-509.16,-2503.41,17.01,0.0033043122,0.0034715508,-0.69029635,0.7235107,-0.99099994,-125.931,8.1710005,-0.00211,0.00071,-0.20380999,1,1,0,0,0,false,false,false,-2584.8499,-5087.6997,113.42,-0.44097504,-0.026000306,-0.042373598,0.8961414,881.54095,-80.421,-152.33101,-5.35141,1.26851,0.049709998
419.80832,-2278.31,-4876.02,1290.71,0.15373339,0.4116812,0.668215,0.6003109,818.84094,445.221,208.891,2.78561,0.56241,-5.28431,1,-1,0,0,0,false,false,false,-509.21,-2505.8,17.01,0.003293523,0.0034607616,-0.6920282,0.7218545,-10.8810005,-162.741,8.181,-0.00151,0.00261,-0.51141,1,1,0,0,0,false,false,false,-2570.1099,-5088.94,110.799995,-0.48000655,-0.018118506,-0.035171498,0.8763722,892.941,-43.341,-142.61101,-4.58621,1.6165099,0.33361
419.825,-2264.67,-4868.6,1294.0599,0.18872422,0.39170417,0.64978576,0.62348163,818.42096,444.981,197.951,2.78561,0.56241,-5.28431,1,-1,0,0,0,false,false,false,-509.41998,-2508.81,17.01,0.0032827337,0.0034499725,-0.6955025,0.7185078,-19.521,-199.651,8.181,-0.00091,0.00301,-0.77361,1,1,0,0,0,false,false,false,-2555.18,-5089.6396,108.34,-0.511399,-0.00899047,-0.024932137,0.8589346,904.4509,-16.831,-132.321,-3.37581,1.72371,0.60210997
419.84167,-2251.03,-4861.1797,1297.22,0.22324021,0.3707507,0.6297396,0.6450857,818.001,444.741,187.011,2.78561,0.56241,-5.28431,1,-1,0,0,0,false,false,false,-509.78,-2512.43,17.01,0.0032827335,0.0034391826,-0.70048183,0.7136543,-28.120998,-236.22101,8.181,-0.00051,0.00261,-1.00791,1,1,0,0,0,false,false,false,-2540.06,-5089.9297,106.04,-0.53347456,-0.000008092195,-0.0125456415,0.84572303,916.53094,11.211,-114.681,-1.87391,1.94451,0.62091
419.85834,-2237.41,-4853.77,1300.2,0.25719523,0.34886935,0.6081173,0.66508204,817.58093,444.501,176.071,2.78561,0.56241,-5.28431,1,-1,0,0,0,false,false,false,-510.28,-2516.45,17.01,0.003298918,0.0034229984,-0.7067507,0.70744663,-36.940998,-256.211,8.271,-0.00021,0.0014099999,-1.20441,1,1,0,0,0,false,false,false,-2524.73,-5089.73,104.06,-0.5445663,0.010981107,0.0007849428,0.83864546,928.22095,38.240997,-101.660995,-0.58611,1.94451,0.95521
419.875,-2223.79,-4846.37,1303,0.29051355,0.3261194,0.58496803,0.68341804,817.16095,444.261,165.141,2.78561,0.56241,-5.28431,1,-1,0,0,0,false,false,false,-510.93,-2520.8,17.01,-0.003325892,-0.0033960242,0.7140618,-0.70006645,-45.810997,-276.081,8.301001,0,0.00051,-1.36611,1,1,0,0,0,false,false,false,-2509.22,-5089.11,102.24,-0.54709643,0.019715367,0.016764412,0.8366694,938.561,58.681,-100.550995,0.06951,1.81611,1.23381
419.89166,-2210.17,-4838.9697,1305.62,0.3231037,0.30255482,0.5603623,0.70004183,816.74097,444.021,154.22101,2.78561,0.56241,-5.28431,0,0.062992126,0,0,0,false,false,false,-511.72998,-2525.48,17.01,-0.0033636554,-0.0033582605,0.7221907,-0.6916776,-55.100998,-295.661,8.311,0,-0.00010999999,-1.50041,1,1,0,0,0,false,false,false,-2493.54,-5088.12,100.4,-0.54608226,0.026286228,0.03383363,0.8366351,947.29095,83.020996,-105.851,0.42521,1.78621,1.26941
419.90833,-2196.57,-4831.57,1308.0499,0.35488456,0.27823502,0.5343539,0.7149182,816.321,443.781,143.30101,2.78561,0.56241,-5.28431,0,0.11023622,0,0,0,false,false,false,-512.58997,-2530.3699,17.01,-0.0034122085,-0.0033097074,0.730047,-0.6833803,-43.100998,-287.241,8.311,0.00091,-0.00461,-1.06331,1,1,0,0,0,false,false,false,-2477.72,-5086.7397,98.45,-0.54217637,0.03283551,0.050935138,0.8380764,954.84094,99.910995,-120.421,0.73221,1.79641,1.2811099
419.925,-2182.97,-4824.17,1310.2999,0.3857806,0.25321916,0.50701296,0.7280049,815.90094,443.541,132.381,2.78561,0.56241,-5.28431,0,0.15748031,0,0,0,false,false,false,-513.27997,-2535.1199,17.01,-0.0034769461,-0.0032557594,0.73560166,-0.67739743,-35.830997,-278.601,8.311,0.0010099999,-0.00511,-0.74991,1,1,0,0,0,false,false,false,-2461.78,-5085.1,96.229996,-0.5361881,0.039276984,0.06823094,0.840419,961.15094,113.090996,-141.30101,0.92401,1.81591,1.27671
419.94168,-2169.3699,-4816.78,1312.37,0.41571113,0.22756685,0.4784043,0.73927456,815.48096,443.301,121.480995,2.78561,0.56241,-5.28431,0,0.19685039,0,0,0,false,false,false,-513.85,-2539.72,17.01,-0.0035308942,-0.0032126012,0.7394398,-0.6732057,-30.421,-269.811,8.311,0.00091,-0.00421,-0.49701,1,1,0,0,0,false,false,false,-2445.74,-5083.25,93.65,-0.5286893,0.045793895,0.085580684,0.8432475,966.23096,125.561,-165.251,1.09431,1.84091,1.25281
419.95834,-2155.79,-4809.4,1314.26,0.4446057,0.20134264,0.44859788,0.7486967,815.061,443.061,110.58099,2.78561,0.56241,-5.28431,0,0.22047244,0,0,0,false,false,false,-514.33,-2544.18,17.01,-0.0035686577,-0.003185627,0.7419206,-0.67047054,-26.300999,-260.941,8.311,0.00071,-0.00291,-0.29681,1,1,0,0,0,false,false,false,-2429.6199,-5081.1797,90.659996,-0.5197447,0.052461863,0.10288727,0.84647936,970.061,138.541,-191.071,1.26911,1.86831,1.21981
419.975,-2142.21,-4802.02,1315.97,0.47238362,0.17461674,0.41766942,0.7562505,814.6409,442.82098,99.681,2.78561,0.56241,-5.28431,0,0.23622048,0,0,0,false,false,false,-514.75,-2548.49,17.01,-0.0035956318,-0.003169443,0.74334604,-0.6688899,-23.151,-252.051,8.311,0.00061,-0.0017099999,-0.14341,1,1,0,0,0,false,false,false,-2413.44,-5078.8896,87.229996,-0.50926256,0.05932413,0.12009128,0.85012364,972.53094,157.561,-210.771,1.7567099,1.72321,1.35241
419.99167,-2128.63,-4794.64,1317.5,0.49898553,0.14745384,0.3856997,0.7619097,814.22095,442.581,88.791,2.78561,0.56241,-5.28431,0,0.24409449,0,0,0,false,false,false,-515.12,-2552.65,17.01,-0.003611816,-0.0031586532,0.74397165,-0.6681939,-20.661,-243.181,8.311,0.00051,-0.00071,-0.02861,1,1,0,0,0,false,false,false,-2397.23,-5076.2397,83.5,-0.4947182,0.06331628,0.13803984,0.85568094,973.6409,179.621,-229.501,2.23081,1.56861,1.51661
420.00833,-2115.07,-4787.26,1318.84,0.5243357,0.11992403,0.35276434,0.7656679,813.80096,442.341,77.910995,2.78561,0.56241,-5.28431,0,0.24409449,0,0,0,false,false,false,-515.45,-2556.67,17.01,-0.0036172108,-0.0031586532,0.7440006,-0.6681615,-18.640999,-234.33101,8.311,0.00051,0,0.054509997,1,1,0,0,0,false,false,false,-2381.01,-5073.2397,79.439995,-0.47712028,0.06537709,0.15657645,0.8623026,973.66095,198.601,-252.911,2.50671,1.52801,1.58101
420.025,-2101.51,-4779.89,1320,0.548375,0.092097595,0.31894422,0.7675137,813.381,442.10098,67.031,2.78561,0.56241,-5.28431,0,0.2519685,0,0,0,false,false,false,-515.76,-2560.54,17.01,-0.003617211,-0.003164048,0.7436128,-0.66859317,-16.991,-225.511,8.311,0.00051,0.00040999998,0.11190999,1,1,0,0,0,false,false,false,-2364.79,-5069.9297,74.979996,-0.45740765,0.06669881,0.17538819,0.8692344,972.15094,225.021,-274.301,2.24451,1.58081,1.5096099
420.04166,-2087.96,-4772.53,1320.98,0.5710495,0.064039186,0.28432575,0.76743746,812.96094,441.861,56.150997,2.78561,0.56241,-5.28431,0,0.24409449,0,0,0,false,false,false,-516.02997,-2564.26,17.01,-0.0036172108,-0.0031748374,0.7429281,-0.6693538,-15.451,-216.711,8.311,0.00040999998,0.00061,0.15260999,1,1,0,0,0,false,false,false,-2348.5999,-5066.1,70.18,-0.44017118,0.06920739,0.19346625,0.8740883,968.18097,255.531,-296.251,1.9901099,1.54721,1.53981
420.05832,-2074.42,-4765.17,1321.78,0.5922942,0.03582431,0.24900045,0.76544285,812.54095,441.621,45.290997,2.78561,0.56241,-5.28431,0,0.24409449,0,0,0,false,false,false,-516.27997,-2567.8398,17.01,-0.0036064212,-0.003185627,0.7420374,-0.6703411,-14.141,-207.94101,8.311,0.00030999997,0.00081,0.17640999,1,1,0,0,0,false,false,false,-2332.48,-5061.71,65.14,-0.4219421,0.07045899,0.21163061,0.8787564,962.571,299.081,-291.241,2.9618099,1.35281,1.64451
420.075,-2060.88,-4757.81,1322.4,0.61206084,0.0075176484,0.21305484,0.76153296,812.121,441.381,34.431,2.78561,0.56241,-5.28431,0,0.23622048,0,0,0,false,false,false,-516.51,-2571.27,17.01,-0.0035956316,-0.0031964167,0.7410271,-0.67145777,-12.901,-199.181,8.311,0.00030999997,0.00081,0.19060999,1,1,0,0,0,false,false,false,-2316.46,-5056.62,60.109997,-0.39762223,0.06905094,0.23016709,0.8855232,956.4509,332.951,-300.821,3.4472098,1.37441,1.6510099
420.09167,-2047.35,-4750.4497,1322.84,0.6302954,-0.020810511,0.17657506,0.75572205,811.701,441.141,23.571,2.78561,0.56241,-5.28431,0,0.23622048,0,0,0,false,false,false,-516.72,-2574.55,17.01,-0.0035848422,-0.0032072065,0.73994994,-0.6726447,-11.781,-190.44101,8.311,0.00030999997,0.00081,0.19601,1,1,0,0,0,false,false,false,-2300.55,-5051.01,54.879997,-0.36958545,0.067135796,0.24883862,0.8927366,949.73096,358.471,-320.411,3.73651,1.49601,1.62251
420.10834,-2033.83,-4743.1,1323.1,0.6469545,-0.049090117,0.1396529,0.7480221,811.28094,440.901,12.711,2.78561,0.56241,-5.28431,0,0.22834645,0,0,0,false,false,false,-516.91,-2577.69,17.01,-0.0035740524,-0.0032179959,0.73884964,-0.67385304,-10.691,-181.701,8.311,0.00030999997,0.00071,0.19711,1,1,0,0,0,false,false,false,-2284.77,-5044.83,49.53,-0.33955786,0.06458945,0.26734823,0.89947397,939.381,413.261,-298.191,3.7453098,1.07491,1.79231
420.125,-2020.3099,-4735.76,1323.1799,0.66199523,-0.07724568,0.10238556,0.73845273,810.86096,440.661,1.871,2.78561,0.56241,-5.28431,0,0.22047244,0,0,0,false,false,false,-517.08,-2580.68,17.01,-0.003563263,-0.0032287857,0.73775065,-0.67505616,-9.701,-172.981,8.311,0.00030999997,0.00061,0.19310999,1,1,0,0,0,false,false,false,-2269.18,-5037.78,44.55,-0.3075288,0.058326084,0.28577688,0.9057347,925.79095,459.411,-282.471,4.16431,1.1633099,1.75351
420.14166,-2006.7999,-4728.42,1323.08,0.6753798,-0.10520704,0.06485919,0.72703964,810.441,440.421,-8.951,2.78561,0.56241,-5.28431,0,0.21259843,0,0,0,false,false,false,-517.24,-2583.52,17.01,-0.0035524734,-0.003239575,0.73667276,-0.67623216,-8.801001,-164.261,8.311,0.00030999997,0.00051,0.18561,0.97637796,0.8267717,0,0,0,false,false,false,-2253.8298,-5030.03,39.8,-0.2705689,0.051382903,0.30400065,0.9119955,910.621,491.581,-278.931,4.77221,1.23851,1.75461
420.15833,-1993.2999,-4721.08,1322.7999,0.68708116,-0.132904,0.027170975,0.713805,810.02094,440.181,-19.771,2.78561,0.56241,-5.28431,0,0.2047244,0,0,0,false,false,false,-517.38,-2586.22,17.01,-0.0035416838,-0.0032503647,0.7356362,-0.6773597,-7.981,-155.541,8.311,0.00030999997,0.00030999997,0.17591,0.9133858,0.63779527,0,0,0,false,false,false,-2238.7,-5021.63,35.2,-0.23317207,0.044321116,0.32157156,0.9166559,898.02094,543.03094,-244.341,4.24761,0.80031,1.79221
420.175,-1979.7999,-4713.7397,1322.34,0.6970616,-0.16027193,-0.010587329,0.6987888,809.60095,439.941,-30.591,2.78561,0.56241,-5.28431,0,0.2047244,0,0,0,false,false,false,-517.51,-2588.78,17.01,-0.0035416838,-0.0032611543,0.73465616,-0.67842245,-7.2209997,-146.821,8.311,0.00030999997,0.00021,0.16471,0.8346457,0.4488189,0,0,0,false,false,false,-2223.79,-5012.4297,31.05,-0.19953538,0.034842458,0.3379286,0.91911685,886.071,581.78094,-227.501,4.30401,0.72901,1.6905099
420.19168,-1966.3099,-4706.4097,1321.7,0.7053002,-0.1872352,-0.048318658,0.6820262,809.18097,439.701,-41.391,2.78561,0.56241,-5.28431,0,0.19685039,0,0,0,false,false,false,-517.63,-2591.19,17.01,-0.0035416838,-0.003271944,0.73374313,-0.67940974,-6.4709997,-138.101,8.311,0.00010999999,0.00021,0.15421,0.61417323,0.27559054,0,0,0,false,false,false,-2209.06,-5002.63,27.15,-0.16402131,0.025854645,0.35265648,0.9209027,877.11096,608.001,-212.141,5.11451,1.05551,1.39641
420.20834,-1952.83,-4699.09,1320.88,0.7117802,-0.21372914,-0.085931346,0.6635544,808.761,439.461,-52.190998,2.78561,0.56241,-5.28431,0,0.18897638,0,0,0,false,false,false,-517.73,-2593.45,17.01,-0.0035416838,-0.0032827335,0.7328878,-0.68033224,-5.811,-129.371,8.311,0,0.00021,0.14271,0.43307087,0.11811024,0,0,0,false,false,false,-2194.48,-4992.31,23.72,-0.12517321,0.017125864,0.3649243,0.9224253,865.441,649.891,-167.05101,3.96151,0.50801,1.22041
420.225,-1939.35,-4691.77,1319.88,0.7164739,-0.23968902,-0.1233282,0.64343166,808.34094,439.221,-62.990997,2.78561,0.56241,-5.28431,0,0.18897638,0,0,0,false,false,false,-517.83,-2595.5698,17.01,-0.0035416838,-0.0032827335,0.73209566,-0.68118465,-5.211,-120.631,8.311,0,0.00021,0.13070999,0.2047244,-0.015625,0,0,0,false,false,false,-2180.1099,-4981.37,20.859999,-0.09427714,0.0071831713,0.37468353,0.92231905,854.441,676.02094,-137.101,3.94971,1.04221,0.90871
420.24167,-1925.89,-4684.4497,1318.7,0.7193819,-0.26505002,-0.16041219,0.62169594,807.92096,438.981,-73.791,2.78561,0.56241,-5.28431,0,0.18110237,0,0,0,false,false,false,-517.91,-2597.54,17.01,-0.0035416838,-0.0032827335,0.731367,-0.6819669,-4.631,-111.891,8.311,0,0.00021,0.11971,0.015748031,-0.1171875,0,0,0,false,false,false,-2165.91,-4969.98,18.699999,-0.0638126,0.004377877,0.3818586,0.9220047,842.90094,703.29095,-85.321,2.64821,1.03681,0.60231
420.25833,-1912.4299,-4677.13,1317.34,0.72049195,-0.2897475,-0.19709694,0.59840655,807.501,438.741,-84.571,2.78561,0.56241,-5.28431,0,0.18110237,0,0,0,false,false,false,-517.99,-2599.3699,17.01,-0.0035416838,-0.0032827335,0.73070234,-0.682679,-4.111,-103.15099,8.311,0,0.00030999997,0.10821,-0.171875,-0.1953125,0,0,0,false,false,false,-2151.92,-4958.19,17.22,-0.041202918,0.0030345726,0.3864819,0.92137104,831.11096,718.80096,-71.261,2.44031,0.63591,0.36831
420.275,-1898.97,-4669.82,1315.7999,0.7197967,-0.31372747,-0.23329076,0.5736228,807.08093,438.501,-95.351,2.78561,0.56241,-5.28431,0,0.17322835,0,0,0,false,false,false,-518.05,-2601.05,17.01,-0.0035416838,-0.0032827335,0.73010206,-0.68332094,-3.6209998,-94.410995,8.311,0,0.00040999998,0.09761,-0.2421875,-0.2421875,0,0,0,false,false,false,-2138.27,-4946.34,16.029999,-0.019736946,0.0013460016,0.38911468,0.9209768,780.511,689.501,-25.321,1.51691,0.95770997,0.16670999
420.29166,-1885.5299,-4662.52,1314.08,0.71730024,-0.33691975,-0.2689019,0.54740936,806.66095,438.261,-106.131,2.78561,0.56241,-5.28431,1,0.17322835,0,0,0,false,false,false,-518.11,-2602.5898,17.01,-0.0035362889,-0.0032881282,0.7295613,-0.6838982,-3.1909997,-85.671,8.311,0,0.00051,0.08680999,0.984252,-0.28125,0,0,0,false,false,false,-2125.48,-4934.96,15.639999,-0.007399005,0.0031262843,0.39018825,0.9207,729.1409,660.05096,4.791,0.81901,0.39261,0.011709999
420.30832,-1872.09,-4655.2197,1312.1799,0.71301985,-0.3592651,-0.3038388,0.5198203,806.24097,438.021,-116.90099,2.78561,0.56241,-5.28431,1,0.16535433,0,0,0,false,false,false,-518.17,-2604.1199,17.01,-0.0035254993,-0.003293523,0.7290249,-0.68447006,-3.501,-110.730995,8.311,-0.0016099999,0.00021,0.11630999,1,-0.296875,0,0,0,false,false,false,-2113.3298,-4923.9,15.61,-0.00021309445,0.0032018116,0.3899347,0.92083687,728.97095,674.011,8.711,0.72681,0.25001,-0.17081
420.325,-1858.6499,-4647.92,1310.1,0.70695066,-0.3807203,-0.33801496,0.4909364,805.821,437.781,-127.660995,2.78561,0.56241,-5.28431,1,0.16535433,0,0,0,false,false,false,-518.23,-2606.0698,17.01,-0.0035147092,-0.0032881277,0.7283303,-0.6852091,-3.981,-135.371,8.311,-0.0019099999,0,0.13981,1,-0.3046875,0,0,0,false,false,false,-2101.17,-4912.62,15.61,0.0060934224,0.0027000955,0.38833782,0.92149293,730.84094,685.59094,18.040998,0.24811,0.11230999,-0.31081
420.34167,-1845.23,-4640.62,1307.84,0.6991131,-0.4012206,-0.3713495,0.46082795,805.40094,437.541,-138.421,2.78561,0.56241,-5.28431,1,0.15748031,0,0,0,false,false,false,-518.3,-2608.43,17.01,-0.00350392,-0.0032773386,0.7274971,-0.68609387,-4.421,-159.591,8.311,-0.0018099999,0,0.16130999,1,-0.296875,0,0,0,false,false,false,-2088.98,-4901.15,15.809999,0.007312646,0.002921282,0.38573205,0.9225772,733.77094,695.96094,22.741,-0.09650999,0.02001,-0.41501
420.35834,-1831.8099,-4633.33,1305.4,0.68952996,-0.42071748,-0.40375614,0.42956495,804.98096,437.301,-149.181,2.78561,0.56241,-5.28431,1,0.15748031,0,0,0,false,false,false,-518.38,-2611.19,17.01,-0.0034931304,-0.003271944,0.7265495,-0.6870973,-4.901,-183.411,8.311,-0.0014099999,0.00021,0.17781,1,-0.2734375,0,0,0,false,false,false,-2076.74,-4889.51,16.05,0.0064494787,0.0033366815,0.38238728,0.92397356,738.79095,704.03094,21.761,-0.15901,-0.01911,-0.48601002
420.375,-1818.3999,-4626.05,1302.78,0.67822325,-0.43916237,-0.43515402,0.39722845,804.561,437.07098,-159.921,2.78561,0.56241,-5.28431,1,0.1496063,0,0,0,false,false,false,-518.45996,-2614.3499,17.01,-0.0034823408,-0.003271944,0.7255072,-0.68819785,-5.2409997,-206.811,8.311,-0.0012099999,0.00021,0.19361,1,-0.25,0,0,0,false,false,false,-2064.4,-4877.7397,16.27,0.0051331483,0.00363879,0.37856776,0.9255521,745.52094,710.15094,19.761,-0.16451,-0.035609998,-0.52211
420.39166,-1805,-4618.77,1299.98,0.6652209,-0.45651212,-0.4654621,0.36389923,804.1409,436.85098,-170.66101,2.78561,0.56241,-5.28431,1,0.14173228,0,0,0,false,false,false,-518.55,-2617.89,17.01,-0.0034715512,-0.003271944,0.7243847,-0.68937933,-5.5509996,-229.83101,8.311,-0.0010099999,0.00021,0.20481,1,-0.25,0,0,0,false,false,false,-2051.94,-4865.88,16.46,0.0037898442,0.0038437922,0.37451088,0.92720675,753.6409,714.58093,17.491,-0.14701,-0.038609996,-0.53341
420.40833,-1791.6,-4611.4897,1297,0.6505604,-0.47271812,-0.49460492,0.32965836,803.72095,436.631,-181.401,2.78561,0.56241,-5.28431,1,0.14173228,0,0,0,false,false,false,-518.64996,-2621.81,17.01,-0.0034607616,-0.003271944,0.72319674,-0.69062555,-5.811,-252.451,8.311,-0.00081,0.00030999997,0.21230999,1,-0.21875,0,0,0,false,false,false,-2039.34,-4853.96,16.609999,0.0025975944,0.003973267,0.3703569,0.92887735,763.15094,717.24097,15.361,-0.12281,-0.034909997,-0.54341
420.425,-1778.21,-4604.21,1293.84,0.6342739,-0.48774272,-0.5225123,0.29459205,803.30096,436.411,-192.141,2.78561,0.56241,-5.28431,1,0.13385826,0,0,0,false,false,false,-518.75,-2626.1099,17.01,-0.0034499723,-0.003271944,0.7219581,-0.69192034,-5.8409996,-274.691,8.311,-0.00061,0.00030999997,0.22061,1,-0.1875,0,0,0,false,false,false,-2026.58,-4841.9897,16.72,0.0016103466,0.0040649786,0.36617053,0.9305374,773.15094,719.1409,13.571,-0.09861,-0.02871,-0.53071
420.44168,-1764.83,-4596.9297,1290.5,0.61639583,-0.501548,-0.54911953,0.25879207,802.881,436.191,-202.86101,2.78561,0.56241,-5.28431,1,0.12598425,0,0,0,false,false,false,-518.85,-2630.78,17.01,-0.0034391826,-0.003271944,0.72067875,-0.6932528,-5.8009996,-296.561,8.311,-0.00040999998,0.00030999997,0.22501,1,-0.1484375,0,0,0,false,false,false,-2013.6499,-4830,16.81,0.00082810124,0.0041351113,0.36210817,0.9321265,783.42096,720.48096,12.151,-0.077209994,-0.02221,-0.50211
420.45834,-1751.45,-4589.67,1286.98,0.5969782,-0.5141017,-0.5743511,0.22234467,802.46094,435.971,-213.58101,2.78561,0.56241,-5.28431,1,0.11811024,0,0,0,false,false,false,-518.95,-2635.81,17.01,-0.0034283926,-0.003282733,0.7193789,-0.6946015,-5.671,-318.051,8.311,-0.00021,0.00040999998,0.22611,1,-0.1171875,0,0,0,false,false,false,-2000.5499,-4817.9897,16.869999,0.00021848927,0.0041890596,0.35829946,0.93359727,793.631,721.631,11.061,-0.059509996,-0.01641,-0.45651
420.475,-1738.08,-4582.4097,1283.2899,-0.5760774,0.5253661,0.59814173,-0.18534163,802.04095,435.751,-224.301,2.78561,0.56241,-5.28431,1,0.11023622,0,0,0,false,false,false,-519.05,-2641.2,17.01,-0.0034176037,-0.0032935233,0.718069,-0.6959557,-5.4509997,-339.181,8.311,-0.00021,0.00030999997,0.22451,1,-0.078125,0,0,0,false,false,false,-1987.2799,-4805.96,16.91,-0.00024546322,0.0042376122,0.35485753,0.9349107,803.73096,722.631,10.261001,-0.045309998,-0.011809999,-0.40401
420.49167,-1724.72,-4575.15,1279.4199,-0.55373204,0.5353195,0.6204408,-0.14787461,801.621,435.531,-235.011,2.78561,0.56241,-5.28431,1,0.1023622,0,0,0,false,false,false,-519.14,-2646.94,17.01,-0.0034068138,-0.0033043127,0.7167751,-0.69728816,-5.131,-359.951,8.311,-0.00021,0.00021,0.22061,1,-0.046875,0,0,0,false,false,false,-1973.84,-4793.9097,16.949999,-0.00059612497,0.0042807707,0.35184187,0.9360494,813.42096,723.85095,9.6710005,-0.03431,-0.00811,-0.34101
420.50833,-1711.36,-4567.89,1275.37,-0.53000027,0.5439351,0.6411904,-0.11004078,801.201,435.311,-245.711,2.78561,0.56241,-5.28431,1,0.09448819,0,0,0,false,false,false,-519.22,-2653.02,17.01,-0.0033960242,-0.0033151023,0.71550274,-0.6985937,-4.7209997,-380.361,8.311,-0.00010999999,0.00010999999,0.21471,0.7322835,-0.015625,0,0,0,false,false,false,-1960.24,-4781.84,16.97,-0.0008550751,0.0043185335,0.34931707,0.9369941,822.7009,725.29095,9.211,-0.02591,-0.00551,-0.27551
420.525,-1698.01,-4560.63,1271.14,-0.50494677,0.5511911,0.66033536,-0.07193181,800.78094,435.091,-256.411,2.78561,0.56241,-5.28431,1,0.08661418,0,0,0,false,false,false,-519.3,-2659.44,17.01,-0.0033852346,-0.003325892,0.7142627,-0.69986147,-4.211,-400.431,8.311,-0.00010999999,0,0.20710999,0.44094488,0.015748031,0,0,0,false,false,false,-1946.49,-4769.75,16.99,-0.001049288,0.0043509034,0.34730485,0.9377416,829.85095,725.77094,8.891,-0.01971,-0.00351,-0.20810999
420.54166,-1684.6699,-4553.38,1266.73,-0.47862542,0.5570714,0.6778327,-0.03363937,800.36096,434.871,-267.111,2.78561,0.56241,-5.28431,1,0.08661418,0,0,0,false,false,false,-519.37,-2666.2,17.01,-0.003374445,-0.003325892,0.7130714,-0.70107526,-3.6209998,-420.151,8.311,0,0,0.19801,0.17322835,0.03937008,0,0,0,false,false,false,-1932.63,-4757.65,17.01,-0.0012003421,0.0043832716,0.34582126,0.93828934,834.68097,725.371,8.621,-0.015009999,-0.00211,-0.13931
420.55832,-1671.33,-4546.14,1262.14,-0.45111188,0.5615545,0.69363683,0.0047339336,799.941,434.651,-277.79102,2.78561,0.56241,-5.28431,1,0.07874016,0,0,0,false,false,false,-519.43,-2673.28,17.01,-0.0033636554,-0.0033366815,0.7119238,-0.7022406,-2.791,-439.531,8.311,0,0,0.19251,-0.2265625,0.07874016,0,0,0,false,false,false,-1918.7,-4745.56,17.01,-0.0013136329,0.004410246,0.34486642,0.9386405,837.40094,724.21094,8.4210005,-0.011409999,-0.0012099999,-0.07491
420.575,-1658.01,-4538.9,1257.38,-0.42247078,0.56463504,0.70770633,0.043096498,799.52094,434.431,-288.471,2.78561,0.56241,-5.28431,1,0.07086614,0,0,0,false,false,false,-519.47,-2680.68,17.01,-0.0033582605,-0.0033366815,0.7108099,-0.7033681,-1.961,-458.581,8.311,0,0,0.18440999,-0.296875,0.09448819,0,0,0,false,false,false,-1904.9199,-4733.65,17.01,-0.0013999495,0.00443722,0.34441322,0.9388066,794.001,685.16095,8.341001,-0.010609999,0.0014099999,-0.012909999
420.59167,-1644.69,-4531.6597,1252.44,-0.39277235,0.5663074,0.7200053,0.08135116,799.10095,434.211,-299.151,2.78561,0.56241,-5.28431,1,-0.15625,0,0,0,false,false,false,-519.5,-2688.4,17.01,-0.0033582605,-0.0033366815,0.709746,-0.70444167,-1.121,-477.301,8.311,0,0,0.17431,1,0.08661418,0,0,0,false,false,false,-1891.87,-4722.39,17.01,-0.0014754769,0.0044803787,0.34442404,0.9388023,750.1409,646.65094,8.311,-0.009009999,0.00211,0.03851
420.60834,-1631.37,-4524.42,1247.32,-0.36209202,0.566561,0.73050666,0.11940614,798.68097,433.991,-309.831,2.78561,0.56241,-5.28431,1,-0.15625,0,0,0,false,false,false,-519.54,-2696.43,17.01,-0.003352866,-0.0033420764,0.70896876,-0.705224,-5.3409996,-495.441,8.311,0.00010999999,0.0010099999,0.02201,1,0.062992126,0,0,0,false,false,false,-1879.34,-4711.59,17.01,-0.0015348196,0.0045127473,0.34482324,0.9386555,757.60095,652.72095,8.301001,-0.00491,-0.00030999997,0.084309995
420.625,-1618.07,-4517.1797,1242.02,-0.33051074,0.5654011,0.73917866,0.15715909,798.261,433.771,-320.491,2.78561,0.56241,-5.28431,1,-0.1640625,0,0,0,false,false,false,-519.64,-2704.76,17.01,-0.0033474711,-0.003352866,0.70900625,-0.70518625,-8.1710005,-513.36096,8.311,0.00010999999,0.0010099999,-0.08401,1,0.062992126,0,0,0,false,false,false,-1866.6799,-4700.69,17.01,-0.001572583,0.004518141,0.34551373,0.93840134,765.03094,658.61096,8.301001,-0.00261,-0.0012099999,0.100509994
420.64166,-1604.77,-4509.96,1236.5399,-0.29809865,0.56282765,0.7460058,0.19451821,797.84094,433.551,-331.151,2.78561,0.56241,-5.28431,1,-0.1640625,0,0,0,false,false,false,-519.79,-2713.39,17.01,-0.0033474711,-0.003352866,0.70962816,-0.7045604,-10.611,-531.001,8.311,0.00010999999,0.00061,-0.16531,1,0.05511811,0,0,0,false,false,false,-1853.8999,-4689.69,17.01,-0.0015995571,0.0045127473,0.346323,0.9381031,771.92096,664.871,8.301001,-0.0014099999,-0.00131,0.112409994
420.65833,-1591.47,-4502.7397,1230.89,-0.26494214,0.5588517,0.75096476,0.23139174,797.42096,433.331,-341.811,2.78561,0.56241,-5.28431,1,-0.1640625,0,0,0,false,false,false,-519.98,-2722.31,17.01,-0.003347471,-0.0033528658,0.7106924,-0.7034868,-12.861,-548.371,8.311,0.00010999999,0.00030999997,-0.22400999,1,0.05511811,0,0,0,false,false,false,-1841.01,-4678.58,17.01,-0.0016211362,0.0045019574,0.34720773,0.93777597,778.49097,671.27094,8.301001,-0.00091,-0.00111,0.11581
420.675,-1578.19,-4495.52,1225.0599,-0.23112205,0.5534731,0.7540511,0.2676881,797.001,433.111,-352.461,2.78561,0.56241,-5.28431,1,-0.15625,0,0,0,false,false,false,-520.20996,-2731.52,17.01,-0.0033528658,-0.003347471,0.7120728,-0.70208955,-15.201,-565.441,8.311,0.00010999999,0,-0.26661,1,0.05511811,0,0,0,false,false,false,-1828.01,-4667.37,17.01,-0.0016319258,0.0044911676,0.34811944,0.93743795,784.6409,677.90094,8.301001,-0.00061,-0.00081,0.118609995
420.69168,-1564.9099,-4488.3,1219.0499,-0.19673009,0.5467134,0.75524914,0.3033155,796.58093,432.891,-363.101,2.78561,0.56241,-5.28431,1,-0.1484375,0,0,0,false,false,false,-520.48,-2741.01,17.01,-0.0033636554,-0.0033366815,0.71367556,-0.70046026,-17.560999,-582.24097,8.311,0.00010999999,-0.00010999999,-0.29251,1,0.047244094,0,0,0,false,false,false,-1814.9099,-4656.04,17.01,-0.0016427154,0.0044803782,0.34905276,0.9370909,790.451,684.691,8.301001,-0.00040999998,-0.00061,0.12091
420.70834,-1551.64,-4481.08,1212.87,-0.16184181,0.5385834,0.75456464,0.33818215,796.16095,432.671,-373.741,2.78561,0.56241,-5.28431,1,-0.140625,0,0,0,false,false,false,-520.79,-2750.78,17.01,-0.003374445,-0.003325892,0.71540266,-0.6986962,-20.081,-598.751,8.311,0.00010999999,-0.00021,-0.30651,1,0.047244094,0,0,0,false,false,false,-1801.71,-4644.6,17.01,-0.001653505,0.0044803782,0.34998605,0.93674266,796.11096,691.42096,8.301001,-0.00030999997,-0.00040999998,0.117309995
420.725,-1538.38,-4473.88,1206.51,-0.1265489,0.5291102,0.7519903,0.3722073,795.74097,432.451,-384.381,2.78561,0.56241,-5.28431,1,-0.1328125,0,0,0,false,false,false,-521.14,-2760.8298,17.01,-0.0033852346,-0.0033151023,0.71719474,-0.69685656,-22.790998,-614.97095,8.311,0.00010999999,-0.00021,-0.31201002,1,0.03937008,0,0,0,false,false,false,-1788.4199,-4633.05,17.01,-0.0016642944,0.004480378,0.35089773,0.9364014,801.511,698.23096,8.301001,-0.00021,-0.00030999997,0.11500999
420.74167,-1525.12,-4466.6797,1199.97,-0.09094311,0.518315,0.747534,0.40530446,795.321,432.231,-395.011,2.78561,0.56241,-5.28431,1,-0.125,0,0,0,false,false,false,-521.52997,-2771.14,17.01,-0.0033960238,-0.0033043122,0.7190037,-0.6949899,-25.681,-630.891,8.311,0.00010999999,-0.00021,-0.31151,1,0.03937008,0,0,0,false,false,false,-1775.0399,-4621.38,17.01,-0.0016750842,0.0044803782,0.3517771,0.9360715,806.821,704.92096,8.301001,-0.00010999999,-0.00030999997,0.108109996
420.75833,-1511.87,-4459.48,1193.25,-0.055110756,0.50622535,0.74120903,0.4373875,794.90094,432.011,-405.631,2.78561,0.56241,-5.28431,1,-0.1171875,0,0,0,false,false,false,-521.97,-2781.72,17.01,-0.0034068138,-0.003293523,0.7207981,-0.69312876,-28.741,-646.53094,8.311,0.00010999999,-0.00021,-0.30661002,1,0.03937008,0,0,0,false,false,false,-1761.57,-4609.61,17.01,-0.0016804792,0.0044803787,0.35260794,0.9357589,811.93097,711.61096,8.301001,0,-0.00030999997,0.10331
420.775,-1498.63,-4452.28,1186.36,-0.019138126,0.49286777,0.73303455,0.4683753,794.48096,431.791,-416.251,2.78561,0.56241,-5.28431,1,-0.109375,0,0,0,false,false,false,-522.45996,-2792.56,17.01,-0.0034176034,-0.0032827335,0.72255224,-0.6912999,-31.950998,-661.881,8.311,0.00010999999,-0.00021,-0.29831,1,0.031496063,0,0,0,false,false,false,-1748.01,-4597.7197,17.01,-0.0016804792,0.0044803787,0.35340637,0.93545765,816.871,718.261,8.301001,0,-0.00030999997,0.10000999
420.79166,-1485.39,-4445.08,1179.2899,0.0168831,0.47828025,0.7230301,0.49818712,794.061,431.57098,-426.871,2.78561,0.56241,-5.28431,1,-0.09375,0,0,0,false,false,false,-523.01,-2803.66,17.01,-0.003428393,-0.003271944,0.7242514,-0.6895196,-35.271,-676.951,8.311,0.00021,-0.00021,-0.28751,1,0.031496063,0,0,0,false,false,false,-1734.37,-4585.7197,17.01,-0.001680479,0.0044803782,0.354167,0.9351699,821.811,724.71094,8.301001,0,-0.00030999997,0.09231
420.80832,-1472.1599,-4437.89,1172.0399,0.052866474,0.46249494,0.7112168,0.526758,793.6409,431.35098,-437.471,2.78561,0.56241,-5.28431,1,-0.0859375,0,0,0,false,false,false,-523.61,-2815,17.01,-0.0034391826,-0.0032611543,0.72587574,-0.68780947,-38.461,-691.761,8.311,0.00021,-0.00021,-0.26931,0.7007874,0.031496063,0,0,0,false,false,false,-1720.6499,-4573.61,17.01,-0.001680479,0.0044803782,0.35487914,0.93489987,826.621,731.10095,8.301001,0,-0.00030999997,0.087009996
420.825,-1458.94,-4430.71,1164.62,0.08870967,0.4455552,0.6976253,0.5540126,793.22095,431.131,-448.07098,2.78561,0.56241,-5.28431,1,-0.078125,0,0,0,false,false,false,-524.26,-2826.5898,17.01,-0.0034499718,-0.0032503644,0.7273906,-0.6862071,-41.740997,-706.311,8.311,0.00021,-0.00021,-0.25131002,0.37795275,0.031496063,0,0,0,false,false,false,-1706.86,-4561.4097,17.01,-0.001680479,0.0044803782,0.35554808,0.93464565,829.59094,735.881,8.301001,-0.00010999999,-0.00030999997,0.08311
420.84167,-1445.72,-4423.53,1157.02,0.12433707,0.42749873,0.6822927,0.5798807,792.80096,430.911,-458.671,2.78561,0.56241,-5.28431,1,-0.0703125,0,0,0,false,false,false,-524.97,-2838.43,17.01,-0.0034607616,-0.003239575,0.72879744,-0.6847128,-45.040997,-720.60095,8.311,0.00021,-0.00010999999,-0.23340999,0.11811024,0.031496063,0,0,0,false,false,false,-1693.0299,-4549.13,17.01,-0.001680479,0.0044803782,0.35619006,0.9344012,830.691,738.97095,8.301001,-0.00030999997,-0.00021,0.08021
420.85834,-1432.51,-4416.35,1149.24,0.15965149,0.4083795,0.6652482,0.60430306,792.381,430.691,-469.261,2.78561,0.56241,-5.28431,1,-0.0625,0,0,0,false,false,false,-525.74,-2850.49,17.01,-0.0034715508,-0.0032341802,0.73009753,-0.6833263,-48.310997,-734.631,8.311,0.00021,0,-0.21530999,-0.09375,0.023622047,0,0,0,false,false,false,-1679.19,-4536.8,17.01,-0.0016912686,0.0044803782,0.35681045,0.93416446,830.321,740.71094,8.301001,-0.00040999998,-0.00021,0.07801
420.875,-1419.3099,-4409.17,1141.2899,0.19456677,0.38823533,0.6465435,0.62721485,791.96094,430.471,-479.841,2.78561,0.56241,-5.28431,1,-0.0546875,0,0,0,false,false,false,-526.56,-2862.79,17.01,-0.0034823404,-0.0032341802,0.73129207,-0.6820477,-51.510998,-748.41095,8.311,0.00010999999,0,-0.19711,-0.15625,0.023622047,0,0,0,false,false,false,-1665.5399,-4524.62,17.01,-0.0017020581,0.004485773,0.35739312,0.93394166,786.061,702.67096,8.301001,-0.00221,0.0018099999,0.06811
420.89166,-1406.11,-4401.9897,1133.16,0.22899646,0.36712,0.6262222,0.6485593,791.55096,430.251,-490.421,2.78561,0.56241,-5.28431,1,-0.046875,0,0,0,false,false,false,-527.43,-2875.3198,17.01,-0.0034931304,-0.0032341804,0.73238206,-0.68087715,-54.611,-761.951,8.311,0,0,-0.17881,1,-0.0078125,0,0,0,false,false,false,-1652.62,-4513.06,17.01,-0.0017128477,0.004507352,0.3579056,0.93374527,741.85095,664.571,8.301001,-0.00261,0.00221,0.061009996
420.90833,-1392.9299,-4394.83,1124.86,0.26285434,0.34509295,0.6043354,0.6682791,791.15094,430.031,-501.001,2.78561,0.56241,-5.28431,1,-0.046875,0,0,0,false,false,false,-528.36,-2888.0698,17.01,-0.0034931304,-0.0032341804,0.7333687,-0.67981434,-57.580997,-775.27094,8.311,0,0,-0.16031,1,-0.453125,0,0,0,false,true,false,-1640.23,-4501.9497,17.01,-0.0017236371,0.0045235357,0.35833177,0.9335816,748.61096,671.311,8.301001,-0.00030999997,-0.00040999998,0.03791
420.925,-1379.75,-4387.67,1116.38,0.296054,0.32220277,0.5809381,0.6863295,790.751,429.811,-511.57098,2.78561,0.56241,-5.28431,1,-0.0390625,0,0,0,false,false,false,-529.33,-2901.05,17.01,-0.0034931304,-0.0032341804,0.7342577,-0.67885405,-60.621,-788.35095,8.311,0,0,-0.14740999,1,-0.484375,0,0,0,false,true,false,-1627.69,-4490.78,17.01,-0.0017290321,0.0045181415,0.35794336,0.9337307,761.871,669.29095,8.311,-0.0012099999,-0.00271,-0.27731
420.94168,-1366.57,-4380.51,1107.72,0.32851467,0.29850873,0.5560896,0.7026627,790.35095,429.591,-522.131,2.78561,0.56241,-5.28431,1,-0.03125,0,0,0,false,false,false,-530.36,-2914.24,17.01,-0.0034931304,-0.0032341804,0.7350697,-0.6779747,-63.450996,-801.21094,8.311,0,-0.00010999999,-0.13261,1,-0.4921875,0,0,0,false,true,false,-1614.94,-4479.63,17.01,-0.0017344271,0.0045073526,0.35527837,0.93474805,774.30096,668.10095,8.311,-0.0010099999,-0.00281,-0.51571
420.95834,-1353.4099,-4373.35,1098.88,0.36014986,0.27406478,0.52985466,0.7172409,789.951,429.371,-532.691,2.78561,0.56241,-5.28431,1,-0.03125,0,0,0,false,false,false,-531.43,-2927.65,17.01,-0.0034931304,-0.0032341804,0.73579043,-0.67719245,-66.090996,-813.86096,8.311,0,-0.00021,-0.11651,1,-0.4453125,0,0,0,false,true,false,-1601.99,-4468.5,17.01,-0.0017290321,0.0044965623,0.35089236,0.93640333,786.74097,666.72095,8.311,-0.00051,-0.00221,-0.69101
420.975,-1340.25,-4366.19,1089.87,0.39088956,0.2489357,0.5022979,0.7300226,789.55096,429.151,-543.251,2.78561,0.56241,-5.28431,1,-0.0234375,0,0,0,false,false,false,-532.54,-2941.26,17.01,-0.00349313,-0.0032341802,0.73643035,-0.67649645,-68.741,-826.28094,8.311,0,-0.00030999997,-0.10511,1,-0.4140625,0,0,0,false,true,false,-1588.82,-4457.39,17.01,-0.0017128477,0.0044911676,0.34529796,0.93848073,798.98096,665.52094,8.311,0.00010999999,-0.0012099999,-0.78541
420.99167,-1327.09,-4359.04,1080.6799,0.42065278,0.22318627,0.4734842,0.7409803,789.15094,428.931,-553.79095,2.78561,0.56241,-5.28431,1,-0.0234375,0,0,0,false,false,false,-533.69,-2955.0898,17.01,-0.0034931307,-0.0032341806,0.73700476,-0.6758708,-71.160995,-838.511,8.311,0,-0.00040999998,-0.091309994,1,-0.375,0,0,0,false,true,false,-1575.45,-4446.3,17.01,-0.0016858738,0.0044911676,0.33904532,0.94075775,811.58093,663.61096,8.311,0.00061,-0.00040999998,-0.83311
421.00833,-1313.95,-4351.9,1071.32,0.44936392,0.19687575,0.4434836,0.7500894,788.751,428.711,-564.331,2.78561,0.56241,-5.28431,1,-0.0234375,0,0,0,false,false,false,-534.88,-2969.1199,17.01,-0.0034931304,-0.0032341804,0.73750407,-0.6753258,-73.561,-850.52094,8.311,0,-0.00040999998,-0.081609994,1,-0.296875,0,0,0,false,true,false,-1561.87,-4435.25,17.01,-0.0016481103,0.004501958,0.33248526,0.9430962,824.441,661.05096,8.311,0.0010099999,0.00010999999,-0.84231
421.025,-1300.8099,-4344.76,1061.78,0.47695312,0.17007433,0.41237715,0.75732124,788.35095,428.491,-574.871,2.78561,0.56241,-5.28431,1,-0.015625,0,0,0,false,false,false,-536.11,-2983.3499,17.01,-0.0034931304,-0.0032341804,0.73795325,-0.6748349,-75.910995,-862.33093,8.311,0,-0.00051,-0.07481,1,-0.2734375,0,0,0,false,true,false,-1548.08,-4424.2397,17.01,-0.0016049518,0.004512747,0.32595214,0.9453741,836.9509,658.691,8.311,0.00131,0.00040999998,-0.79781
421.04166,-1287.6699,-4337.62,1052.07,0.5033499,0.14284661,0.38023475,0.7626631,787.951,428.271,-585.41095,2.78561,0.56241,-5.28431,1,-0.015625,0,0,0,false,true,false,-537.38,-2997.77,17.01,-0.0034985254,-0.0032287855,0.73835754,-0.6743925,-77.991,-873.96094,8.311,0,-0.00061,-0.06421,1,-0.21875,0,0,0,false,true,false,-1534.08,-4413.27,17.01,-0.0015617935,0.004523536,0.31975883,0.9474868,849.821,655.41095,8.311,0.0012099999,0.00051,-0.75221
421.05832,-1274.5499,-4330.48,1042.1799,0.52848965,0.115262926,0.34714296,0.766097,787.55096,428.051,-595.93097,2.78561,0.56241,-5.28431,1,-0.015625,0,0,0,false,true,false,-538.70996,-3012.5898,17.01,-0.00350392,-0.0032287855,0.7387072,-0.6740095,-81.520996,-901.6409,8.231,0,-0.00051,-0.056709997,1,0.33858266,0,0,0,false,false,false,-1519.87,-4402.36,17.01,-0.0015186352,0.0045343265,0.31395945,0.9494243,862.34094,652.251,8.311,0.0012099999,0.00061,-0.68400997
421.075,-1261.4299,-4323.34,1032.12,0.5523079,0.08739334,0.313188,0.76761425,787.15094,427.831,-606.451,2.78561,0.56241,-5.28431,1,-0.0078125,0,0,0,false,true,false,-540.1,-3027.8699,17.01,-0.00350392,-0.0032287855,0.7390171,-0.67366964,-84.991,-928.84094,8.201,0,-0.00051,-0.05131,1,0.41732284,0,0,0,false,false,false,-1505.48,-4391.4497,17.01,-0.0014808716,0.0045451154,0.30946556,0.9508986,866.67096,659.04095,8.311,0.00321,0.00211,-0.26141
421.09167,-1248.3099,-4316.2197,1021.88,0.5747449,0.05930255,0.2784454,0.76721543,786.751,427.611,-616.97095,2.78561,0.56241,-5.28431,1,-0.0078125,0,0,0,false,true,false,-541.54,-3043.5999,17.01,-0.00350392,-0.0032287855,0.7392875,-0.6733729,-88.190994,-955.60095,8.181,0,-0.00071,-0.041909996,1,0.496063,0,0,0,false,false,false,-1491.02,-4380.44,17.01,-0.001443108,0.0045559052,0.30814382,0.95132774,871.33093,665.191,8.311,0.00321,0.00211,0.086109996
421.10834,-1235.21,-4309.1,1011.45996,0.59574157,0.031060625,0.24301223,0.76490015,786.35095,427.391,-627.48096,2.78561,0.56241,-5.28431,1,-0.0078125,0,0,0,false,true,false,-543.02997,-3059.77,17.01,-0.003509315,-0.0032287855,0.73951346,-0.67312473,-91.361,-981.90094,8.1710005,0,-0.00071,-0.03521,1,0.496063,0,0,0,false,false,false,-1476.48,-4369.33,17.01,-0.0014161338,0.0045612995,0.30947092,0.95089674,874.8909,672.52094,8.311,0.00251,0.0017099999,0.38561
421.125,-1222.11,-4301.98,1000.87,0.61524916,0.0027432537,0.20696941,0.7606737,785.951,427.171,-637.98096,2.78561,0.56241,-5.28431,1,-0.0078125,0,0,0,false,true,false,-544.58,-3076.38,17.01,-0.003509315,-0.0032287855,0.73970485,-0.6729144,-94.461,-1007.751,8.1710005,0,-0.00071,-0.03041,1,0.5590551,0,0,0,false,false,false,-1461.89,-4358.09,17.01,-0.0014107391,0.0045613,0.31298298,0.94974667,877.871,680.60095,8.311,0.00131,0.00091,0.59891
421.14166,-1209.01,-4294.86,990.11,0.6332193,-0.02557951,0.1704088,0.754546,785.55096,426.951,-648.48096,2.78561,0.56241,-5.28431,1,0,1,0.015748031,0.007874016,true,false,false,-546.18,-3093.42,17.01,-0.003509315,-0.0032287855,0.7398668,-0.67273635,-97.501,-1033.161,8.1710005,0,-0.00071,-0.02701,1,0.5984252,0,0,0,false,false,false,-1447.25,-4346.6997,17.01,-0.0014269236,0.0045613,0.318135,0.94803333,878.49097,691.28094,8.311,0.00061,0.00040999998,0.79291
421.15833,-1195.9299,-4287.7397,979.17,0.6496088,-0.053837582,0.13342191,0.74653095,785.15094,426.731,-658.98096,2.78561,0.56241,-5.28431,0,0,1,0.015748031,0.007874016,true,false,false,-547.81,-3110.72,22.109999,-0.003509315,-0.0032233908,0.7400041,-0.6725853,-98.951,-1044.9209,307.871,-0.00040999998,-0.00071,-0.01981,1,0.62992126,0,0,0,false,false,false,-1432.61,-4335.13,17.01,-0.0014538976,0.0045505106,0.32474372,0.94578993,877.02094,704.141,8.311,0.00010999999,0,0.95671
421.175,-1182.85,-4280.63,968.05,0.66437435,-0.08196613,0.09610593,0.736649,784.751,426.511,-669.47095,2.78561,0.56241,-5.28431,0,0,1,0.007874016,0,true,false,false,-549.45,-3128.0999,27.34,-0.0035093152,-0.003217996,0.7401071,-0.67247206,-98.440994,-1036.401,315.911,0.00010999999,-0.00071,-0.015309999,1,0.63779527,0,0,0,false,false,false,-1418,-4323.33,17.01,-0.0014916611,0.0045397207,0.33256617,0.9430677,873.4509,719.011,8.311,-0.00021,-0.00010999999,1.09471
