time,ball_loc_x,ball_loc_y,ball_loc_z,ball_rot_x,ball_rot_y,ball_rot_z,ball_rot_w,ball_vel_x,ball_vel_y,ball_vel_z,ball_ang_x,ball_ang_y,ball_ang_z,player0_throttle,player0_steer,player0_pitch,player0_yaw,player0_roll,player0_jump,player0_boost,player0_handbrake,player0_loc_x,player0_loc_y,player0_loc_z,player0_rot_x,player0_rot_y,player0_rot_z,player0_rot_w,player0_vel_x,player0_vel_y,player0_vel_z,player0_ang_x,player0_ang_y,player0_ang_z,player1_throttle,player1_steer,player1_pitch,player1_yaw,player1_roll,player1_jump,player1_boost,player1_handbrake,player1_loc_x,player1_loc_y,player1_loc_z,player1_rot_x,player1_rot_y,player1_rot_z,player1_rot_w,player1_vel_x,player1_vel_y,player1_vel_z,player1_ang_x,player1_ang_y,player1_ang_z
104.541664,0,0,92.74,0.000002697398,0.000002697398,0.000002697398,0.99999994,0,0,0,0,0,0,0,0,0,0,0,false,false,false,0,-4607.98,17.01,-0.0034068138,0.0034122085,0.7070959,0.7071011,0,0.040999997,8.321,0.00051,0,0,0,-1,0,0,0,false,false,false,0.01,4607.98,17.01,0.0034122085,0.0034068138,-0.7044579,0.7097293,-0.20099999,0.040999997,8.321,-0.00051,0.00030999997,-0.00040999998
104.558334,0,0,92.74,0.000002697398,0.000002697398,0.000002697398,0.99999994,0,0,0,0,0,0,0,0,0,0,0,false,false,false,0,-4607.98,17.01,-0.0034068138,0.0034122085,0.7070959,0.7071011,0,0,8.321,0.00051,0,0,0.46456692,-0.1171875,0,0,0,false,false,false,0.01,4607.98,17.01,0.0034122085,0.0034068138,-0.7044579,0.7097293,-0.27099997,-6.151,8.321,-0.00091,0.00040999998,-0.00521
104.566666,0,0,92.74,0.000002697398,0.000002697398,0.000002697398,0.99999994,0,0,0,0,0,0,1,0,0,0,0,false,true,false,0,-4607.98,17.01,-0.0034068138,0.0034122085,0.7070959,0.7071011,0,-0.011,8.321,0.00051,0,0,1,0,0,0,0,false,true,false,0.01,4607.86,17.01,0.0034068138,0.0034068138,-0.70447403,0.7097133,-0.050999995,-27.620998,8.271,-0.00151,0.00040999998,-0.00421
104.575,0,0,92.74,0.000002697398,0.000002697398,0.000002697398,0.99999994,0,0,0,0,0,0,1,0,0,0,0,false,true,false,0,-4607.9097,17.01,-0.0034068138,0.0034122085,0.7070959,0.7071011,0,21.511,8.271,0.00131,0,0,1,0,0,0,0,false,true,false,0.01,4607.56,17.01,0.003401419,0.003401419,-0.7044848,0.7097027,0.151,-48.900997,8.231,-0.0018099999,0.00030999997,-0.00341
104.59167,0,0,92.74,0.000002697398,0.000002697398,0.000002697398,0.99999994,0,0,0,0,0,0,1,0,0,0,0,false,true,false,0,-4607.23,17.01,-0.0033960242,0.003401419,0.7070959,0.7071012,0,64.001,8.211,0.0019099999,0,0,1,0,0,0,0,false,true,false,0.01,4606.4297,17.01,0.0033906293,0.0033906293,-0.7045064,0.70968133,0.52099997,-90.921,8.191,-0.0019099999,0.00030999997,-0.0023100001
104.6,0,0,92.74,0.000002697398,0.000002697398,0.000002697398,0.99999994,0,0,0,0,0,0,1,0,0,0,0,false,true,false,0,-4606.63,17.01,-0.0033906293,0.0033960242,0.7070959,0.7071013,0,84.971,8.191,0.0019099999,0,0,1,0,0,0,0,false,true,false,0.01,4605.6,17.01,0.0033852342,0.0033852342,-0.70451176,0.70967597,0.691,-111.660995,8.181,-0.0018099999,0.00030999997,-0.0019099999
104.60833,0,0,92.74,0.000002697398,0.000002697398,0.000002697398,0.99999994,0,0,0,0,0,0,1,0,0,0,0,false,true,false,0,-4605.85,17.01,-0.0033852346,0.0033906293,0.7070959,0.7071013,0,105.760994,8.181,0.0019099999,0,0,1,0,0,0,0,false,true,false,0.02,4604.6,17.01,0.00337984,0.00337984,-0.70451725,0.7096707,0.86099994,-132.22101,8.1710005,-0.0017099999,0.00030999997,-0.00151
104.625,0,0,92.74,0.000002697398,0.000002697398,0.000002697398,0.99999994,0,0,0,0,0,0,1,0,0,0,0,false,true,false,0,-4603.78,17.01,-0.003374445,0.0033798397,0.7070959,0.7071014,0,146.821,8.161,0.0017099999,0,0,1,0,0,0,0,false,true,false,0.04,4602.09,17.01,0.0033690496,0.0033690496,-0.7045279,0.7096601,1.181,-172.821,8.161,-0.0014099999,0.00030999997,-0.00091
104.64167,0,0,92.74,0.000002697398,0.000002697398,0.000002697398,0.99999994,0,0,0,0,0,0,1,0,0,0,0,false,true,false,0,-4601.03,17.01,-0.0033636554,0.00336905,0.7070959,0.7071015,0,187.171,8.161,0.0014099999,0,0,1,0,0,0,0,false,true,false,0.06,4598.9,17.01,0.0033582605,0.0033636554,-0.704528,0.7096602,1.4810001,-212.731,8.161,-0.0010099999,0.00030999997,-0.00051
104.65,0,0,92.74,0.000002697398,0.000002697398,0.000002697398,0.99999994,0,0,0,0,0,0,1,0,0,0,0,false,true,false,0,-4599.4,17.01,-0.0033582605,0.0033636554,0.7070959,0.7071016,0,207.091,8.161,0.0012099999,0,0,1,0,0,0,0,false,true,false,0.07,4597.06,17.01,0.003352866,0.0033636556,-0.70452803,0.70966023,1.631,-232.431,8.161,-0.00091,0.00030999997,-0.00040999998
104.65833,0,0,92.74,0.000002697398,0.000002697398,0.000002697398,0.99999994,0,0,0,0,0,0,1,0,0,0,0,false,true,false,0,-4597.61,17.01,-0.003352866,0.0033582607,0.707096,0.70710164,0,226.841,8.161,0.0010099999,0,0,1,0,0,0,0,false,true,false,0.08,4595.05,17.01,0.003347471,0.0033636554,-0.704528,0.70966023,1.781,-251.961,8.161,-0.00071,0.00021,-0.00030999997
104.666664,0,0,92.74,0.000002697398,0.000002697398,0.000002697398,0.99999994,0,0,0,0,0,0,1,0,0,0,0,false,true,false,0,-4595.65,17.01,-0.003347471,0.0033528658,0.7070959,0.70710164,0,246.421,8.161,0.00081,0,0,1,0,0,0,0,false,true,false,0.099999994,4592.88,17.01,0.003347471,0.0033636554,-0.704528,0.70966023,1.931,-271.321,8.161,-0.00061,0.00021,-0.00021
104.683334,0,0,92.74,0.000002697398,0.000002697398,0.000002697398,0.99999994,0,0,0,0,0,0,1,0,0,0,0,false,true,false,0,-4591.2397,17.01,-0.003347471,0.0033528658,0.7070959,0.70710164,0,285.071,8.161,0.00040999998,0,0,1,0,0,0,0,false,true,false,0.14,4588.06,17.01,0.003347471,0.0033636554,-0.704528,0.70966023,2.211,-309.551,8.161,-0.00040999998,0.00021,0
104.691666,0,0,92.74,0.000002697398,0.000002697398,0.000002697398,0.99999994,0,0,0,0,0,0,1,0,0,0,0,false,true,false,0,-4588.79,17.01,-0.003347471,0.0033528658,0.7070959,0.70710164,0,304.151,8.161,0.00030999997,0,0,1,0,0,0,0,false,true,false,0.16,4585.4097,17.01,0.003347471,0.0033636554,-0.704528,0.70966023,2.3509998,-328.421,8.161,-0.00030999997,0.00021,0
104.7,0,0,92.74,0.000002697398,0.000002697398,0.000002697398,0.99999994,0,0,0,0,0,0,1,0,0,0,0,false,true,false,0,-4586.19,17.01,-0.003347471,0.0033528658,0.7070959,0.70710164,0,323.071,8.161,0.00021,0,0,1,0,0,0,0,false,true,false,0.17999999,4582.6,17.01,0.003347471,0.0033636554,-0.704528,0.70966023,2.491,-347.131,8.161,-0.00021,0.00021,0
104.708336,0,0,92.74,0.000002697398,0.000002697398,0.000002697398,0.99999994,0,0,0,0,0,0,1,0,0,0,0,false,true,false,0,-4583.4297,17.01,-0.003347471,0.0033528658,0.7070959,0.70710164,0,341.821,8.161,0.00010999999,0,0,1,-0.0078125,0,0,0,false,true,false,0.19999999,4579.64,17.01,0.003347471,0.0033636554,-0.704528,0.70966023,2.541,-365.681,8.161,-0.00021,0.00021,-0.00251
104.71667,0,0,92.74,0.000002697398,0.000002697398,0.000002697398,0.99999994,0,0,0,0,0,0,1,0,0,0,0,false,true,false,0,-4580.51,17.01,-0.003347471,0.0033528658,0.7070959,0.70710164,0,360.411,8.161,0,0,0,1,-0.0078125,0,0,0,false,true,false,0.22,4576.52,17.01,0.003347471,0.0033636554,-0.7045334,0.70965487,2.6009998,-384.07098,8.161,-0.00021,0.00021,-0.00461
104.73333,0,0,92.74,0.000002697398,0.000002697398,0.000002697398,0.99999994,0,0,0,0,0,0,1,0,0,0,0,false,true,false,0,-4574.21,17.01,-0.003347471,0.0033528658,0.7070959,0.70710164,0,397.121,8.161,0,0,0,1,-0.0078125,0,0,0,false,true,false,0.26,4569.83,17.01,0.003347471,0.0033636554,-0.7045711,0.7096174,2.731,-420.371,8.161,-0.00010999999,0.00021,-0.007909999
104.74167,0,0,92.74,0.000002697398,0.000002697398,0.000002697398,0.99999994,0,0,0,0,0,0,1,0,0,0,0,false,true,false,0,-4570.83,17.01,-0.003347471,0.0033528658,0.7070959,0.70710164,0,415.241,8.161,0,0,0,1,0,0,0,0,false,true,false,0.28,4566.26,17.01,0.003347471,0.0033636554,-0.7045927,0.709596,2.9009998,-438.291,8.161,-0.00010999999,0.00010999999,-0.0065099997
104.75,0,0,92.74,0.000002697398,0.000002697398,0.000002697398,0.99999994,0,0,0,0,0,0,1,0,0,0,0,false,true,false,0,-4567.3,17.01,-0.003347471,0.0033528658,0.7070959,0.70710164,0,433.201,8.161,0,0,0,1,0,0,0,0,false,true,false,0.29999998,4562.54,17.01,0.0033474704,0.003363655,-0.7046143,0.70957446,3.0509999,-456.051,8.161,-0.00010999999,0.00010999999,-0.0054099998
104.75833,0,0,92.74,0.000002697398,0.000002697398,0.000002697398,0.99999994,0,0,0,0,0,0,1,0,0,0,0,false,true,false,0,-4563.62,17.01,-0.003347471,0.0033528658,0.7070959,0.70710164,0,451.011,8.161,0,0,0,1,0,0,0,0,false,true,false,0.32999998,4558.67,17.01,0.003347471,0.0033636554,-0.7046305,0.7095584,3.1909997,-473.661,8.161,0,0.00010999999,-0.00451
104.76667,0,0,92.74,0.000002697398,0.000002697398,0.000002697398,0.99999994,0,0,0,0,0,0,1,0,0,0,0,false,true,false,0,-4559.79,17.01,-0.003347471,0.0033528658,0.7070959,0.70710164,0,468.671,8.161,0,0,0,1,0,0,0,0,false,true,false,0.35999998,4554.65,17.01,0.003347471,0.0033636554,-0.7046413,0.7095477,3.3209999,-491.121,8.161,0,0.00010999999,-0.00371
104.775,0,0,92.74,0.000002697398,0.000002697398,0.000002697398,0.99999994,0,0,0,0,0,0,1,0,0,0,0,false,true,false,0,-4555.82,17.01,-0.003347471,0.0033528658,0.7070959,0.70710164,0,486.181,8.161,0,0,0,1,0,0,0,0,false,true,false,0.39,4550.4897,17.01,0.003347471,0.0033636554,-0.7046521,0.709537,3.4509997,-508.431,8.161,0,0.00010999999,-0.00301
104.791664,0,0,92.74,0.000002697398,0.000002697398,0.000002697398,0.99999994,0,0,0,0,0,0,1,0,0,0,0,false,true,false,0,-4547.4297,17.01,-0.003347471,0.0033528658,0.7070959,0.70710164,0,520.74097,8.161,0,0,0,1,-0.0078125,0,0,0,false,true,false,0.45,4541.73,17.01,0.003347471,0.0033636554,-0.7046791,0.7095102,3.501,-542.61096,8.161,0,0.00010999999,-0.00721
104.8,0,0,92.74,0.000002697398,0.000002697398,0.000002697398,0.99999994,0,0,0,0,0,0,1,0,0,0,0,false,true,false,0,-4543.02,17.01,-0.003347471,0.0033528658,0.7070959,0.70710164,0,537.80096,8.161,0,0,0,1,-0.0078125,0,0,0,false,true,false,0.48,4537.14,17.01,0.003347471,0.0033636554,-0.70470065,0.70948875,3.541,-559.48096,8.161,0,0.00010999999,-0.008909999
104.808334,0,0,92.74,0.000002697398,0.000002697398,0.000002697398,0.99999994,0,0,0,0,0,0,1,0,0,0,0,false,true,false,0,-4538.4697,17.01,-0.003347471,0.0033528658,0.7070959,0.70710164,0,554.71094,8.161,-0.00010999999,0,0,1,0,0,0,0,false,true,false,0.51,4532.4097,17.01,0.003347471,0.0033636554,-0.7047276,0.709462,3.6909997,-576.21094,8.161,0,0.00010999999,-0.00741
104.825,0,0,92.74,0.000002697398,0.000002697398,0.000002697398,0.99999994,0,0,0,0,0,0,1,0,0,0,0,false,true,false,0,-4528.9497,17.01,-0.003347471,0.0033528658,0.7070959,0.70710164,0,588.10095,8.161,-0.00021,0,0,1,0,0,0,0,false,true,false,0.57,4522.53,17.01,0.003347471,0.0033636554,-0.7047654,0.70942444,3.9409997,-609.23096,8.161,0,0.00010999999,-0.00501
104.833336,0,0,92.74,0.000002697398,0.000002697398,0.000002697398,0.99999994,0,0,0,0,0,0,1,0,0,0,0,false,true,false,0,-4523.98,17.01,-0.003347471,0.0033528658,0.7070959,0.70710164,0,604.58093,8.161,-0.00021,0,0,1,0,0,0,0,false,true,false,0.59999996,4517.38,17.01,0.003347471,0.0033636554,-0.70478153,0.7094084,4.0509996,-625.53094,8.161,0,0.00010999999,-0.00411
104.84167,0,0,92.74,0.000002697398,0.000002697398,0.000002697398,0.99999994,0,0,0,0,0,0,1,0,0,0,0,false,true,false,0,-4518.87,17.01,-0.003347471,0.0033528658,0.7070959,0.70710164,0,620.92096,8.161,-0.00021,0,0,1,0,0,0,0,false,true,false,0.63,4512.1,17.01,0.0033474711,0.0033636556,-0.7047924,0.70939773,4.161,-641.691,8.161,0,0.00010999999,-0.00341
104.85,0,0,92.74,0.000002697398,0.000002697398,0.000002697398,0.99999994,0,0,0,0,0,0,1,0,0,0,0,false,true,false,0,-4513.63,17.01,-0.003347471,0.0033528658,0.7070959,0.70710164,0,637.121,8.161,-0.00021,0,0,1,0,0,0,0,false,true,false,0.66999996,4506.6797,17.01,0.003347471,0.0033636554,-0.7048031,0.709387,4.2609997,-657.71094,8.161,0,0.00010999999,-0.00281
104.875,0,0,92.74,0.000002697398,0.000002697398,0.000002697398,0.99999994,0,0,0,0,0,0,1,0,0,0,0,false,true,false,0,-4497.1,17.01,-0.003347471,0.0033528658,0.7070959,0.70710164,0,684.891,8.161,-0.00030999997,0,0,1,0,0,0,0,false,true,false,0.78999996,4489.64,17.01,0.003347471,0.0033636554,-0.7048193,0.70937085,4.5509996,-704.951,8.161,0.00010999999,0.00010999999,-0.0016099999
104.9,0,0,92.74,0.000002697398,0.000002697398,0.000002697398,0.99999994,0,0,0,0,0,0,1,0,0,0,0,false,true,false,0,-4479.37,17.01,-0.003347471,0.0033528658,0.7070959,0.70710164,0,731.441,8.161,-0.00040999998,0,0,1,0,0,0,0,false,true,false,0.90999997,4471.4297,17.01,0.003347471,0.0033636554,-0.7048355,0.7093548,4.8209996,-751.001,8.161,0.00021,0.00010999999,-0.00081
104.90833,0,0,92.74,0.000002697398,0.000002697398,0.000002697398,0.99999994,0,0,0,0,0,0,1,0,0,0,0,false,true,false,0,-4473.21,17.01,-0.003347471,0.0033528658,0.7070959,0.70710164,0,746.691,8.161,-0.00040999998,0,0,1,0,0,0,0,false,true,false,0.95,4465.1,17.01,0.003347471,0.0033636554,-0.7048355,0.7093548,4.911,-766.08093,8.161,0.00021,0.00010999999,-0.00061
104.925,0,0,92.74,0.000002697398,0.000002697398,0.000002697398,0.99999994,0,0,0,0,0,0,1,0,0,0,0,false,true,false,0,-4460.5,17.01,-0.003347471,0.0033528658,0.7070959,0.70710164,0,776.80096,8.161,-0.00051,0,0,1,0,0,0,0,false,true,false,1.03,4452.07,17.01,0.003347471,0.0033636554,-0.7048355,0.7093548,5.0909996,-795.871,8.161,0.00021,0.00010999999,-0.00040999998
104.933334,0,0,92.74,0.000002697398,0.000002697398,0.000002697398,0.99999994,0,0,0,0,0,0,1,0,0,0,0,false,true,false,0,-4453.96,17.01,-0.003347471,0.0033528658,0.7070959,0.70710164,0,791.66095,8.161,-0.00051,0,0,1,0,0,0,0,false,true,false,1.0699999,4445.37,17.01,0.003347471,0.0033636554,-0.7048355,0.7093548,5.1809998,-810.571,8.161,0.00030999997,0.00010999999,-0.00030999997
104.95,0,0,92.74,0.000002697398,0.000002697398,0.000002697398,0.99999994,0,0,0,0,0,0,1,0,0,0,0,false,true,false,0,-4440.5,17.01,-0.003347471,0.0033528658,0.7070959,0.70710164,0,821.011,8.161,-0.00061,0,0,1,0,0,0,0,false,true,false,1.15,4431.61,17.01,0.003347471,0.0033636554,-0.7048355,0.7093548,5.3609996,-839.59094,8.161,0.00030999997,0.00010999999,-0.00010999999
104.96667,0,0,92.74,0.000002697398,0.000002697398,0.000002697398,0.99999994,0,0,0,0,0,0,1,0,0,0,0,false,true,false,0,-4426.56,17.01,-0.003347471,0.0033528658,0.7070959,0.70710164,0,849.86096,8.161,-0.00061,0,0,1,0,0,0,0,false,true,false,1.25,4417.36,17.01,0.003347471,0.0033636554,-0.7048355,0.7093548,5.541,-868.121,8.161,0.00040999998,0.00010999999,0
104.975,0,0,92.74,0.000002697398,0.000002697398,0.000002697398,0.99999994,0,0,0,0,0,0,1,0,0,0,0,false,true,false,0,-4419.4097,17.01,-0.003347471,0.0033528658,0.7070959,0.70710164,0,864.10095,8.161,-0.00061,0,0,1,0,0,0,0,false,true,false,1.3,4410.06,17.01,0.003347471,0.0033636554,-0.7048355,0.7093548,5.6309996,-882.2009,8.161,0.00040999998,0.00010999999,0
104.99167,0,0,92.74,0.000002697398,0.000002697398,0.000002697398,0.99999994,0,0,0,0,0,0,1,0,0,0,0,false,true,false,0,-4404.75,17.01,-0.003347471,0.0033528658,0.7070959,0.70710164,0,892.21094,8.161,-0.00071,0,0,1,0,0,0,0,false,true,false,1.4,4395.1,17.01,0.003347471,0.0033636554,-0.7048355,0.7093548,5.811,-910.001,8.161,0.00040999998,0.00010999999,0
105,0,0,92.74,0.000002697398,0.000002697398,0.000002697398,0.99999994,0,0,0,0,0,0,1,0,0,0,0,false,true,false,0,-4397.25,17.01,-0.003347471,0.0033528658,0.7070959,0.70710164,0,906.08093,8.161,-0.00071,0,0,1,0,0,0,0,false,true,false,1.4499999,4387.4497,17.01,0.003347471,0.0033636554,-0.7048355,0.7093548,5.891,-923.72095,8.161,0.00051,0.00010999999,0
105.00833,0,0,92.74,0.000002697398,0.000002697398,0.000002697398,0.99999994,0,0,0,0,0,0,1,0,0,0,0,false,true,false,0,-4389.63,17.01,-0.003347471,0.0033528658,0.7070959,0.70710164,0,919.84094,8.161,-0.00071,0,0,1,0,0,0,0,false,true,false,1.5,4379.6797,17.01,0.003347471,0.0033636554,-0.7048355,0.7093548,5.981,-937.321,8.161,0.00051,0.00010999999,0
105.025,0,0,92.74,0.000002697398,0.000002697398,0.000002697398,0.99999994,0,0,0,0,0,0,1,0,0,0,0,false,true,false,0,-4374.05,17.01,-0.003347471,0.0033528658,0.7070959,0.70710164,0,947.001,8.161,-0.00081,0,0,1,0,0,0,0,false,true,false,1.5999999,4363.81,17.01,0.003347471,0.0033636554,-0.7048355,0.7093548,6.141,-964.18097,8.161,0.00051,0.00010999999,0
105.03333,0,0,92.74,0.000002697398,0.000002697398,0.000002697398,0.99999994,0,0,0,0,0,0,1,0,0,0,0,false,true,false,0,-4366.09,17.01,-0.003347471,0.0033528658,0.7070959,0.70710164,0,960.41095,8.161,-0.00081,0,0,1,0,0,0,0,false,true,false,1.65,4355.71,17.01,0.003347471,0.0033636554,-0.7048355,0.7093548,6.2209997,-977.441,8.161,0.00061,0.00010999999,0
105.041664,0,0,92.74,0.000002697398,0.000002697398,0.000002697398,0.99999994,0,0,0,0,0,0,1,0,0,0,0,false,true,false,0,-4358.02,17.01,-0.003347471,0.0033528658,0.7070959,0.70710164,0,973.7009,8.161,-0.00081,0,0,1,0,0,0,0,false,true,false,1.6999999,4347.5,17.01,0.003347471,0.0033636554,-0.7048355,0.7093548,6.3009996,-990.58093,8.161,0.00061,0.00010999999,0
105.058334,0,0,92.74,0.000002697398,0.000002697398,0.000002697398,0.99999994,0,0,0,0,0,0,1,0,0,0,0,false,true,false,0,-4341.55,17.01,-0.003347471,0.0033528658,0.7070959,0.70710164,0,999.941,8.161,-0.00091,0,0,1,0,0,0,0,false,true,false,1.8,4330.75,17.01,0.003347471,0.0033636554,-0.7048355,0.7093548,6.461,-1016.53094,8.161,0.00061,0.00010999999,0
105.075,0,0,92.74,0.000002697398,0.000002697398,0.000002697398,0.99999994,0,0,0,0,0,0,1,0,0,0,0,false,true,false,0,-4324.64,17.01,-0.0033474711,0.0033636556,0.707096,0.70710164,0,1025.731,8.161,-0.00091,0,0,1,0,0,0,0,false,true,false,1.9,4313.56,17.01,0.003347471,0.0033636554,-0.7048355,0.7093548,6.621,-1042.0409,8.161,0.00071,0.00010999999,0
105.083336,0,0,92.74,0.000002697398,0.000002697398,0.000002697398,0.99999994,0,0,0,0,0,0,1,0,0,0,0,true,false,false,0,-4316.02,17.01,-0.003347471,0.00336905,0.7070959,0.7071016,0,1038.4609,8.161,-0.00091,0,0,1,0,0,0,0,false,true,false,1.9599999,4304.81,17.01,0.003347471,0.0033636554,-0.7048355,0.7093548,6.7009997,-1054.631,8.161,0.00071,0.00010999999,0
105.10833,0,0,92.74,0.000002697398,0.000002697398,0.000002697398,0.99999994,0,0,0,0,0,0,0,0,0,0,0,true,false,false,0,-4289.87,24.71,-0.003347471,0.003374445,0.7070959,0.7071016,0.011,1054.751,311.881,0,0,0,1,0,0,0,0,false,true,false,2.1399999,4277.9297,17.01,0.003347471,0.0033636554,-0.7048355,0.7093548,6.941,-1091.761,8.161,0.00071,0.00010999999,0
105.11667,0,0,92.74,0.000002697398,0.000002697398,0.000002697398,0.99999994,0,0,0,0,0,0,0,0,0,0,0,true,false,false,0,-4281.08,27.34,-0.003347471,0.003374445,0.7070959,0.7071016,0.011,1050.491,315.901,-0.00021,0,0,1,-0.0078125,0,0,0,false,true,false,2.2,4268.76,17.01,0.003347471,0.0033636554,-0.7048355,0.7093548,6.921,-1103.9209,8.161,0.00081,0.00010999999,-0.00291
105.13333,0,0,92.74,0.000002697398,0.000002697398,0.000002697398,0.99999994,0,0,0,0,0,0,0,0,0,0,0,false,false,false,0,-4263.6,32.71,-0.003347471,0.003374445,0.7070959,0.7071016,0.011,1046.341,323.941,-0.00040999998,0,0,1,-0.0078125,0,0,0,false,true,false,2.32,4250.12,17.01,0.003347471,0.00336905,-0.7048625,0.709328,6.9009995,-1127.9409,8.161,0.00081,0.00010999999,-0.00731
105.15,0,0,92.74,0.000002697398,0.000002697398,0.000002697398,0.99999994,0,0,0,0,0,0,0,0,0,0,0,false,false,false,0,-4246.1597,37.969997,-0.003347471,0.003374445,0.7070959,0.7071016,0.011,1046.341,313.101,-0.00040999998,0,0,1,-0.0078125,0,0,0,false,true,false,2.44,4231.08,17.01,0.003347471,0.00336905,-0.70491105,0.7092797,6.8809996,-1151.5409,8.161,0.00081,0,-0.01041
105.166664,0,0,92.74,0.000002697398,0.000002697398,0.000002697398,0.99999994,0,0,0,0,0,0,0,0,0,0,0,false,false,false,0,-4228.7197,43.05,-0.003347471,0.003374445,0.7070959,0.7071016,0.011,1046.341,302.261,-0.00040999998,0,0,1,-0.0078125,0,0,0,false,true,false,2.56,4211.6597,17.01,0.003347471,0.00336905,-0.7049758,0.7092154,6.851,-1174.741,8.161,0.00081,0,-0.012509999
105.175,0,0,92.74,0.000002697398,0.000002697398,0.000002697398,0.99999994,0,0,0,0,0,0,0,0,0,0,0,false,false,false,0,-4220,45.52,-0.003347471,0.003374445,0.7070959,0.7071016,0.011,1046.341,296.841,-0.00040999998,0,0,1,0,0,0,0,false,true,false,2.62,4201.8,17.01,0.003347471,0.00336905,-0.7050135,0.70917785,6.9309998,-1186.1909,8.161,0.00081,0,-0.01041
105.2,0,0,92.74,0.000002697398,0.000002697398,0.000002697398,0.99999994,0,0,0,0,0,0,0,0,-1,0,0,true,false,false,0,-4189.67,52.67,-0.008850205,0.008877137,0.70704734,0.70705503,0.011,1546.341,280.581,-1.86701,0,0,1,0,0,0,0,false,true,false,2.8,4171.6597,17.01,0.003347471,0.00336905,-0.70509446,0.7090974,7.061,-1219.9609,8.161,0.00081,0,-0.00611
105.208336,0,0,92.74,0.000002697398,0.000002697398,0.000002697398,0.99999994,0,0,0,0,0,0,0,0,-1,0,0,true,false,false,0,-4176.78,54.96,-0.019715367,0.01974234,0.70682615,0.70683676,0.011,1546.341,275.161,-3.68891,0,0,1,0,0,0,0,false,true,false,2.86,4161.42,17.01,0.0033474704,0.0033690496,-0.70511055,0.7090813,7.081,-1231.031,8.161,0.00091,0,-0.00511
105.225,0,0,92.74,0.000002697398,0.000002697398,0.000002697398,0.99999994,0,0,0,0,0,0,0,0,0,0,0,false,false,false,0,-4151,59.41,-0.056982744,0.05700976,0.7048031,0.70480865,0.011,1546.341,264.321,-5.50001,0,0,1,0,0,0,0,false,true,false,2.98,4140.67,17.01,0.0033582605,0.00336905,-0.7051376,0.7090544,7.121,-1252.881,8.161,0.00091,0,-0.00361
105.23333,0,0,92.74,0.000002697398,0.000002697398,0.000002697398,0.99999994,0,0,0,0,0,0,0,0,0,0,0,false,false,false,0,-4138.11,61.57,-0.078200564,0.07822758,0.7027639,0.70277154,0.011,1546.341,258.901,-5.50001,0,0,1,0,0,0,0,false,true,false,3.04,4130.1597,17.01,0.0033636554,0.00336905,-0.7051484,0.7090437,7.141,-1263.6609,8.161,0.00091,0,-0.00301
105.24167,0,0,92.74,0.000002697398,0.000002697398,0.000002697398,0.99999994,0,0,0,0,0,0,0,0,0,0,0,false,false,false,0,-4125.2197,63.68,-0.09934825,0.09937518,0.7000881,0.70009357,0.011,1546.341,253.481,-5.50001,0,0,1,0,0,0,0,false,true,false,3.1,4119.56,17.01,0.00336905,0.00336905,-0.7051592,0.7090329,7.161,-1274.351,8.161,0.00081,0,-0.00251
105.25833,0,0,92.74,0.000002697398,0.000002697398,0.000002697398,0.99999994,0,0,0,0,0,0,0,0,0,0,0,false,false,false,0,-4099.44,67.77,-0.1413523,0.14137922,0.692832,0.6928312,0.011,1546.341,242.641,-5.49991,0,0,1,0,0,0,0,false,true,false,3.22,4098.09,17.01,0.0033690496,0.0033690496,-0.7051699,0.70902216,7.2009997,-1295.4609,8.161,0.00071,0.00010999999,-0.0017099999
105.26667,0,0,92.74,0.000002697398,0.000002697398,0.000002697398,0.99999994,0,0,0,0,0,0,0,0,0,0,0,false,false,false,0,-4086.5498,69.75,-0.1621709,0.16219783,0.68825454,0.6882572,0.011,1546.341,237.22101,-5.49991,0,0,1,0,0,0,0,false,true,false,3.28,4087.23,17.01,0.00336905,0.00336905,-0.7051754,0.7090168,7.231,-1305.881,8.161,0.00071,0.00010999999,-0.0014099999
105.28333,0,0,92.74,0.000002697398,0.000002697398,0.000002697398,0.99999994,0,0,0,0,0,0,0,0,0,0,0,false,false,false,0,-4060.77,73.57,-0.2033495,0.20337649,0.67723024,0.6772341,0.011,1546.341,226.381,-5.49991,0,0,1,0,0,0,0,false,true,false,3.3999999,4065.24,17.01,0.00336905,0.00336905,-0.7051862,0.7090061,7.291,-1326.4509,8.161,0.00071,0.00010999999,-0.0010099999
105.291664,0,0,92.74,0.000002697398,0.000002697398,0.000002697398,0.99999994,0,0,0,0,0,0,0,0,0,0,0,false,false,false,0,-4047.88,75.409996,-0.22366641,0.22369339,0.67079425,0.67079777,0.011,1546.341,220.961,-5.49991,0,0,1,0,0,0,0,false,true,false,3.46,4054.1199,17.01,0.00336905,0.00336905,-0.70519155,0.70900077,7.3209996,-1336.601,8.161,0.00071,0.00010999999,-0.00081
105.308334,0,0,92.74,0.000002697398,0.000002697398,0.000002697398,0.99999994,0,0,0,0,0,0,0,0,0,0,0,false,false,false,0,-4022.0999,78.96,-0.26367974,0.2637067,0.6560987,0.65609914,0.011,1546.341,210.121,-5.49991,0,0,1,0,0,0,0,false,true,false,3.58,4031.6199,17.01,0.00336905,0.00336905,-0.70519155,0.70900077,7.3809996,-1356.651,8.161,0.00071,0.00010999999,-0.00051
105.316666,0,0,92.74,0.000002697398,0.000002697398,0.000002697398,0.99999994,0,0,0,0,0,0,0,0,0,0,0,false,false,false,0,-4009.21,80.67,-0.28333312,0.2833601,0.6478501,0.6478577,0.011,1546.341,204.701,-5.49991,0,0,1,0,0,0,0,false,true,false,3.6399999,4020.25,17.01,0.00336905,0.00336905,-0.70519155,0.70900077,7.4209995,-1366.5409,8.161,0.00071,0.00010999999,-0.00040999998
105.325,0,0,92.74,0.000002697398,0.000002697398,0.000002697398,0.99999994,0,0,0,0,0,0,0,0,0,0,0,false,false,false,0,-3996.3198,82.33,-0.30273283,0.30275983,0.63901335,0.63902354,0.011,1546.341,199.281,-5.49991,0,0,1,0,0,0,0,false,true,false,3.6999998,4008.7898,17.01,0.00336905,0.00336905,-0.70519155,0.70900077,7.461,-1376.351,8.161,0.00071,0.00010999999,-0.00030999997
105.34167,0,0,92.74,0.000002697398,0.000002697398,0.000002697398,0.99999994,0,0,0,0,0,0,0,0,0,0,0,false,false,false,0,-3970.5398,85.52,-0.34068537,0.3407123,0.6196136,0.6196188,0.011,1546.341,188.44101,-5.49991,0,0,1,0,0,0,0,false,true,false,3.82,3985.63,17.01,0.00336905,0.00336905,-0.70519155,0.70900077,7.541,-1395.7109,8.161,0.00071,0.00010999999,-0.00010999999
105.35,0,0,92.74,0.000002697398,0.000002697398,0.000002697398,0.99999994,0,0,0,0,0,0,0,0,0,0,0,false,false,false,0,-3957.65,86.5,-0.35920575,0.35923272,0.60906136,0.6090707,0.011,1546.341,117.061,-5.49991,0,0,1,0,0,0,0,false,true,false,3.8799999,3973.93,17.01,0.00336905,0.00336905,-0.70519155,0.70900077,7.581,-1404.781,8.161,0.00071,0.00010999999,0
105.35833,0,0,92.74,0.000002697398,0.000002697398,0.000002697398,0.99999994,0,0,0,0,0,0,0,0,0,0,0,false,false,false,0,-3944.76,87.09,-0.37740248,0.37742946,0.59795874,0.5979628,0.011,1546.341,70.671,-5.50001,0,0,1,0,0,0,0,false,true,false,3.9399998,3962.15,17.01,0.00336905,0.00336905,-0.70519155,0.70900077,7.621,-1413.0409,8.161,0.00081,0.00010999999,0
105.36667,0,0,92.74,0.000002697398,0.000002697398,0.000002697398,0.99999994,0,0,0,0,0,0,0,0,0,0,0,false,false,false,0,-3931.8699,87.43,-0.39525396,0.39528093,0.5863114,0.5863157,0.011,1546.341,40.510998,-5.50001,0,0,1,0,0,0,0,false,true,false,4,3950.3098,17.01,0.00336905,0.003374445,-0.70519155,0.7090007,7.661,-1421.3009,8.161,0.00091,0.00010999999,0
105.38333,0,0,92.74,0.000002697398,0.000002697398,0.000002697398,0.99999994,0,0,0,0,0,0,0,0,0,0,0,false,false,false,0,-3906.0898,87.67,-0.4298617,0.42988864,0.56143045,0.561436,0.011,1546.341,8.1710005,-5.49991,0,0,1,0,0,0,0,false,true,false,4.12,3926.42,17.01,0.00336905,0.0033852346,-0.70519155,0.70900065,7.7409997,-1437.8209,8.161,0.00091,0.00010999999,0
105.39167,0,0,92.74,0.000002697398,0.000002697398,0.000002697398,0.99999994,0,0,0,0,0,0,0,0,0,0,0,false,false,false,0,-3893.2,87.67,-0.4465856,0.4466126,0.54821855,0.54822874,0.011,1546.341,-0.100999996,-5.49991,0,0,1,0,0,0,0,false,true,false,4.18,3914.3699,17.01,0.0033690496,0.0033906288,-0.7051915,0.7090006,7.7809997,-1446.0809,8.161,0.00081,0,0
105.4,0,0,92.74,0.000002697398,0.000002697398,0.000002697398,0.99999994,0,0,0,0,0,0,0,0,0,0,0,false,false,false,0,-3880.3098,87.619995,-0.46290496,0.46293193,0.5345103,0.53452,0.011,1546.341,-5.481,-5.50001,0,0,1,0,0,0,0,false,true,false,4.25,3902.25,17.01,0.0033690496,0.0033906288,-0.7051915,0.7090006,7.8209996,-1454.341,8.161,0.00071,0,0
105.40833,0,0,92.74,0.000002697398,0.000002697398,0.000002697398,0.99999994,0,0,0,0,0,0,0,0,0,0,0,false,false,false,0,-3867.42,87.549995,-0.47880352,0.4788305,0.5203166,0.5203259,0.011,1546.341,-8.971001,-5.49991,0,0,1,0,0,0,0,false,true,false,4.3199997,3890.0598,17.01,0.0033690496,0.0033906288,-0.7051915,0.7090006,7.8609996,-1462.601,8.161,0.00061,0,0
105.416664,0,0,92.74,0.000002697398,0.000002697398,0.000002697398,0.99999994,0,0,0,0,0,0,0,0,0,0,0,false,false,false,0,-3854.53,87.46,-0.49427038,0.49429736,0.5056481,0.5056548,0.011,1546.341,-11.241,-5.49991,0,0,1,0,0,0,0,false,true,false,4.39,3877.7998,17.01,0.0033690496,0.0033906288,-0.7051915,0.7090006,7.9009995,-1470.861,8.161,0.00061,0,0
105.425,0,0,92.74,0.000002697398,0.000002697398,0.000002697398,0.99999994,0,0,0,0,0,0,0,0,0,0,0,false,false,false,0,-3841.64,87.35,-0.50928414,0.50931567,0.490521,0.4905264,0.011,1546.341,-12.721,-5.49991,0,0,1,0,0,0,0,false,true,false,4.46,3865.47,17.01,0.0033690496,0.0033906288,-0.7051915,0.7090006,7.941,-1479.121,8.161,0.00061,0,0
105.441666,0,0,92.74,0.000002697398,0.000002697398,0.000002697398,0.99999994,0,0,0,0,0,0,0,0,0,0,0,false,false,false,0,-3815.8599,87.119995,-0.5379145,0.5379512,0.45893982,0.4589452,0.011,1546.341,-14.301,-5.49991,0,0,1,0,0,0,0,false,true,false,4.6,3840.6199,17.01,0.0033690496,0.0033906288,-0.7051915,0.7090006,8.031,-1495.641,8.161,0.00061,0,0
105.45,0,0,92.74,0.000002697398,0.000002697398,0.000002697398,0.99999994,0,0,0,0,0,0,0,0,0,0,0,false,false,false,0,-3802.97,87,-0.5515041,0.551538,0.44251797,0.44252336,0.011,1546.341,-14.711,-5.49991,0,0,1,0,0,0,0,false,true,false,4.67,3828.0898,17.01,0.0033690496,0.0033906288,-0.7051915,0.7090006,8.071,-1503.901,8.161,0.00061,0,0
105.458336,0,0,92.74,0.000002697398,0.000002697398,0.000002697398,0.99999994,0,0,0,0,0,0,0,0,0,0,0,false,false,false,0,-3790.0798,86.88,-0.56459177,0.564628,0.42569143,0.42569682,0.011,1546.341,-14.971,-5.49991,0,0,1,0,0,0,0,false,true,false,4.74,3815.49,17.01,0.0033690496,0.0033906288,-0.7051915,0.7090006,8.121,-1512.1609,8.161,0.00061,0,0
105.475,0,0,92.74,0.000002697398,0.000002697398,0.000002697398,0.99999994,0,0,0,0,0,0,0,0,0,0,0,false,false,false,0,-3764.2998,86.619995,-0.58921915,0.58924544,0.39090034,0.39090574,0.011,1546.341,-15.251,-5.49991,0,0,1,0,0,0,0,false,true,false,4.88,3790.0798,17.01,0.0033690496,0.0033906288,-0.7051915,0.7090006,8.211,-1528.6809,8.161,0.00061,0,0
105.48333,0,0,92.74,0.000002697398,0.000002697398,0.000002697398,0.99999994,0,0,0,0,0,0,0,0,0,0,0,false,false,false,0,-3751.41,86.49,-0.6007317,0.6007621,0.37296256,0.37296796,0.011,1546.341,-15.321,-5.49991,0,0,1,0,0,0,0,false,true,false,4.95,3777.27,17.01,0.0033690496,0.0033906288,-0.7051915,0.7090006,8.251,-1536.9409,8.161,0.00061,0,0
105.49167,0,0,92.74,0.000002697398,0.000002697398,0.000002697398,0.99999994,0,0,0,0,0,0,0,0,0,0,0,false,false,false,0,-3738.52,86.36,-0.61169934,0.61173284,0.35468492,0.3546903,0.011,1546.341,-15.371,-5.49991,0,0,1,0,0,0,0,false,true,false,5.02,3764.39,17.01,0.0033690496,0.0033906288,-0.7051915,0.7090006,8.301001,-1545.2009,8.161,0.00061,0,0
105.5,0,0,92.74,0.000002697398,0.000002697398,0.000002697398,0.99999994,0,0,0,0,0,0,0,0,0,0,0,false,false,false,0,-3725.63,86.229996,-0.6221114,0.6221431,0.33608896,0.33609435,0.011,1546.341,-15.401,-5.49991,0,0,1,-0.0078125,0,0,0,false,true,false,5.0899997,3751.44,17.01,0.0033690496,0.0033906288,-0.7051915,0.7090006,8.261001,-1553.4609,8.161,0.00061,0,-0.00241
105.50833,0,0,92.74,0.000002697398,0.000002697398,0.000002697398,0.99999994,0,0,0,0,0,0,0,0,0,0,0,false,false,false,0,-3712.74,86.1,-0.63195693,0.6319918,0.31718555,0.31719095,0.011,1546.341,-15.4210005,-5.49991,0,0,1,-0.0078125,0,0,0,false,true,false,5.16,3738.43,17.01,0.00336905,0.0033906293,-0.705197,0.7089952,8.231,-1561.721,8.161,0.00061,0,-0.00441
105.51667,0,0,92.74,0.000002697398,0.000002697398,0.000002697398,0.99999994,0,0,0,0,0,0,0,0,0,0,0,false,false,false,0,-3699.8499,85.97,-0.6412306,0.64126414,0.29799074,0.29800153,0.011,1546.341,-15.441,-5.49991,0,0,1,-0.0078125,0,0,0,false,true,false,5.23,3725.3499,17.01,0.00336905,0.0033906293,-0.70520777,0.7089845,8.201,-1569.981,8.161,0.00061,0,-0.00611
105.525,0,0,92.74,0.000002697398,0.000002697398,0.000002697398,0.99999994,0,0,0,0,0,0,0,0,0,0,0,false,false,false,0,-3686.96,85.84,-0.64992166,0.6499553,0.2785263,0.2785371,0.011,1546.341,-15.451,-5.49991,0,0,1,-0.0078125,0,0,0,false,true,false,5.2999997,3712.2,17.01,0.00336905,0.0033906293,-0.7052239,0.7089684,8.1710005,-1578.241,8.161,0.00061,0,-0.00751
105.541664,0,0,92.74,0.000002697398,0.000002697398,0.000002697398,0.99999994,0,0,0,0,0,0,0,0,0,0,0,false,false,false,0,-3661.18,85.58,-0.6655235,0.66555744,0.23885824,0.23886903,0.011,1546.341,-15.451,-5.49991,0,0,1,0,0,0,0,false,true,false,5.44,3685.69,17.01,0.00336905,0.0033906293,-0.7052617,0.70893085,8.271,-1594.761,8.161,0.00061,0,-0.00511
105.55,0,0,92.74,0.000002697398,0.000002697398,0.000002697398,0.99999994,0,0,0,0,0,0,0,0,0,0,0,false,false,false,0,-3648.29,85.45,-0.67241806,0.6724555,0.21869239,0.21870318,0.011,1546.341,-15.451,-5.49991,0,0,1,0,0,0,0,false,true,false,5.5099998,3672.3298,17.01,0.00336905,0.0033906293,-0.70527786,0.70891476,8.301001,-1603.021,8.161,0.00061,0,-0.00421
105.558334,0,0,92.74,0.000002697398,0.000002697398,0.000002697398,0.99999994,0,0,0,0,0,0,0,0,0,0,0,false,false,false,0,-3635.4,85.32,-0.67870295,0.678742,0.19832695,0.19833773,0.011,1546.341,-15.451,-5.49991,0,0,1,0,0,0,0,false,true,false,5.58,3658.9,17.01,0.00336905,0.0033906293,-0.70528865,0.708904,8.321,-1611.2809,8.161,0.00061,0,-0.00351
105.566666,0,0,92.74,0.000002697398,0.000002697398,0.000002697398,0.99999994,0,0,0,0,0,0,0,0,0,0,0,false,false,false,0,-3622.51,85.189995,-0.68437296,0.6844118,0.17777808,0.17778888,0.011,1546.341,-15.451,-5.50001,0,0,1,0,0,0,0,false,true,false,5.65,3645.4,17.01,0.00336905,0.0033906293,-0.70529944,0.7088933,8.341001,-1619.5409,8.161,0.00061,0,-0.00291
105.575,0,0,92.74,0.000002697398,0.000002697398,0.000002697398,0.99999994,0,0,0,0,0,0,0,0,0,0,0,false,false,false,0,-3609.6199,85.06,-0.6894225,0.6894583,0.15706737,0.15707816,0.011,1546.341,-15.451,-5.50001,0,0,1,0,0,0,0,false,true,false,5.72,3631.8298,17.01,0.00336905,0.0033906293,-0.7053102,0.7088826,8.351,-1627.8009,8.161,0.00061,0,-0.00241
105.583336,0,0,92.74,0.000002697398,0.000002697398,0.000002697398,0.99999994,0,0,0,0,0,0,0,0,0,0,0,false,false,false,0,-3596.73,84.93,-0.69384634,0.6938764,0.13621642,0.1362272,0.011,1546.341,-15.451,-5.50001,0,0,1,0,0,0,0,false,true,false,5.79,3618.2,17.01,0.00336905,0.0033906293,-0.70531565,0.70887715,8.361,-1636.0609,8.161,0.00061,0,-0.00201
105.59167,0,0,92.74,0.000002697398,0.000002697398,0.000002697398,0.99999994,0,0,0,0,0,0,0,0,0,0,0,false,false,false,0,-3583.8398,84.799995,-0.6976388,0.69766486,0.115241356,0.11525215,0.011,1546.341,-15.451,-5.50001,0,0,1,0,0,0,0,false,true,false,5.8599997,3604.5,17.01,0.0033690496,0.0033906288,-0.70532095,0.7088718,8.371,-1644.3209,8.161,0.00061,0,-0.0017099999
105.6,0,0,92.74,0.000002697398,0.000002697398,0.000002697398,0.99999994,0,0,0,0,0,0,0,0,0,0,0,false,false,false,0,-3570.95,84.67,-0.70079476,0.7008216,0.094163805,0.09417459,0.011,1546.341,-15.451,-5.50001,0,0,1,0,0,0,0,false,true,false,5.93,3590.73,17.01,0.00336905,0.0033906293,-0.70532644,0.7088664,8.3810005,-1652.5809,8.161,0.00061,0,-0.0014099999
105.60833,0,0,92.74,0.000002697398,0.000002697398,0.000002697398,0.99999994,0,0,0,0,0,0,0,0,0,0,0,false,false,false,0,-3558.0598,84.54,-0.7033142,0.7033416,0.07299993,0.07301073,0.011,1546.341,-15.451,-5.50001,0,0,1,0,0,0,0,false,true,false,6,3576.89,17.01,0.00336905,0.0033906293,-0.7053318,0.7088611,8.401,-1660.841,8.161,0.00061,0,-0.0012099999
105.625,0,0,92.74,0.000002697398,0.000002697398,0.000002697398,0.99999994,0,0,0,0,0,0,0,0,0,0,0,false,false,false,0,-3532.28,84.28,-0.7064378,0.70646,0.030488776,0.030499566,0.011,1546.341,-15.451,-5.50001,0,0,1,0,0,0,0,false,true,false,6.14,3549,17.01,0.00336905,0.0033906293,-0.7053426,0.7088504,8.441,-1677.361,8.161,0.00061,0,-0.00081
105.63333,0,0,92.74,0.000002697398,0.000002697398,0.000002697398,0.99999994,0,0,0,0,0,0,0,0,0,0,0,false,false,false,0,-3519.39,84.15,-0.70703655,0.7070574,0.00918464,0.009195429,0.011,1546.341,-15.451,-5.50001,0,0,1,0,0,0,0,false,true,false,6.21,3534.95,17.01,0.00336905,0.0033906293,-0.7053426,0.7088504,8.451,-1685.621,8.161,0.00061,0,-0.00071
105.64167,0,0,92.74,0.000002697398,0.000002697398,0.000002697398,0.99999994,0,0,0,0,0,0,0,0,0,0,0,false,false,false,0,-3506.5,84.02,-0.70699346,0.7070121,-0.012130242,-0.0121194525,0.011,1546.341,-15.451,-5.49991,0,0,1,-0.0078125,0,0,0,false,true,false,6.2799997,3520.8298,17.01,0.00336905,0.0033906293,-0.7053426,0.7088504,8.391,-1693.881,8.161,0.00061,0,-0.00291
105.65,0,0,92.74,0.000002697398,0.000002697398,0.000002697398,0.99999994,0,0,0,0,0,0,0,0,0,0,0,false,false,false,0,-3493.6099,83.89,-0.70630836,0.7063239,-0.033434376,-0.033423588,0.011,1546.341,-15.451,-5.49991,0,0,1,0,0,0,0,false,true,false,6.35,3506.65,17.01,0.00336905,0.0033906293,-0.7053534,0.7088396,8.4210005,-1702.141,8.161,0.00061,0,-0.00241
105.65833,0,0,92.74,0.000002697398,0.000002697398,0.000002697398,0.99999994,0,0,0,0,0,0,0,0,0,0,0,false,false,false,0,-3480.72,83.759995,-0.70498115,0.7049944,-0.05470614,-0.054695353,0.011,1546.341,-15.451,-5.49991,0,0,1,-0.0078125,0,0,0,false,true,false,6.42,3492.4,17.01,0.00336905,0.0033906293,-0.7053588,0.70883423,8.361,-1710.4009,8.161,0.00061,0,-0.0043099998
105.666664,0,0,92.74,0.000002697398,0.000002697398,0.000002697398,0.99999994,0,0,0,0,0,0,0,0,0,0,0,false,false,false,0,-3467.8298,83.63,-0.70301205,0.7030256,-0.07592935,-0.07591856,0.011,1546.341,-15.451,-5.49991,0,0,1,0,0,0,0,false,true,false,6.49,3478.0798,17.01,0.0033690503,0.0033906295,-0.70536965,0.7088235,8.401,-1718.6609,8.161,0.00061,0,-0.00361
105.675,0,0,92.74,0.000002697398,0.000002697398,0.000002697398,0.99999994,0,0,0,0,0,0,0,0,0,0,0,false,false,false,0,-3454.94,83.5,-0.7004063,0.70041627,-0.097082436,-0.09707164,0.011,1546.341,-15.451,-5.49991,0,0,1,0,0,0,0,false,true,false,6.56,3463.69,17.01,0.0033690496,0.0033906288,-0.7053803,0.7088127,8.431,-1726.9209,8.161,0.00061,0,-0.00301
105.691666,0,0,92.74,0.000002697398,0.000002697398,0.000002697398,0.99999994,0,0,0,0,0,0,0,0,0,0,0,false,false,false,0,-3429.16,83.24,-0.6932852,0.6932938,-0.13910806,-0.13909727,0.011,1546.341,-15.451,-5.49991,0,0,1,0,0,0,0,false,true,false,6.7,3434.7,17.01,0.00336905,0.0033906293,-0.70539653,0.7087967,8.471001,-1743.4409,8.161,0.00061,0,-0.00211
105.7,0,0,92.74,0.000002697398,0.000002697398,0.000002697398,0.99999994,0,0,0,0,0,0,0,0,0,0,0,false,false,false,0,-3416.27,83.11,-0.6887751,0.6887878,-0.1599428,-0.15993202,0.011,1546.341,-15.451,-5.49991,0,0,1,0,0,0,0,false,true,false,6.77,3420.0999,17.01,0.00336905,0.0033906293,-0.70540196,0.70879126,8.491,-1751.7009,8.161,0.00061,0,-0.0017099999
105.71667,0,0,92.74,0.000002697398,0.000002697398,0.000002697398,0.99999994,0,0,0,0,0,0,0,0,0,0,0,false,false,false,0,-3390.49,82.85,-0.67788297,0.6779035,-0.20115383,-0.20114304,0.011,1546.341,-15.451,-5.49991,0,0,1,0,0,0,0,false,true,false,6.91,3390.69,17.01,0.00336905,0.0033906293,-0.70541275,0.7087805,8.521,-1768.221,8.161,0.00061,0,-0.0012099999
105.725,0,0,92.74,0.000002697398,0.000002697398,0.000002697398,0.99999994,0,0,0,0,0,0,0,0,0,0,0,false,false,false,0,-3377.5999,82.72,-0.6715117,0.6715348,-0.22149229,-0.2214815,0.011,1546.341,-15.451,-5.49991,0,0,1,0,0,0,0,false,true,false,6.98,3375.89,17.01,0.00336905,0.0033906293,-0.7054181,0.7087752,8.541,-1776.481,8.161,0.00061,0,-0.0010099999
105.73333,0,0,92.74,0.000002697398,0.000002697398,0.000002697398,0.99999994,0,0,0,0,0,0,0,0,0,0,0,false,false,false,0,-3364.71,82.59,-0.6645308,0.6645545,-0.24163115,-0.24162036,0.011,1546.341,-15.451,-5.49991,0,0,1,0,0,0,0,false,true,false,7.0499997,3361.02,17.01,0.00336905,0.0033906293,-0.70542353,0.7087698,8.551001,-1784.741,8.161,0.00061,0,-0.00081
105.74167,0,0,92.74,0.000002697398,0.000002697398,0.000002697398,0.99999994,0,0,0,0,0,0,0,0,0,0,0,false,false,false,0,-3351.8198,82.46,-0.6569457,0.656972,-0.26154882,-0.26153803,0.011,1546.341,-15.451,-5.49991,0,0,1,0,0,0,0,false,true,false,7.12,3346.0798,17.01,0.00336905,0.0033906293,-0.70542353,0.7087698,8.571,-1793.001,8.161,0.00061,0,-0.00061
105.75,0,0,92.74,0.000002697398,0.000002697398,0.000002697398,0.99999994,0,0,0,0,0,0,0,0,0,0,0,false,false,false,0,-3338.93,82.33,-0.64876175,0.64879465,-0.28122908,-0.2812183,0.011,1546.341,-15.451,-5.49991,0,0,1,0,0,0,0,false,true,false,7.19,3331.0698,17.01,0.00336905,0.0033906293,-0.70542353,0.7087698,8.591001,-1801.261,8.161,0.00061,0,-0.00051
105.75833,0,0,92.74,0.000002697398,0.000002697398,0.000002697398,0.99999994,0,0,0,0,0,0,0,0,0,0,0,false,false,false,0,-3326.04,82.2,-0.6399898,0.6400246,-0.3006558,-0.30064502,0.011,1546.341,-15.451,-5.49991,0,0,1,0,0,0,0,false,true,false,7.2599998,3315.99,17.01,0.00336905,0.0033906293,-0.70542353,0.7087698,8.611,-1809.521,8.161,0.00061,0,-0.00040999998
105.76667,0,0,92.74,0.000002697398,0.000002697398,0.000002697398,0.99999994,0,0,0,0,0,0,0,0,0,0,0,false,false,false,0,-3313.15,82.07,-0.6306352,0.6306761,-0.31980744,-0.31979665,0.011,1546.341,-15.451,-5.49991,0,0,1,0,0,0,0,false,true,false,7.33,3300.8398,17.01,0.00336905,0.0033906293,-0.70542353,0.7087698,8.641,-1817.7809,8.161,0.00061,0,-0.00030999997
105.775,0,0,92.74,0.000002697398,0.000002697398,0.000002697398,0.99999994,0,0,0,0,0,0,0,0,0,0,0,false,false,false,0,-3300.26,81.939995,-0.6207087,0.6207516,-0.3386731,-0.33865693,0.011,1546.341,-15.451,-5.49991,0,0,1,0,0,0,0,false,true,false,7.3999996,3285.6199,17.01,0.00336905,0.0033906293,-0.70542353,0.7087698,8.6710005,-1826.0409,8.161,0.00061,0,-0.00021
105.78333,0,0,92.74,0.000002697398,0.000002697398,0.000002697398,0.99999994,0,0,0,0,0,0,0,0,0,0,0,false,false,false,0,-3287.3699,81.81,-0.6102212,0.61026293,-0.35722587,-0.35720968,0.011,1546.341,-15.451,-5.49991,0,0,1,0,0,0,0,false,true,false,7.47,3270.3298,17.01,0.00336905,0.0033906293,-0.70542353,0.7087698,8.701,-1834.3009,8.161,0.00061,0,-0.00010999999
105.791664,0,0,92.74,0.000002697398,0.000002697398,0.000002697398,0.99999994,0,0,0,0,0,0,0,0,0,0,0,false,false,false,0,-3274.48,81.68,-0.5991781,0.5992202,-0.375455,-0.3754388,0.011,1546.341,-15.451,-5.49991,0,0,1,0,0,0,0,false,true,false,7.54,3254.98,17.01,0.00336905,0.0033906293,-0.70542353,0.7087698,8.731,-1842.5609,8.161,0.00061,0,0
105.8,0,0,92.74,0.000002697398,0.000002697398,0.000002697398,0.99999994,0,0,0,0,0,0,0,0,0,0,0,false,false,false,0,-3261.5898,81.549995,-0.58758986,0.58763194,-0.39334416,-0.39332798,0.011,1546.341,-15.451,-5.49991,0,0,1,0,0,0,0,false,true,false,7.6099997,3239.5598,17.01,0.00336905,0.0033906293,-0.70542353,0.7087698,8.761001,-1850.8209,8.161,0.00061,0,0
105.808334,0,0,92.74,0.000002697398,0.000002697398,0.000002697398,0.99999994,0,0,0,0,0,0,0,0,0,0,0,false,false,false,0,-3248.7,81.42,-0.57546777,0.5755081,-0.41087732,-0.41086113,0.011,1546.341,-15.451,-5.50001,0,0,1,-0.0078125,0,0,0,false,true,false,7.68,3224.0698,17.01,0.00336905,0.0033906293,-0.70542353,0.7087698,8.711,-1859.0809,8.161,0.00061,0,-0.0023100001
105.825,0,0,92.74,0.000002697398,0.000002697398,0.000002697398,0.99999994,0,0,0,0,0,0,0,0,0,0,0,false,false,false,0,-3222.92,81.159996,-0.5496644,0.5497044,-0.44481072,-0.44478914,0.011,1546.341,-15.451,-5.50001,0,0,1,-0.0078125,0,0,0,false,true,false,7.8199997,3192.88,17.01,0.00336905,0.0033906293,-0.70543975,0.70875365,8.6310005,-1875.601,8.161,0.00061,0,-0.00581
105.833336,0,0,92.74,0.000002697398,0.000002697398,0.000002697398,0.99999994,0,0,0,0,0,0,0,0,0,0,0,false,false,false,0,-3210.03,81.03,-0.53601015,0.5360424,-0.46117866,-0.46115708,0.011,1546.341,-15.451,-5.50001,0,0,1,-0.0078125,0,0,0,false,true,false,7.89,3177.18,17.01,0.00336905,0.0033906293,-0.7054559,0.7087376,8.591001,-1883.861,8.161,0.00061,0,-0.00711
105.84167,0,0,92.74,0.000002697398,0.000002697398,0.000002697398,0.99999994,0,0,0,0,0,0,0,0,0,0,0,false,false,false,0,-3197.14,80.9,-0.5218649,0.52189994,-0.47712567,-0.4771041,0.011,1546.341,-15.451,-5.50001,0,0,1,-0.0078125,0,0,0,false,true,false,7.96,3161.41,17.01,0.00336905,0.0033906293,-0.7054775,0.7087161,8.551001,-1892.121,8.161,0.00061,0,-0.00821
105.85,0,0,92.74,0.000002697398,0.000002697398,0.000002697398,0.99999994,0,0,0,0,0,0,0,0,0,0,0,false,false,false,0,-3184.25,80.77,-0.507245,0.5072801,-0.49264118,-0.4926196,0.011,1546.341,-15.451,-5.49991,0,0,1,-0.0078125,0,0,0,false,true,false,8.03,3145.5698,17.01,0.00336905,0.0033906293,-0.70549905,0.70869464,8.501,-1900.381,8.161,0.00061,0,-0.00921
105.85833,0,0,92.74,0.000002697398,0.000002697398,0.000002697398,0.99999994,0,0,0,0,0,0,0,0,0,0,0,false,false,false,0,-3171.3599,80.6,0.49609923,-0.49613702,0.5038629,0.5038408,0.011,1546.341,-20.860998,-5.36801,0,0,1,0,0,0,0,false,true,false,8.099999,3129.66,17.01,0.00336905,0.0033906293,-0.70552605,0.70866776,8.531,-1908.641,8.161,0.00061,0,-0.00771
105.86667,0,0,92.74,0.000002697398,0.000002697398,0.000002697398,0.99999994,0,0,0,0,0,0,0,0,0,0,0,false,false,false,0,-3158.47,80.38,0.48498055,-0.4850183,0.5145772,0.5145495,0.011,1546.341,-26.270998,-5.23931,0,0,1,0,0,0,0,false,true,false,8.17,3113.69,17.01,0.0033690496,0.0033906288,-0.7055476,0.70864624,8.541,-1916.9009,8.161,0.00061,0,-0.00641
105.875,0,0,92.74,0.000002697398,0.000002697398,0.000002697398,0.99999994,0,0,0,0,0,0,0,0,0,0,0,false,false,false,0,-3145.5798,80.119995,0.47391033,-0.47394276,0.5247918,0.5247673,0.011,1546.341,-31.680998,-5.11371,0,0,1,0,0,0,0,false,true,false,8.24,3097.65,17.01,0.00336905,0.0033906293,-0.7055692,0.70862484,8.531,-1925.1609,8.161,0.00061,0,-0.0054099998
105.89167,0,0,92.74,0.000002697398,0.000002697398,0.000002697398,0.99999994,0,0,0,0,0,0,0,0,0,0,0,false,false,false,0,-3119.8,79.46,0.45194805,-0.45198044,0.5438232,0.5437948,0.011,1546.341,-42.501,-4.87141,0,0,1,0,0,0,0,false,true,false,8.38,3065.3599,17.01,0.0033690496,0.0033906288,-0.7055961,0.70859796,8.491,-1941.6809,8.161,0.00061,0,-0.00381
105.9,0,0,92.74,0.000002697398,0.000002697398,0.000002697398,0.99999994,0,0,0,0,0,0,0,0,0,0,0,false,false,false,0,-3106.91,79.06,0.44108832,-0.44112068,0.55266625,0.5526423,0.011,1546.341,-47.911,-4.75461,0,0,1,0,0,0,0,false,true,false,8.45,3049.1099,17.01,0.00336905,0.0033906293,-0.70560694,0.7085872,8.471001,-1949.9409,8.161,0.00061,0,-0.00321
105.90833,0,0,92.74,0.000002697398,0.000002697398,0.000002697398,0.99999994,0,0,0,0,0,0,0,0,0,0,0,false,false,false,0,-3094.02,78.619995,0.4303202,-0.43035263,0.56109047,0.56106895,0.011,1546.341,-53.321,-4.6406097,0,0,1,0,0,0,0,false,true,false,8.5199995,3032.79,17.01,0.00336905,0.0033906293,-0.7056177,0.70857644,8.451,-1958.2009,8.161,0.00061,0,-0.00271
105.916664,0,0,92.74,0.000002697398,0.000002697398,0.000002697398,0.99999994,0,0,0,0,0,0,0,0,0,0,0,false,false,false,0,-3081.13,78.13,0.4196547,-0.41968706,0.5691114,0.56909114,0.011,1546.341,-58.731,-4.5293097,0,0,1,0,0,0,0,false,true,false,8.59,3016.4,17.01,0.00336905,0.0033906293,-0.70562315,0.7085711,8.431,-1966.4609,8.161,0.00061,0,-0.0023100001
105.925,0,0,92.74,0.000002697398,0.000002697398,0.000002697398,0.99999994,0,0,0,0,0,0,0,0,0,0,0,false,false,false,0,-3068.24,77.6,0.40910244,-0.40913478,0.57674277,0.5767247,0.011,1546.341,-64.141,-4.42071,0,0,1,0,0,0,0,false,true,false,8.66,2999.94,17.01,0.00336905,0.0033906293,-0.7056285,0.7085657,8.411,-1974.721,8.161,0.00061,0,-0.0019099999
105.933334,0,0,92.74,0.000002697398,0.000002697398,0.000002697398,0.99999994,0,0,0,0,0,0,0,0,0,0,0,false,false,false,0,-3055.3499,77.02,0.39866886,-0.39870122,0.58400387,0.58398616,0.011,1546.341,-69.550995,-4.31471,0,0,1,0,0,0,0,false,true,false,8.73,2983.48,17.01,0.00336905,0.0033906293,-0.70563394,0.7085603,8.371,-1974.721,8.211,0.00051,0,-0.0016099999
105.941666,0,0,92.74,0.000002697398,0.000002697398,0.000002697398,0.99999994,0,0,0,0,0,0,0,0,0,0,0,false,false,false,0,-3042.46,76.4,0.3883594,-0.38839173,0.590911,0.5908916,0.011,1546.341,-74.961,-4.21121,0,0,1,0,0,0,0,false,true,false,8.8,2966.96,17.01,0.00336905,0.0033906293,-0.7056393,0.708555,8.361,-1982.981,8.201,0.00051,0,-0.00131
105.958336,0,0,92.74,0.000002697398,0.000002697398,0.000002697398,0.99999994,0,0,0,0,0,0,0,0,0,0,0,false,false,false,0,-3016.68,75.02,0.36814502,-0.36817738,0.60371244,0.6036934,0.011,1546.341,-85.781,-4.01161,0,0,1,0,0,0,0,false,true,false,8.94,2933.71,17.01,0.00336905,0.0033906293,-0.7056501,0.70854425,8.361,-1999.501,8.181,0.00051,0,-0.00091
105.96667,0,0,92.74,0.000002697398,0.000002697398,0.000002697398,0.99999994,0,0,0,0,0,0,0,0,0,0,0,false,false,false,0,-3003.79,74.26,0.3582455,-0.35827786,0.60964257,0.609617,0.011,1546.341,-91.190994,-3.9154098,0,0,1,0,0,0,0,false,true,false,9.01,2916.98,17.01,0.00336905,0.0033906293,-0.7056501,0.70854425,8.361,-2007.761,8.1710005,0.00051,0,-0.00071
105.975,0,0,92.74,0.000002697398,0.000002697398,0.000002697398,0.99999994,0,0,0,0,0,0,0,0,0,0,0,false,false,false,0,-2990.9,73.45,0.3484917,-0.34852406,0.6152718,0.6152438,0.011,1546.341,-96.601,-3.8215098,0,0,1,0,0,0,0,false,true,false,9.08,2900.18,17.01,0.00336905,0.0033906293,-0.7056501,0.70854425,8.361,-2016.0209,8.1710005,0.00051,0,-0.00061
105.99167,0,0,92.74,0.000002697398,0.000002697398,0.000002697398,0.99999994,0,0,0,0,0,0,0,0,0,0,0,false,false,false,0,-2965.1199,71.7,0.32943717,-0.32946956,0.6256802,0.6256557,0.011,1546.341,-107.421,-3.6405098,0,0,1,0,0,0,0,false,true,false,9.22,2866.3699,17.01,0.00336905,0.0033906293,-0.7056501,0.70854425,8.3810005,-2032.5409,8.1710005,0.00051,0,-0.00040999998
106,0,0,92.74,0.000002697398,0.000002697398,0.000002697398,0.99999994,0,0,0,0,0,0,0,0,0,0,0,false,false,false,0,-2952.23,70.76,0.32013646,-0.32016888,0.63049287,0.6304626,0.011,1546.341,-112.83099,-3.55321,0,0,1,0,0,0,0,false,true,false,9.29,2849.3599,17.01,0.00336905,0.0033906293,-0.7056501,0.70854425,8.401,-2040.8009,8.1710005,0.00051,0,-0.00030999997
106.00833,0,0,92.74,0.000002697398,0.000002697398,0.000002697398,0.99999994,0,0,0,0,0,0,0,0,0,0,0,false,false,false,0,-2939.3398,69.77,0.3109923,-0.31102467,0.63505536,0.6350212,0.011,1546.341,-118.241,-3.46801,0,0,1,0,0,0,0,false,true,false,9.36,2832.28,17.01,0.00336905,0.0033906293,-0.7056501,0.70854425,8.4210005,-2049.061,8.1710005,0.00051,0,-0.00021
106.01667,0,0,92.74,0.000002697398,0.000002697398,0.000002697398,0.99999994,0,0,0,0,0,0,0,0,0,0,0,false,false,false,0,-2926.45,68.74,0.30200455,-0.30203688,0.639381,0.6393424,0.011,1546.341,-123.65099,-3.38481,0,0,1,0,0,0,0,false,true,false,9.429999,2815.14,17.01,0.00336905,0.0033906293,-0.7056501,0.70854425,8.441,-2057.321,8.1710005,0.00051,0,-0.00010999999
106.025,0,0,92.74,0.000002697398,0.000002697398,0.000002697398,0.99999994,0,0,0,0,0,0,0,0,0,0,0,false,false,false,0,-2913.5598,67.659996,0.2931732,-0.2932056,0.64348155,0.6434371,0.011,1546.341,-129.061,-3.3036098,0,0,1,0,0,0,0,false,true,false,9.5,2797.93,17.01,0.00336905,0.0033906293,-0.7056501,0.70854425,8.471001,-2065.5808,8.1710005,0.00051,0,0
106.041664,0,0,92.74,0.000002697398,0.000002697398,0.000002697398,0.99999994,0,0,0,0,0,0,0,0,0,0,0,false,false,false,0,-2887.78,65.369995,0.27599066,-0.2760231,0.6510396,0.6509898,0.011,1546.341,-139.881,-3.14711,0,0,1,-0.0078125,0,0,0,false,true,false,9.639999,2763.3,17.01,0.00336905,0.0033906293,-0.7056555,0.70853883,8.361,-2082.1008,8.1710005,0.00051,0,-0.00421
106.058334,0,0,92.74,0.000002697398,0.000002697398,0.000002697398,0.99999994,0,0,0,0,0,0,0,0,0,0,0,false,false,false,0,-2862,62.899998,0.25943944,-0.25947177,0.6578121,0.6577603,0.011,1546.341,-150.701,-2.99791,0,0,1,-0.0078125,0,0,0,false,true,false,9.78,2728.39,17.01,0.00336905,0.0033906293,-0.70568246,0.708512,8.271,-2098.6208,8.1710005,0.00051,0,-0.00711
106.066666,0,0,92.74,0.000002697398,0.000002697398,0.000002697398,0.99999994,0,0,0,0,0,0,0,0,0,0,0,false,false,false,0,-2849.1099,61.6,0.25140113,-0.25143352,0.66092753,0.6608731,0.011,1546.341,-156.11101,-2.92601,0,0,1,-0.0078125,0,0,0,false,true,false,9.849999,2710.8298,17.01,0.0033690496,0.0033906288,-0.705704,0.7084905,8.221001,-2106.8809,8.1710005,0.00051,0,-0.00821
106.075,0,0,92.74,0.000002697398,0.000002697398,0.000002697398,0.99999994,0,0,0,0,0,0,0,0,0,0,0,false,false,false,0,-2836.22,60.25,0.24351934,-0.2435517,0.6638716,0.6638187,0.011,1546.341,-161.521,-2.85581,0,0,1,-0.0078125,0,0,0,false,true,false,9.92,2693.2,17.01,0.00336905,0.0033906293,-0.70572567,0.708469,8.161,-2115.1409,8.1710005,0.00051,0,-0.009109999
106.09167,0,0,92.74,0.000002697398,0.000002697398,0.000002697398,0.99999994,0,0,0,0,0,0,0,0,0,0,0,false,false,false,0,-2810.44,57.42,0.228225,-0.22825201,0.6692822,0.66923505,0.011,1546.341,-172.341,-2.72051,0,0,1,-0.0078125,0,0,0,false,true,false,10.059999,2657.75,17.01,0.00336905,0.0033906293,-0.7057796,0.7084152,8.001,-2131.661,8.1710005,0.00051,0,-0.010609999
106.10833,0,0,92.74,0.000002697398,0.000002697398,0.000002697398,0.99999994,0,0,0,0,0,0,0,0,0,0,0,false,false,false,0,-2784.66,54.41,0.21354036,-0.21356729,0.67411256,0.6740635,0.011,1546.341,-183.161,-2.59161,0,0,1,0,0,0,0,false,true,false,10.2,2622.02,17.01,0.00336905,0.0033906293,-0.7058389,0.70835614,7.961,-2148.181,8.1710005,0.00051,0,-0.00751
106.11667,0,0,92.74,0.000002697398,0.000002697398,0.000002697398,0.99999994,0,0,0,0,0,0,0,0,0,0,0,false,false,false,0,-2771.77,52.84,0.20642455,-0.20645157,0.67632693,0.67627543,0.011,1546.341,-188.571,-2.52941,0,0,1,0,0,0,0,false,true,false,10.2699995,2604.05,17.01,0.0033690496,0.0033906288,-0.70586044,0.7083346,7.911,-2156.441,8.1710005,0.00051,0,-0.00631
106.13333,0,0,92.74,0.000002697398,0.000002697398,0.000002697398,0.99999994,0,0,0,0,0,0,0,0,0,0,0,false,false,false,0,-2745.99,49.559998,0.19264084,-0.19266237,0.6803812,0.68033224,0.011,1546.341,-199.391,-2.40951,0,0,1,-0.0078125,0,0,0,false,true,false,10.4,2567.9,17.01,0.00336905,0.0033906293,-0.7058983,0.70829695,7.641,-2172.961,8.1710005,0.00051,0,-0.00871
106.14167,0,0,92.74,0.000002697398,0.000002697398,0.000002697398,0.99999994,0,0,0,0,0,0,0,0,0,0,0,false,false,false,0,-2733.0999,47.85,0.18596739,-0.18598361,0.6822357,0.68218803,0.011,1546.341,-204.801,-2.3517098,0,0,1,-0.0078125,0,0,0,false,true,false,10.46,2549.72,17.01,0.00336905,0.0033906293,-0.7059252,0.70827013,7.5109997,-2181.221,8.1710005,0.00051,0,-0.009609999
106.15,0,0,92.74,0.000002697398,0.000002697398,0.000002697398,0.99999994,0,0,0,0,0,0,0,0,0,0,0,false,false,false,0,-2720.21,46.1,0.17943428,-0.17945047,0.6839827,0.683936,0.011,1546.341,-210.211,-2.29531,0,0,1,0,0,0,0,false,true,false,10.5199995,2531.47,17.01,0.0033690496,0.0033906288,-0.70595217,0.7082432,7.461,-2189.481,8.1710005,0.00051,0,-0.00811
106.15833,0,0,92.74,0.000002697398,0.000002697398,0.000002697398,0.99999994,0,0,0,0,0,0,0,0,0,0,0,false,false,false,0,-2707.3198,44.3,0.17304145,-0.17305765,0.68562794,0.6855814,0.011,1546.341,-215.621,-2.24021,0,0,1,0,0,0,0,false,true,false,10.58,2513.16,17.01,0.00336905,0.0033906293,-0.7059738,0.70822173,7.4009995,-2197.741,8.1710005,0.00051,0,-0.0068099997
106.166664,0,0,92.74,0.000002697398,0.000002697398,0.000002697398,0.99999994,0,0,0,0,0,0,0,0,0,0,0,false,false,false,0,-2694.43,42.46,0.16678889,-0.16680503,0.6871755,0.6871297,0,1544.151,-221.031,-2.2118099,0,-0.00010999999,1,0,0,0,0,false,true,false,10.639999,2494.78,17.01,0.00336905,0.0033906293,-0.7059954,0.70820016,7.331,-2206.001,8.1710005,0.00051,0,-0.0057099997
106.183334,0,0,92.74,0.000002697398,0.000002697398,0.000002697398,0.99999994,0,0,0,0,0,0,0,0,0,0,0,false,false,false,0,-2668.71,38.579998,0.15400313,-0.15401931,0.6901485,0.690113,0,1539.771,-230.511,-2.3561099,0.00021,-0.00010999999,1,0,0,0,0,false,true,false,10.76,2457.81,17.01,0.0033690496,0.0033906288,-0.7060277,0.7081679,7.191,-2222.521,8.1710005,0.00051,0,-0.00411
106.2,0,0,92.74,0.000002697398,0.000002697398,0.000002697398,0.99999994,0,0,0,0,0,0,0,0,0,0,0,false,false,false,0,-2643.0698,34.62,0.13989568,-0.1399119,0.6931441,0.6931126,0,1535.391,-222.841,-2.78391,0.00021,-0.00010999999,1,0,0,0,0,false,true,false,10.88,2420.56,17.01,0.00336905,0.0033906293,-0.7060493,0.7081464,7.061,-2239.041,8.1710005,0.00051,0,-0.00301
106.21667,0,0,92.74,0.000002697398,0.000002697398,0.000002697398,0.99999994,0,0,0,0,0,0,0,0,0,0,0,false,false,false,0,-2617.49,30.84,0.12293443,-0.122950576,0.6963513,0.69632256,0,1531.011,-207.121,-3.39921,0.00021,-0.00010999999,1,0,0,0,0,false,true,false,11,2383.03,17.01,0.00336905,0.0033906293,-0.70606554,0.70813024,6.941,-2255.561,8.1710005,0.00051,0,-0.00221
106.225,0,0,92.74,0.000002697398,0.000002697398,0.000002697398,0.99999994,0,0,0,0,0,0,0,0,0,0,0,false,false,false,0,-2604.73,29.05,0.11306186,-0.11307265,0.6980219,0.6979949,0,1528.8209,-198.631,-3.73891,0.00021,-0.00010999999,1,0,0,0,0,false,true,false,11.059999,2364.16,17.01,0.00336905,0.0033906293,-0.7060709,0.70812494,6.891,-2263.821,8.1710005,0.00051,0,-0.0019099999
106.23333,0,0,92.74,0.000002697398,0.000002697398,0.000002697398,0.99999994,0,0,0,0,0,0,0,0,0,0,0,false,false,false,0,-2591.99,27.33,0.10217516,-0.10218591,0.69969726,0.6996727,0,1526.631,-190.69101,-4.08041,0.00021,-0.00010999999,1,0,0,0,0,false,true,false,11.12,2345.23,17.01,0.00336905,0.0033906293,-0.7060763,0.7081195,6.851,-2272.0808,8.1710005,0.00051,0,-0.0016099999
106.25,0,0,92.74,0.000002697398,0.000002697398,0.000002697398,0.99999994,0,0,0,0,0,0,0,0,0,0,0,false,false,false,0,-2566.5698,24.07,0.07735901,-0.077369764,0.7028733,0.7028502,0,1522.251,-178.241,-4.7224097,0.00021,-0.00010999999,1,0,0,0,0,false,true,false,11.24,2307.16,17.01,0.00336905,0.0033906293,-0.7060871,0.7081088,6.791,-2288.6008,8.1710005,0.00051,0,-0.0012099999
106.25833,0,0,92.74,0.000002697398,0.000002697398,0.000002697398,0.99999994,0,0,0,0,0,0,0,0,0,0,0,false,false,false,0,-2553.88,22.519999,0.06351588,-0.063526675,0.7042589,0.7042367,0,1520.0609,-166.431,-5.1834097,0.00010999999,-0.00010999999,1,0,0,0,0,false,true,false,11.3,2288.02,17.01,0.0033690503,0.0033906295,-0.70609254,0.7081034,6.7609997,-2296.8608,8.1710005,0.00051,0,-0.0010099999
106.275,0,0,92.74,0.000002697398,0.000002697398,0.000002697398,0.99999994,0,0,0,0,0,0,0,0,0,0,0,false,false,false,0,-2528.5798,19.82,0.03492878,-0.03493413,0.70625407,0.7062328,0,1511.3009,-119.251,-3.87531,0.00010999999,-0.00010999999,1,0,0,0,0,false,true,false,11.42,2249.5798,17.01,0.00336905,0.0033906293,-0.7060979,0.708098,6.6809998,-2299.971,8.121,0.00051,0,-0.00071
106.28333,0,0,92.74,0.000002697398,0.000002697398,0.000002697398,0.99999994,0,0,0,0,0,0,0,0,0,0,0,false,false,false,0,-2515.99,18.76,0.023524093,-0.023524093,0.70672315,0.7067075,0,1506.9209,-98.33099,-3.22291,0,0,1,-0.0078125,0,0,0,false,true,false,11.48,2230.3398,17.01,0.00336905,0.0033906293,-0.7060979,0.708098,6.561,-2299.971,8.101,0.00051,0,-0.00281
106.291664,0,0,92.74,0.000002697398,0.000002697398,0.000002697398,0.99999994,0,0,0,0,0,0,0,0,0,0,0,false,false,false,0,-2503.43,17.869999,0.014034647,-0.0140292095,0.7069739,0.70696104,0,1502.5409,-78.751,-2.61251,0,0,1,-0.0078125,0,0,0,false,true,false,11.53,2211.0999,17.01,0.00336905,0.0033906293,-0.7061087,0.7080872,6.461,-2299.971,8.081,0.00051,0,-0.00461
106.3,0,0,92.74,0.000002697398,0.000002697398,0.000002697398,0.99999994,0,0,0,0,0,0,0,0,0,0,0,false,false,false,0,-2490.91,17.15,0.0063361884,-0.0063308356,0.7070824,0.7070744,0,1498.1609,-60.600998,-2.05751,0,0,1,-0.0078125,0,0,0,false,true,false,11.58,2191.8599,17.01,0.00336905,0.0033906293,-0.70612484,0.7080711,6.3609996,-2299.971,8.071,0.00051,0,-0.00611
106.316666,0,0,92.74,0.000002697398,0.000002697398,0.000002697398,0.99999994,0,0,0,0,0,0,0,0,0,0,0,false,false,false,0,-2465.97,16.15,-0.004340113,0.0043455083,0.7070963,0.7070905,0,1489.401,-11.4210005,-0.45121,0,0,1,-0.0078125,0,0,0,false,true,false,11.679999,2153.52,17.01,0.00336905,0.0033906293,-0.70616263,0.70803344,6.141,-2299.971,8.211,0.00040999998,0,-0.0083099995
106.325,0,0,92.74,0.000002697398,0.000002697398,0.000002697398,0.99999994,0,0,0,0,0,0,0,0,0,0,0,false,false,false,0,-2453.56,15.99,-0.0056672757,0.0056726285,0.7070883,0.70707977,0,1485.021,5.001,-0.067109995,0,0,1,-0.0078125,0,0,0,false,true,false,11.73,2134.3499,17.01,0.00336905,0.0033906293,-0.7061896,0.70800656,6.021,-2299.971,8.251,0.00040999998,0,-0.00921
106.333336,0,0,92.74,0.000002697398,0.000002697398,0.000002697398,0.99999994,0,0,0,0,0,0,0,0,0,0,0,false,false,false,0,-2441.18,15.96,-0.005866883,0.0058722356,0.707085,0.7070797,0,1480.641,12.971,0.05461,0,0,1,0,0,0,0,false,true,false,11.78,2115.18,17.01,0.00336905,0.0033906293,-0.7062166,0.7079796,5.9709997,-2299.971,8.271,0.00040999998,0,-0.00771
106.34167,0,0,92.74,0.000002697398,0.000002697398,0.000002697398,0.99999994,0,0,0,0,0,0,0,0,0,0,0,false,false,false,0,-2428.8398,16,-0.005705039,0.005710392,0.7070877,0.7070797,0,1476.261,15.9210005,0.07581,0,0,1,-0.0078125,0,0,0,false,true,false,11.83,2096.01,17.01,0.00336905,0.0033906293,-0.70623815,0.7079581,5.8209996,-2299.971,8.281,0.00040999998,0,-0.00871
106.35,0,0,92.74,0.000002697398,0.000002697398,0.000002697398,0.99999994,0,0,0,0,0,0,0,0,0,0,0,false,false,false,0,-2416.54,16.06,-0.0054838103,0.005489205,0.70709115,0.7070797,0,1471.881,17.331,0.073709995,0,0,1,-0.0078125,0,0,0,false,true,false,11.88,2076.8398,17.01,0.00336905,0.0033906293,-0.7062651,0.7079312,5.671,-2299.971,8.291,0.00040999998,0,-0.009609999
