time,ball_loc_x,ball_loc_y,ball_loc_z,ball_rot_x,ball_rot_y,ball_rot_z,ball_rot_w,ball_vel_x,ball_vel_y,ball_vel_z,ball_ang_x,ball_ang_y,ball_ang_z,player0_throttle,player0_steer,player0_pitch,player0_yaw,player0_roll,player0_jump,player0_boost,player0_handbrake,player0_loc_x,player0_loc_y,player0_loc_z,player0_rot_x,player0_rot_y,player0_rot_z,player0_rot_w,player0_vel_x,player0_vel_y,player0_vel_z,player0_ang_x,player0_ang_y,player0_ang_z,player1_throttle,player1_steer,player1_pitch,player1_yaw,player1_roll,player1_jump,player1_boost,player1_handbrake,player1_loc_x,player1_loc_y,player1_loc_z,player1_rot_x,player1_rot_y,player1_rot_z,player1_rot_w,player1_vel_x,player1_vel_y,player1_vel_z,player1_ang_x,player1_ang_y,player1_ang_z
274.00833,-1616.38,-2036.6599,312.15,0.4494287,0.11452925,0.014266624,0.88582915,937.60095,-1002.46094,-75.081,4.37081,4.0886097,0.42191002,1,-0.6484375,0,0,0,false,true,false,-2800.5999,-1455.62,17.01,0.0018369281,0.0044102455,-0.38115725,0.9244978,747.011,-691.46094,8.251,0.00071,-0.00081,-2.0752099,1,0,-0.0546875,1,0.14173228,false,false,true,-1983.82,-1901.48,103.939995,-0.05167966,-0.18802825,-0.44716826,0.8729347,770.80096,-1031.3309,-392.501,1.02431,0.20521,-0.16940999
274.025,-1600.76,-2053.3599,310.75998,0.48120418,0.14561962,0.006222897,0.8644065,937.121,-1001.941,-85.861,4.37081,4.0886097,0.42191002,1,-0.578125,0,0,0,false,true,false,-2788.0798,-1467.4099,17.01,0.0019232448,0.004377877,-0.39679685,0.91789395,740.501,-731.43097,8.211,0.00061,-0.00091,-1.93671,1,0,-0.0859375,1,0.17322835,false,false,true,-1970.96,-1918.6799,97.27,-0.046144556,-0.18243384,-0.4492021,0.87338763,771.381,-1032.1709,-402.911,0.89691,0.31271002,-0.07361
274.04166,-1585.14,-2070.06,309.19,0.51177657,0.17634307,-0.0018369281,0.8408236,936.6409,-1001.42096,-96.641,4.37081,4.0886097,0.42191002,1,-0.515625,0,0,0,false,true,false,-2775.67,-1479.87,17.01,0.0019987721,0.0043455088,-0.4112604,0.91150534,733.441,-770.261,8.191,0.00061,-0.0010099999,-1.7911099,1,0,-0.0859375,1,0.2047244,false,false,true,-1958.1,-1935.89,90.43,-0.041812535,-0.17648333,-0.4502757,0.87427515,771.96094,-1033.011,-413.341,0.77181,0.43271,0.02131
274.05832,-1569.5399,-2086.74,307.44,0.541065,0.20662415,-0.009891401,0.8151424,936.16095,-1000.90094,-107.421,4.37081,4.0886097,0.42191002,1,-0.453125,0,0,0,false,true,false,-2763.38,-1492.97,17.01,0.002074299,0.0043131392,-0.42452082,0.90540546,725.97095,-807.92096,8.181,0.00051,-0.0010099999,-1.64481,1,0,-0.0390625,0.496063,0.2913386,false,false,true,-1945.22,-1953.12,83.409996,-0.03874829,-0.17012823,-0.45040518,0.8756084,772.54095,-1033.871,-423.781,0.64271,0.55961,0.11531
274.075,-1553.94,-2103.42,305.50998,0.56900483,0.23639281,-0.0179189,0.7874203,935.68097,-1000.381,-118.190994,4.37081,4.0886097,0.42191002,1,-0.3984375,0,0,0,false,true,false,-2751.23,-1506.7,17.01,0.0021390365,0.0042807707,-0.43658906,0.89964825,718.441,-844.30096,8.181,0.00040999998,-0.00091,-1.49751,1,0,0.11811024,0.70866144,0.21259843,false,false,true,-1932.34,-1970.36,76.21,-0.037145995,-0.1633146,-0.45005986,0.87715137,773.131,-1034.731,-434.241,0.50261,0.69591,0.12330999
274.09167,-1538.35,-2120.0798,303.41,0.5955204,0.26556256,-0.025903199,0.7577341,935.2009,-999.86096,-128.951,4.37081,4.0886097,0.42191002,1,-0.34375,0,0,0,false,true,false,-2739.2,-1521.0299,17.01,0.0021983795,0.004248402,-0.44749197,0.8942751,710.98096,-879.40094,8.1710005,0.00030999997,-0.00081,-1.35431,1,0,1,-0.4609375,0.007874016,false,false,true,-1919.44,-1987.62,68.84,-0.036822308,-0.15634987,-0.44913736,0.8789052,773.73096,-1035.591,-444.711,0.36631,0.77281,0.18221
274.10834,-1522.77,-2136.74,301.13,0.6205469,0.29407412,-0.0338228,0.7261528,934.72095,-999.34094,-139.711,4.37081,4.0886097,0.42191002,1,-0.296875,0,0,0,false,true,false,-2727.29,-1535.9299,17.01,0.0022523273,0.004216033,-0.4572728,0.8893136,703.91095,-913.131,8.1710005,0.00010999999,-0.00051,-1.21381,1,0,1,-0.84375,0.05511811,false,false,true,-1906.5399,-2004.89,61.3,-0.037183754,-0.15059361,-0.44837123,0.8802851,774.33093,-1036.4509,-455.191,0.22961,0.61711,0.10341
274.125,-1507.19,-2153.39,298.66998,0.64402515,0.32184672,-0.041656088,0.6927561,934.24097,-998.821,-150.47101,4.37081,4.0886097,0.42191002,1,-0.2578125,0,0,0,false,true,false,-2715.5,-1551.4,17.01,0.002295486,0.0041944543,-0.46598002,0.8847823,697.34094,-945.54095,8.1710005,0,-0.00021,-1.08031,1,0,1,-0.8046875,0.047244094,false,false,true,-1893.62,-2022.1699,53.579998,-0.03818719,-0.14639103,-0.4483767,0.8809481,774.93097,-1037.3109,-465.691,0.08761,0.47491,-0.03611
274.14166,-1491.63,-2170.03,296.03,0.6658958,0.34881538,-0.04938683,0.6576255,933.7609,-998.30096,-161.211,4.37081,4.0886097,0.42191002,1,-0.21875,0,0,0,false,true,false,-2703.8198,-1567.4099,17.01,0.0023332492,0.0041728746,-0.4736784,0.88068485,691.371,-976.67096,8.1710005,0,0,-0.95691,1,0,-1,0.023622047,-0.015625,true,false,true,-1880.7,-2039.47,45.69,-0.03985422,-0.14372599,-0.4492182,0.8808843,775.53094,-1038.1709,-476.191,-0.053809997,0.32981,-0.16670999
274.15833,-1476.07,-2186.66,293.21,0.6860975,0.37491548,-0.056993537,0.6208544,933.28094,-997.78094,-171.951,4.37081,4.0886097,0.42191002,1,-0.1875,0,0,0,false,true,false,-2692.24,-1583.9299,17.01,0.0023656178,0.004151295,-0.48045424,0.8770066,686.22095,-1006.47095,8.1710005,0,0.00010999999,-0.84091,1,0,-1,0.8582677,-0.0859375,true,false,true,-1867.76,-2056.78,37.62,-0.04090621,-0.1404082,-0.45024872,0.8808451,776.40094,-1039.141,-450.091,0.63831,0.84751,-0.13960999
274.175,-1460.52,-2203.28,290.21,0.70458424,0.40008232,-0.064454585,0.5825296,932.80096,-997.2609,-182.69101,4.37081,4.0886097,0.42191002,1,-0.15625,0,0,0,false,true,false,-2680.74,-1600.95,17.01,0.002392592,0.004140506,-0.4863778,0.8737354,681.891,-1035.031,8.1710005,-0.00010999999,0.00030999997,-0.73541,1,0,-1,0.88188976,-0.0703125,true,false,true,-1854.82,-2074.0999,30.23,-0.03824653,-0.1281242,-0.452029,0.8819246,776.821,-1039.381,-386.101,1.95721,1.9313099,-0.14101
274.19168,-1444.98,-2219.9,287.03,0.7213076,0.42424572,-0.07175914,0.5427537,932.321,-996.74097,-193.421,4.37081,4.0886097,0.42191002,1,-0.125,0,0,0,false,true,false,-2669.3198,-1618.4299,17.01,0.0024141711,0.004129716,-0.49152982,0.8708475,678.54095,-1062.351,8.1710005,-0.00010999999,0.00030999997,-0.63761,1,0,-1,0.8976378,-0.046875,false,false,true,-1841.88,-2091.42,23.91,-0.029722756,-0.10269302,-0.45468324,0.8842136,777.1409,-1039.641,-302.201,3.27981,4.01731,-0.23481
274.20834,-1429.44,-2236.5,283.66998,0.7362319,0.4473463,-0.078885704,0.5016182,931.84094,-996.22095,-204.141,4.37081,4.0886097,0.42191002,1,-0.1015625,0,0,0,false,true,false,-2657.95,-1636.36,17.01,0.0024357506,0.0041189273,-0.49597523,0.86832345,676.261,-1088.4509,8.1710005,-0.00010999999,0.00040999998,-0.54561,1,0,-1,0.93700784,0.031496063,false,false,true,-1828.9199,-2108.75,19.26,-0.020368135,-0.059108287,-0.4577906,0.88685894,778.47095,-1041.611,-177.741,3.47381,3.5757098,-0.17851
274.225,-1413.9199,-2253.0999,280.13,0.7493177,0.46933016,-0.08581266,0.4592257,931.36096,-995.7009,-214.86101,4.37081,4.0886097,0.42191002,1,-0.0859375,0,0,0,false,true,false,-2646.6199,-1654.72,17.01,0.0024519349,0.004108137,-0.49975693,0.8661524,674.93097,-1113.4509,8.1710005,-0.00021,0.00051,-0.46321002,1,0,-1,0.9448819,0.07086614,true,false,true,-1815.94,-2126.1199,16.539999,-0.008521123,-0.022499083,-0.4597598,0.8877173,779.17096,-1044.001,-96.901,2.60731,2.27771,-0.15291
274.24167,-1398.4,-2269.69,276.41,0.7605297,0.4901434,-0.0925238,0.41568416,930.881,-995.18097,-225.58101,4.37081,4.0886097,0.42191002,1,-0.0703125,0,0,0,false,true,false,-2635.3,-1673.5,17.01,0.0024627247,0.004097348,-0.5029615,0.86429554,674.48096,-1137.4309,8.1710005,-0.00021,0.00061,-0.39291,1,0,-1,0.93700784,0,true,false,true,-1803.12,-2143.3499,19.88,0.0020095615,0.0043562977,-0.46101677,0.8873784,769.871,-1035.361,202.461,2.60721,2.27771,-0.14900999
274.25833,-1382.89,-2286.27,272.52,0.76984215,0.5097265,-0.09900298,0.37110674,930.40094,-994.66095,-236.291,4.37081,4.0886097,0.42191002,1,-0.0546875,0,0,0,false,true,false,-2623.99,-1692.6699,17.01,0.002473514,0.0040973476,-0.50566965,0.8627138,674.941,-1160.4209,8.1710005,-0.00021,0.00071,-0.33141,1,0,1,0.93700784,0,false,false,true,-1790.2799,-2160.6199,23.35,0.012540288,0.031206284,-0.46186376,0.88631296,770.98096,-1038.251,210.501,2.60651,2.2771099,-0.14711
274.275,-1367.39,-2302.8398,268.44998,0.7772294,0.52803653,-0.105239406,0.3256015,929.92096,-994.1409,-246.991,4.37081,4.0886097,0.42191002,1,-0.0390625,0,0,0,false,true,false,-2612.67,-1712.22,17.01,0.0024843037,0.0040973476,-0.50794625,0.86137533,676.311,-1182.4509,8.1710005,-0.00021,0.00071,-0.27641,1,0,1,0.93700784,0.007874016,false,false,true,-1777.4299,-2177.93,26.66,0.023054745,0.058018588,-0.46231693,0.88451415,771.751,-1040.4209,194.241,2.60441,2.2748098,-0.15411
274.29166,-1351.89,-2319.4,264.19998,0.7826702,0.5450302,-0.111211434,0.27928695,929.441,-993.621,-257.691,4.37081,4.0886097,0.42191002,1,-0.03125,0,0,0,false,true,false,-2601.3198,-1732.13,17.01,0.002484304,0.004097348,-0.50983447,0.8602591,678.571,-1203.5609,8.1710005,-0.00021,0.00071,-0.22640999,1,0,1,0.9448819,0.023622047,false,false,true,-1764.57,-2195.27,29.67,0.033542313,0.08459344,-0.46246257,0.8819564,771.71094,-1040.851,176.321,2.58791,2.24921,-0.16320999
274.30832,-1336.4099,-2335.96,259.77,0.7861546,0.56066436,-0.116903,0.23227118,928.96094,-993.10095,-268.391,4.37081,4.0886097,0.42191002,1,-0.0234375,0,0,0,false,true,false,-2589.93,-1752.3999,17.01,0.0024843037,0.0040973476,-0.51137733,0.8593428,681.52094,-1223.891,8.1710005,-0.00021,0.00061,-0.18510999,1,0,1,0.9448819,0.031496063,false,false,true,-1751.71,-2212.6199,32.38,0.043986637,0.11067197,-0.46232232,0.8786779,771.67096,-1041.3009,158.401,2.55691,2.19921,-0.17511
274.325,-1320.9299,-2352.5,255.15999,0.7876749,0.57489586,-0.12229778,0.18467802,928.48096,-992.58093,-279.071,4.37081,4.0886097,0.42191002,1,-0.015625,0,0,0,false,true,false,-2578.5,-1772.99,17.01,0.002484304,0.004097348,-0.5126344,0.8585936,684.05096,-1241.4509,8.1710005,0,0.00061,-0.14990999,1,0,1,0.9448819,0.03937008,false,false,true,-1738.85,-2229.98,34.8,0.05437162,0.13595745,-0.46194467,0.87473786,771.621,-1041.7909,140.481,2.5071099,2.11781,-0.19181
274.34167,-1305.46,-2369.04,250.37999,0.7872294,0.5876871,-0.12739052,0.13662101,928.001,-992.061,-289.751,4.37081,4.0886097,0.42191002,1,-0.0078125,0,0,0,false,true,false,-2567.02,-1793.88,17.01,0.002484304,0.004097348,-0.5136432,0.85799044,687.311,-1258.4409,8.1710005,0,0.00051,-0.119509995,1,0,1,0.9448819,0.03937008,false,false,true,-1725.99,-2247.3398,36.92,0.06467576,0.16008307,-0.46141058,0.8702245,771.55096,-1042.3209,122.561,2.43461,1.99931,-0.21580999
274.35834,-1290,-2385.56,245.42,0.7848152,0.59901077,-0.13216491,0.088224135,927.52094,-991.54095,-300.431,4.37081,4.0886097,0.42191002,1,-0.0078125,0,0,0,false,true,false,-2555.48,-1815.0499,17.01,0.0024843037,0.0040973476,-0.514447,0.8575087,691.30096,-1275.031,8.1710005,0,0.00040999998,-0.092609994,1,0,1,0.9448819,0.047244094,false,false,true,-1713.13,-2264.72,38.739998,0.074893504,0.18265498,-0.46082795,0.86525464,771.46094,-1042.891,104.65099,2.33621,1.83971,-0.24981
274.375,-1274.5399,-2402.0798,240.28,0.7804377,0.6088402,-0.13661024,0.039600674,927.04095,-991.02094,-311.111,4.37081,4.0886097,0.42191002,1,0,0,0,0,false,true,false,-2543.88,-1836.49,17.01,0.0024843037,0.0040973476,-0.5150674,0.8571362,695.811,-1291.341,8.1710005,0,0.00040999998,-0.07301,1,0,1,0.93700784,0.05511811,false,false,true,-1700.27,-2282.0999,40.26,0.085019626,0.20322542,-0.46034244,0.8599743,771.321,-1043.521,87.221,2.20591,1.61761,-0.30021
274.39166,-1259.1,-2418.5898,234.95999,0.77411383,0.61714274,-0.14071031,-0.0091145495,926.561,-990.501,-321.771,4.37081,4.0886097,0.42191002,1,0,0,0,0,false,true,false,-2532.2,-1858.2,17.01,0.002484304,0.004097348,-0.5155476,0.8568475,700.97095,-1307.3009,8.1710005,0,0.00030999997,-0.054009996,1,0,1,0.93700784,0.05511811,false,false,true,-1687.4099,-2299.5,41.489998,0.09512407,0.22119015,-0.46014276,0.8545728,771.11096,-1044.221,70.531,2.04101,1.32511,-0.37221
274.40833,-1243.6599,-2435.0898,229.45999,0.7658515,0.6239078,-0.1444597,-0.05780815,926.08093,-989.98096,-332.431,4.37081,4.0886097,0.42191002,1,0,0,0,0,false,true,false,-2520.43,-1880.1699,17.01,0.002484304,0.004097348,-0.515909,0.8566299,706.53094,-1323.0409,8.1710005,0,0.00030999997,-0.040209997,1,0,1,0.93700784,0.047244094,false,false,true,-1674.5599,-2316.9,42.45,0.10527178,0.23595043,-0.46045032,0.849253,770.78094,-1045.021,54.290997,1.84371,0.97780997,-0.46661
274.425,-1228.23,-2451.5898,223.79,0.75567794,0.6291084,-0.14785302,-0.10636152,925.60095,-989.46094,-343.091,4.37081,4.0886097,0.42191002,1,0,0,0,0,false,true,false,-2508.5698,-1902.4099,17.01,0.002484304,0.004097348,-0.5161788,0.8564674,712.48096,-1338.5809,8.1710005,0,0.00030999997,-0.03001,1,0,1,0.93700784,0.03937008,false,false,true,-1661.72,-2334.32,43.14,0.11550031,0.24705292,-0.46148074,0.8441919,770.311,-1045.9309,38.220997,1.61721,0.59261,-0.58291
274.44168,-1212.8099,-2468.0698,217.94,0.74361354,0.6327391,-0.15087414,-0.1546505,925.121,-988.941,-353.741,4.37081,4.0886097,0.42191002,1,0.007874016,0,0,0,false,false,false,-2496.5999,-1924.9099,17.01,0.002484304,0.004097348,-0.5163784,0.8563471,718.751,-1353.9409,8.1710005,0,0.00030999997,-0.02251,1,0,1,0.9448819,0.015748031,false,false,true,-1648.88,-2351.76,43.559998,0.12575589,0.25416872,-0.46343365,0.8395313,769.66095,-1046.9609,23.110998,1.32881,0.19770999,-0.71001
274.45834,-1197.39,-2484.55,211.90999,0.72969025,0.6347892,-0.1535176,-0.20255108,924.6409,-988.441,-364.381,4.37081,4.0886097,0.42191002,1,0.007874016,0,0,0,false,false,false,-2484.6199,-1947.48,17.01,0.002484304,0.004097348,-0.51651865,0.8562625,717.73096,-1354.471,8.251,0,0.00021,-0.012409999,1,0,1,0.9527559,-0.0078125,false,false,true,-1636.0599,-2369.21,43.739998,0.13559602,0.25706577,-0.4665141,0.83540136,768.811,-1048.111,9.281,0.96141,-0.17761,-0.83711
274.475,-1181.99,-2501.01,205.7,0.71394384,0.6352532,-0.15577263,-0.24994457,924.16095,-987.941,-375.021,4.37081,4.0886097,0.42191002,1,0.007874016,0,0,0,false,false,false,-2472.66,-1970.0599,17.01,0.002484304,0.004097348,-0.51659423,0.8562169,716.941,-1354.881,8.281,0,0.00021,-0.00501,1,0,1,0.97637796,-0.03125,false,false,true,-1623.25,-2386.68,43.69,0.14442737,0.25568467,-0.47087306,0.83189213,767.751,-1049.371,-4.141,0.53611,-0.50741,-0.95971
274.49167,-1166.59,-2517.47,199.31999,0.6964167,0.6341256,-0.1576392,-0.2967122,923.68097,-987.441,-385.661,4.37081,4.0886097,0.42191002,1,0.007874016,0,0,0,false,false,false,-2460.72,-1992.64,17.01,0.0024843037,0.0040973476,-0.51661575,0.85620385,716.35095,-1355.1709,8.301001,0,0.00021,0.00030999997,1,0,0.984252,1,-0.0703125,false,false,true,-1610.46,-2404.17,43.42,0.1509173,0.25062966,-0.4763704,0.82914406,766.501,-1050.7009,-17.210999,-0.01871,-0.64741,-0.95601
274.50833,-1151.2,-2533.92,192.76,0.6771504,0.6314121,-0.1591174,-0.3427354,923.2009,-986.941,-396.281,4.37081,4.0886097,0.42191002,1,0.007874016,0,0,0,false,false,false,-2448.78,-2015.22,17.01,0.002484304,0.004097348,-0.516605,0.8562104,715.951,-1355.371,8.301001,0,0.00021,0.00411,1,0,0.97637796,1,-0.078125,false,false,true,-1597.69,-2421.69,42.93,0.15254654,0.2433359,-0.4823371,0.8275675,765.16095,-1052.0409,-30.730999,-0.64801,-0.62731,-0.84001
274.525,-1135.82,-2550.3599,186.01999,0.6561877,0.6271231,-0.16019636,-0.3879062,922.72095,-986.441,-406.901,4.37081,4.0886097,0.42191002,1,0.007874016,0,0,0,false,false,false,-2436.8398,-2037.8099,17.01,0.002484304,0.004097348,-0.51656723,0.8562332,715.71094,-1355.491,8.301001,0,0.00021,0.00691,1,0,0.97637796,1,-0.0390625,false,false,true,-1584.94,-2439.23,42.21,0.14966573,0.2338195,-0.4887839,0.8270543,763.761,-1053.371,-44.720997,-1.23071,-0.62811,-0.74991
274.54166,-1120.44,-2566.8,179.09999,0.633588,0.6212644,-0.16087614,-0.43210593,922.24097,-985.941,-417.521,4.37081,4.0886097,0.42191002,1,0.007874016,0,0,0,false,false,false,-2424.92,-2060.41,17.01,0.002484304,0.004097348,-0.5165132,0.8562658,715.59094,-1355.5409,8.301001,0,0.00021,0.009009999,1,0,0.97637796,1,-0.0078125,false,false,true,-1572.22,-2456.79,41.25,0.14281426,0.22210191,-0.49568388,0.8273888,762.28094,-1054.6909,-59.841,-1.73501,-0.65241,-0.69081
274.55832,-1105.08,-2583.22,172.01,0.6094012,0.6138565,-0.16115128,-0.4752267,921.761,-985.441,-428.141,4.37081,4.0886097,0.42191002,1,0.007874016,0,0,0,false,false,false,-2413,-2083.01,17.01,0.002484304,0.004097348,-0.51644313,0.85630804,715.571,-1355.5409,8.301001,0,0.00021,0.010609999,1,0,0.97637796,1,0.007874016,false,false,true,-1559.52,-2474.3699,40.04,0.13275833,0.20827496,-0.50296146,0.8282671,760.72095,-1056.001,-75.961,-2.15321,-0.70331,-0.66341
274.575,-1089.72,-2599.64,164.73999,0.58369476,0.60490936,-0.1610272,-0.51716053,921.28094,-984.941,-438.741,4.37081,4.0886097,0.42191002,1,0.007874016,0,0,0,false,false,false,-2401.0798,-2105.6099,17.01,0.002484304,0.004097348,-0.5163676,0.8563536,715.631,-1355.491,8.301001,0,0.00021,0.011809999,1,0,0.984252,1,0.015748031,false,false,true,-1546.85,-2491.98,38.559998,0.120220765,0.19242506,-0.5105412,0.8293776,759.071,-1057.3009,-92.031,-2.51771,-0.76901,-0.65891
274.59167,-1074.37,-2616.05,157.3,0.55652654,0.59445584,-0.16049851,-0.55779976,920.80096,-984.441,-449.341,4.37081,4.0886097,0.42191002,1,0.007874016,0,0,0,false,false,false,-2389.16,-2128.21,17.01,0.002484304,0.004097348,-0.51628125,0.8564056,715.751,-1355.4209,8.301001,0,0.00021,0.012709999,1,0,0.984252,1,0.007874016,false,false,true,-1534.2,-2509.6099,36.809998,0.10607021,0.1743632,-0.5184608,0.8303884,757.29095,-1058.611,-107.991,-2.78441,-0.93571,-0.72491
274.60834,-1059.03,-2632.45,149.68,-0.52796644,-0.5825188,0.15957056,0.597043,920.321,-983.941,-459.941,4.37081,4.0886097,0.42191002,1,0.007874016,0,0,0,false,false,false,-2377.22,-2150.79,17.01,0.0024843037,0.0040973476,-0.5161895,0.85646087,715.92096,-1355.3209,8.301001,0,0.00021,0.013409999,1,0,0.984252,1,-0.0078125,false,false,true,-1521.59,-2527.26,34.8,0.091763124,0.15360393,-0.5268875,0.830888,755.321,-1059.9509,-124.321,-2.96081,-1.1561099,-0.83581
274.625,-1043.69,-2648.8499,141.87999,-0.49808455,-0.5691235,0.15824345,0.63479847,919.84094,-983.441,-470.531,4.37081,4.0886097,0.42191002,1,0.007874016,0,0,0,false,false,false,-2365.28,-2173.3699,17.01,0.002484304,0.004097348,-0.5160925,0.8565194,716.131,-1355.2009,8.301001,0,0.00021,0.013909999,1,0,0.984252,1,-0.046875,false,false,true,-1509.01,-2544.93,32.51,0.07727802,0.13070294,-0.53566486,0.83066714,753.16095,-1061.3209,-140.991,-3.10161,-1.32271,-0.93531
274.64166,-1028.37,-2665.23,133.9,-0.46695638,-0.5543038,0.15651709,0.67097026,919.36096,-982.941,-481.111,4.37081,4.0886097,0.42191002,1,0.007874016,0,0,0,false,false,false,-2353.3398,-2195.95,17.01,0.002484304,0.004097348,-0.5159953,0.85657793,716.371,-1355.0609,8.301001,0,0.00021,0.0143099995,1,0,0.52755904,1,-0.1875,false,false,true,-1496.46,-2562.6199,29.939999,0.06262035,0.106161915,-0.54466337,0.82954806,750.79095,-1062.721,-157.451,-3.2223098,-1.44821,-1.02801
274.65833,-1013.05,-2681.6099,125.75,-0.43466315,-0.538098,0.15440236,0.70546323,918.881,-982.441,-491.691,4.37081,4.0886097,0.42191002,1,0,0,0,0,false,false,false,-2341.4,-2218.53,17.01,0.002484304,0.004097348,-0.51589286,0.8566397,716.631,-1354.9109,8.301001,0,0.00021,0.014609999,1,0,0.23622048,1,-0.2890625,false,false,true,-1483.95,-2580.3398,27.099998,0.047671285,0.08029378,-0.55379677,0.82739913,748.22095,-1064.141,-173.031,-3.35301,-1.53571,-1.11601
274.675,-997.74,-2697.97,117.42,-0.40128532,-0.5205485,0.15189916,0.7381909,918.40094,-981.941,-502.271,4.37081,4.0886097,0.42191002,1,0,0,0,0,false,false,false,-2329.46,-2241.1099,17.01,0.002484304,0.004097348,-0.5157957,0.85669816,716.77094,-1354.8209,8.301001,0,0.00021,0.01031,1,0,0.23622048,1,-0.3125,false,false,true,-1471.49,-2598.0898,24.05,0.033272568,0.053325024,-0.56295717,0.82409245,743.17096,-1068.6809,-165.22101,-2.86651,-1.4995099,-1.16661
274.69168,-982.44,-2714.3298,108.92,-0.36690417,-0.50169367,0.14901835,0.76907617,917.92096,-981.441,-512.84094,4.37081,4.0886097,0.42191002,1,0,0,0,0,false,false,false,-2317.52,-2263.69,17.01,0.002484304,0.004097348,-0.5157256,0.85674036,716.93097,-1354.721,8.301001,0,0.00021,0.00731,-1,1,0,0,0,false,true,true,-1459.13,-2615.93,21.279999,0.021873284,0.030882595,-0.57155657,0.81968945,736.441,-1074.1809,-134.97101,-2.12151,-1.05821,-1.15941
274.70834,-967.13995,-2730.68,100.24,-0.33160588,-0.48158723,0.14576527,0.79803735,917.441,-980.941,-523.40094,4.37081,4.0886097,0.42191002,1,0,0,0,0,false,false,false,-2305.57,-2286.27,17.01,0.0024843037,0.0040973476,-0.515677,0.85676956,717.10095,-1354.621,8.301001,0,0.00021,0.00521,1,1,0,0,0,false,false,false,-1446.8099,-2634.03,19.029999,0.013452009,0.01489242,-0.57948154,0.8147382,736.201,-1088.6909,-100.090996,-1.4270099,-0.67051,-1.04081
274.725,-951.86,-2747.02,91.38,-0.29548222,-0.46027768,0.14214529,0.8250026,916.96094,-980.441,-533.96094,4.37081,4.0886097,0.42191002,1,0,0,0,0,false,false,false,-2293.6099,-2308.8499,17.01,0.0024843037,0.0040973476,-0.5156446,0.85678905,717.251,-1354.531,8.301001,0,0.00021,0.00371,1,1,0,0,0,false,false,true,-1434.49,-2652.39,17.369999,0.00774423,0.0046260376,-0.58631676,0.8100316,736.011,-1108.771,-65.011,-0.85961,-0.36131,-0.87731
274.74167,-939.17,-2760.5798,96.67,-0.24038492,-0.4248714,0.1337132,0.8624499,761.201,-813.881,314.791,4.37941,4.0960097,0.20710999,1,0,0,0,0,false,false,false,-2281.65,-2331.43,17.01,0.002484304,0.004097348,-0.5156231,0.8568021,717.381,-1354.4509,8.301001,0,0.00021,0.00261,1,1,0,0,0,false,false,true,-1422.1699,-2671.0798,16.289999,0.0042106383,-0.0010924462,-0.59199214,0.8059319,736.18097,-1128.5409,-18.280998,-0.18011,0.02861,-0.74251
274.75833,-926.49,-2774.14,101.78,-0.20332792,-0.4002064,0.12773578,0.88440716,760.80096,-813.46094,303.791,4.37941,4.0960097,0.20710999,1,0,0,0,0,false,false,false,-2269.69,-2354.01,17.01,0.0024843037,0.0040973476,-0.5156069,0.85681176,717.48096,-1354.391,8.301001,0,0.00021,0.0019099999,1,1,0,0,0,false,false,true,-1409.86,-2690.0999,15.99,0.0031802324,-0.000989945,-0.5967503,0.80241996,735.701,-1148.341,8.6310005,0.064509995,0.16991,-0.61291
274.775,-913.81,-2787.69,106.71,-0.16576383,-0.37454325,0.12143998,0.90415263,760.40094,-813.04095,292.79102,4.37941,4.0960097,0.20710999,1,0,0,0,0,false,false,false,-2257.73,-2376.5898,17.01,0.0024843037,0.0040973476,-0.5155961,0.85681826,717.561,-1354.3309,8.301001,0,0.00021,0.00131,1,1,0,0,0,false,false,true,-1397.5599,-2709.46,16.039999,0.002872729,0.0002616476,-0.6006346,0.7995184,734.72095,-1168.131,16.261,0.052709997,0.09560999,-0.48851
274.79166,-901.13995,-2801.23,111.45,-0.12777896,-0.3479468,0.11483676,0.9216388,760.001,-812.621,281.811,4.37941,4.0960097,0.20710999,1,0,0,0,0,false,false,false,-2245.77,-2399.17,17.01,0.002484304,0.004097348,-0.51558536,0.8568248,717.621,-1354.2909,8.301001,0,0.00021,0.00091,1,1,0,0,0,false,false,true,-1385.28,-2729.14,16.19,0.0027702278,0.001097841,-0.60368806,0.797215,733.41095,-1187.851,17.730999,0.046109997,0.07031,-0.36811
274.80832,-888.48,-2814.77,116.009995,-0.08948112,-0.32047638,0.107947595,0.9368219,759.60095,-812.201,270.831,4.37941,4.0960097,0.20710999,1,0,0,0,0,false,false,false,-2233.81,-2421.75,17.01,0.0024843037,0.0040973476,-0.5155799,0.85682803,717.68097,-1354.251,8.301001,0,0.00021,0.00061,-1,1,0,0,0,false,false,true,-1373.08,-2748.95,16.35,0.002737859,0.0017452165,-0.6059377,0.79550534,727.46094,-1191.661,17.300999,0.03811,0.05151,-0.25171
274.825,-875.82,-2828.3,120.39,-0.050962158,-0.29220214,0.1007941,0.94966376,759.201,-811.78094,259.851,4.37941,4.0960097,0.20710999,1,0,0,0,0,false,false,false,-2221.8499,-2444.3298,17.01,0.0024843037,0.0040973476,-0.5155799,0.85682803,717.72095,-1354.221,8.301001,0,0.00021,0.00040999998,-1,1,0,0,0,false,false,true,-1360.99,-2768.81,16.5,0.0027432537,0.0022415377,-0.60744286,0.7943554,720.03094,-1191.731,16.040998,0.03071,0.037609998,-0.15170999
274.84167,-863.17,-2841.8198,124.579994,-0.012313664,-0.26319963,0.093386956,0.9601318,758.80096,-811.36096,248.871,4.37941,4.0960097,0.20710999,1,0,0,0,0,false,false,false,-2209.89,-2466.89,17.01,0.0024843037,0.0040973476,-0.5155799,0.85682803,717.74097,-1354.2009,8.301001,0,0.00021,0.00021,-1,1,0,0,0,false,false,true,-1349.02,-2788.67,16.63,0.0027594382,0.0026137787,-0.6082845,0.7937099,712.691,-1191.731,14.561,0.02441,0.02741,-0.054709997
274.85834,-850.52997,-2855.3398,128.59,0.02636715,-0.23353891,0.08574792,0.96820015,758.40094,-810.941,237.911,4.37941,4.0960097,0.20710999,1,0,0,0,0,false,false,false,-2197.93,-2489.45,17.01,0.0024843037,0.0040973476,-0.5155799,0.85682803,717.761,-1354.1809,8.301001,0,0.00021,0.00010999999,-1,1,0,0,0,false,false,true,-1337.1699,-2808.53,16.73,0.0027810175,0.0028943082,-0.60848945,0.7935517,705.49097,-1191.6709,13.181,0.01911,0.02001,0.039709996
274.875,-837.88995,-2868.8499,132.42,0.06498327,-0.20329557,0.07789311,0.9738484,758.001,-810.52094,226.951,4.37941,4.0960097,0.20710999,1,0,0,0,0,false,false,false,-2185.97,-2512.01,17.01,0.0024843037,0.0040973476,-0.5155799,0.85682803,717.761,-1354.1609,8.301001,0,0.00021,0.00010999999,-1,1,0,0,0,false,false,true,-1325.44,-2828.39,16.81,0.002802597,0.0031101003,-0.6080741,0.7938692,698.48096,-1191.531,11.991,0.015009999,0.014709999,0.13201
274.89166,-825.26,-2882.3499,136.06999,0.10343754,-0.17254514,0.06984398,0.9770622,757.60095,-810.10095,215.991,4.37941,4.0960097,0.20710999,1,0,0,0,0,false,false,false,-2174.01,-2534.5698,17.01,0.0024843037,0.0040973476,-0.5155799,0.85682803,717.761,-1354.141,8.301001,0,0.00021,0,-1,1,0,0,0,false,false,true,-1313.83,-2848.25,16.869999,0.0028241756,0.003271944,-0.60704905,0.7946525,691.71094,-1191.3309,11.011001,0.011709999,0.010809999,0.22261
274.90833,-812.63995,-2895.8499,139.53,0.14163278,-0.14136308,0.061616916,0.9778343,757.201,-809.68097,205.041,4.37941,4.0960097,0.20710999,1,0,0,0,0,false,false,false,-2162.05,-2557.13,17.01,0.0024843037,0.0040973476,-0.5155799,0.85682803,717.761,-1354.121,8.301001,0,0.00021,0,-1,1,0,0,0,false,false,true,-1302.33,-2868.1099,16.91,0.0028403602,0.003401419,-0.6054252,0.7958898,685.23096,-1191.0509,10.251,0.009109999,0.008009999,0.31191
274.925,-800.01996,-2909.3398,142.81,0.17947207,-0.10982499,0.05323872,0.9761628,756.80096,-809.261,194.101,4.37941,4.0960097,0.20710999,1,0,0,0,0,false,false,false,-2150.0898,-2579.69,17.01,0.0024843037,0.0040973476,-0.5155799,0.85682803,717.761,-1354.101,8.301001,0,0.00021,0,-1,1,0,0,0,false,false,true,-1290.94,-2887.96,16.949999,0.0028511498,0.00350392,-0.6032079,0.7975711,679.08093,-1190.6909,9.681,0.00701,0.00601,0.40011
274.94168,-787.41,-2922.8198,145.91,0.21686356,-0.07801174,0.044725724,0.9720514,756.40094,-808.84094,183.161,4.37941,4.0960097,0.20710999,1,0,0,0,0,false,false,false,-2138.13,-2602.25,17.01,0.0024843037,0.0040973476,-0.5155799,0.85682803,717.761,-1354.101,8.301001,0,0.00021,0,-1,1,0,0,0,false,false,true,-1279.65,-2907.8,16.97,0.0028511498,0.003584842,-0.6003972,0.7996887,673.30096,-1190.231,9.221001,0.0054099998,0.00451,0.48751
274.95834,-774.81,-2936.3,148.83,0.2537155,-0.04600429,0.036099445,0.9655096,756.001,-808.42096,172.22101,4.37941,4.0960097,0.20710999,1,0,0,0,0,false,false,false,-2126.17,-2624.81,17.01,0.0024843037,0.0040973476,-0.5155799,0.85682803,717.761,-1354.101,8.301001,0,0.00021,0,-1,1,0,0,0,false,false,true,-1268.45,-2927.64,16.99,0.0028511495,0.0036495791,-0.59699845,0.80222887,667.951,-1189.661,8.901,0.00421,0.00341,0.57411
274.975,-762.20996,-2949.76,151.56,0.2899309,-0.01388355,0.027386768,0.95655483,755.60095,-808.001,161.30101,4.37941,4.0960097,0.20710999,1,0,0,0,0,false,false,false,-2114.21,-2647.3699,17.01,0.0024843037,0.0040973476,-0.5155799,0.85682803,717.761,-1354.101,8.301001,0,0.00021,0,-1,1,0,0,0,false,false,true,-1257.33,-2947.46,17.01,0.0028403602,0.0037035276,-0.59301174,0.8051802,663.05096,-1188.9609,8.641,0.00321,0.00251,0.66011
274.99167,-749.62,-2963.22,154.11,0.32542348,0.018269563,0.01860404,0.9452088,755.201,-807.58093,150.381,4.37941,4.0960097,0.20710999,1,0,0,0,0,false,false,false,-2102.25,-2669.93,17.01,0.0024843037,0.0040973476,-0.5155799,0.85682803,717.761,-1354.101,8.301001,0,0.00021,0,-1,1,0,0,0,false,false,true,-1246.2899,-2967.27,17.01,0.0028295706,0.003746686,-0.5884261,0.80853724,658.641,-1188.121,8.441,0.00251,0.0019099999,0.74551
275.00833,-737.04,-2976.68,156.48,0.36010128,0.050379474,0.0097780675,0.93150055,754.80096,-807.16095,139.461,4.37941,4.0960097,0.20710999,1,0,0,0,0,false,false,false,-2090.29,-2692.49,17.01,0.0024843037,0.0040973476,-0.5155799,0.85682803,717.761,-1354.101,8.301001,0,0.00021,0,-1,1,0,0,0,false,false,true,-1235.33,-2987.0698,17.01,0.0028133863,0.0037898442,-0.5832471,0.81228095,654.751,-1187.101,8.361,0.0019099999,0.00151,0.83021
275.025,-724.45996,-2990.1199,158.67,0.3938783,0.08236,0.0009252076,0.9154648,754.40094,-806.74097,128.55101,4.37941,4.0960097,0.20710999,1,0,0,0,0,false,false,false,-2078.3298,-2715.05,17.01,0.0024843037,0.0040973476,-0.5155799,0.85682803,717.761,-1354.101,8.301001,0,0.00021,0,-1,1,0,0,0,false,false,true,-1224.4299,-3006.8499,17.01,0.002791807,0.003827608,-0.5774692,0.8163986,651.41095,-1185.891,8.331,0.00151,0.00111,0.91411
275.04166,-711.88995,-3003.5598,160.68,0.42667335,0.11414083,-0.00793309,0.8971392,754.001,-806.321,117.65099,4.37941,4.0960097,0.20710999,1,0,0,0,0,false,false,false,-2066.3699,-2737.6099,17.01,0.0024843037,0.0040973476,-0.5155799,0.85682803,717.761,-1354.101,8.301001,0,0.00021,0,-1,1,0,0,0,false,false,true,-1213.58,-3026.6099,17.01,0.0027702278,0.0038599768,-0.5710926,0.8208718,648.66095,-1184.4509,8.321,0.00111,0.00091,0.99701
275.05832,-699.32996,-3017,162.51,0.45840034,0.14563042,-0.01676981,0.87657267,753.60095,-805.90094,106.751,4.37941,4.0960097,0.20710999,1,0,0,0,0,false,false,false,-2054.41,-2760.17,17.01,0.0024843037,0.0040973476,-0.5155799,0.85682803,717.761,-1354.101,8.301001,0,0.00021,0,-1,1,0,0,0,false,false,true,-1202.77,-3046.3398,17.01,0.002737859,0.0038923454,-0.5641117,0.82568467,646.52094,-1182.761,8.321,0.00091,0.00081,1.07861
275.075,-686.76996,-3030.42,164.15,0.48898348,0.17675847,-0.025563326,0.85381377,753.201,-805.48096,95.851,4.37941,4.0960097,0.20710999,1,0,0,0,0,false,false,false,-2042.45,-2782.73,17.01,0.0024843037,0.0040973476,-0.5155799,0.85682803,717.761,-1354.101,8.301001,0,0.00021,0,-1,1,0,0,0,false,false,true,-1192,-3066.05,17.01,0.0027054902,0.003924714,-0.55652654,0.83081603,645.011,-1180.781,8.321,0.00071,0.00071,1.15861
275.09167,-674.22,-3043.8398,165.61,0.518342,0.20744416,-0.034292147,0.8289224,752.80096,-805.061,84.971,4.37941,4.0960097,0.20710999,1,0,0,0,0,false,false,false,-2030.49,-2805.29,17.01,0.0024843037,0.0040973476,-0.5155799,0.85682803,717.761,-1354.101,8.301001,0,0.00021,0,-1,1,0,0,0,false,false,true,-1181.25,-3085.72,17.01,0.0026677267,0.003957083,-0.54834265,0.83624005,644.15094,-1178.4509,8.321,0.00051,0.00061,1.2366099
275.10834,-661.68,-3057.26,166.89,0.5464059,0.23761202,-0.042934652,0.80195856,752.40094,-804.6409,74.090996,4.37941,4.0960097,0.20710999,1,0,0,0,0,false,false,false,-2018.5299,-2827.8499,17.01,0.0024843037,0.0040973476,-0.5155799,0.85682803,717.761,-1354.101,8.301001,0,0.00021,0,-1,1,0,0,0,false,false,true,-1170.51,-3105.3499,17.01,0.0026245683,0.0039894516,-0.53956527,0.84193015,643.96094,-1175.751,8.321,0.00040999998,0.00061,1.31211
275.125,-649.14,-3070.66,167.98999,0.5731049,0.2671864,-0.05147466,0.77298933,752.011,-804.22095,63.211,4.37941,4.0960097,0.20710999,1,0,0,0,0,false,false,false,-2006.57,-2850.41,17.01,0.0024843037,0.0040973476,-0.5155799,0.85682803,717.761,-1354.101,8.301001,0,0.00021,0,-1,1,0,0,0,false,false,true,-1159.77,-3124.93,17.01,0.00258141,0.0040218206,-0.5301945,0.84786254,644.451,-1172.621,8.321,0.00040999998,0.00051,1.38471
275.14166,-636.61,-3084.0598,168.91,0.59837425,0.2960918,-0.059885148,0.742086,751.631,-803.80096,52.330997,4.37941,4.0960097,0.20710999,1,0,0,0,0,false,false,false,-1994.61,-2872.97,17.01,0.0024843037,0.0040973476,-0.5155799,0.85682803,717.761,-1354.101,8.301001,0,0.00021,0,-1,1,0,0,0,false,false,true,-1149.03,-3144.46,17.01,0.0025382515,0.004054189,-0.5202518,0.85399944,645.621,-1169.011,8.321,0.00030999997,0.00051,1.45381
275.15833,-624.08997,-3097.45,169.65,0.6221438,0.3242582,-0.06814463,0.7093307,751.251,-803.381,41.470997,4.37941,4.0960097,0.20710999,1,0,0,0,0,false,false,false,-1982.6499,-2895.53,17.01,0.0024843037,0.0040973476,-0.5155799,0.85682803,717.761,-1354.101,8.301001,0,0.00021,0,-1,1,0,0,0,false,false,true,-1138.26,-3163.92,17.01,0.002484304,0.0040865582,-0.50974816,0.8603103,647.441,-1164.851,8.321,0.00021,0.00051,1.51911
275.175,-611.57,-3110.8298,170.20999,0.6443596,0.35161528,-0.07623685,0.6748001,750.871,-802.96094,30.610998,4.37941,4.0960097,0.20710999,1,0,0,0,0,false,false,false,-1970.69,-2918.0898,17.01,0.0024843037,0.0040973476,-0.5155799,0.85682803,717.761,-1354.101,8.301001,0,0.00021,0,-1,1,0,0,0,false,false,true,-1127.46,-3183.3198,17.01,0.0024303556,0.004118927,-0.49870494,0.8667585,649.86096,-1160.101,8.321,0.00021,0.00051,1.58091
275.19168,-599.06,-3124.21,170.58,0.6649611,0.37809303,-0.08413488,0.6385871,750.49097,-802.54095,19.751,4.37941,4.0960097,0.20710999,1,0,0,0,0,false,false,false,-1958.73,-2940.65,17.01,0.0024843037,0.0040973476,-0.5155799,0.85682803,717.761,-1354.101,8.301001,0,0.00021,0,-1,1,0,0,0,false,false,true,-1116.61,-3202.64,17.01,0.0023764076,0.0041512954,-0.48713845,0.8733116,652.811,-1154.721,8.321,0.00021,0.00051,1.63931
275.20834,-586.56,-3137.5798,170.76999,0.68389845,0.40362668,-0.09182246,0.60078025,750.11096,-802.121,8.901,4.37941,4.0960097,0.20710999,1,0,0,0,0,false,false,false,-1946.7699,-2963.21,17.01,0.0024843037,0.0040973476,-0.5155799,0.85682803,717.761,-1354.101,8.301001,0,0.00021,0,-1,1,0,0,0,false,false,true,-1105.72,-3221.8599,17.01,0.0023224594,0.004183664,-0.47505942,0.8799405,656.24097,-1148.6909,8.321,0.00010999999,0.00051,1.69451
275.225,-574.06,-3150.94,170.78,0.7011294,0.42815152,-0.09928351,0.5614682,749.73096,-801.701,-1.931,4.37941,4.0960097,0.20710999,1,0,0,0,0,false,false,false,-1934.8099,-2985.77,17.01,0.0024843037,0.0040973476,-0.5155799,0.85682803,717.761,-1354.101,8.301001,0,0.00021,0,-1,1,0,0,0,false,false,true,-1094.77,-3240.97,17.01,0.0022577222,0.004216033,-0.46248955,0.88661176,660.071,-1141.981,8.321,0,0.00051,1.74651
275.24167,-561.57,-3164.3,170.61,0.71661025,0.45160276,-0.106491,0.52075356,749.35095,-801.28094,-12.751,4.37941,4.0960097,0.20710999,1,0,0,0,0,false,false,false,-1922.85,-3008.3298,17.01,0.0024843037,0.0040973476,-0.5155799,0.85682803,717.761,-1354.101,8.301001,0,0.00021,0,-1,1,0,0,0,false,false,true,-1083.75,-3259.98,17.01,0.0021929848,0.004248402,-0.4494449,0.8932952,664.24097,-1134.5609,8.321,0,0.00061,1.7955099
275.25833,-549.08997,-3177.65,170.26,0.7302982,0.47392654,-0.11343411,0.47873878,748.97095,-800.86096,-23.571,4.37941,4.0960097,0.20710999,1,0,0,0,0,false,false,false,-1910.89,-3030.89,17.01,0.0024843037,0.0040973476,-0.5155799,0.85682803,717.761,-1354.101,8.301001,0,0.00021,0,-1,1,0,0,0,false,false,true,-1072.66,-3278.8499,17.01,0.0021282467,0.00428077,-0.4359416,0.89996207,668.68097,-1126.4209,8.321,0,0.00061,1.84161
275.275,-536.61,-3190.99,169.73,0.742166,0.49506342,-0.12009672,0.4355209,748.59094,-800.441,-34.391,4.37941,4.0960097,0.20710999,1,0,0,0,0,false,false,false,-1898.9299,-3053.45,17.01,0.0024843037,0.0040973476,-0.5155799,0.85682803,717.761,-1354.101,8.301001,0,0.00021,0,-1,1,0,0,0,false,false,true,-1061.5,-3297.5898,17.01,0.0020635095,0.0043131392,-0.42200145,0.9065825,673.30096,-1117.5509,8.321,0,0.00061,1.88471
275.29166,-524.13,-3204.3298,169.01999,0.7521752,0.5149648,-0.12645715,0.3912186,748.21094,-800.02094,-45.190998,4.37941,4.0960097,0.20710999,1,0,0,0,0,false,false,false,-1886.97,-3076.01,17.01,0.0024843037,0.0040973476,-0.5155799,0.85682803,717.761,-1354.101,8.301001,0,0.00021,0,-1,1,0,0,0,false,false,true,-1050.26,-3316.17,17.01,0.001993377,0.0043455083,-0.40763506,0.9131323,678.02094,-1107.9209,8.321,0,0.00071,1.92501
275.30832,-511.66998,-3217.65,168.12999,0.7603011,0.53358245,-0.1325048,0.34593996,747.83093,-799.60095,-55.990997,4.37941,4.0960097,0.20710999,1,0,0,0,0,false,false,false,-1875.01,-3098.5698,17.01,0.0024843037,0.0040973476,-0.5155799,0.85682803,717.761,-1354.101,8.301001,0,0.00021,0,-1,1,0,0,0,false,false,true,-1038.94,-3334.5898,17.01,0.00191785,0.004377877,-0.39286405,0.91958404,682.761,-1097.5509,8.321,0,0.00071,1.96231
275.325,-499.21,-3230.97,167.06,0.7665297,0.550862,-0.13821791,0.29979807,747.451,-799.18097,-66.791,4.37941,4.0960097,0.20710999,1,0,0,0,0,false,false,false,-1863.0499,-3121.13,17.01,0.0024843037,0.0040973476,-0.5155799,0.85682803,717.761,-1354.101,8.301001,0,0.00021,0,-1,1,0,0,0,false,false,true,-1027.5399,-3352.8398,17.01,0.0018423229,0.0044102455,-0.37770998,0.92591155,687.43097,-1086.4309,8.321,0,0.00071,1.99681
275.34167,-486.75,-3244.29,165.81,0.7708422,0.56676596,-0.14358574,0.25290626,747.071,-798.761,-77.581,4.37941,4.0960097,0.20710999,1,0,0,0,0,false,false,false,-1851.09,-3143.69,17.01,0.0024843037,0.0040973476,-0.5155799,0.85682803,717.761,-1354.101,8.301001,0,0.00021,0,1,1,0,0,0,false,false,false,-1016.06,-3370.89,17.01,0.0017667958,0.0044426145,-0.3621891,0.9320923,691.941,-1074.5709,8.321,0,0.00071,2.02831
275.35834,-474.31,-3257.5898,164.37999,0.7732267,0.58125633,-0.1485975,0.20537794,746.691,-798.34094,-88.361,4.37941,4.0960097,0.20710999,1,0,0,0,0,false,false,false,-1839.13,-3166.25,17.01,0.0024843037,0.0040973476,-0.5155799,0.85682803,717.761,-1354.101,8.301001,0,0.00021,0,1,1,0,0,0,false,false,false,-1004.48,-3388.75,17.01,0.0016912686,0.004474983,-0.3462636,0.938125,703.58093,-1063.4309,8.331,0,0.00021,2.09001
275.375,-461.87,-3270.89,162.76999,0.773681,0.5942903,-0.15323707,0.15733711,746.311,-797.92096,-99.141,4.37941,4.0960097,0.20710999,1,0,0,0,0,false,false,false,-1827.1699,-3188.8098,17.01,0.0024843037,0.0040973476,-0.5155799,0.85682803,717.761,-1354.101,8.301001,0,0.00021,0,1,1,0,0,0,false,false,false,-992.69995,-3406.41,17.01,0.0016157415,0.0045073526,-0.32973933,0.94405985,717.46094,-1048.2109,8.341001,0,0,2.15951
275.39166,-449.43,-3284.19,160.98,0.7722013,0.6058406,-0.15748818,0.108902484,745.93097,-797.501,-109.921,4.37941,4.0960097,0.20710999,1,0,0,0,0,false,false,false,-1815.21,-3211.3699,17.01,0.0024843037,0.0040973476,-0.5155799,0.85682803,717.761,-1354.101,8.301001,0,0.00021,0,1,1,0,0,0,false,false,false,-980.68,-3423.7998,17.01,0.0015294247,0.0045397207,-0.31255138,0.9498887,733.371,-1028.641,8.341001,0,0,2.23501
275.40833,-437.00998,-3297.47,159.01,0.7687869,0.61588037,-0.16135089,0.060198087,745.55096,-797.08093,-120.681,4.37941,4.0960097,0.20710999,1,0,0,0,0,false,false,false,-1803.25,-3233.93,17.01,0.0024843037,0.0040973476,-0.5155799,0.85682803,717.761,-1354.101,8.301001,0,0.00021,0,1,1,0,0,0,false,false,false,-968.38995,-3440.8499,17.01,0.001443108,0.0045720898,-0.29465142,0.9555927,751.03094,-1004.53094,8.351,0,-0.00010999999,2.31461
275.425,-424.59,-3310.75,156.86,0.76345426,0.62437725,-0.16480897,0.011342644,745.17096,-796.66095,-131.44101,4.37941,4.0960097,0.20710999,1,0,0,0,0,false,false,false,-1791.2899,-3256.49,17.01,0.0024843037,0.0040973476,-0.5155799,0.85682803,717.761,-1354.101,8.301001,0,0.00021,0,1,1,0,0,0,false,false,false,-955.79,-3457.48,17.01,0.0013567912,0.004593669,-0.2760015,0.9611452,770.09094,-975.751,8.351,0,-0.00021,2.39681
275.44168,-412.16998,-3324.02,154.53,0.7562161,0.6313095,-0.16785699,-0.03753981,744.79095,-796.24097,-142.201,4.37941,4.0960097,0.20710999,1,0,0,0,0,false,false,false,-1779.33,-3279.0498,17.01,0.0024843037,0.0040973476,-0.5155799,0.85682803,717.761,-1354.101,8.301001,0,0.00021,0,1,1,0,0,0,false,false,false,-942.87,-3473.6099,17.01,0.0012650796,0.0046152477,-0.25658014,0.96651095,790.17096,-942.23096,8.361,0,-0.00010999999,2.47981
275.45834,-399.75998,-3337.28,152.03,0.7470861,0.6366666,-0.17048427,-0.08633056,744.41095,-795.821,-152.961,4.37941,4.0960097,0.20710999,1,0,0,0,0,false,false,false,-1767.37,-3301.6099,17.01,0.0024843037,0.0040973476,-0.5155799,0.85682803,717.761,-1354.101,8.301001,0,0.00021,0,1,1,0,0,0,false,true,false,-929.62,-3489.16,17.01,0.0011679734,0.004636827,-0.23638198,0.9716484,810.821,-903.98096,8.371,0,0,2.56211
275.475,-387.36,-3350.54,149.34999,0.7360888,0.6404322,-0.1726854,-0.13490547,744.03094,-795.40094,-163.701,4.37941,4.0960097,0.20710999,1,0,0,0,0,false,false,false,-1755.4099,-3324.17,17.01,0.0024843037,0.0040973476,-0.5155799,0.85682803,717.761,-1354.101,8.301001,0,0.00021,0,1,1,0,0,0,false,true,false,-915.82996,-3504.14,17.01,0.001070867,0.004658406,-0.21541771,0.9765102,846.27094,-868.30096,8.291,0,0,2.64311
275.49167,-374.96,-3363.79,146.48999,0.7232489,0.6426009,-0.1744549,-0.18314056,743.65094,-794.98096,-174.44101,4.37941,4.0960097,0.20710999,1,0,0,0,0,false,false,false,-1743.45,-3346.73,17.01,0.0024843037,0.0040973476,-0.5155799,0.85682803,717.761,-1354.101,8.301001,0,0.00021,0,1,1,0,0,0,false,true,false,-901.45996,-3518.5,17.01,0.0009629711,0.0046799853,-0.19369282,0.98105055,881.571,-827.1409,8.261001,0,0,2.72221
275.50833,-362.56998,-3377.03,143.45,0.7086033,0.64316195,-0.1757874,-0.23091704,743.27094,-794.561,-185.181,4.37941,4.0960097,0.20710999,1,0,0,0,0,false,false,false,-1731.49,-3369.29,17.01,0.0024843037,0.0040973476,-0.5155799,0.85682803,717.761,-1354.101,8.301001,0,0.00021,0,1,1,0,0,0,false,true,false,-886.49,-3532.15,17.01,0.0008550752,0.0047015646,-0.17122877,0.98521966,916.2009,-780.621,8.261001,0,0,2.79831
275.525,-350.19,-3390.27,140.23,0.69218653,0.64211535,-0.17668295,-0.2781163,742.8909,-794.1409,-195.911,4.37941,4.0960097,0.20710999,1,0,0,0,0,false,false,false,-1719.5299,-3391.8499,17.01,0.0024843037,0.0040973476,-0.5155799,0.85682803,717.761,-1354.101,8.301001,0,0.00021,0,1,1,0,0,0,false,true,false,-870.94995,-3545,17.01,0.00074717926,0.0047231438,-0.14806342,0.9889663,949.66095,-728.96094,8.261001,0,0,2.87021
275.54166,-337.81,-3403.5,136.83,0.6740406,0.6394611,-0.17713611,-0.324625,742.511,-793.72095,-206.631,4.37941,4.0960097,0.20710999,1,0,0,0,0,false,false,false,-1707.57,-3414.41,17.01,0.0024843037,0.0040973476,-0.5155799,0.85682803,717.761,-1354.101,8.301001,0,0.00021,0,1,1,0,0,0,false,true,false,-854.86,-3556.95,17.01,0.0006338885,0.0047393283,-0.12422913,0.992242,981.43097,-672.42096,8.261001,0,0,2.93701
275.55832,-325.44,-3416.72,133.25,0.6542101,0.63521,-0.1771469,-0.37031913,742.131,-793.30096,-217.351,4.37941,4.0960097,0.20710999,1,0,0,0,0,false,false,false,-1695.61,-3436.97,17.01,0.0024843037,0.0040973476,-0.5155799,0.85682803,717.761,-1354.101,8.301001,0,0.00021,0,1,1,0,0,0,false,false,false,-838.24,-3567.94,17.01,0.00051520293,0.004750117,-0.09977982,0.9949979,1011.03094,-611.36096,8.261001,0,0,2.99781
275.575,-313.08,-3429.94,129.48999,0.632741,0.6293728,-0.17671531,-0.4150907,741.751,-792.881,-228.071,4.37941,4.0960097,0.20710999,1,0,0,0,0,false,false,false,-1683.6499,-3459.53,17.01,0.0024843037,0.0040973476,-0.5155799,0.85682803,717.761,-1354.101,8.301001,0,0.00021,0,-1,1,0,0,0,false,false,false,-821.33997,-3577.8398,17.01,0.0003965175,0.0047609075,-0.07478026,0.9971885,1021.881,-543.35095,8.341001,0,0,3.05101
275.59167,-300.72,-3443.15,125.549995,0.6096925,0.621959,-0.17584136,-0.45882648,741.371,-792.46094,-238.771,4.37941,4.0960097,0.20710999,1,0,0,0,0,false,false,false,-1671.69,-3482.0898,17.01,0.0024843037,0.0040973476,-0.5155799,0.85682803,717.761,-1354.101,8.301001,0,0.00021,0,-1,1,0,0,0,false,false,false,-804.49,-3586.5999,17.01,0.0002724372,0.004777092,-0.049651176,0.9987551,976.17096,-473.161,8.3810005,-0.0012099999,0.00251,2.93191
275.60834,-288.37,-3456.3499,121.439995,0.58511907,0.6129937,-0.17452502,-0.50141317,740.99097,-792.04095,-249.47101,4.37941,4.0960097,0.20710999,1,0,0,0,0,false,false,false,-1659.73,-3504.65,17.01,0.0024843037,0.0040973476,-0.5155799,0.85682803,717.761,-1354.101,8.301001,0,0.00021,0,-1,1,0,0,0,false,false,false,-788.43,-3594.2,17.01,0.00014296208,0.0048040655,-0.025498586,0.9996632,926.09094,-404.981,8.391,-0.0017099999,0.00301,2.80531
275.625,-276.03,-3469.5498,117.149994,0.5590837,0.6024978,-0.17277712,-0.5427428,740.61096,-791.621,-260.171,4.37941,4.0960097,0.20710999,1,0,0,0,0,false,false,false,-1647.77,-3527.21,17.01,0.0024843037,0.0040973476,-0.5155799,0.85682803,717.761,-1354.101,8.301001,0,0.00021,0,-1,1,0,0,0,false,false,false,-773.20996,-3600.67,17.01,0.000013486991,0.00483104,-0.0023979868,0.9999854,871.84094,-339.931,8.401,-0.0018099999,0.00271,2.67101
275.64166,-263.69,-3482.73,112.68,0.5316511,0.5904935,-0.17059757,-0.58271843,740.23096,-791.22095,-270.871,4.37941,4.0960097,0.20710999,1,0,0,0,0,false,false,false,-1635.8099,-3549.77,17.01,0.0024843037,0.0040973476,-0.5155799,0.85682803,717.761,-1354.101,8.301001,0,0.00021,0,1,1,0,0,0,false,false,false,-758.91,-3606.0698,17.01,-0.000105198524,0.004852619,0.019564312,0.99979675,813.8909,-279.111,8.401,-0.0018099999,0.00211,2.52771
275.65833,-251.34999,-3495.91,108.03,-0.50288594,-0.57701606,0.16798653,0.62123954,739.85095,-790.821,-281.551,4.37941,4.0960097,0.20710999,1,0,0,0,0,false,false,false,-1623.85,-3572.3298,17.01,0.0024843037,0.0040973476,-0.5155799,0.85682803,717.761,-1354.101,8.301001,0,0.00021,0,1,1,0,0,0,false,false,false,-745.35,-3610.44,17.01,-0.00021848925,0.0048580137,0.040765945,0.99915683,812.67096,-210.811,8.401,0.00010999999,-0.00081,2.59531
275.675,-239.03,-3509.0898,103.2,-0.4728692,-0.56209403,0.16495997,0.65820444,739.47095,-790.42096,-292.231,4.37941,4.0960097,0.20710999,1,0,0,0,0,false,false,false,-1611.89,-3594.89,17.01,0.0024843037,0.0040973476,-0.5155799,0.85682803,717.761,-1354.101,8.301001,0,0.00021,0,1,1,0,0,0,false,false,false,-731.82,-3613.68,17.01,-0.00032099037,0.004841829,0.06248548,0.998034,809.191,-144.201,8.401,0.00091,-0.0016099999,2.65231
275.69168,-226.70999,-3522.25,98.2,-0.4416709,-0.5457693,0.16151807,0.6935231,739.09094,-790.02094,-302.911,4.37941,4.0960097,0.20710999,1,0,0,0,0,false,false,false,-1599.9299,-3617.45,17.01,0.0024843037,0.0040973476,-0.5155799,0.85682803,717.761,-1354.101,8.301001,0,0.00021,0,1,1,0,0,0,false,false,false,-718.36,-3615.8098,17.01,-0.0004180967,0.0048202504,0.0846312,0.99640054,803.571,-79.541,8.401,0.0010099999,-0.0016099999,2.69921
275.70834,-214.39,-3535.41,93.02,-0.4093668,-0.5280797,0.1576716,0.72711086,738.71094,-789.621,-313.581,4.37941,4.0960097,0.20710999,1,0,0,0,0,false,false,false,-1587.97,-3640.01,17.01,0.0024843037,0.0040973476,-0.5155799,0.85682803,717.761,-1354.101,8.301001,0,0.00021,0,1,1,0,0,0,false,false,false,-704.99,-3616.8699,17.01,-0.0005205978,0.004798671,0.10710061,0.9942364,795.98096,-17.071,8.401,0.00081,-0.0014099999,2.73521
275.725,-203.81999,-3546.71,96.11,-0.3647031,-0.5017476,0.15117086,0.76966757,634.131,-677.86096,182.631,4.38071,4.09801,0.122109994,1,0,0,0,0,false,false,false,-1576.01,-3662.5698,17.01,0.0024843037,0.0040973476,-0.5155799,0.85682803,717.761,-1354.101,8.301001,0,0.00021,0,1,1,0,0,0,false,false,false,-691.76,-3616.9,17.01,-0.0006284937,0.004777092,0.1297912,0.9915296,786.61096,43.021,8.401,0.00061,-0.0012099999,2.76021
275.74167,-193.26,-3558.01,99.02,-0.33048916,-0.48073483,0.14590554,0.79898834,633.811,-677.501,171.69101,4.38071,4.09801,0.122109994,1,0,0,0,0,false,false,false,-1564.0499,-3685.13,17.01,0.0024843037,0.0040973476,-0.5155799,0.85682803,717.761,-1354.101,8.301001,0,0.00021,0,1,1,0,0,0,false,false,false,-678.69,-3615.94,17.01,-0.00073638966,0.004755513,0.15259509,0.988277,775.6409,100.631,8.391,0.00051,-0.0010099999,2.77421
275.75833,-182.7,-3569.29,101.75,-0.29544982,-0.45851898,0.14027329,0.8263129,633.49097,-677.141,160.771,4.38071,4.09801,0.122109994,1,0,0,0,0,false,false,false,-1552.09,-3707.69,17.01,0.0024843037,0.0040973476,-0.5155799,0.85682803,717.761,-1354.101,8.301001,0,0.00021,0,1,1,0,0,0,false,false,false,-665.82,-3614.03,17.01,-0.0008442856,0.0047339336,0.17541516,0.98448277,763.27094,155.72101,8.391,0.00040999998,-0.00091,2.7778099
275.775,-172.14,-3580.5698,104.29,-0.25967142,-0.43515944,0.13429585,0.85157,633.17096,-676.78094,149.851,4.38071,4.09801,0.122109994,1,0,0,0,0,false,false,false,-1540.13,-3730.25,17.01,0.0024843037,0.0040973476,-0.5155799,0.85682803,717.761,-1354.101,8.301001,0,0.00021,0,1,1,0,0,0,false,false,false,-653.14996,-3611.21,17.01,-0.0009521815,0.0047015646,0.19814892,0.9801601,749.67096,208.321,8.3810005,0.00021,-0.00081,2.77191
275.79166,-161.59,-3591.8499,106.649994,-0.2232456,-0.4107155,0.12797855,0.8746974,632.85095,-676.42096,138.931,4.38071,4.09801,0.122109994,1,0,0,0,0,false,false,false,-1528.1699,-3752.8098,17.01,0.0024843037,0.0040973476,-0.5155799,0.85682803,717.761,-1354.101,8.301001,0,0.00021,0,1,1,0,0,0,false,false,false,-640.70996,-3607.52,17.01,-0.0010600775,0.004669196,0.22071004,0.9753277,734.99097,258.471,8.3810005,0.00010999999,-0.00061,2.7576098
275.80832,-151.05,-3603.1199,108.829994,-0.18625876,-0.3852412,0.12134288,0.89564097,632.53094,-676.061,128.02101,4.38071,4.09801,0.122109994,1,0.007874016,0,0,0,false,false,false,-1516.21,-3775.3699,17.01,0.0024843037,0.0040973476,-0.5155799,0.85682803,717.761,-1354.101,8.301001,0,0.00021,0,1,1,0,0,0,false,false,false,-628.52997,-3603.01,17.01,-0.0011679734,0.004636827,0.24302301,0.9700087,719.36096,306.281,8.3810005,0,-0.00051,2.7362099
275.825,-140.51,-3614.38,110.829994,-0.14880788,-0.35880113,0.11440515,0.9143463,632.21094,-675.701,117.120995,4.38071,4.09801,0.122109994,1,0.007874016,0,0,0,false,false,false,-1504.25,-3797.93,17.01,0.002484304,0.004097348,-0.51556915,0.85683453,717.91095,-1354.011,8.301001,0,0.00021,0.00441,1,-1,0,0,0,false,true,false,-616.61,-3597.72,17.01,-0.0012758692,0.0046044583,0.26502305,0.9642302,702.881,351.861,8.371,0,-0.00040999998,2.70911
275.84167,-129.97,-3625.64,112.649994,-0.11098486,-0.33147103,0.107181534,0.93076384,631.891,-675.34094,106.221,4.38071,4.09801,0.122109994,1,0.007874016,0,0,0,false,false,false,-1492.2899,-3820.49,17.01,0.002484304,0.004097348,-0.5155314,0.85685724,718.03094,-1353.9309,8.301001,0,0.00021,0.00751,1,-1,0,0,0,false,false,false,-604.69,-3591.75,17.01,-0.0013945547,0.0045666946,0.2838294,0.95886284,722.77094,362.561,8.291,-0.00821,-0.0057099997,1.38571
275.85834,-119.45,-3636.89,114.28,-0.072886676,-0.30330464,0.099682756,0.94485813,631.571,-674.98096,95.321,4.38071,4.09801,0.122109994,1,0,0,0,0,false,false,false,-1480.33,-3843.0498,17.01,0.002484304,0.004097348,-0.51547205,0.85689294,718.17096,-1353.851,8.301001,0,0.00021,0.009709999,1,-1,0,0,0,false,false,false,-592.45,-3585.5598,17.01,-0.001518635,0.0045235357,0.29277393,0.9561696,740.73096,380.121,8.231,-0.009109999,-0.00661,0.39221
275.875,-108.93,-3648.13,115.729996,-0.03460505,-0.2743831,0.091941155,0.95658934,631.251,-674.621,84.440994,4.38071,4.09801,0.122109994,1,0,0,0,0,false,false,false,-1468.37,-3865.6099,17.01,0.002484304,0.004097348,-0.5154127,0.85692865,718.18097,-1353.8309,8.301001,0,0.00021,0.0068099997,1,-1,0,0,0,false,false,false,-579.91,-3579.0698,17.01,-0.0016103466,0.0044911676,0.29428992,0.9557042,759.11096,398.641,8.191,-0.00701,-0.00531,-0.36151
275.89166,-98.409996,-3659.3699,117,0.0037628703,-0.24477632,0.08396764,0.96592945,630.93097,-674.261,73.561,4.38071,4.09801,0.122109994,1,0,0,0,0,false,false,false,-1456.4,-3888.17,17.01,0.0024843037,0.0040973476,-0.5153641,0.8569578,718.23096,-1353.7909,8.301001,0,0.00021,0.00481,1,-1,0,0,0,false,false,true,-567.07,-3572.28,17.01,-0.001653505,0.004474983,0.29020604,0.9569522,779.23096,415.261,8.1710005,-0.00401,-0.00321,-0.92181
275.90833,-87.89,-3670.6099,118.09,0.04212004,-0.21455994,0.07578365,0.9728549,630.61096,-673.90094,62.681,4.38071,4.09801,0.122109994,1,0,0,0,0,false,false,false,-1444.4199,-3910.73,17.01,0.0024843037,0.0040973476,-0.51533175,0.8569773,718.311,-1353.731,8.301001,0,0.00021,0.00341,1,-1,0,0,0,false,false,true,-553.88,-3565.23,17.01,-0.0016427154,0.0044803782,0.2819682,0.9594118,801.78094,427.341,8.1710005,-0.00111,-0.0010099999,-1.32721
275.925,-77.39,-3681.8298,119,0.0803747,-0.18380411,0.06741092,0.9773493,630.29095,-673.54095,51.801,4.38071,4.09801,0.122109994,1,0,0,0,0,false,false,false,-1432.44,-3933.2898,17.01,0.002484304,0.004097348,-0.5153102,0.8569903,718.3909,-1353.6809,8.301001,0,0.00021,0.00241,1,-1,0,0,0,false,false,true,-540.3,-3558,17.01,-0.0015941622,0.0044965623,0.2706984,0.9626523,826.52094,434.211,8.191,0.0012099999,0.00061,-1.62471
275.94168,-66.89,-3693.0498,119.729996,0.11842429,-0.1525897,0.058870967,0.97940093,629.97095,-673.201,40.940998,4.38071,4.09801,0.122109994,1,0,0,0,0,false,false,false,-1420.46,-3955.8499,17.01,0.002484304,0.004097348,-0.515294,0.857,718.451,-1353.641,8.301001,0,0.00021,0.0017099999,1,-1,0,0,0,false,false,true,-526.47,-3550.78,17.01,-0.0015132403,0.004523536,0.25715744,0.9663577,838.86096,427.671,8.281,0.00251,0.0016099999,-1.85091
275.95834,-56.39,-3704.27,120.28,0.15617724,-0.12099765,0.05018526,0.9790044,629.65094,-672.86096,30.081,4.38071,4.09801,0.122109994,1,0,0,0,0,false,false,false,-1408.48,-3978.41,17.01,0.002484304,0.004097348,-0.5152832,0.8570065,718.511,-1353.601,8.301001,0,0.00021,0.0012099999,1,-1,0,0,0,false,false,true,-512.44,-3543.69,17.01,-0.001416134,0.0045559052,0.24184155,0.97030395,852.011,417.461,8.321,0.00311,0.0019099999,-2.03011
275.975,-45.899998,-3715.48,120.649994,0.19354177,-0.08910349,0.041375555,0.9761609,629.33093,-672.52094,19.220999,4.38071,4.09801,0.122109994,1,0,0,0,0,false,false,false,-1396.5,-4000.97,17.01,0.0024843037,0.0040973476,-0.5152724,0.857013,718.55096,-1353.5609,8.301001,0,0.00021,0.00081,1,-1,0,0,0,false,false,true,-498.18,-3536.78,17.01,-0.001308238,0.004588274,0.22507983,0.9743286,865.29095,404.431,8.341001,0.00321,0.0018099999,-2.17781
275.99167,-35.42,-3726.68,120.829994,0.23042607,-0.056982744,0.032457873,0.9708775,629.011,-672.18097,8.371,4.38071,4.09801,0.122109994,1,0,0,0,0,false,false,false,-1384.52,-4023.53,17.01,0.002484304,0.004097348,-0.5152671,0.8570162,718.59094,-1353.521,8.301001,0,0.00021,0.00061,1,-1,0,0,0,false,false,true,-483.69998,-3530.0999,17.01,-0.0011949473,0.004620643,0.20709349,0.97830945,878.18097,389.381,8.341001,0.00311,0.0016099999,-2.30331
276.00833,-24.939999,-3737.88,120.829994,0.2667332,-0.024716342,0.023459354,0.9631677,628.691,-671.84094,-2.461,4.38071,4.09801,0.122109994,1,0,0,0,0,false,false,false,-1372.5399,-4046.0898,17.01,0.002484304,0.004097348,-0.5152671,0.8570162,718.621,-1353.501,8.301001,0,0.00021,0.00040999998,1,-1,0,0,0,false,false,true,-469.00998,-3523.67,17.01,-0.0010762617,0.0046530114,0.18804987,0.9821478,890.28094,373.091,8.341001,0.00291,0.00131,-2.41191
276.025,-14.46,-3749.0798,120.649994,0.3023768,0.0076039652,0.014406888,0.9530492,628.371,-671.501,-13.281,4.38071,4.09801,0.122109994,1,0,0,0,0,false,false,false,-1360.5599,-4068.65,17.01,0.002484304,0.004097348,-0.5152671,0.8570162,718.6409,-1353.481,8.301001,0,0.00021,0.00021,1,-1,0,0,0,false,false,true,-454.12,-3517.52,17.01,-0.0009575763,0.0046799853,0.16807285,0.98576295,901.30096,356.391,8.341001,0.00251,0.0010099999,-2.50641
276.04166,-3.99,-3760.26,120.29,0.33726507,0.039913572,0.005316572,0.9405482,628.05096,-671.16095,-24.101,4.38071,4.09801,0.122109994,1,0,0,0,0,false,false,false,-1348.58,-4091.21,17.01,0.002484304,0.004097348,-0.5152671,0.8570162,718.65094,-1353.4609,8.301001,0,0.00021,0.00010999999,1,-1,0,0,0,false,false,true,-439.06,-3511.65,17.01,-0.0008388908,0.0047015646,0.14727043,0.98908466,911.071,340.161,8.341001,0.00221,0.00081,-2.58841
276.05832,6.47,-3771.44,119.75,0.37130097,0.072120585,-0.0037898442,0.9256996,627.73096,-670.821,-34.920998,4.38071,4.09801,0.122109994,1,0,0,0,0,false,false,false,-1336.6,-4113.77,17.01,0.002484304,0.004097348,-0.5152671,0.8570162,718.65094,-1353.4409,8.301001,0,0.00021,0,1,-1,0,0,0,false,false,true,-423.84,-3506.04,17.01,-0.00072020525,0.0047231438,0.1257505,0.99205035,919.52094,325.341,8.341001,0.00201,0.00061,-2.65831
276.075,16.93,-3782.6199,119.03,0.40440893,0.10414426,-0.012890908,0.90853786,627.41095,-670.48096,-45.720997,4.38071,4.09801,0.122109994,1,1,0,0,0,false,false,true,-1324.62,-4136.33,17.01,0.002484304,0.004097348,-0.5152671,0.8570162,718.65094,-1353.4209,8.301001,0,0.00021,0,1,-1,0,0,0,false,false,false,-408.49,-3500.67,17.01,-0.0006015198,0.004744723,0.10362097,0.9946053,926.73096,313.001,8.341001,0.0018099999,0.00040999998,-2.71591
276.09167,27.39,-3793.7898,118.13,0.43651345,0.13590889,-0.021954205,0.88910204,627.09094,-670.141,-56.521,4.38071,4.09801,0.122109994,1,1,0,0,0,false,false,true,-1312.5599,-4158.83,17.01,0.0024896984,0.0040973476,-0.5141287,0.8576996,736.15094,-1341.471,8.331,0.0019099999,-0.00341,0.57111,1,-1,0,0,0,false,false,false,-393.02,-3495.51,17.01,-0.00048283426,0.004755513,0.08097353,0.99670476,933.60095,298.621,8.341001,0.0016099999,0.00021,-2.77071
276.10834,37.829998,-3804.95,117.049995,0.4675229,0.16733377,-0.030963559,0.8674462,626.77094,-669.80096,-67.321,4.38071,4.09801,0.122109994,1,1,0,0,0,false,false,true,-1300.23,-4181.14,17.01,0.0024950933,0.0040973476,-0.509241,0.8606105,751.83093,-1330.601,8.331,0.0019099999,-0.00361,0.98981,1,-1,0,0,0,false,false,false,-377.43,-3490.5999,17.01,-0.00036414873,0.004766302,0.057824377,0.9983153,940.10095,280.301,8.341001,0.0014099999,0.00010999999,-2.82561
276.125,48.27,-3816.1099,115.79,0.49736708,0.19833773,-0.039897382,0.8436209,626.451,-669.46094,-78.111,4.38071,4.09801,0.122109994,1,1,0,0,0,false,false,true,-1287.63,-4203.27,17.01,0.0024896984,0.0041027423,-0.5014887,0.8651508,768.68097,-1318.6909,8.331,0.0014099999,-0.00271,1.32341,1,-1,0,0,0,false,false,false,-361.74,-3486.01,17.01,-0.0002346736,0.0047770916,0.034189682,0.9994038,945.881,257.911,8.341001,0.0012099999,0,-2.8796098
276.14166,58.71,-3827.27,114.35,0.525965,0.2288508,-0.048728663,0.8176879,626.131,-669.121,-88.891,4.38071,4.09801,0.122109994,1,1,0,0,0,false,false,true,-1274.74,-4225.19,17.01,0.0024627245,0.004118927,-0.49139497,0.8709235,787.261,-1305.0709,8.341001,0.00081,-0.00151,1.59801,1,-1,0,0,0,false,false,false,-345.96,-3481.8198,17.01,-0.00010519853,0.0047770925,0.010090967,0.99993765,950.561,231.401,8.351,0.00091,0,-2.93181
276.15833,69.15,-3838.41,112.729996,0.5532465,0.25879207,-0.057435907,0.78971255,625.811,-668.78094,-99.671,4.38071,4.09801,0.122109994,1,1,0,0,0,false,false,true,-1261.5399,-4246.88,17.01,0.0024141711,0.0041459007,-0.4793106,0.87763214,807.33093,-1289.591,8.341001,0.00030999997,-0.00061,1.8300099,1,-1,0,0,0,false,false,false,-330.1,-3478.0798,17.01,0.000018881788,0.0047770925,-0.01444461,0.99988425,953.7609,200.851,8.351,0.00061,0,-2.98121
276.175,79.57,-3849.5498,110.93,0.57914704,0.2880859,-0.06600288,0.7597622,625.49097,-668.441,-110.451,4.38071,4.09801,0.122109994,1,1,0,0,0,false,false,true,-1248,-4268.31,17.01,0.0023548286,0.0041782698,-0.4654891,0.8850406,828.27094,-1272.391,8.341001,0,0,2.0292099,1,-1,0,0,0,false,false,false,-314.19,-3474.88,17.01,0.00013756732,0.0047770925,-0.03937409,0.9992131,955.09094,166.421,8.351,0.00051,0,-3.02701
276.19168,89.99,-3860.69,108.95,0.6036017,0.31666222,-0.07440802,0.7279102,625.17096,-668.10095,-121.211,4.38071,4.09801,0.122109994,1,1,0,0,0,false,false,true,-1234.11,-4289.44,17.01,0.0022793014,0.0042214277,-0.4501246,0.8929528,849.251,-1253.871,8.341001,-0.00021,0.00040999998,2.20121,1,-1,0,0,0,false,false,false,-298.27,-3472.26,17.01,0.00026704243,0.0047716973,-0.0646488,0.9978966,954.191,128.36101,8.361,0.00040999998,0,-3.0685098
276.20834,100.409996,-3871.8198,106.799995,0.62654585,0.3444456,-0.082624294,0.694241,624.85095,-667.761,-131.97101,4.38071,4.09801,0.122109994,1,1,0,0,0,false,false,true,-1219.87,-4310.26,17.01,0.0021983793,0.004264586,-0.4333791,0.90119886,869.371,-1234.651,8.351,-0.00040999998,0.00061,2.3489099,1,-1,0,0,0,false,false,false,-282.38,-3470.29,17.01,0.00039651748,0.004760907,-0.090220205,0.9959102,950.74097,87.001,8.361,0.00030999997,0,-3.10531
