time,ball_loc_x,ball_loc_y,ball_loc_z,ball_rot_x,ball_rot_y,ball_rot_z,ball_rot_w,ball_vel_x,ball_vel_y,ball_vel_z,ball_ang_x,ball_ang_y,ball_ang_z,player0_throttle,player0_steer,player0_pitch,player0_yaw,player0_roll,player0_jump,player0_boost,player0_handbrake,player0_loc_x,player0_loc_y,player0_loc_z,player0_rot_x,player0_rot_y,player0_rot_z,player0_rot_w,player0_vel_x,player0_vel_y,player0_vel_z,player0_ang_x,player0_ang_y,player0_ang_z,player1_throttle,player1_steer,player1_pitch,player1_yaw,player1_roll,player1_jump,player1_boost,player1_handbrake,player1_loc_x,player1_loc_y,player1_loc_z,player1_rot_x,player1_rot_y,player1_rot_z,player1_rot_w,player1_vel_x,player1_vel_y,player1_vel_z,player1_ang_x,player1_ang_y,player1_ang_z
129,-2983.3398,1853.9099,92.14,0.18042693,0.14809044,0.7665754,0.5982285,-324.701,-1927.611,0,4.73071,-2.39291,2.80951,1,-1,0,0,0,false,false,false,-3166.3398,2345.44,16.99,0.0024087764,0.0040973476,-0.50193644,0.86489135,348.861,-581.071,8.581,0,0.00010999999,-2.57251,1,0,-1,-1,0.18110237,true,false,true,-3552.88,3151.3699,25.859999,0.10670679,0.0027216745,0.88477665,-0.45362586,-860.3909,-1120.9209,-260.031,2.52791,-2.13341,0.29741
129.00833,-2986.04,1837.87,92.14,0.18290314,0.12890646,0.77808833,0.586948,-324.481,-1925.231,0,4.74901,-2.3798099,2.78981,1,-1,0,0,0,false,false,false,-3163.43,2340.5999,16.99,0.002451935,0.004070374,-0.5111778,0.85946184,336.671,-594.30096,8.581,0,0.00021,-2.56261,1,0,-1,-1,0.11023622,true,false,true,-3560.0498,3142.03,23.619999,0.09393183,-0.0024249607,0.8851169,-0.4557838,-860.811,-1121.4409,-220.22101,2.38171,-3.30331,0.37571
129.01666,-2988.74,1821.85,92.14,0.18535778,0.109598406,0.7890604,0.5753383,-324.261,-1922.851,0,4.7670097,-2.36671,2.77011,1,-1,0,0,0,false,false,false,-3160.6199,2335.65,16.99,0.0024950933,0.0040433994,-0.5203273,0.8539536,324.471,-607.121,8.581,0,0.00021,-2.55391,1,0,-1,-1,0.11023622,true,false,true,-3567.22,3132.68,21.71,0.07712696,-0.004777092,0.88555026,-0.4580712,-861.17096,-1121.9309,-192.05101,2.20571,-3.95681,0.41121
129.025,-2991.44,1805.85,92.14,0.18779083,0.09017705,0.7994819,0.56341034,-324.041,-1920.471,0,4.78471,-2.35371,2.75051,1,-1,0,0,0,false,false,false,-3157.92,2330.5898,16.99,0.0025382517,0.004016426,-0.5293853,0.84836817,312.221,-619.54095,8.581,0,0.00021,-2.54631,1,0,-1,-1,0.007874016,true,false,true,-3574.4,3123.3298,20.029999,0.05825596,-0.00522486,0.8858377,-0.46029386,-861.501,-1122.611,-158.47101,1.8536099,-3.5824099,0.40421
129.03334,-2994.14,1789.87,92.14,0.19019699,0.070658594,0.80934817,0.5511695,-323.811,-1918.091,0,4.80221,-2.34081,2.73101,1,-1,0,0,0,false,false,false,-3155.3198,2325.43,16.99,0.0025814096,0.003989451,-0.5383568,0.8427034,299.901,-631.59094,8.581,0,0.00030999997,-2.53971,1,0,-1,-1,0.007874016,true,false,true,-3581.5798,3113.97,18.64,0.041478056,-0.005095385,0.88576597,-0.46224678,-861.58093,-1123.401,-127.910995,1.51711,-3.10741,0.39501
129.04167,-2996.8398,1773.9099,92.14,0.1925707,0.051048428,0.81864893,0.5386319,-323.581,-1915.7109,0,4.81951,-2.3280098,2.71151,1,-1,0,0,0,false,false,false,-3152.8198,2320.17,16.99,0.0026245685,0.003962478,-0.54724216,0.8369608,287.491,-643.28094,8.581,0,0.00030999997,-2.53401,1,0,-1,-1,-0.171875,true,false,true,-3588.76,3104.6099,17.51,0.027090054,-0.004642222,0.88541704,-0.46398392,-861.191,-1123.9409,-100.730995,1.20881,-2.59551,0.38651
129.05,-2999.53,1757.97,92.14,0.19491205,0.03136273,0.82737935,0.5258031,-323.351,-1913.3309,0,4.8365097,-2.3152099,2.69211,1,-1,0,0,0,false,false,false,-3150.42,2314.81,16.99,0.0026677267,0.003935504,-0.5560464,0.83113754,274.951,-654.631,8.581,0,0.00030999997,-2.5292099,1,0,-1,-1,-0.171875,true,false,true,-3595.94,3095.24,16.6,0.015183739,-0.004038005,0.8848744,-0.4655646,-860.4509,-1124.4509,-70.211,1.1978099,-1.98381,0.37561
129.05833,-3002.22,1742.0499,92.14,0.19721022,0.0116069885,0.83553815,0.5126883,-323.121,-1910.9509,0,4.85321,-2.30251,2.6728098,1,-1,0,0,0,false,false,false,-3148.13,2309.3499,16.99,0.002710885,0.0039085294,-0.5647752,0.825231,262.271,-665.641,8.581,0,0.00030999997,-2.52511,1,0,0.992126,-1,-0.140625,false,false,true,-3603.1099,3085.8699,15.95,0.0055539426,-0.004582879,0.8842082,-0.46703738,-859.621,-1125.011,-35.911,0.50031,-1.5404099,0.37331
129.06667,-3004.91,1726.1499,92.14,0.19946526,-0.008202829,0.8431144,0.49930382,-322.891,-1908.5709,0,4.86971,-2.2899098,2.65361,1,-1,0,0,0,false,false,false,-3145.94,2303.8,16.99,0.0027486489,0.003881556,-0.5734286,0.8192417,249.441,-676.321,8.581,0,0.00030999997,-2.52171,1,0,0.992126,-1,-0.140625,false,false,true,-3610.27,3076.5,15.58,-0.0010870514,-0.0034176034,0.88348794,-0.46844003,-858.631,-1125.6809,-3.1609998,0.070209995,-0.66541,0.37111
129.075,-3007.5999,1710.27,92.14,0.20167172,-0.028055765,0.85010624,0.4856549,-322.661,-1906.1909,0,4.8860097,-2.27731,2.63441,1,-1,0,0,0,false,false,false,-3143.8599,2298.16,16.99,0.0027864121,0.0038545819,-0.58200634,0.81317025,236.431,-686.68097,8.581,0,0.00030999997,-2.51881,1,0,1,-0.9921875,-0.0625,false,false,true,-3617.42,3067.1199,15.49,-0.003665764,-0.0023764076,0.88275653,-0.4698103,-857.53094,-1126.4209,12.681,-0.02691,-0.27141002,0.36801
129.08333,-3010.29,1694.3999,92.14,0.20382425,-0.04793563,0.85650885,0.4717524,-322.431,-1903.8109,0,4.90201,-2.2648098,2.61531,1,-1,0,0,0,false,false,false,-3141.89,2292.44,16.99,0.0028241756,0.003827608,-0.5905086,0.8070172,223.241,-696.71094,8.581,0,0.00030999997,-2.5164099,1,0,1,-0.9921875,-0.0625,false,false,true,-3624.5698,3057.73,15.53,-0.004609853,-0.0017506114,0.88203156,-0.47116438,-856.35095,-1127.2009,19.780998,-0.02581,-0.098409995,0.36441
129.09166,-3012.97,1678.5499,92.14,0.20592284,-0.06783712,0.86231345,0.4576127,-322.191,-1901.4309,0,4.91781,-2.25241,2.59631,1,-1,0,0,0,false,false,false,-3140.03,2286.63,16.99,0.0028619391,0.0038006334,-0.5989352,0.8007832,209.851,-706.42096,8.581,0,0.00030999997,-2.51451,1,0,1,-0.984375,0.007874016,false,false,true,-3631.71,3048.3398,15.63,-0.0049173567,-0.001470082,0.8813144,-0.47250235,-855.121,-1128.011,22.030998,-0.01661,-0.040609997,0.36051
129.1,-3015.65,1662.72,92.14,0.20795666,-0.087744,0.86752087,0.44324082,-321.951,-1899.0509,0,4.9334097,-2.24011,2.57741,1,-1,0,0,0,false,false,false,-3138.28,2280.74,16.99,0.0028997029,0.00377366,-0.6072918,0.7944645,196.261,-715.811,8.581,0,0.00030999997,-2.51291,1,0,1,-0.984375,0.007874016,false,false,true,-3638.8398,3038.94,15.75,-0.005030648,-0.0013352121,0.8806041,-0.47382408,-853.85095,-1128.841,22.730999,-0.008009999,-0.01591,0.35661
129.10834,-3018.3298,1646.9099,92.14,0.20992582,-0.107645474,0.87212634,0.42864776,-321.711,-1896.6709,0,4.94871,-2.22791,2.55851,1,-1,0,0,0,false,false,false,-3136.64,2274.77,16.99,0.0029374664,0.003746686,-0.61557823,0.78806126,182.461,-724.881,8.581,0,0.00021,-2.51161,1,1,0,0,0,false,true,false,-3645.96,3029.53,15.87,-0.0050738063,-0.0012812641,0.8799002,-0.47512963,-852.54095,-1129.6909,22.681,-0.0018099999,0.00040999998,0.35281
129.11667,-3021.01,1631.12,92.14,0.21182483,-0.1275308,0.8761297,0.41383913,-321.471,-1894.3009,0,4.96381,-2.21581,2.53971,1,-1,0,0,0,false,false,false,-3135.1199,2268.73,16.99,0.0029752303,0.0037143175,-0.6237892,0.7815781,168.44101,-733.621,8.581,0,0.00010999999,-2.5106099,1,1,0,0,0,false,true,false,-3653.0999,3020.0598,15.99,-0.005068411,-0.0012812641,0.87919986,-0.4764244,-852.80096,-1138.401,22.110998,0.0018099999,0.01041,0.42301
129.125,-3023.69,1615.35,92.14,0.21365365,-0.14738367,0.87952495,0.3988307,-321.231,-1891.9309,0,4.9787097,-2.2037098,2.52101,1,-1,0,0,0,false,false,false,-3133.72,2262.6199,16.99,0.0030129936,0.0036819484,-0.63192993,0.7750108,154.201,-742.03094,8.581,0,0.00010999999,-2.50981,1,1,0,0,0,false,false,false,-3660.24,3010.52,16.109999,-0.0050306474,-0.0013190276,0.8783592,-0.47797272,-853.04095,-1147.161,21.251,0.0043099998,0.01651,0.48491
129.13333,-3026.3599,1599.6,92.14,0.21540156,-0.16719346,0.8823116,0.38363346,-320.991,-1889.5609,0,4.99331,-2.19171,2.50241,1,-1,0,0,0,false,false,false,-3132.43,2256.44,16.99,0.0030507569,0.0036495791,-0.6400005,0.7683596,139.741,-750.11096,8.581,0,0.00010999999,-2.5092099,1,1,0,0,0,false,false,false,-3667.39,3000.9,16.22,-0.0049766996,-0.0013783706,0.8773913,-0.47974762,-852.761,-1156.151,20.200998,0.00581,0.01981,0.55241
129.14166,-3029.03,1583.87,92.14,0.21706855,-0.18694928,0.8844868,0.3682583,-320.751,-1887.1909,0,5.00781,-2.17981,2.4839098,1,-1,0,0,0,false,false,false,-3131.27,2250.19,16.99,0.0030885208,0.0036172108,-0.64800113,0.7616244,125.071,-757.85095,8.581,0,0.00010999999,-2.50871,1,1,0,0,0,false,false,false,-3674.53,2991.21,16.32,-0.004911962,-0.0014485028,0.8762853,-0.48176524,-851.941,-1165.381,19.081,0.00661,0.02111,0.62501
129.15,-3031.7,1568.1599,92.14,0.21864925,-0.20664039,0.88605165,0.35271046,-320.501,-1884.8209,0,5.02201,-2.16801,2.46541,1,-1,0,0,0,false,false,false,-3130.23,2243.8699,16.99,0.0031262846,0.0035848422,-0.6559261,0.7548101,110.181,-765.251,8.581,0,0.00010999999,-2.50841,1,1,0,0,0,false,false,false,-3681.67,2981.44,16.41,-0.004841829,-0.0015294247,0.87502706,-0.48404723,-850.571,-1174.841,17.960999,0.00691,0.02121,0.70221
129.15834,-3034.3699,1552.47,92.14,0.22013819,-0.2262505,0.8870043,0.3370061,-320.251,-1882.4509,0,5.03601,-2.1563098,2.44701,1,-1,0,0,0,false,false,false,-3129.3098,2237.49,16.99,0.0031640478,0.0035524734,-0.6637809,0.7479118,95.071,-772.30096,8.581,0,0.00010999999,-2.50811,1,1,0,0,0,false,false,false,-3688.79,2971.5898,16.49,-0.004771697,-0.0016103466,0.8736078,-0.4866044,-848.631,-1184.5409,16.880999,0.0068099997,0.02041,0.78350997
129.16667,-3037.04,1536.7999,92.14,0.22153544,-0.24576896,0.8873453,0.32115078,-320.001,-1880.0809,0,5.04981,-2.14471,2.42871,1,-1,0,0,0,false,false,false,-3128.52,2231.05,16.99,0.0032018118,0.0035201048,-0.67156035,0.74093455,79.741,-779.001,8.581,0,0.00010999999,-2.50791,1,1,0,0,0,false,false,false,-3695.9,2961.66,16.56,-0.0047069597,-0.0016912686,0.87201536,-0.48945284,-846.10095,-1194.491,15.861,0.0065099997,0.01911,0.86841
129.175,-3039.7,1521.15,92.14,0.2228302,-0.2651849,0.8870742,0.30516052,-319.751,-1877.7109,0,5.06341,-2.13311,2.41051,1,-1,0,0,0,false,false,false,-3127.8599,2224.56,16.99,0.003239575,0.0034877358,-0.67926407,0.7338784,64.201,-785.34094,8.581,0,0.00010999999,-2.50771,1,1,0,0,0,false,false,false,-3702.99,2951.65,16.619999,-0.0046422225,-0.0017721907,0.8702397,-0.49260342,-842.941,-1204.6809,14.931,0.00601,0.01761,0.95631
129.18333,-3042.3599,1505.52,92.14,0.22402784,-0.28448758,0.88618875,0.28904617,-319.501,-1875.341,0,5.07681,-2.12161,2.39241,1,-1,0,0,0,false,false,false,-3127.3198,2218.02,16.99,0.0032773386,0.003455367,-0.68689233,0.72674346,48.461,-791.321,8.581,0,0.00010999999,-2.50751,1,1,0,0,0,false,false,false,-3710.0498,2941.55,16.68,-0.0045828787,-0.0018477174,0.8682701,-0.49606684,-839.131,-1215.131,14.091001,0.0054099998,0.01601,1.04671
129.19167,-3045.02,1489.9099,92.14,0.22511761,-0.30366075,0.88469493,0.27281317,-319.251,-1872.971,0,5.0900097,-2.11021,2.37441,1,-1,0,0,0,false,false,false,-3126.92,2211.43,16.99,0.0033151025,0.0034229984,-0.69444513,0.71952987,32.521,-796.93097,8.581,0,0.00010999999,-2.50731,1,1,0,0,0,false,false,false,-3717.0798,2931.3599,16.73,-0.0045289313,-0.00191785,0.8660987,-0.49984863,-834.621,-1225.8309,13.311,0.00481,0.014409999,1.13901
129.2,-3047.68,1474.32,92.14,0.22609945,-0.32269365,0.882591,0.2564777,-319.001,-1870.601,0,5.1030097,-2.0989099,2.35651,1,-1,0,0,0,false,false,false,-3126.65,2204.79,16.99,0.003352866,0.0033906295,-0.70192236,0.7122375,16.390999,-802.17096,8.581,0,0.00010999999,-2.5071099,1,1,0,0,0,false,false,false,-3724.0698,2921.0898,16.77,-0.0044803782,-0.0019879823,0.8637164,-0.5039541,-829.381,-1236.7909,12.611,0.00421,0.012809999,1.23271
129.20833,-3050.3398,1458.75,92.14,0.226968,-0.3415755,0.8798806,0.24004509,-318.741,-1868.231,0,5.11581,-2.08771,2.33871,1,-1,0,0,0,false,false,false,-3126.51,2198.1099,16.99,-0.0033852349,-0.0033582607,0.7093226,-0.7048679,0.071,-807.03094,8.581,0,0.00010999999,-2.5069098,1,1,0,0,0,false,false,false,-3731.01,2910.72,16.81,-0.0044318247,-0.00205272,0.861117,-0.5083832,-823.36096,-1248.001,12.001,0.00371,0.011409999,1.32721
129.21666,-3052.99,1443.2,92.14,0.22772326,-0.36029008,0.87656516,0.2235315,-318.481,-1865.861,0,5.12841,-2.0766098,2.3210099,1,-1,0,0,0,false,false,false,-3126.51,2191.38,16.99,-0.0034176034,-0.003320497,0.716649,-0.6974176,-16.421,-811.501,8.581,0,0.00010999999,-2.50661,1,1,0,0,0,false,false,false,-3737.8699,2900.3198,16.84,-0.004388667,-0.0021120629,0.8582934,-0.5131361,-812.54095,-1252.221,11.501,0.00321,0.010009999,1.42181
129.225,-3055.64,1427.6699,92.14,0.22835986,-0.3788321,0.8726457,0.20694783,-318.221,-1863.491,0,5.14071,-2.06551,2.30331,1,-1,0,0,0,false,false,false,-3126.65,2184.6199,16.99,-0.0034499725,-0.0032827337,0.72389156,-0.6898973,-33.080997,-815.58093,8.581,0,0,-2.50631,1,1,0,0,0,false,false,false,-3744.64,2889.88,16.869999,-0.0043455083,-0.0021714054,0.85523796,-0.5182126,-800.941,-1256.641,11.061,0.00271,0.00881,1.5160099
129.23334,-3058.29,1412.1599,92.14,0.22887237,-0.3971853,0.8681286,0.1902995,-317.961,-1861.131,0,5.15301,-2.05461,2.28581,1,-1,0,0,0,false,false,false,-3126.93,2177.82,16.99,-0.0034823404,-0.0032449695,0.73105544,-0.6823013,-49.911,-819.27094,8.581,0,0,-2.50591,1,1,0,0,0,false,true,false,-3751.3098,2879.41,16.89,-0.0043077446,-0.0022253534,0.8519491,-0.523602,-788.53094,-1261.241,10.651,0.0023100001,0.00771,1.60931
129.24167,-3060.94,1396.6699,92.14,0.22926077,-0.41533884,0.86301506,0.1736025,-317.701,-1858.7709,0,5.16501,-2.04371,2.26831,1,-1,0,0,0,false,false,false,-3127.3499,2170.99,16.99,-0.0035147096,-0.0032072063,0.73814064,-0.6746299,-66.891,-822.561,8.581,0,0,-2.5055099,1,1,0,0,0,false,true,false,-3757.91,2868.8398,16.91,-0.0042699804,-0.0022793012,0.84841806,-0.52930427,-778.99097,-1273.381,10.261001,0.00201,0.0068099997,1.7013099
129.25,-3063.5898,1381.2,92.14,0.22951975,-0.4332766,0.85731333,0.15686238,-317.441,-1856.4109,0,5.17681,-2.0329099,2.25091,1,-1,0,0,0,false,false,false,-3127.91,2164.14,16.99,-0.0035470785,-0.0031694428,0.74514234,-0.66688836,-84.020996,-825.4509,8.581,0,0,-2.50501,1,1,0,0,0,false,true,false,-3764.43,2858.17,16.93,-0.0042322176,-0.0023332492,0.844646,-0.53530335,-768.441,-1285.731,9.931,0.0017099999,0.00601,1.7918099
129.25833,-3066.23,1365.75,92.14,0.22964923,-0.4509932,0.85102266,0.14009526,-317.181,-1854.0509,0,5.18851,-2.02221,2.23371,1,0.03937008,0,0,0,false,true,false,-3128.6099,2157.26,16.99,-0.0035794475,-0.0031316795,0.7520606,-0.65907675,-101.281,-827.93097,8.581,0,0,-2.50441,1,1,0,0,0,false,true,false,-3770.8599,2847.39,16.94,-0.0041998485,-0.0023818025,0.8406264,-0.54159373,-756.83093,-1298.271,9.641,0.0014099999,0.00521,1.88041
129.26666,-3068.8699,1350.32,92.14,0.22964382,-0.4684778,0.84414905,0.12330666,-316.911,-1851.6909,0,5.20001,-2.01161,2.21651,1,0.03937008,0,0,0,false,true,false,-3129.46,2150.29,16.99,-0.003611816,-0.0030939155,0.7588956,-0.6511948,-105.961,-841.691,8.511001,-0.00051,-0.00361,-2.11291,1,1,0,0,0,false,true,false,-3777.2,2836.51,16.949999,-0.00416748,-0.0024303556,0.83635646,-0.5481646,-744.11096,-1310.981,9.4210005,0.0012099999,0.00461,1.96681
129.275,-3071.51,1334.9099,92.14,0.22950356,-0.48571423,0.8366987,0.10651258,-316.641,-1849.3309,0,5.21131,-2.00111,2.19941,1,0.07874016,0,0,0,false,true,false,-3130.3499,2143.21,16.99,-0.0036495791,-0.0030507569,0.7645986,-0.644489,-113.050995,-854.8909,8.471001,-0.00071,-0.00521,-1.78601,1,1,0,0,0,false,true,false,-3783.43,2825.52,16.96,-0.004135111,-0.0024789087,0.8318364,-0.5549998,-730.23096,-1323.8209,9.241,0.0010099999,0.00411,2.05061
129.28334,-3074.15,1319.52,92.14,0.22922304,-0.5026918,0.8286786,0.0897185,-316.371,-1846.971,0,5.2224097,-1.99061,2.18241,1,0.11811024,0,0,0,false,true,false,-3131.3,2136.02,16.99,-0.003687343,-0.003007599,0.7693735,-0.63878137,-121.08099,-867.7009,8.441,-0.00081,-0.0057099997,-1.4923099,1,1,0,0,0,false,true,false,-3789.5398,2814.42,16.97,-0.0041027423,-0.0025274619,0.8270629,-0.5620886,-715.15094,-1336.771,9.081,0.00081,0.00361,2.13161
129.29167,-3076.78,1304.15,92.14,0.22880223,-0.5194048,0.82009006,0.072940595,-316.101,-1844.611,0,5.23341,-1.98021,2.16551,1,0.15748031,0,0,0,false,true,false,-3132.3198,2128.72,16.99,-0.003719712,-0.0029644405,0.77333033,-0.63398534,-129.671,-880.2009,8.431,-0.00091,-0.00561,-1.22841,1,1,0,0,0,false,true,false,-3795.52,2803.22,16.98,-0.0040703737,-0.0025760152,0.8220399,-0.56940943,-698.83093,-1349.781,8.941,0.00071,0.00321,2.20961
129.3,-3079.41,1288.7999,92.14,0.22824118,-0.5358374,0.8109423,0.05618436,-315.831,-1842.251,0,5.24421,-1.9699099,2.14871,1,0.21259843,0,0,0,false,true,false,-3133.41,2121.32,16.99,-0.0037520807,-0.0029266768,0.7765641,-0.63002014,-138.47101,-892.47095,8.4210005,-0.00081,-0.00511,-0.98991,1,1,0,0,0,false,true,false,-3801.3699,2791.91,16.99,-0.0040380047,-0.0026245683,0.81676424,-0.5769513,-680.701,-1362.8309,11.621,-0.069809996,0.12101,2.29461
129.30833,-3082.04,1273.47,92.14,0.22753447,-0.5519788,0.80124295,0.03946041,-315.561,-1839.891,0,5.25481,-1.95971,2.13201,1,0.22834645,0,0,0,false,true,false,-3134.5798,2113.82,16.99,-0.0037790546,-0.0028943082,0.7791573,-0.62681025,-146.961,-904.621,8.411,-0.00071,-0.00441,-0.76711,1,1,0,0,0,false,true,false,-3807.0698,2780.49,17.02,-0.0034337877,-0.0027162798,0.8112117,-0.58473605,-660.761,-1375.9109,17.171,-0.21080999,0.36741,2.38441
129.31667,-3084.67,1258.1599,92.14,0.22667669,-0.5678179,0.79100025,0.02277961,-315.291,-1837.5309,0,5.26531,-1.94961,2.1154099,1,0.2519685,0,0,0,false,true,false,-3135.8198,2106.21,16.99,-0.0038006338,-0.002867334,0.7811558,-0.6243178,-155.47101,-916.631,8.411,-0.00061,-0.00351,-0.57271,1,1,0,0,0,false,true,false,-3812.5999,2768.96,17.09,-0.001653505,-0.0029320717,0.8053694,-0.5927636,-639.53094,-1388.9409,19.661,-0.27001,0.49751,2.46541
129.325,-3087.29,1242.87,92.14,0.22567323,-0.5833495,0.78021586,0.0061527644,-315.021,-1835.1709,0,5.27561,-1.93961,2.0989099,1,0.25984251,0,0,0,false,true,false,-3137.13,2098.5,16.99,-0.0038168186,-0.002845755,0.78264403,-0.6224513,-163.641,-928.58093,8.411,-0.00040999998,-0.00261,-0.39911,1,1,0,0,0,false,true,false,-3817.95,2757.3198,17.19,0.0007148105,-0.003271944,0.7992408,-0.60100144,-616.98096,-1401.841,20.571,-0.29341,0.55621,2.53931
129.33333,-3089.91,1227.6,92.14,0.22451878,-0.5985576,0.76890284,-0.010409301,-314.741,-1832.8109,0,5.28571,-1.9297099,2.08251,1,0.25984251,0,0,0,false,true,false,-3138.51,2090.69,16.99,-0.003827608,-0.0028295706,0.78367627,-0.6211511,-171.511,-940.49097,8.411,-0.00021,-0.0017099999,-0.24930999,1,1,0,0,0,false,true,false,-3823.1099,2745.5698,17.289999,0.0033366815,-0.0036819484,0.7928381,-0.60941195,-592.22095,-1414.5709,26.140999,-0.119109996,0.72521,2.59201
129.34166,-3092.53,1212.35,92.14,0.22321323,-0.6134311,0.75706977,-0.02689584,-314.461,-1830.4509,0,5.29571,-1.91991,2.06621,1,0.27559054,0,0,0,false,true,false,-3139.95,2082.79,16.99,-0.0038330026,-0.002818781,0.7843213,-0.6203365,-179.031,-952.371,8.411,0,-0.00091,-0.12250999,1,1,0,0,0,false,true,false,-3828.0598,2733.72,17.44,0.0060718437,-0.0050953855,0.786197,-0.61792505,-566.03094,-1427.0709,30.001,0.045309998,0.85161,2.63881
129.35,-3095.15,1197.12,92.14,0.22175124,-0.62796474,0.7447227,-0.043296106,-314.181,-1828.101,0,5.30551,-1.91011,2.05001,1,0.27559054,0,0,0,false,true,false,-3141.46,2074.79,16.99,-0.0038383976,-0.0028133863,0.78463686,-0.61993724,-185.851,-964.30096,8.411,0.00010999999,-0.00021,-0.00931,1,1,0,0,0,false,true,false,-3832.7898,2721.76,17.619999,0.008801609,-0.0073666363,0.7793259,-0.62651354,-538.081,-1439.261,35.080997,0.25521,1.01121,2.67521
129.35834,-3097.77,1181.91,92.14,0.2201328,-0.6421477,0.7318709,-0.059604615,-313.901,-1825.751,0,5.3151097,-1.9004099,2.03391,1,0.28346455,0,0,0,false,true,false,-3143.02,2066.69,16.99,-0.0038383976,-0.0028133863,0.7846624,-0.6199049,-192.131,-976.251,8.411,0.00021,0.00030999997,0.08621,1,1,0,0,0,false,true,false,-3837.2898,2709.7,17.84,0.011499092,-0.010738384,0.77224123,-0.63513446,-509.001,-1451.0409,36.970997,0.35201,1.06381,2.7132099
129.36667,-3100.38,1166.72,92.14,0.21835792,-0.6559692,0.71852404,-0.07581066,-313.621,-1823.4009,0,5.3246098,-1.89081,2.01791,1,0.28346455,0,0,0,false,true,false,-3144.64,2058.49,16.99,-0.0038383976,-0.002818781,0.7844407,-0.62018543,-197.69101,-988.251,8.411,0.00030999997,0.00071,0.16991,1,1,0,0,0,false,true,false,-3841.5498,2697.54,18.08,0.014110174,-0.0145579,0.7649354,-0.64378774,-478.801,-1462.3209,36.571,0.38211,1.07341,2.75091
129.38333,-3105.5999,1136.38,92.14,0.2143388,-0.68249017,0.69038445,-0.107866675,-313.061,-1818.7009,0,5.3432097,-1.87191,1.98621,1,0.28346455,0,0,0,false,true,false,-3148,2041.7899,16.99,-0.003827608,-0.0028295706,0.7833768,-0.62152874,-206.821,-1012.40094,8.411,0.00051,0.0014099999,0.30231002,1,1,0,0,0,false,true,false,-3849.2898,2672.95,18.55,0.019186676,-0.022401975,0.74967515,-0.66114825,-415.07098,-1483.121,33.041,0.37391,1.03371,2.81831
129.39166,-3108.21,1121.24,92.14,-0.21209452,0.695171,-0.67561173,0.123700485,-312.781,-1816.351,0,5.3523097,-1.86261,1.97051,1,0.28346455,0,0,0,false,true,false,-3149.74,2033.2899,16.99,-0.003822213,-0.0028403602,0.78259254,-0.622516,-210.371,-1024.5409,8.411,0.00061,0.0016099999,0.35431,1,0.9055118,0,0,0,false,true,false,-3852.76,2660.52,18.76,0.021646703,-0.026189122,0.741733,-0.66983396,-381.661,-1492.511,30.440998,0.35121,0.99070996,2.84761
129.4,-3110.8098,1106.12,92.14,-0.20968845,0.7074569,-0.6603823,0.13939396,-312.491,-1814.001,0,5.36121,-1.85341,1.9549099,1,0.27559054,0,0,0,false,true,false,-3151.51,2024.69,16.99,-0.0038168184,-0.0028511498,0.7816728,-0.62367046,-213.251,-1036.721,8.411,0.00061,0.0018099999,0.39861,1,0.9055118,0,0,0,false,true,false,-3855.95,2648.01,18.949999,0.024036597,-0.0297821,0.7335995,-0.6785034,-348.201,-1501.4409,27.630999,0.32111,0.93650997,2.85001
129.40834,-3113.41,1091.02,92.14,-0.2071259,0.7193393,-0.6447048,0.15493643,-312.201,-1811.6509,0,5.37001,-1.8442099,1.93941,1,0.27559054,0,0,0,false,true,false,-3153.3,2015.98,16.99,-0.0038060287,-0.0028619394,0.780638,-0.62496525,-215.591,-1048.911,8.411,0.00061,0.00201,0.43351,1,0.6456693,0,0,0,false,true,false,-3858.8599,2635.43,19.109999,0.026345572,-0.033121474,0.7253521,-0.68707573,-313.671,-1509.5809,24.651,0.28931,0.87330997,2.85441
129.41667,-3116.01,1075.94,92.14,-0.20440152,0.7308071,-0.6285959,0.17031707,-311.911,-1809.3009,0,5.3786097,-1.83511,1.9240099,1,0.26771653,0,0,0,false,true,false,-3155.1099,2007.1699,16.99,-0.0037952391,-0.0028781237,0.7795086,-0.6263733,-217.301,-1061.131,8.411,0.00071,0.00211,0.46321002,1,0.6456693,0,0,0,false,true,false,-3861.48,2622.78,19.25,0.028546648,-0.036180325,0.7169865,-0.6955618,-280.79102,-1517.6609,21.880999,0.25161,0.80391,2.78901
129.425,-3118.6099,1060.88,92.14,-0.20152067,0.7418508,-0.61206627,0.18553041,-311.621,-1806.9509,0,5.3871098,-1.82611,1.90871,1,0.25984251,0,0,0,false,true,false,-3156.94,1998.26,16.99,-0.003784449,-0.002894308,0.7782967,-0.62787837,-218.531,-1073.341,8.411,0.00071,0.00211,0.48561,1,0.48818898,0,0,0,false,true,false,-3863.8198,2610.06,19.359999,0.030639825,-0.038926315,0.7087172,-0.7037511,-241.051,-1524.9109,33.170998,0.45371,1.16441,2.6844099
129.45,-3126.38,1015.82,92.14,-0.1919287,0.7723737,-0.56006026,0.23007543,-310.751,-1799.9009,0,5.41181,-1.7997099,1.86341,1,0.25984251,0,0,0,false,true,false,-3162.46,1970.9199,16.99,-0.0037520807,-0.0029428613,0.7743458,-0.63274455,-219.261,-1109.901,8.411,0.00061,0.0019099999,0.52781,1,0.24409449,0,0,0,false,true,false,-3868.92,2571.5698,20.13,-0.038678158,0.051900804,-0.6849178,0.7257394,-133.431,-1543.9209,43.130997,0.36881,0.94851,2.31341
129.45833,-3128.97,1000.83997,92.14,-0.18841666,0.7816545,-0.5419605,0.24452813,-310.461,-1797.5609,0,5.41981,-1.7911099,1.8485099,1,0.2519685,0,0,0,false,true,false,-3164.3,1961.6,16.99,-0.0037412911,-0.0029590456,0.7729541,-0.6344439,-218.561,-1122.0409,8.411,0.00051,0.0018099999,0.53811,1,0.07874016,0,0,0,false,true,false,-3870.03,2558.64,20.42,-0.040765945,0.05544527,-0.677651,0.7321564,-99.971,-1549.2809,40.111,0.33721,0.78551,2.17271
129.46666,-3131.55,985.88,92.14,-0.18474282,0.79047835,-0.5234996,0.25877053,-310.161,-1795.221,0,5.42761,-1.7825099,1.83371,1,0.22834645,0,0,0,false,true,false,-3166.13,1952.1799,16.99,-0.0037305015,-0.00297523,0.7715294,-0.6361757,-217.561,-1134.121,8.411,0.00051,0.0017099999,0.54401,1,-0.140625,0,0,0,false,true,false,-3870.8599,2545.66,20.68,-0.042454515,0.0584232,-0.67077804,0.7381335,-68.550995,-1554.471,35.650997,0.29291,0.64211,1.9958099
129.48334,-3136.71,956.01996,92.14,-0.17693649,0.8067248,-0.4855416,0.28659692,-309.561,-1790.5409,0,5.44301,-1.76561,1.80441,1,0.22047244,0,0,0,false,true,false,-3169.78,1933.0399,16.99,-0.0037089223,-0.003007599,0.7686469,-0.6396553,-215.011,-1158.0509,8.411,0.00040999998,0.0016099999,0.53781,1,-0.140625,0,0,0,false,true,false,-3871.76,2519.5698,21.09,-0.044946913,0.06278219,-0.65876377,0.7483771,-10.791,-1564.381,24.450998,0.19521,0.38441,1.57381
129.49167,-3139.29,941.12,92.14,-0.17279871,0.81413877,-0.46607172,0.30015957,-309.261,-1788.2009,0,5.45051,-1.7573099,1.78991,1,0.21259843,0,0,0,false,true,false,-3171.5798,1923.32,16.99,-0.0036981322,-0.003023783,0.7672115,-0.6413762,-213.301,-1169.9209,8.411,0.00030999997,0.00151,0.53281,1,-0.390625,0,0,0,false,true,false,-3871.8499,2506.46,21.22,-0.045804683,0.064222604,-0.6537196,0.7526141,17.431,-1568.8309,18.110998,0.15861,0.26191002,1.39121
129.5,-3141.8599,926.24,92.14,-0.1685098,0.8210704,-0.4462943,0.3134793,-308.961,-1785.861,0,5.45781,-1.74901,1.77551,1,0.18897638,0,0,0,false,true,false,-3173.3699,1913.5,16.99,-0.0036873426,-0.0030345726,0.76578766,-0.6430756,-211.391,-1181.7109,8.411,0.00030999997,0.0014099999,0.52581,1,-0.390625,0,0,0,false,true,false,-3871.7,2493.3198,21.3,-0.046392713,0.06520984,-0.64925265,0.7563505,42.201,-1573.5809,12.051001,0.11921,0.14200999,1.14791
129.50833,-3144.43,911.38,92.14,-0.16406986,0.82751536,-0.42622018,0.32655096,-308.661,-1783.521,0,5.46511,-1.7408099,1.76121,1,0.18110237,0,0,0,false,true,false,-3175.14,1903.58,16.99,-0.0036765537,-0.0030453627,0.7643756,-0.64475346,-209.501,-1193.391,8.411,0.00030999997,0.00131,0.51131,1,-0.4609375,0,0,0,false,true,false,-3871.3398,2480.14,21.33,-0.046711013,0.06575473,-0.6455681,0.7594315,66.321,-1578.2109,5.9309998,0.09210999,0.02411,0.93011
129.51666,-3147,896.54,92.14,-0.15948424,0.8334665,-0.4058655,0.33936897,-308.361,-1781.1809,0,5.47221,-1.73271,1.74701,1,0.17322835,0,0,0,false,true,false,-3176.9,1893.57,16.99,-0.003665764,-0.003056152,0.7629984,-0.64638263,-207.431,-1204.991,8.411,0.00030999997,0.0012099999,0.49641,1,-0.609375,0,0,0,false,true,false,-3870.78,2466.92,21.31,-0.046737984,0.06589499,-0.6425901,0.7619391,88.480995,-1582.971,1.511,0.02571,-0.13850999,0.70711
129.53334,-3152.13,866.92,92.14,-0.14987072,0.84387887,-0.36436322,0.36420673,-307.761,-1776.501,0,5.4861097,-1.71681,1.71891,1,0.16535433,0,0,0,false,true,false,-3180.3599,1873.25,16.99,-0.003644185,-0.0030777312,0.7603596,-0.6494847,-202.781,-1227.9309,8.411,0.00030999997,0.0010099999,0.46821,1,-0.609375,0,0,0,false,true,false,-3869.1199,2440.3599,21.16,-0.045944948,0.0643251,-0.638954,0.7651725,126.041,-1593.341,-6.621,-0.06991,-0.40471,0.24211
129.54167,-3154.69,852.13995,92.14,-0.14484812,0.8483287,-0.3432479,0.37621564,-307.451,-1774.1609,0,5.49291,-1.70891,1.7050099,1,0.15748031,0,0,0,false,true,false,-3182.0598,1862.95,16.99,-0.0036333953,-0.0030885208,0.7590899,-0.65096825,-200.291,-1239.261,8.411,0.00030999997,0.00091,0.45451,1,-0.6953125,0,0,0,false,true,false,-3868.0598,2427.01,21.029999,-0.045157313,0.062803775,-0.6382797,0.7659083,142.641,-1598.861,-10.321,-0.104109995,-0.51131,0.047809996
129.55,-3157.25,837.37,92.14,-0.13968532,0.8522698,-0.32190603,0.38794404,-307.141,-1771.8209,0,5.49961,-1.70111,1.6912099,1,0.15748031,0,0,0,false,true,false,-3183.74,1852.5499,16.99,-0.0036280004,-0.0030993104,0.7578569,-0.65240324,-197.751,-1250.501,8.411,0.00030999997,0.00081,0.44011,1,-0.6953125,0,0,0,false,true,false,-3866.8599,2413.6199,20.869999,-0.04414309,0.06088862,-0.63824725,0.766149,156.531,-1604.8109,-13.501,-0.13811,-0.60281,-0.15051
129.56667,-3162.3599,807.88995,92.14,-0.12894423,0.85861725,-0.27860722,0.41052133,-306.521,-1767.141,0,5.51261,-1.68581,1.6639099,1,0.13385826,0,0,0,false,true,false,-3187.04,1831.48,16.99,-0.0036172108,-0.0031208897,0.75549364,-0.65513843,-192.61101,-1272.6609,8.411,0.00030999997,0.00071,0.40901,1,-0.734375,0,0,0,false,true,false,-3864.14,2386.69,20.48,-0.041585952,0.05606567,-0.6400653,0.7651428,178.30101,-1617.8109,-18.771,-0.19500999,-0.74290997,-0.48711
129.575,-3164.91,793.18,92.14,-0.123376764,0.86101484,-0.2566773,0.42136487,-306.211,-1764.8109,0,5.51901,-1.6783099,1.6504099,1,0.12598425,0,0,0,false,true,false,-3188.65,1820.8099,16.99,-0.0036118163,-0.0031316795,0.7543783,-0.65642244,-190.031,-1283.591,8.411,0.00021,0.00061,0.39311,1,-0.7265625,0,0,0,false,true,false,-3862.64,2373.14,20.25,-0.040113173,0.053260293,-0.6417863,0.7639794,185.961,-1624.891,-20.821,-0.22001,-0.79390997,-0.62771
129.58333,-3167.46,778.49,92.14,-0.11767985,0.8628934,-0.23458011,0.43190098,-305.901,-1762.481,0,5.52521,-1.67081,1.63691,1,0.11811024,0,0,0,false,true,false,-3190.24,1810.0499,16.99,-0.0036064212,-0.0031424686,0.75330144,-0.65765786,-187.47101,-1294.4109,8.411,0.00021,0.00051,0.37681,1,-0.7265625,0,0,0,false,true,false,-3861.0798,2359.53,20.01,-0.03854864,0.050249998,-0.64396036,0.7624328,191.601,-1632.3309,-22.460999,-0.24461,-0.83581,-0.74531
129.59166,-3170.01,763.82,92.14,-0.11185343,0.86424845,-0.21233189,0.4421295,-305.591,-1760.1509,0,5.5314097,-1.66341,1.62361,1,0.11023622,0,0,0,false,true,false,-3191.8098,1799.2,16.99,-0.0036010267,-0.0031478638,0.75226843,-0.65883934,-184.951,-1305.131,8.411,0.00010999999,0.00051,0.36021,1,-0.71875,0,0,0,false,true,false,-3859.47,2345.8599,19.75,-0.03692481,0.047056276,-0.6465067,0.76055974,194.791,-1640.131,-21.821,-0.21271,-0.92231,-0.84401
129.6,-3172.55,749.17,92.14,-0.10590297,0.8650803,-0.18994878,0.45203975,-305.281,-1757.8209,0,5.53741,-1.6561099,1.61031,1,0.1023622,0,0,0,false,true,false,-3193.3599,1788.26,16.99,-0.0035956316,-0.0031532582,0.7512794,-0.6599668,-182.47101,-1315.751,8.411,0.00010999999,0.00051,0.34331,1,-0.71875,0,0,0,false,true,false,-3857.8398,2332.1199,19.5,-0.034950312,0.043689925,-0.6493552,0.7584242,195.911,-1648.251,-21.021,-0.18870999,-0.99931,-0.92331
129.60834,-3175.0898,734.54,92.14,-0.09983379,0.8653876,-0.16744703,0.4616264,-304.971,-1755.491,0,5.54341,-1.6489099,1.5972099,1,0.09448819,0,0,0,false,true,false,-3194.89,1777.23,16.99,-0.003590237,-0.0031586532,0.750335,-0.66104037,-180.05101,-1326.261,8.411,0.00010999999,0.00051,0.32621,1,-0.6640625,0,0,0,false,true,false,-3856.2,2318.32,19.26,-0.032673713,0.040156335,-0.6524411,0.7560691,194.901,-1656.6609,-20.120998,-0.17190999,-1.06351,-0.98750997
129.61667,-3177.63,719.93,92.14,-0.09364591,0.86516804,-0.14483733,0.47088924,-304.661,-1753.1609,0,5.5493097,-1.6417099,1.58411,1,0.09448819,0,0,0,false,true,false,-3196.4,1766.11,16.99,-0.003584842,-0.0031640478,0.7494355,-0.66205996,-177.701,-1336.6709,8.411,0.00010999999,0.00040999998,0.30901,1,-0.6015625,0,0,0,false,true,false,-3854.5698,2304.45,19.02,-0.030159736,0.03647169,-0.6557157,0.7535231,192.911,-1665.2109,-15.591,-0.088309996,-0.94901,-1.02761
129.63333,-3182.7,690.76996,92.14,-0.08093033,0.86314565,-0.09936443,0.48842242,-304.031,-1748.501,0,5.56081,-1.62761,1.55821,1,0.08661418,0,0,0,false,true,false,-3199.3599,1743.61,16.99,-0.0035740524,-0.0031748374,0.74776804,-0.66394275,-173.08101,-1357.1909,8.411,0.00010999999,0.00030999997,0.27911,1,-0.5078125,0,0,0,false,true,false,-3851.3599,2276.48,18.66,-0.025304377,0.030790886,-0.6624215,0.74807036,185.661,-1682.6609,-7.4709997,0.01771,-0.74751,-1.05621
129.65,-3187.76,661.69,92.14,-0.06779396,0.859016,-0.053648762,0.50459605,-303.391,-1743.841,0,5.57191,-1.6137099,1.53271,1,0.07874016,0,0,0,false,true,false,-3202.24,1720.77,16.99,-0.0035632628,-0.003185627,0.7462605,-0.6656367,-168.61101,-1377.3209,8.411,0.00010999999,0.00010999999,0.25501,1,-0.5078125,0,0,0,false,true,false,-3848.2898,2248.23,18.44,-0.021047883,0.027106239,-0.66905713,0.74241817,175.201,-1700.3309,0.311,0.09011,-0.49221,-1.02821
129.65834,-3190.29,647.18,92.14,-0.061072044,0.8561612,-0.030742373,0.51216495,-303.071,-1741.511,0,5.57731,-1.60691,1.52011,1,0.07086614,0,0,0,false,true,false,-3203.65,1709.22,16.99,-0.003557868,-0.003191022,0.7455524,-0.66642976,-166.531,-1387.231,8.411,0.00010999999,0.00010999999,0.24281,1,-0.40625,0,0,0,false,true,false,-3846.8198,2233.99,18.369999,-0.019278387,0.025924776,-0.67226154,0.7396083,168.021,-1709.221,2.191,0.08051,-0.42851,-1.01631
129.66667,-3192.8098,632.69,92.14,-0.054258365,0.85278106,-0.007819798,0.51938325,-302.751,-1739.1809,0,5.5826097,-1.60021,1.50761,1,0.062992126,0,0,0,false,true,false,-3205.05,1697.59,16.99,-0.0035524734,-0.0031964167,0.74487656,-0.66718507,-164.501,-1396.381,8.411,0.00021,0.00010999999,0.22961,1,-0.40625,0,0,0,false,true,false,-3845.41,2219.68,18.32,-0.017719291,0.024910556,-0.6754122,0.7368064,160.881,-1718.0809,3.3309999,0.063609995,-0.38401002,-0.97600996
129.675,-3195.3298,618.22,92.14,-0.047352992,0.84887546,0.015097422,0.5262509,-302.431,-1736.851,0,5.5879097,-1.59351,1.4952099,1,0.062992126,0,0,0,false,true,false,-3206.43,1685.88,16.99,-0.0035470785,-0.0032018116,0.74423814,-0.66789716,-162.531,-1404.891,8.411,0.00030999997,0,0.21571,1,-0.3203125,0,0,0,false,true,false,-3844.0598,2205.29,18.279999,-0.016343577,0.02398265,-0.67842245,0.73409843,152.741,-1726.9309,4.171,0.046309996,-0.34601,-0.94321
129.68333,-3197.8499,603.76996,92.14,-0.040361334,0.84444726,0.037998416,0.5327624,-302.111,-1734.521,0,5.59301,-1.58691,1.4829099,1,0.05511811,0,0,0,false,true,false,-3207.79,1674.1,16.99,-0.0035470785,-0.0032072063,0.7436372,-0.6685661,-160.601,-1413.391,8.411,0.00030999997,0,0.20391,1,-0.3203125,0,0,0,false,true,false,-3842.78,2190.8298,18.25,-0.015129748,0.023119483,-0.6813195,0.7314644,144.751,-1735.741,4.7409997,0.031609997,-0.31301,-0.89071
129.69167,-3200.3599,589.33,92.14,-0.033288714,0.8395,0.06086704,0.5389125,-301.791,-1732.2009,0,5.5981097,-1.58041,1.4707099,1,0.05511811,0,0,0,false,true,false,-3209.14,1662.25,16.99,-0.0035470785,-0.0032126012,0.74306923,-0.6691973,-158.821,-1421.881,8.411,0.00030999997,0,0.19120999,1,-0.234375,0,0,0,false,true,false,-3841.5698,2176.3,18.22,-0.014061579,0.022310263,-0.6840439,0.72896385,136.05101,-1744.511,5.141,0.018410001,-0.28391,-0.84751
129.7,-3202.8699,574.91,92.14,-0.026140569,0.83403456,0.08368711,0.54470116,-301.471,-1729.881,0,5.60311,-1.57391,1.4586099,1,0.047244094,0,0,0,false,true,false,-3210.47,1650.33,16.99,-0.0035470785,-0.0032179959,0.7425343,-0.6697908,-157.08101,-1430.361,8.411,0.00021,0,0.18041,1,-0.234375,0,0,0,false,true,false,-3840.43,2161.69,18.19,-0.013117489,0.021549597,-0.686628,0.72657096,127.741,-1753.231,5.401,0.008409999,-0.25801,-0.78661
129.70833,-3205.38,560.51,92.14,-0.018916937,0.82805175,0.10644784,0.55012834,-301.151,-1727.5609,0,5.60801,-1.56751,1.44651,1,0.047244094,0,0,0,false,true,false,-3211.79,1638.34,16.99,-0.0035470785,-0.0032233908,0.7420327,-0.67034644,-155.501,-1438.8209,8.411,0.00021,0,0.16860999,1,-0.15625,0,0,0,false,true,false,-3839.3599,2147.01,18.17,-0.012281297,0.020837486,-0.68901795,0.7243405,118.961,-1761.9009,5.621,0.00010999999,-0.23450999,-0.73641
129.71666,-3207.89,546.13,92.14,-0.011628525,0.8215572,0.12912764,0.55518866,-300.831,-1725.241,0,5.6128097,-1.5612099,1.43451,1,0.03937008,0,0,0,false,true,false,-3213.0898,1626.2799,16.99,-0.0035470785,-0.0032287855,0.7415596,-0.6708697,-153.97101,-1447.271,8.411,0.00010999999,0,0.15851,1,-0.15625,0,0,0,false,true,false,-3838.3699,2132.26,18.15,-0.0115422085,0.02016853,-0.69125134,0.72224057,110.730995,-1770.521,5.7409997,-0.00521,-0.21330999,-0.67161
129.725,-3210.39,531.76996,92.14,-0.004275376,0.8145526,0.15171574,0.5598821,-300.501,-1722.9209,0,5.61761,-1.55501,1.4226099,1,0.03937008,0,0,0,false,true,false,-3214.38,1614.15,16.99,-0.0035470785,-0.0032287855,0.74111515,-0.6713607,-152.591,-1455.7009,8.411,0,0,0.14730999,1,-0.0859375,0,0,0,false,true,false,-3837.44,2117.44,18.13,-0.010889439,0.019542735,-0.69327986,0.7203211,102.251,-1779.091,5.831,-0.009009999,-0.19390999,-0.61781
129.73334,-3212.89,517.43,92.14,0.003137074,0.80704415,0.17419595,0.56420344,-300.171,-1720.601,0,5.6223097,-1.54881,1.41081,1,0.03937008,0,0,0,false,true,false,-3215.66,1601.95,16.99,-0.0035470785,-0.0032287855,0.7407044,-0.67181385,-151.271,-1464.121,8.411,0,0,0.13780999,1,-0.0859375,0,0,0,false,true,false,-3836.5898,2102.55,18.109999,-0.0103068,0.018960094,-0.695141,0.7185493,94.440994,-1787.611,5.891,-0.01091,-0.17611,-0.55191
129.74167,-3215.39,503.11,92.14,0.0105980765,0.7990316,0.19655207,0.56815785,-299.841,-1718.2809,0,5.6269097,-1.54271,1.39911,1,0.031496063,0,0,0,false,true,false,-3216.93,1589.6799,16.99,-0.0035470785,-0.0032287855,0.74031764,-0.67224,-150.011,-1472.5409,8.411,0,0,0.12970999,1,-0.0234375,0,0,0,false,true,false,-3835.7998,2087.5798,18.09,-0.0097835045,0.01842601,-0.6967972,0.7169646,86.581,-1796.091,5.961,-0.01201,-0.15951,-0.49691
129.75,-3217.89,488.81,92.14,0.018107718,0.7905211,0.21877332,0.57174,-299.511,-1715.9609,0,5.6314096,-1.53661,1.38751,1,0.031496063,0,0,0,false,true,false,-3218.19,1577.34,16.99,-0.0035470785,-0.0032287855,0.73995495,-0.67263925,-148.91101,-1480.9409,8.411,0,0,0.12020999,1,-0.0234375,0,0,0,false,true,false,-3835.0798,2072.54,18.07,-0.009319552,0.017935084,-0.6982862,0.7155332,79.480995,-1804.5309,6.0309997,-0.011909999,-0.14390999,-0.43201
129.75833,-3220.38,474.53,92.14,0.025660435,0.7815168,0.24084352,0.5749499,-299.181,-1713.641,0,5.63591,-1.53061,1.37601,1,0.031496063,0,0,0,false,true,false,-3219.44,1564.9299,16.99,-0.0035470785,-0.0032287855,0.7396164,-0.6730115,-147.871,-1489.3309,8.411,0,0,0.11221,1,0.031496063,0,0,0,false,true,false,-3834.42,2057.43,18.05,-0.0089041535,0.017487317,-0.69958097,0.71428376,72.501,-1812.9409,6.121,-0.01151,-0.12931,-0.37751
129.76666,-3222.8699,460.27,92.14,0.033250995,0.77202743,0.26274645,0.57778215,-298.851,-1711.3209,0,5.64031,-1.5247099,1.36461,1,0.031496063,0,0,0,false,true,false,-3220.68,1552.45,16.99,-0.0035470785,-0.0032287855,0.7393021,-0.6733567,-146.891,-1497.721,8.411,0,0,0.10530999,1,0.031496063,0,0,0,false,true,false,-3833.8198,2042.25,18.029999,-0.008531912,0.017082706,-0.70070845,0.71319205,66.331,-1821.3209,6.211,-0.01031,-0.11571,-0.31511
129.775,-3225.3599,446.03,92.14,0.04087384,0.7620546,0.284466,0.58024216,-298.521,-1709.001,0,5.64461,-1.51881,1.35321,1,0.023622047,0,0,0,false,true,false,-3221.91,1539.9,16.99,-0.0035470785,-0.0032287855,0.7390071,-0.6736804,-145.97101,-1506.101,8.411,0,0,0.09951,1,0.07086614,0,0,0,false,true,false,-3833.27,2027,18.01,-0.00820283,0.016721256,-0.7016472,0.712281,60.400997,-1829.6809,6.3209996,-0.009109999,-0.10301,-0.26251
129.78334,-3227.8398,431.81,92.14,0.04852366,0.75160253,0.30599132,0.5823299,-298.191,-1706.6809,0,5.64881,-1.51301,1.34191,1,0.023622047,0,0,0,false,true,false,-3223.13,1527.2799,16.99,-0.0035470785,-0.0032287855,0.7387267,-0.6739879,-145.211,-1514.4609,8.411,0,0,0.09201,1,0.07086614,0,0,0,false,true,false,-3832.77,2011.6799,17.99,-0.007911511,0.016397566,-0.7024294,0.7115204,55.231,-1838.021,6.441,-0.00741,-0.091309994,-0.20620999
129.79167,-3230.3198,417.61,92.14,0.05620054,0.74068147,0.32730624,0.5840401,-297.861,-1704.361,0,5.65301,-1.50731,1.3307099,1,0.023622047,0,0,0,false,true,false,-3224.3499,1514.59,16.99,-0.0035470785,-0.0032287855,0.7384706,-0.6742685,-144.491,-1522.8209,8.411,0,0.00010999999,0.08571,1,0.1023622,0,0,0,false,true,false,-3832.3098,1996.2899,17.98,-0.0076525607,0.016111642,-0.7030444,0.7109221,50.400997,-1846.341,6.5709996,-0.0057099997,-0.080709994,-0.15861
129.8,-3232.8,403.43,92.14,0.06389352,0.7292925,0.34839997,0.585378,-297.531,-1702.0409,0,5.6571097,-1.5016099,1.31961,1,0.023622047,0,0,0,false,true,false,-3225.5598,1501.83,16.99,-0.0035470785,-0.0032287855,0.73822916,-0.67453283,-143.83101,-1531.1709,8.411,0,0.00010999999,0.080309995,1,0.1023622,0,0,0,false,true,false,-3831.89,1980.83,17.97,-0.007420584,0.015863482,-0.70351917,0.7104603,46.321,-1854.6509,6.661,-0.00381,-0.071109995,-0.10880999
129.80833,-3235.28,389.27,92.14,0.071597286,0.71744734,0.36925635,0.5863384,-297.201,-1699.731,0,5.66121,-1.49601,1.30861,1,0.023622047,0,0,0,false,true,false,-3226.76,1489,16.99,-0.0035470785,-0.0032287855,0.73800236,-0.67478096,-143.231,-1539.521,8.411,0,0.00010999999,0.07571,1,0.11811024,0,0,0,false,true,false,-3831.5,1965.3099,17.96,-0.007215582,0.015647689,-0.7038429,0.71014655,42.650997,-1862.9509,6.731,-0.00211,-0.062709995,-0.06651
129.81667,-3237.75,375.12,92.14,0.079306535,0.7051507,0.38985917,0.5869264,-296.871,-1697.4209,0,5.6651096,-1.49051,1.29771,1,0.015748031,0,0,0,false,true,false,-3227.96,1476.1,16.99,-0.0035470785,-0.0032287855,0.73779017,-0.67501295,-142.681,-1547.861,8.411,0,0.00010999999,0.07181,1,0.11811024,0,0,0,false,true,false,-3831.14,1949.72,17.949999,-0.007032159,0.015458873,-0.7040425,0.7099546,39.600998,-1871.241,6.7809997,-0.00030999997,-0.055409998,-0.02581
129.825,-3240.22,360.99,92.14,0.0870157,0.69240886,0.41019762,0.58714217,-296.531,-1695.111,0,5.6690097,-1.48501,1.2869099,1,0.015748031,0,0,0,false,true,false,-3229.15,1463.13,16.99,-0.0035470785,-0.0032287855,0.73758775,-0.67523414,-142.281,-1556.1909,8.411,0,0.00021,0.06601,1,0.13385826,0,0,0,false,true,false,-3830.8098,1934.0599,17.94,-0.006870315,0.015297029,-0.704118,0.7098848,37.010998,-1879.5309,6.8209996,0.0012099999,-0.04931,0.00871
129.83333,-3242.69,346.88,92.14,0.09471947,0.67923194,0.43025547,0.58698577,-296.191,-1692.8009,0,5.6729097,-1.47961,1.27621,1,0.015748031,0,0,0,false,true,false,-3230.3398,1450.09,16.99,-0.0035470785,-0.0032287855,0.7374,-0.6754391,-141.921,-1564.511,8.411,0,0.00021,0.061109997,1,0.13385826,0,0,0,false,true,false,-3830.5,1918.33,17.93,-0.0067246556,0.015156765,-0.704091,0.709916,35.060997,-1887.8109,6.8409996,0.00301,-0.044109996,0.04291
129.84166,-3245.16,332.78998,92.14,0.10241254,0.66562366,0.4500275,0.5864571,-295.851,-1690.491,0,5.67661,-1.47421,1.26551,1,0.015748031,0,0,0,false,true,false,-3231.53,1436.98,16.99,-0.0035470785,-0.0032287855,0.737227,-0.67562795,-141.601,-1572.8309,8.411,0,0.00021,0.05701,1,0.13385826,0,0,0,false,true,false,-3830.21,1902.5299,17.92,-0.0065897857,0.0150326835,-0.7039669,0.71004295,33.571,-1896.091,6.8409996,0.00471,-0.039909996,0.07211
129.85,-3247.6199,318.72,92.14,0.11008933,0.6515944,0.469492,0.58556145,-295.511,-1688.1809,0,5.68041,-1.46891,1.25491,1,0.015748031,0,0,0,false,true,false,-3232.72,1423.7999,16.99,-0.0035470785,-0.0032287855,0.7370688,-0.67580056,-141.321,-1581.141,8.411,0,0.00021,0.05351,1,0.13385826,0,0,0,false,true,false,-3829.93,1886.6599,17.91,-0.006465705,0.014924788,-0.7037565,0.7102549,32.541,-1904.361,6.831,0.00631,-0.036709998,0.097009994
129.85834,-3250.0798,304.66998,92.14,0.11774454,0.6371484,0.48864362,0.584299,-295.171,-1685.871,0,5.68401,-1.46371,1.24441,1,0.015748031,0,0,0,false,true,false,-3233.9,1410.5599,16.99,-0.0035470785,-0.0032287855,0.73692036,-0.67596245,-141.091,-1589.4509,8.411,0,0.00030999997,0.050509997,1,0.13385826,0,0,0,false,true,false,-3829.66,1870.72,17.9,-0.0063470197,0.014833076,-0.7034706,0.7105411,31.960999,-1912.631,6.811,0.00771,-0.034409996,0.11841
129.86667,-3252.54,290.63998,92.14,0.12537287,0.6222985,0.50746614,0.58266985,-294.831,-1683.5609,0,5.6876097,-1.4585099,1.23401,1,0.015748031,0,0,0,false,true,false,-3235.0798,1397.25,16.99,-0.0035470785,-0.0032287855,0.7367769,-0.67611885,-140.901,-1597.761,8.411,0,0.00030999997,0.047909997,1,0.13385826,0,0,0,false,true,false,-3829.39,1854.71,17.89,-0.0062283343,0.014752154,-0.70311993,0.7108908,31.810999,-1920.891,6.771,0.008909999,-0.03321,0.13670999
129.875,-3254.99,276.63,92.14,0.13296874,0.6070539,0.5259434,0.5806791,-294.491,-1681.251,0,5.69121,-1.45341,1.22371,1,0.007874016,0,0,0,false,true,false,-3236.26,1383.87,16.99,-0.0035470785,-0.0032287855,0.73664314,-0.6762645,-140.751,-1606.0609,8.411,0,0.00030999997,0.045709997,1,0.13385826,0,0,0,false,true,false,-3829.13,1838.63,17.88,-0.0061150435,0.014676628,-0.70271534,0.71129334,32.080997,-1929.1509,6.711,0.010009999,-0.03301,0.15251
129.88333,-3257.44,262.63998,92.14,0.14052145,0.5914214,0.54406995,0.578327,-294.151,-1678.9409,0,5.69471,-1.44831,1.21341,1,0.007874016,0,0,0,false,true,false,-3237.44,1370.4199,16.99,-0.0035470785,-0.0032287855,0.7365144,-0.6764048,-140.72101,-1614.351,8.411,0,0.00040999998,0.041309997,1,0.13385826,0,0,0,false,true,false,-3828.8599,1822.48,17.869999,-0.005996358,0.014606495,-0.70226216,0.71174324,32.740997,-1937.4009,6.641,0.01091,-0.03371,0.16611
129.89166,-3259.89,248.67,92.14,0.1480311,0.5754138,0.5618296,0.5756153,-293.811,-1676.631,0,5.69811,-1.44331,1.20321,1,0.007874016,0,0,0,false,true,false,-3238.6199,1356.9,16.99,-0.0035470785,-0.0032287855,0.73640037,-0.6765289,-140.72101,-1622.641,8.411,0,0.00040999998,0.037609998,1,0.11811024,0,0,0,false,true,false,-3828.5898,1806.27,17.859999,-0.0058776727,0.014536362,-0.70177126,0.71222967,33.760998,-1945.641,6.561,0.011609999,-0.03541,0.17781
129.9,-3262.3398,234.72,92.14,0.15549211,0.5590352,0.57921433,0.5725492,-293.471,-1674.3209,0,5.70151,-1.4384099,1.19311,1,0.007874016,0,0,0,false,true,false,-3239.8,1343.3099,16.99,-0.0035470785,-0.0032287855,0.73629624,-0.6766422,-140.751,-1630.9309,8.411,0,0.00040999998,0.034409996,1,0.11811024,0,0,0,false,true,false,-3828.3098,1789.99,17.85,-0.005748198,0.014460837,-0.70124257,0.7127529,34.951,-1953.881,6.461,0.01211,-0.038009997,0.18321
129.90834,-3264.78,220.79,92.14,0.16289917,0.5423005,0.5962099,0.56912893,-293.131,-1672.011,0,5.7048097,-1.43351,1.18311,1,0.007874016,0,0,0,false,true,false,-3240.98,1329.65,16.99,-0.0035470787,-0.0032287857,0.7361971,-0.6767501,-140.811,-1639.2109,8.411,0,0.00040999998,0.03171,1,0.11023622,0,0,0,false,true,false,-3828.02,1773.64,17.84,-0.005613328,0.014379915,-0.7006977,0.7132912,36.470997,-1962.111,6.351,0.012509999,-0.041309997,0.18800999
129.91667,-3267.22,206.87999,92.14,0.17024694,0.5252151,0.61280936,0.5653579,-292.79102,-1669.7009,0,5.7080097,-1.42871,1.17321,1,0.007874016,0,0,0,false,true,false,-3242.16,1315.9199,16.99,-0.0035470785,-0.0032287855,0.7361078,-0.67684716,-140.901,-1647.491,8.411,0,0.00040999998,0.029409999,1,0.11023622,0,0,0,false,true,false,-3827.72,1757.22,17.82,-0.005467626,0.014288202,-0.7001366,0.7138449,38.190998,-1970.341,6.2209997,0.012809999,-0.045309998,0.19001
129.925,-3269.66,192.98,92.14,0.17752454,0.5077952,0.62899655,0.5612416,-292.451,-1667.391,0,5.71121,-1.42391,1.16341,1,0.007874016,0,0,0,false,true,false,-3243.3398,1302.12,16.99,-0.0035470785,-0.0032287855,0.7360235,-0.6769389,-141.02101,-1655.771,8.411,0,0.00040999998,0.02751,1,0.09448819,0,0,0,false,true,false,-3827.4,1740.73,17.8,-0.0053111766,0.014185701,-0.6995701,0.7144033,40.181,-1978.5609,6.121,0.013009999,-0.049909998,0.19191
129.93333,-3272.0898,179.09999,92.14,0.18473198,0.49004626,0.644767,0.5567801,-292.111,-1665.091,0,5.71441,-1.41921,1.15361,1,0.007874016,0,0,0,false,true,false,-3244.52,1288.25,16.99,-0.0035470785,-0.0032287855,0.7359441,-0.6770252,-141.171,-1664.0509,8.411,0,0.00040999998,0.02581,1,0.09448819,0,0,0,false,true,false,-3827.0598,1724.1699,17.779999,-0.005138543,0.014072408,-0.6989982,0.7149663,42.220997,-1986.7809,6.0309997,0.01311,-0.055109996,0.18901
129.94167,-3274.52,165.23999,92.14,0.19185859,0.471979,0.6601101,0.55197877,-291.771,-1662.7909,0,5.7175097,-1.41451,1.1439099,1,0.007874016,0,0,0,false,true,false,-3245.7,1274.3099,16.99,-0.0035470785,-0.0032287855,0.7358696,-0.67710614,-141.351,-1672.3209,8.411,0,0.00040999998,0.02441,1,0.07086614,0,0,0,false,true,false,-3826.71,1707.5399,17.76,-0.0049497257,0.0139429355,-0.6984373,0.7155183,44.481,-1994.991,5.9509997,0.01311,-0.060809996,0.18680999
129.95,-3276.95,151.4,92.14,0.19890419,0.4536097,0.67500967,0.5468429,-291.421,-1660.491,0,5.7206097,-1.40991,1.13431,1,0.007874016,0,0,0,false,true,false,-3246.88,1260.3099,16.99,-0.0035470785,-0.0032287855,0.73580015,-0.67718166,-141.55101,-1680.591,8.411,0,0.00040999998,0.02321,1,0.07086614,0,0,0,false,true,false,-3826.3398,1690.85,17.74,-0.004744723,0.013797276,-0.6978816,0.7160644,46.661,-2003.2009,5.871,0.012909999,-0.06691,0.17800999
129.95833,-3279.38,137.58,92.14,0.20586348,0.43494365,0.68946344,0.5413725,-291.071,-1658.1909,0,5.72361,-1.40531,1.12471,1,0.007874016,0,0,0,false,true,false,-3248.0698,1246.24,16.99,-0.0035470785,-0.0032287855,0.7357356,-0.67725176,-141.781,-1688.861,8.411,0,0.00040999998,0.02211,1,0.05511811,0,0,0,false,true,false,-3825.95,1674.09,17.72,-0.004523536,0.013630037,-0.6973529,0.71658397,49.001,-2011.4009,5.7809997,0.01261,-0.073309995,0.17081
129.96666,-3281.7998,123.78,92.14,0.21272574,0.41599703,0.70345557,0.5355785,-290.721,-1655.891,0,5.72651,-1.40081,1.1152099,1,0.007874016,0,0,0,false,true,false,-3249.26,1232.1,16.99,-0.0035470785,-0.0032287855,0.73567104,-0.6773219,-142.031,-1697.131,8.411,0,0.00040999998,0.02121,1,0.05511811,0,0,0,false,true,false,-3825.5398,1657.26,17.699999,-0.00428077,0.013446612,-0.6968457,0.717082,51.290997,-2019.601,5.691,0.012209999,-0.07980999,0.16021
129.975,-3284.22,110,92.14,0.21949083,0.39677528,0.7169827,0.5294608,-290.371,-1653.591,0,5.7294097,-1.39631,1.1058099,1,0.007874016,0,0,0,false,true,false,-3250.45,1217.89,16.99,-0.0035470787,-0.0032287857,0.73561144,-0.6773867,-142.30101,-1705.391,8.411,0,0.00040999998,0.02041,1,0.03937008,0,0,0,false,true,false,-3825.1099,1640.36,17.68,-0.00402182,0.013241611,-0.69636565,0.7175536,53.690998,-2027.8009,5.5909996,0.011709999,-0.08631,0.15141
129.98334,-3286.64,96.24,92.14,0.22615339,0.3772946,0.7300331,0.5230248,-290.021,-1651.2909,0,5.73231,-1.39191,1.0965099,1,0.007874016,0,0,0,false,true,false,-3251.64,1203.61,16.99,-0.0035470785,-0.0032287855,0.73555183,-0.6774514,-142.591,-1713.6509,8.411,0,0.00040999998,0.01971,1,0.023622047,0,0,0,false,true,false,-3824.66,1623.39,17.66,-0.003746686,0.01301503,-0.6959125,0.71799874,55.981,-2036.001,5.4709997,0.011209999,-0.09281,0.13940999
129.99167,-3289.0498,82.5,92.14,0.23270273,0.3575657,0.7426003,0.51627576,-289.671,-1648.991,0,5.73511,-1.38751,1.08731,1,0.007874016,0,0,0,false,true,false,-3252.8298,1189.26,16.99,-0.0035470785,-0.0032287855,0.7354971,-0.67751074,-142.891,-1721.9109,8.411,0,0.00040999998,0.01911,1,0.023622047,0,0,0,false,true,false,-3824.19,1606.35,17.64,-0.0034499725,0.012766871,-0.6954971,0.71840715,58.161,-2044.2009,5.351,0.010609999,-0.09911,0.12470999
130,-3291.46,68.78,92.14,0.23913875,0.3376049,0.7546764,0.50921404,-289.321,-1646.6909,0,5.73791,-1.38321,1.07811,1,0.007874016,0,0,0,false,true,false,-3254.03,1174.84,16.99,-0.0035470787,-0.0032287857,0.7354425,-0.6775701,-143.211,-1730.1709,8.411,0,0.00040999998,0.01861,1,0.023622047,0,0,0,false,true,false,-3823.7,1589.25,17.619999,-0.003137074,0.01249713,-0.6951248,0.7187735,60.371,-2052.401,5.2209997,0.010009999,-0.10521,0.112409994
130.00833,-3293.8699,55.079998,92.14,0.24545607,0.31741753,0.76625305,0.5018502,-288.971,-1644.391,0,5.7406096,-1.37891,1.06901,1,0.007874016,0,0,0,false,true,false,-3255.23,1160.35,16.99,-0.0035470785,-0.0032287855,0.7353878,-0.6776294,-143.541,-1738.4309,8.411,0,0.00040999998,0.01811,1,0.007874016,0,0,0,false,true,false,-3823.2,1572.08,17.59,-0.0028079913,0.012211205,-0.69479036,0.71910304,62.571,-2060.6008,5.0709996,0.0094099995,-0.111209996,0.10211
130.01666,-3296.27,41.399998,92.14,0.25164926,0.2970197,0.7773214,0.49418947,-288.621,-1642.091,0,5.74331,-1.37471,1.06001,1,0.007874016,0,0,0,false,true,false,-3256.43,1145.7899,16.99,-0.0035470785,-0.0032287855,0.7353381,-0.67768335,-143.891,-1746.6909,8.411,0,0.00040999998,0.01771,1,-0.0078125,0,0,0,false,true,false,-3822.68,1554.84,17.56,-0.0024627245,0.011903702,-0.69448286,0.7194064,64.571,-2068.801,4.9509997,0.00881,-0.11701,0.088709995
130.025,-3298.67,27.74,92.14,0.25771314,0.27642238,0.7878787,0.48623216,-288.271,-1639.7909,0,5.74601,-1.37051,1.05111,1,0.007874016,0,0,0,false,true,false,-3257.63,1131.1699,16.99,-0.0035470785,-0.0032287855,0.7352884,-0.6777373,-144.251,-1754.9509,8.411,0,0.00051,0.01741,1,-0.0078125,0,0,0,false,true,false,-3822.14,1537.5299,17.529999,-0.002101273,0.011580014,-0.6942185,0.719668,66.370995,-2077.011,4.8609996,0.00811,-0.12250999,0.072809994
130.03334,-3301.0698,14.09,92.14,0.263642,0.25564155,0.797914,0.47798893,-287.921,-1637.491,0,5.74861,-1.36641,1.04221,1,0,0,0,0,false,true,false,-3258.8398,1116.48,16.99,-0.0035470785,-0.0032287855,0.7352387,-0.67779124,-144.61101,-1763.2109,8.411,0,0.00051,0.01711,1,-0.015625,0,0,0,false,true,false,-3821.5898,1520.15,17.5,-0.0017236373,0.011234747,-0.6940027,0.71988255,68.120995,-2085.221,4.7809997,0.00741,-0.12771,0.05941
130.04167,-3303.47,0.45999998,92.14,0.2694306,0.23468804,0.8074225,0.46946502,-287.571,-1635.1909,0,5.75111,-1.3623099,1.03341,1,0,0,0,0,false,true,false,-3260.05,1101.72,16.99,-0.0035470785,-0.0032287855,0.7351889,-0.6778452,-145.071,-1771.4609,8.411,0,0.00051,0.014509999,1,-0.015625,0,0,0,false,true,false,-3821.02,1502.7,17.47,-0.001335212,0.010873212,-0.69382465,0.7200605,69.711,-2093.441,4.711,0.00671,-0.13250999,0.04581
130.05,-3305.8599,-13.15,92.14,0.27507356,0.21357273,0.81639934,0.46066612,-287.221,-1632.901,0,5.7536097,-1.35831,1.0247099,1,0,0,0,0,false,true,false,-3261.26,1086.89,16.99,-0.0035470785,-0.0032287855,0.7351491,-0.6778884,-145.52101,-1779.7109,8.411,0,0.00051,0.012309999,1,-0.0234375,0,0,0,false,true,false,-3820.44,1485.19,17.44,-0.0009359971,0.010495576,-0.6936898,0.72019666,71.221,-2101.661,4.641,0.00601,-0.13690999,0.03431
130.06667,-3310.64,-40.309998,92.14,0.2859118,0.1709213,0.8327319,0.44226438,-286.521,-1628.3209,0,5.7585096,-1.35041,1.0074099,1,0,0,0,0,false,true,false,-3263.7,1057.02,16.99,-0.0035470785,-0.0032287855,0.7350844,-0.6779585,-146.451,-1796.2109,8.411,0,0.00051,0.009009999,1,-0.03125,0,0,0,false,true,false,-3819.23,1449.96,17.38,-0.000105198524,0.009697146,-0.6935226,0.7203695,73.730995,-2118.1208,4.501,0.00481,-0.14460999,0.01201
130.075,-3313.02,-53.86,92.14,0.29109618,0.14940676,0.84007764,0.43267784,-286.171,-1626.0309,0,5.76091,-1.3465099,0.99891,1,0,0,0,0,false,true,false,-3264.93,1041.98,16.99,-0.0035470787,-0.0032287857,0.73505956,-0.67798555,-146.921,-1804.4609,8.411,0,0.00051,0.00771,1,-0.03125,0,0,0,false,true,false,-3818.6099,1432.24,17.35,0.0003263852,0.009276353,-0.69348484,0.72041136,74.730995,-2126.3608,4.4309998,0.0043099998,-0.14791,0.0010099999
130.09166,-3317.78,-80.9,92.14,0.30097416,0.106070206,0.8531102,0.41275474,-285.461,-1621.4509,0,5.7656097,-1.33891,0.98201,1,0,0,0,0,false,true,false,-3267.39,1011.69995,16.99,-0.0035470787,-0.0032287857,0.73501974,-0.6780287,-147.91101,-1820.9609,8.411,0,0.00051,0.00561,1,-0.03125,0,0,0,false,true,false,-3817.3599,1396.59,17.289999,0.0012165265,0.008402395,-0.693501,0.7204055,76.370995,-2142.8508,4.2809997,0.00351,-0.15321,-0.016210001
130.1,-3320.16,-94.39,92.14,0.3056622,0.08427514,0.85878676,0.40243444,-285.101,-1619.1609,0,5.76791,-1.33521,0.97371,1,0,0,0,0,false,true,false,-3268.63,996.45996,16.99,-0.0035470785,-0.0032287855,0.73500484,-0.6780448,-148.421,-1829.2009,8.411,0,0.00051,0.00481,1,-0.03125,0,0,0,false,true,false,-3816.72,1378.6599,17.26,0.0016696894,0.007954626,-0.6935496,0.7203629,77.001,-2151.1008,4.211,0.00321,-0.15520999,-0.02291
130.11667,-3324.9,-121.31,92.14,0.3145151,0.040501602,0.86844456,0.38110873,-284.381,-1614.5809,0,5.77231,-1.32791,0.95721,1,0,0,0,0,false,true,false,-3271.1199,965.76996,16.99,-0.0035470785,-0.0032287855,0.7349799,-0.6780718,-149.491,-1845.6809,8.411,0,0.00051,0.00351,1,-0.03125,0,0,0,false,true,false,-3815.43,1342.61,17.199999,0.0025921995,0.007032117,-0.693706,0.7202192,77.811,-2167.6208,4.4309998,-0.011909999,-0.14251,-0.03701
130.125,-3327.27,-134.75,92.14,0.3186691,0.018550092,0.87242043,0.37011954,-284.021,-1612.2909,0,5.77451,-1.32431,0.94911,1,0,0,0,0,false,true,false,-3272.3699,950.32,16.99,-0.0035470785,-0.0032287855,0.73497,-0.6780826,-150.041,-1853.9209,8.411,0,0.00051,0.00301,1,-0.03125,0,0,0,false,true,false,-3814.78,1324.48,17.17,0.002969835,0.006568163,-0.6938138,0.72011817,78.090996,-2175.8809,4.691,-0.02331,-0.12980999,-0.04401
130.13333,-3329.63,-148.17,92.14,0.32263437,-0.0034229984,0.87582636,0.35891986,-283.661,-1610.001,0,5.77661,-1.32071,0.94101,1,0,0,0,0,false,true,false,-3273.63,934.8,16.99,-0.0035470785,-0.0032287855,0.73495996,-0.6780934,-150.601,-1862.1609,8.411,0,0.00051,0.00261,1,-0.03125,0,0,0,false,true,false,-3814.13,1306.28,17.14,0.0032773386,0.0061096065,-0.6939434,0.7199961,78.270996,-2184.1409,4.921,-0.032209996,-0.11841,-0.049909998
130.14166,-3331.99,-161.56999,92.14,0.3264107,-0.025406877,0.87865794,0.34752062,-283.301,-1607.7109,0,5.77871,-1.31721,0.93301,1,0,0,0,0,false,true,false,-3274.89,919.20996,16.99,-0.0035470785,-0.0032287855,0.734955,-0.67809874,-151.171,-1870.4009,8.411,0,0.00051,0.00221,1,-0.0234375,0,0,0,false,true,false,-3813.48,1288.01,17.109999,0.0035254995,0.005661839,-0.6940945,0.719853,78.340996,-2192.411,5.1109996,-0.039309997,-0.108909994,-0.054909997
130.15,-3334.3499,-174.95,92.14,0.32999828,-0.04739076,0.88091326,0.33592716,-282.941,-1605.4209,0,5.78081,-1.31371,0.92511,1,0,0,0,0,false,true,false,-3276.15,903.55,16.99,-0.0035470785,-0.0032287855,0.73495007,-0.67810416,-151.751,-1878.641,8.411,0,0.00051,0.0019099999,1,-0.0234375,0,0,0,false,true,false,-3812.8298,1269.6699,17.08,0.0037251068,0.005219465,-0.69425625,0.7196992,78.381,-2200.681,5.2809997,-0.044809997,-0.10121,-0.05681
130.15834,-3336.7,-188.31,92.14,0.33338618,-0.069358446,0.88259447,0.3241449,-282.581,-1603.131,0,5.7828097,-1.31031,0.91721,1,0,0,0,0,false,true,false,-3277.42,887.82996,16.99,-0.0035470785,-0.0032287855,0.7349451,-0.6781095,-152.341,-1886.881,8.411,0,0.00051,0.0016099999,1,-0.0234375,0,0,0,false,true,false,-3812.17,1251.26,17.06,0.0038869507,0.0047878814,-0.6944235,0.71954,78.300995,-2208.951,5.4309998,-0.048909996,-0.09520999,-0.058509998
130.16667,-3339.0498,-201.65,92.14,0.3365799,-0.091293775,0.88369685,0.31218454,-282.221,-1600.841,0,5.78481,-1.30691,0.90941,1,0,0,0,0,false,true,false,-3278.69,872.04,16.99,-0.0035470785,-0.0032287855,0.7349401,-0.67811495,-152.94101,-1895.121,8.411,0,0.00051,0.0014099999,1,-0.0234375,0,0,0,false,true,false,-3811.52,1232.78,17.039999,0.0040164255,0.0043616924,-0.6945961,0.7193754,78.111,-2217.231,5.5309997,-0.051809996,-0.09061,-0.060009997
130.175,-3341.4,-214.97,92.14,0.33956861,-0.11318594,0.88422334,0.30005163,-281.861,-1598.5609,0,5.78681,-1.30351,0.90171,1,0,0,0,0,false,true,false,-3279.97,856.18,16.99,-0.0035470785,-0.0032287855,0.73493516,-0.6781203,-153.55101,-1903.361,8.411,0,0.00051,0.0012099999,1,-0.015625,0,0,0,false,false,false,-3810.8699,1214.23,17.02,0.0041243215,0.0039408985,-0.69477415,0.71920526,77.821,-2225.511,5.601,-0.05371,-0.087309994,-0.061309997
130.18333,-3343.75,-228.26999,92.14,0.34235233,-0.13501877,0.8841723,0.2877568,-281.501,-1596.2809,0,5.7887096,-1.30021,0.89401,1,0,0,0,0,false,true,false,-3281.25,840.25,16.99,-0.0035470785,-0.0032287855,0.73493016,-0.67812574,-154.16101,-1911.601,8.411,0,0.00051,0.0010099999,1,-0.015625,0,0,0,false,false,false,-3810.22,1195.6799,17,0.004216033,0.0035201046,-0.6949576,0.7190296,77.230995,-2225.531,5.7209997,-0.05461,-0.08491,-0.060209997
130.19167,-3346.0898,-241.54999,92.14,0.3449311,-0.15678144,0.88354325,0.2753055,-281.141,-1594.001,0,5.79061,-1.2969099,0.88641,1,0,0,0,0,false,true,false,-3282.54,824.25,16.99,-0.0035470785,-0.0032287855,0.7349252,-0.6781311,-154.781,-1919.841,8.411,0,0.00051,0.00081,1,-0.0078125,0,0,0,false,false,false,-3809.5798,1177.13,16.98,0.0042969557,0.0031047054,-0.69513565,0.718859,76.550995,-2225.551,5.811,-0.05481,-0.08330999,-0.059309997
