time,ball_loc_x,ball_loc_y,ball_loc_z,ball_rot_x,ball_rot_y,ball_rot_z,ball_rot_w,ball_vel_x,ball_vel_y,ball_vel_z,ball_ang_x,ball_ang_y,ball_ang_z,player0_throttle,player0_steer,player0_pitch,player0_yaw,player0_roll,player0_jump,player0_boost,player0_handbrake,player0_loc_x,player0_loc_y,player0_loc_z,player0_rot_x,player0_rot_y,player0_rot_z,player0_rot_w,player0_vel_x,player0_vel_y,player0_vel_z,player0_ang_x,player0_ang_y,player0_ang_z,player1_throttle,player1_steer,player1_pitch,player1_yaw,player1_roll,player1_jump,player1_boost,player1_handbrake,player1_loc_x,player1_loc_y,player1_loc_z,player1_rot_x,player1_rot_y,player1_rot_z,player1_rot_w,player1_vel_x,player1_vel_y,player1_vel_z,player1_ang_x,player1_ang_y,player1_ang_z
220,3148.94,182.73999,98.049995,0.72877455,-0.5916523,0.3136789,-0.14297073,35.010998,-1477.741,-109.881,3.62271,-0.51931,0.13670999,1,1,0,0,0,false,false,false,3544.3398,-4232.13,25.4,-0.11616392,-0.034702156,0.46291038,0.87807494,368.391,218.851,37.041,-0.52071,-0.37441,1.72701,0,-1,0,0,0,false,false,false,3643.52,508.86,17,0.0031208897,0.00363879,-0.656622,0.7542045,289.151,-1691.3109,8.401,0.00030999997,0.00030999997,-1.73931
220.00833,3149.23,170.43,97.09,0.72618866,-0.59559584,0.3062071,-0.15541117,35.001,-1477.361,-115.260994,3.62271,-0.51931,0.13670999,1,1,0,0,0,false,false,false,3547.41,-4230.31,25.64,-0.11853763,-0.035905194,0.469109,0.874412,348.521,238.181,30.350998,-0.43791,-0.26711002,1.7609099,0,-1,0,0,0,false,false,false,3645.93,494.77,17,0.0031478636,0.0036172108,-0.66207075,0.7494258,266.361,-1688.891,8.4210005,0.00040999998,0.00010999999,-1.76231
220.01666,3149.52,158.12,96.079994,0.7234337,-0.59939915,0.29866517,-0.16781925,34.990997,-1476.981,-120.641,3.62271,-0.51931,0.13670999,1,1,0,0,0,false,false,false,3550.3198,-4228.33,25.82,-0.12038804,-0.03689244,0.47544256,0.87068933,329.571,256.741,24.101,-0.36171,-0.16111,1.7947099,0,-1,0,0,0,false,false,false,3648.15,480.69998,17,0.0031748374,0.0035956316,-0.6675573,0.7445429,243.181,-1686.1609,8.431,0.00051,0,-1.78291
220.025,3149.8098,145.81,95.03,0.72051203,-0.60306233,0.29105306,-0.18018419,34.981,-1476.601,-126.020996,3.62271,-0.51931,0.13670999,1,1,0,0,0,false,false,false,3553.0698,-4226.19,25.949999,-0.12174213,-0.0376585,0.4819163,0.8669009,311.581,274.561,18.300999,-0.29241002,-0.05721,1.82761,0,-1,0,0,0,false,false,false,3650.18,466.65,17,0.0032018116,0.0035740524,-0.6730708,0.7395624,219.641,-1683.111,8.441,0.00051,-0.00010999999,-1.80151
220.03334,3150.0999,133.51,93.93,0.71742225,-0.6065851,0.28337085,-0.19251132,34.970997,-1476.221,-131.401,3.62271,-0.51931,0.13670999,1,1,0,0,0,false,false,false,3555.67,-4223.9097,26.029999,-0.122621484,-0.038203374,0.48851952,0.8630487,294.581,291.671,12.941,-0.22981,0.04361,1.85901,1,-0.9453125,0,0,0,false,false,false,3652.01,452.62,17,0.0032287857,0.0035524736,-0.67860055,0.73449177,195.791,-1679.721,8.441,0.00051,-0.00021,-1.81831
220.04167,3150.39,121.21,92.79,0.71416515,-0.60996765,0.27562383,-0.20478997,34.961,-1475.841,-136.781,3.62271,-0.51931,0.13670999,1,1,0,0,0,false,false,false,3558.13,-4221.48,26.07,-0.12305847,-0.038527064,0.49524686,0.8591291,278.581,308.101,7.9909997,-0.17300999,0.14110999,1.88861,1,-0.921875,0,0,0,false,false,false,3653.64,438.62,17,0.0032557594,0.0035308942,-0.68414634,0.7293289,172.321,-1680.4109,8.441,0.00021,-0.00040999998,-1.82331
220.05,3150.63,109.57,93.47,0.7089641,-0.61569697,0.26185632,-0.22297587,29.321,-1397.1909,82.041,5.76711,-0.36501,0.13670999,1,1,0,0,0,false,false,false,3560.45,-4218.92,26.07,-0.123080045,-0.03862956,0.5020929,0.85513836,263.601,323.881,3.3709998,-0.121209994,0.23491,1.9161099,1,-0.890625,0,0,0,false,false,false,3655.0798,424.62,17,0.003282733,0.0035039196,-0.6896652,0.7241123,148.72101,-1680.771,8.441,0,-0.00061,-1.82231
220.05833,3150.8699,97.93,94.11,0.7033553,-0.6210648,0.24793766,-0.24103233,29.310999,-1396.8309,76.601,5.76711,-0.36501,0.13670999,1,1,0,0,0,false,false,false,3562.65,-4216.2197,26.029999,-0.1227078,-0.038521666,0.50904137,0.85107905,249.61101,339.051,-0.931,-0.075009994,0.32451,1.9412099,1,-0.890625,0,0,0,false,false,false,3656.3198,410.61,17,0.0033097074,0.0034769461,-0.695141,0.7188572,125.120995,-1680.8209,8.441,0,-0.00071,-1.81331
220.06667,3151.1099,86.29,94.7,0.69733554,-0.6260766,0.23387343,-0.25894848,29.300999,-1396.471,71.160995,5.76711,-0.36501,0.13670999,1,1,0,0,0,false,false,false,3564.73,-4213.4,25.949999,-0.1219687,-0.03820337,0.51608694,0.8469463,236.58101,353.671,-4.9509997,-0.035109997,0.40941,1.9636099,1,-0.8671875,0,0,0,false,false,false,3657.3599,396.6,17,0.0033366818,0.0034499725,-0.70055205,0.71358514,101.221,-1680.501,8.441,0,-0.00081,-1.80661
220.075,3151.3499,74.659996,95.25,0.69091463,-0.6307215,0.21967424,-0.2767136,29.290998,-1396.111,65.721,5.76711,-0.36501,0.13670999,1,1,0,0,0,false,false,false,3566.7,-4210.46,25.84,-0.12089515,-0.03768008,0.5232136,0.8427407,224.451,367.791,-8.691,-0.00111,0.48961,1.98321,1,-0.8046875,0,0,0,false,false,false,3658.2,382.6,17,0.0033636554,0.0034229981,-0.70590365,0.7082915,77.361,-1679.851,8.441,0,-0.00091,-1.79461
220.08333,3151.5898,63.03,95.75,0.68408847,-0.635005,0.20535098,-0.29431692,29.280998,-1395.751,60.281,5.76711,-0.36501,0.13670999,1,1,0,0,0,false,false,false,3568.5698,-4207.4,25.699999,-0.11951408,-0.036957175,0.53040487,0.83846354,213.161,381.461,-12.211,0.02711,0.56471,2.00011,1,-0.78125,0,0,0,false,false,false,3658.8398,368.6,17,-0.0033906293,-0.0033960242,0.7111776,-0.7029959,53.950996,-1678.9409,8.441,0,-0.00111,-1.76701
220.09166,3151.8298,51.399998,96.21,0.67686754,-0.63891625,0.1909091,-0.31175295,29.270998,-1395.391,54.841,5.76711,-0.36501,0.13670999,1,1,0,0,0,false,false,false,3570.3499,-4204.2197,25.529999,-0.11785789,-0.036040064,0.53765017,0.834112,202.641,394.721,-15.541,0.050109997,0.63481,2.01441,1,-0.75,0,0,0,false,false,false,3659.29,354.61,17,-0.0034176034,-0.00336905,0.7163336,-0.6977413,30.560999,-1677.7009,8.441,0,-0.0012099999,-1.73811
220.1,3152.0698,39.77,96.619995,0.66925246,-0.6424606,0.17635386,-0.3290056,29.261,-1395.031,49.411,5.76711,-0.36501,0.13670999,1,1,0,0,0,false,false,false,3572.04,-4200.9297,25.33,-0.115953475,-0.034934126,0.54493314,0.82968795,192.951,407.511,-18.651,0.068509996,0.70011,2.02631,1,-0.7265625,0,0,0,false,true,false,3659.54,340.63,17,-0.0034445776,-0.0033420764,0.7213679,-0.6925354,7.3609996,-1676.1609,8.441,0,-0.00131,-1.7050099
220.10834,3152.3098,28.15,96.99,0.6612529,-0.6456274,0.16169612,-0.3460694,29.251,-1394.6709,43.981,5.76711,-0.36501,0.13670999,1,1,0,0,0,false,false,false,3573.65,-4197.54,25.109999,-0.11382792,-0.03364477,0.5522431,0.82519007,183.951,419.901,-21.591,0.08271,0.76091,2.03611,1,-0.7265625,0,0,0,false,true,false,3659.5999,326.59,17,-0.0034715512,-0.0033151023,0.7262687,-0.687394,-16.011,-1682.591,8.391,0,-0.00131,-1.67011
220.11667,3152.55,16.529999,97.31,0.65286654,-0.6484219,0.14694674,-0.3629336,29.241,-1394.3109,38.551,5.76711,-0.36501,0.13670999,1,1,0,0,0,false,false,false,3575.19,-4194.04,24.859999,-0.11150277,-0.032182783,0.55956924,0.82061774,175.391,432.041,-23.970999,0.07531,0.80421,2.04261,1,-0.671875,0,0,0,false,true,false,3659.46,312.5,17,-0.003498525,-0.0032881277,0.73103505,-0.68232286,-39.541,-1688.6809,8.361,0,-0.0012099999,-1.6403099
220.125,3152.79,4.91,97.59,-0.6441006,0.65084124,-0.13211097,0.37958738,29.230999,-1393.9509,33.121,5.76711,-0.36501,0.13670999,1,1,0,0,0,false,false,false,3576.65,-4190.44,24.59,-0.10909129,-0.030553555,0.5668954,0.8159626,167.30101,443.82098,-26.411,0.07711,0.84891,2.0487099,1,-0.6484375,0,0,0,false,true,false,3659.13,298.36,17,-0.0035254993,-0.0032611543,0.73568094,-0.6773111,-62.591,-1694.5709,8.341001,0,-0.0012099999,-1.5986099
220.13333,3153.03,-6.7,97.82,-0.63496184,0.6528826,-0.11719971,0.39602003,29.220999,-1393.591,27.690998,5.76711,-0.36501,0.13670999,1,1,0,0,0,false,false,false,3578.0498,-4186.7397,24.3,-0.10656113,-0.028778667,0.57421076,0.8112326,159.511,455.341,-28.581,0.089509994,0.87871,2.05791,1,-0.625,0,0,0,false,true,false,3658.5999,284.16998,17,-0.0035524736,-0.0032341806,0.7401755,-0.67239654,-85.520996,-1700.2009,8.321,-0.00010999999,-0.0012099999,-1.55671
220.14166,3153.27,-18.31,98.009995,-0.62545615,0.6545456,-0.10221828,0.41222066,29.210999,-1393.231,22.261,5.76711,-0.36501,0.13670999,1,1,0,0,0,false,false,false,3579.38,-4182.9497,23.99,-0.103906855,-0.026933607,0.5815208,0.8064189,151.851,466.671,-30.880999,0.09891,0.90901,2.06671,1,-0.625,0,0,0,false,true,false,3657.88,269.93,17,-0.0035794473,-0.0032072063,0.7445234,-0.6675789,-108.260994,-1705.5809,8.311,-0.00010999999,-0.00111,-1.51411
220.15,3153.51,-29.92,98.15,-0.61558896,0.6558266,-0.08717754,0.42818382,29.200998,-1392.871,16.831,5.76711,-0.36501,0.13670999,1,1,0,0,0,false,false,false,3580.65,-4179.06,23.66,-0.10113393,-0.025013056,0.58882,0.8015218,144.621,477.491,-29.081,0.28581,1.00821,2.07671,1,-0.6015625,0,0,0,false,true,false,3656.97,255.65,17,-0.0036010267,-0.0031802326,0.7487197,-0.6628693,-131.011,-1710.6809,8.301001,-0.00010999999,-0.0010099999,-1.47761
220.15834,3153.75,-41.52,98.25,-0.6053659,0.65672594,-0.07208826,0.443899,29.190998,-1392.511,11.411,5.76711,-0.36501,0.13670999,1,1,0,0,0,false,false,false,3581.8599,-4175.08,23.35,-0.09748704,-0.023221985,0.59612453,0.7966131,137.33101,488.251,-28.130999,0.39401,1.06071,2.08801,1,-0.5546875,0,0,0,false,true,false,3655.8699,241.33,17,-0.0036226057,-0.0031532582,0.7527876,-0.65824586,-153.451,-1715.5809,8.301001,-0.00010999999,-0.00091,-1.4391099
220.16667,3153.99,-53.12,98.299995,-0.59478664,0.65725,-0.05695577,0.45935518,29.180998,-1392.151,5.9909997,5.76711,-0.36501,0.13670999,1,1,0,0,0,false,false,false,3583.01,-4171.01,23.05,-0.0933384,-0.021528019,0.6034183,0.7916506,129.961,498.82098,-27.970999,0.46071,1.08911,2.1017098,1,-0.5546875,0,0,0,false,true,false,3654.5798,226.97,17,-0.0036441851,-0.0031262846,0.75672156,-0.65371966,-175.351,-1720.351,8.301001,-0.00010999999,-0.00091,-1.39261
220.175,3154.23,-64.72,98.299995,-0.5838621,0.6573915,-0.041790955,0.4745469,29.171,-1391.7909,0.571,5.76711,-0.36501,0.13670999,1,1,0,0,0,false,false,false,3584.0999,-4166.85,22.75,-0.08888769,-0.01990958,0.6107014,0.7866043,122.491,509.181,-28.460999,0.50521,1.10681,2.11711,1,-0.5,0,0,0,false,false,false,3653.1099,212.56999,17,-0.003665764,-0.0031047051,0.7605022,-0.64931744,-197.19101,-1724.881,8.301001,-0.00010999999,-0.00071,-1.3530099
220.18333,3154.47,-76.32,98.259995,-0.57260317,0.6571479,-0.026599126,0.48946363,29.161,-1391.4309,-4.8409996,5.76711,-0.36501,0.13670999,1,1,0,0,0,false,false,false,3585.1199,-4162.61,22.439999,-0.08423738,-0.018350482,0.61797893,0.78145325,114.90099,519.321,-29.540998,0.53451,1.1202099,2.1333098,1,-0.4765625,0,0,0,false,false,false,3651.46,198.12999,17,-0.003687343,-0.003083126,0.76415235,-0.64501774,-218.33101,-1729.351,8.301001,-0.00010999999,-0.00071,-1.30301
220.2,3154.95,-99.5,98.04,-0.54909253,0.655522,0.0038168184,0.51843375,29.140999,-1390.7109,-15.661,5.76711,-0.36501,0.13670999,1,1,0,0,0,false,false,false,3586.98,-4153.87,21.8,-0.07453749,-0.015313171,0.63250184,0.77081186,99.291,538.941,-32.821,0.57361,1.15621,2.16631,1,-0.4609375,0,0,0,false,false,false,3647.63,169.12999,17,-0.0037197121,-0.0030399677,0.7709816,-0.6368393,-259.811,-1737.841,8.301001,-0.00021,-0.00051,-1.21181
220.20833,3155.19,-111.09,97.86,-0.53685707,0.6541383,0.019024832,0.53247106,29.130999,-1390.351,-21.071,5.76711,-0.36501,0.13670999,1,1,0,0,0,false,false,false,3587.8098,-4149.38,21.46,-0.069504105,-0.013781049,0.639747,0.76531225,91.251,548.41095,-34.881,0.58941,1.18451,2.18241,0,-0.4375,0,0,0,false,false,false,3645.46,154.65,17,-0.0037358967,-0.0030183888,0.7741869,-0.6329388,-278.531,-1733.771,8.351,-0.00021,-0.00040999998,-1.17131
220.21666,3155.43,-122.67,97.64,-0.52430874,0.6523753,0.034222055,0.54620093,29.120998,-1389.991,-26.480999,5.76711,-0.36501,0.13670999,1,1,0,0,0,false,false,false,3588.5698,-4144.81,21.1,-0.06433589,-0.012205768,0.6469815,0.75968856,83.031,557.66095,-37.131,0.60261,1.21971,2.19791,0,-0.421875,0,0,0,false,false,false,3643.14,140.2,17,-0.0037520807,-0.0029968093,0.7772677,-0.6291516,-295.691,-1725.391,8.3810005,0,-0.00040999998,-1.12771
220.225,3155.67,-134.25,97.369995,-0.5114583,0.65023345,0.049403016,0.5596124,29.110998,-1389.631,-31.890999,5.76711,-0.36501,0.13670999,1,1,0,0,0,false,false,false,3589.26,-4140.1597,20.72,-0.059027374,-0.010560355,0.6541998,0.75394076,74.611,566.691,-39.510998,0.61271,1.26131,2.21261,0,-0.40625,0,0,0,false,false,false,3640.68,125.82,17,-0.0037682652,-0.0029806248,0.78021413,-0.62549394,-312.321,-1716.9609,8.401,0.00010999999,-0.00040999998,-1.08611
220.23334,3155.91,-145.83,97.06,-0.49831113,0.64771396,0.06455168,0.57270026,29.100998,-1389.271,-37.291,5.76711,-0.36501,0.13670999,1,1,0,0,0,false,false,false,3589.88,-4135.44,20.32,-0.053562444,-0.0088124415,0.66139644,0.74806947,65.961,575.501,-41.940998,0.61831,1.30751,2.22651,0,-0.390625,0,0,0,false,false,false,3638.0798,111.509995,17,-0.0037844495,-0.0029644405,0.7830382,-0.6219549,-328.401,-1708.511,8.411,0.00021,-0.00040999998,-1.04631
220.24167,3156.15,-157.4,96.7,-0.48487264,0.6448227,0.07966259,0.58545357,29.091,-1388.9109,-42.690998,5.76711,-0.36501,0.13670999,1,1,0,0,0,false,false,false,3590.43,-4130.65,19.9,-0.04794642,-0.0069350526,0.6685661,0.74207294,57.051,584.10095,-44.330997,0.62231,1.35481,2.24001,0,-0.375,0,0,0,false,false,false,3635.3398,97.27,17,-0.0038006338,-0.002948256,0.7857427,-0.6185346,-343.911,-1700.0509,8.4210005,0.00021,-0.00030999997,-1.00801
220.25,3156.39,-168.97,96.299995,-0.4711536,0.6415569,0.09473026,0.5978671,29.081,-1388.5509,-48.091,5.76711,-0.36501,0.13670999,1,1,0,0,0,false,false,false,3590.91,-4125.78,19.46,-0.04217938,-0.004928146,0.6757035,0.7359492,47.591,592.451,-44.220997,0.71111,1.30441,2.25951,0,-0.375,0,0,0,false,false,false,3632.47,83.1,17,-0.0038168184,-0.0029320717,0.7883348,-0.6152276,-358.831,-1691.601,8.4210005,0.00021,-0.00021,-0.97091
220.25833,3156.63,-180.54,95.85,-0.4571595,0.63791865,0.109744065,0.6099353,29.071,-1388.1909,-53.490997,5.76711,-0.36501,0.13670999,1,1,0,0,0,false,false,false,3591.3098,-4120.84,19.02,-0.036277432,-0.003325892,0.6828031,0.72969353,37.560997,600.55096,-44.551,0.78361,1.26111,2.27911,0,-0.34375,0,0,0,false,false,false,3629.48,69,17,-0.0038276082,-0.0029158876,0.79081684,-0.6120339,-373.32098,-1683.131,8.4210005,0.00021,-0.00010999999,-0.93931
220.26666,3156.8699,-192.11,95.36,-0.44290096,0.63391227,0.124693125,0.6216474,29.060999,-1387.8309,-58.891,5.76711,-0.36501,0.13670999,1,1,0,0,0,false,false,false,3591.6199,-4115.84,18.58,-0.030273026,-0.0020635095,0.68987024,0.72329676,25.210999,608.90094,-31.841,0.48701,0.72361,2.30051,0,-0.328125,0,0,0,false,false,false,3626.3699,54.969997,17,-0.0038383976,-0.0028997029,0.7932079,-0.60893184,-387.041,-1674.761,8.4210005,0.00021,-0.00010999999,-0.90321
220.275,3157.1099,-203.67,94.82,-0.42838886,0.62953454,0.13956656,0.63300085,29.050999,-1387.471,-64.291,5.76711,-0.36501,0.13670999,1,1,0,0,0,false,false,false,3591.8298,-4110.77,18.25,-0.026701627,-0.0015725831,0.6968566,0.7167114,12.041,616.61096,-23.640999,0.37661,0.41391,2.3187099,0,-0.3203125,0,0,0,false,false,false,3623.14,41.01,17,-0.0038491872,-0.0028835186,0.79549336,-0.6059431,-400.191,-1666.4409,8.4210005,0.00021,-0.00010999999,-0.86811
220.28334,3157.3499,-215.23,94.24,-0.41362873,0.6247926,0.15435919,0.64398646,29.040998,-1387.111,-69.690994,5.76711,-0.36501,0.13670999,1,1,0,0,0,false,false,false,3591.93,-4105.63,17.99,-0.024360288,-0.001685874,0.703789,0.70998925,-1.4810001,623.751,-18.450998,0.36461002,0.23941,2.33551,0,-0.3046875,0,0,0,false,false,false,3619.8098,27.119999,17,-0.003859977,-0.0028673343,0.79767954,-0.60306233,-412.841,-1658.1509,8.4210005,0.00021,0,-0.83591
220.29167,3157.5898,-226.79,93.61,-0.3986257,0.6196891,0.16906549,0.65459883,29.030998,-1386.751,-75.081,5.76711,-0.36501,0.13670999,1,1,0,0,0,false,false,false,3591.92,-4100.4297,17.77,-0.02256382,-0.0022846963,0.7106827,0.703147,-14.861,630.381,-12.781,0.31931,0.24091,2.35021,1,-0.2890625,0,0,0,false,true,false,3616.3699,13.299999,17,-0.0038707664,-0.0028565445,0.79977643,-0.60027856,-424.911,-1649.9409,8.4210005,0.00021,0,-0.80391
220.3,3157.8298,-238.34,92.939995,-0.38339072,0.61422414,0.1836746,0.6648336,29.020998,-1386.391,-80.471,5.76711,-0.36501,0.13670999,1,1,0,0,0,false,false,false,3591.7998,-4095.18,17.6,-0.020891432,-0.0027432537,0.71755046,0.6961876,-28.091,636.67096,-9.491,0.30001,0.29001,2.36291,1,-0.28125,0,0,0,false,true,false,3612.8098,-0.52,17,-0.0038815557,-0.0028457548,0.80178183,-0.5975973,-440.031,-1653.9309,8.371,0,0,-0.77341
220.30833,3158.04,-249.5,93.34,-0.36425534,0.6075939,0.20158002,0.6763971,25.610998,-1339.2109,48.271,5.99441,-0.23121,0.11621,1,1,0,0,0,false,false,false,3591.5698,-4089.8699,17.449999,-0.019127334,-0.003002204,0.7243932,0.689115,-41.201,642.641,-7.641,0.27941,0.34551,2.37421,1,-0.265625,0,0,0,false,true,false,3609.1199,-14.37,17,-0.0038923454,-0.0028349652,0.8037054,-0.59500784,-454.751,-1657.9509,8.341001,-0.00010999999,0,-0.74470997
220.31667,3158.25,-260.66,93.7,-0.34773636,0.6015409,0.21666934,0.6857712,25.600998,-1338.871,42.841,5.99441,-0.23121,0.11621,1,1,0,0,0,false,false,false,3591.23,-4084.51,17.32,-0.017249944,-0.0030399675,0.7311984,0.6819399,-54.271,648.311,-6.411,0.26011002,0.40121,2.38441,1,-0.2578125,0,0,0,false,true,false,3605.3098,-28.25,17,-0.0039031352,-0.0028241759,0.80554855,-0.5925101,-469.011,-1662.0509,8.321,-0.00021,0,-0.71521
220.325,3158.46,-271.81,94.009995,-0.33100167,0.5951103,0.23162372,0.69471717,25.591,-1338.531,37.411,5.99441,-0.23121,0.11621,1,1,0,0,0,false,false,false,3590.78,-4079.1099,17.199999,-0.015259221,-0.0028619391,0.73796314,0.67466223,-67.331,653.67096,-5.651,0.24410999,0.45771,2.39391,1,-0.2578125,0,0,0,false,true,false,3601.38,-42.17,17,-0.0039085294,-0.0028133863,0.80730885,-0.59010935,-482.901,-1666.1909,8.311,-0.00021,0.00010999999,-0.68751
220.33333,3158.67,-282.96,94.28,-0.31406194,0.58831286,0.24643251,0.70322394,25.581,-1338.1909,31.980999,5.99441,-0.23121,0.11621,1,1,0,0,0,false,false,false,3590.22,-4073.66,17.09,-0.013133673,-0.0024789087,0.74468017,0.6672875,-80.421,658.72095,-5.2609997,0.23010999,0.51271,2.4028099,1,-0.2421875,0,0,0,false,false,false,3597.3298,-56.12,17,-0.0039139246,-0.0028025967,0.80899554,-0.5877949,-496.511,-1670.361,8.301001,-0.00021,0.00010999999,-0.66351
220.34166,3158.88,-294.11,94.5,-0.29692265,0.58114314,0.26108488,0.7112976,25.571,-1337.851,26.550999,5.99441,-0.23121,0.11621,1,1,0,0,0,false,false,false,3589.5498,-4068.17,16.98,-0.010878649,-0.0018962709,0.7513462,0.6598157,-93.58099,663.451,-5.191,0.21731,0.56481,2.41121,1,-0.2265625,0,0,0,false,false,false,3593.17,-70.11,17,-0.0039193192,-0.002791807,0.8106175,-0.5855561,-509.681,-1674.621,8.291,-0.00021,0.00010999999,-0.63801
220.35,3159.0898,-305.25998,94.68,-0.27959985,0.573612,0.27557528,0.71892375,25.560999,-1337.511,21.120998,5.99441,-0.23121,0.11621,1,1,0,0,0,false,false,false,3588.77,-4062.64,16.869999,-0.008494148,-0.0011356046,0.7579581,0.65224683,-106.840996,667.85095,-5.3609996,0.20530999,0.61331,2.4193099,1,-0.21875,0,0,0,false,false,false,3588.9,-84.13,17,-0.0039247144,-0.0027810177,0.812172,-0.5833982,-522.451,-1678.9609,8.291,-0.00021,0.00010999999,-0.61171
220.35834,3159.3,-316.4,94.81,-0.2620991,0.5657248,0.28989315,0.7261001,25.550999,-1337.1709,15.691,5.99441,-0.23121,0.11621,1,1,0,0,0,false,false,false,3587.88,-4057.0698,16.76,-0.0059855683,-0.00020230486,0.76451266,0.6445808,-120.22099,671.92096,-5.711,0.19371,0.65791,2.42711,1,-0.2109375,0,0,0,false,false,false,3584.52,-98.189995,17,-0.0039301086,-0.0027702278,0.81365603,-0.58132654,-534.91095,-1683.351,8.291,-0.00021,0.00010999999,-0.58701
220.36667,3159.51,-327.53998,94.9,-0.24443644,0.55748147,0.30402762,0.73282486,25.540998,-1336.8309,10.271,5.99441,-0.23121,0.11621,1,1,0,0,0,false,false,false,3586.88,-4051.47,16.64,-0.00336905,0.00088744395,0.7710065,0.63681763,-134.011,675.451,-1.121,0.08411,0.51971,2.43391,1,-0.203125,0,0,0,false,false,false,3580.04,-112.28,17,-0.003935504,-0.0027594382,0.8150746,-0.57933587,-547.071,-1687.8009,8.291,-0.00010999999,0.00010999999,-0.56371
220.375,3159.72,-338.68,94.939995,-0.22662279,0.54888755,0.31797317,0.73909235,25.530998,-1336.491,4.851,5.99441,-0.23121,0.11621,1,0,0,0,0,false,true,false,3585.76,-4045.8398,16.56,-0.0014862664,0.0019610084,0.7774314,0.62896276,-148.641,678.47095,5.171,-0.02541,0.27041,2.43921,1,-0.1953125,0,0,0,false,false,false,3575.46,-126.409996,17,-0.0039408985,-0.0027486486,0.81643254,-0.5774207,-558.92096,-1692.3109,8.291,-0.00010999999,0.00010999999,-0.54151
220.38333,3159.93,-349.81,94.939995,-0.20866342,0.53995365,0.3317192,0.74489725,25.520998,-1336.151,-0.561,5.99441,-0.23121,0.11621,1,-0.078125,0,0,0,false,true,false,3584.51,-4040.1199,16.539999,-0.0006986261,0.002737859,0.783784,0.621027,-152.55101,693.54095,8.741,-0.06421,0.124309994,2.06851,1,-0.1875,0,0,0,false,false,false,3570.78,-140.58,17,-0.003946293,-0.002737859,0.81773436,-0.57557565,-570.48096,-1696.881,8.291,0,0.00010999999,-0.52021
220.39166,3160.14,-360.94,94.89,-0.19057459,0.53068,0.3452602,0.7502368,25.511,-1335.8109,-5.9709997,5.99441,-0.23121,0.11621,1,-0.078125,0,0,0,false,true,false,3583.22,-4034.27,16.539999,-0.00048283426,0.0032611543,0.78910786,0.6142457,-158.001,707.951,10.741,-0.07031,0.042809997,1.73201,1,-0.1875,0,0,0,false,false,false,3566,-154.79,17,-0.0039516883,-0.0027270697,0.81898075,-0.57380086,-581.751,-1701.521,8.291,0,0.00010999999,-0.49971
220.4,3160.3499,-372.06998,94.799995,-0.17236711,0.5210773,0.35858536,0.75510556,25.501,-1335.471,-11.3810005,5.99441,-0.23121,0.11621,1,-0.15625,0,0,0,false,true,false,3581.89,-4028.2998,16.56,-0.00054757175,0.003601026,0.79352033,0.6085326,-165.121,721.79095,11.751,-0.060909998,0.0018099999,1.4449099,0,-0.1796875,0,0,0,false,false,false,3561.15,-168.97,17,-0.003957083,-0.0027216745,0.8201725,-0.57209605,-589.99097,-1698.4309,8.341001,0,0.00010999999,-0.48221
220.40834,3160.5598,-383.19998,94.659996,-0.1540517,0.51115084,0.37168404,0.75950235,25.491,-1335.131,-16.790998,5.99441,-0.23121,0.11621,1,-0.1796875,0,0,0,false,true,false,3580.5,-4022.22,16.59,-0.00072020525,0.0038060287,0.7971703,0.603742,-172.30101,735.36096,12.351,-0.049409997,-0.02591,1.17001,0,-0.171875,0,0,0,false,false,false,3556.23,-183.12,17,-0.0039624777,-0.0027162798,0.8213215,-0.57044524,-596.34094,-1691.341,8.371,0.00021,0,-0.46401
220.41667,3160.77,-394.31998,94.47,-0.13563918,0.5009007,0.38455063,0.7634273,25.480999,-1334.7909,-22.200998,5.99441,-0.23121,0.11621,1,-0.2109375,0,0,0,false,true,false,3579.0498,-4016.03,16.619999,-0.0009467867,0.003903135,0.80010456,0.59984696,-180.071,748.61096,12.601,-0.039509997,-0.04291,0.92820996,0,-0.1640625,0,0,0,false,false,false,3551.26,-197.20999,17,-0.0039678724,-0.002710885,0.8224246,-0.56885374,-602.371,-1684.341,8.391,0.00030999997,0,-0.44611
220.425,3160.98,-405.44,94.24,-0.11714576,0.49033758,0.3971799,0.7668728,25.470999,-1334.4509,-27.610998,5.99441,-0.23121,0.11621,1,-0.2109375,0,0,0,false,true,false,3577.53,-4009.73,16.66,-0.0012057369,0.003924714,0.8024164,0.5967503,-187.961,761.67096,12.6310005,-0.03121,-0.052309997,0.71081,0,-0.1640625,0,0,0,false,false,false,3546.24,-211.25,17,-0.0039732675,-0.0027054904,0.8234822,-0.56732166,-608.08093,-1677.4309,8.401,0.00030999997,0,-0.42851
220.43333,3161.19,-416.56,93.96,-0.09857679,0.47946706,0.40956104,0.76983994,25.460999,-1334.111,-33.021,5.99441,-0.23121,0.11621,1,-0.2421875,0,0,0,false,true,false,3575.94,-4003.3198,16.699999,-0.0014700821,0.0038977405,0.80417997,0.59437126,-196.141,774.53094,12.481,-0.02441,-0.056409996,0.52641,0,-0.15625,0,0,0,false,false,false,3541.17,-225.23,17,-0.003978662,-0.0027000955,0.8244949,-0.5658488,-613.55096,-1670.591,8.411,0.00030999997,0,-0.41351
220.44167,3161.4,-427.66998,93.64,-0.07994848,0.46829975,0.42168313,0.7723256,25.450998,-1333.771,-38.420998,5.99441,-0.23121,0.11621,1,-0.2578125,0,0,0,false,true,false,3574.29,-3996.7998,16.74,-0.0017290321,0.0038383976,0.80548054,0.59260714,-203.931,787.36096,12.221,-0.01891,-0.057109997,0.35781,0,-0.1484375,0,0,0,false,false,false,3536.0598,-239.15,17,-0.003984057,-0.0026947006,0.82547057,-0.5644246,-618.71094,-1663.841,8.411,0.00030999997,0,-0.39831
220.45,3161.6099,-438.78,93.27,-0.061266255,0.4568412,0.433541,0.77432853,25.440998,-1333.4309,-43.821,5.99441,-0.23121,0.11621,1,-0.265625,0,0,0,false,true,false,3572.5698,-3990.17,16.77,-0.001971798,0.0037574759,0.8063641,0.59140414,-211.421,800.15094,11.8810005,-0.014609999,-0.055409998,0.20900999,0,-0.1484375,0,0,0,false,false,false,3530.9,-253.01999,17,-0.003989452,-0.0026893062,0.8264058,-0.5630544,-623.571,-1657.1909,8.411,0.00030999997,0,-0.38301
220.45833,3161.8198,-449.88998,92.86,-0.04254623,0.44509667,0.44512904,0.7758472,25.431,-1333.091,-49.220997,5.99441,-0.23121,0.11621,1,-0.265625,0,0,0,false,true,false,3570.79,-3983.44,16.8,-0.0021983793,0.003665764,0.80687785,0.5907028,-218.58101,812.93097,11.541,-0.011209999,-0.052209996,0.08001,0,-0.140625,0,0,0,false,false,false,3525.7,-266.83,17,-0.0039948463,-0.002683911,0.8273047,-0.5617326,-628.21094,-1650.601,8.411,0.00030999997,0,-0.36991
220.46666,3162.02,-460.75,93.11,-0.021107223,0.43169597,0.45790398,0.77686346,23.681,-1303.351,29.520998,5.99691,-0.16181,0.102409996,1,-0.2734375,0,0,0,false,true,false,3568.95,-3976.5999,16.83,-0.0024033815,0.0035740524,0.8070751,0.590433,-225.411,825.7009,11.191,-0.00871,-0.04821,-0.02911,0,-0.140625,0,0,0,false,false,false,3520.47,-280.58,17,-0.0040002405,-0.002678516,0.8281678,-0.5604594,-632.561,-1644.111,8.411,0.00030999997,0,-0.35641
220.475,3162.22,-471.61,93.31,-0.002182195,0.41958997,0.4688662,0.7772412,23.671,-1303.021,24.091,5.99691,-0.16181,0.102409996,1,-0.2734375,0,0,0,false,true,false,3567.0498,-3969.65,16.85,-0.0025868048,0.0034877358,0.8070038,0.59053016,-231.701,838.52094,10.841001,-0.0068099997,-0.04381,-0.12451,0,-0.1328125,0,0,0,false,false,false,3515.2,-294.28,17,-0.004005636,-0.0026731214,0.8289989,-0.5592294,-636.71094,-1637.6809,8.411,0.00021,0,-0.34481
220.48334,3162.42,-482.47,93.47,0.016742833,0.40721962,0.4795318,0.7771364,23.661,-1302.6909,18.661,5.99691,-0.16181,0.102409996,1,-0.28125,0,0,0,false,true,false,3565.0999,-3962.5999,16.869999,-0.0027486489,0.003406814,0.8066956,0.59095097,-237.511,851.381,10.541,-0.0054099998,-0.039309997,-0.20511,0,-0.1328125,0,0,0,false,false,false,3509.89,-307.93,17,-0.004011031,-0.0026677267,0.8298019,-0.5580371,-640.58093,-1631.351,8.411,0.00021,0,-0.33251
220.49167,3162.6199,-493.31998,93.579994,0.035657078,0.3945958,0.48990062,0.7765437,23.651,-1302.361,13.231,5.99691,-0.16181,0.102409996,1,-0.28125,0,0,0,false,true,false,3563.0999,-3955.44,16.89,-0.0028889135,0.0033312868,0.80618906,0.59164155,-242.691,864.311,10.261001,-0.0043099998,-0.03501,-0.27621,0,-0.1328125,0,0,0,false,false,false,3504.5498,-321.52,17,-0.0040164255,-0.0026623318,0.8305735,-0.556888,-644.27094,-1625.0709,8.411,0.00021,0,-0.32201
220.5,3162.8198,-504.16998,93.65,0.05454965,0.38172373,0.49996197,0.7754671,23.640999,-1302.031,7.811,5.99691,-0.16181,0.102409996,1,-0.2734375,0,0,0,false,true,false,3561.0598,-3948.17,16.91,-0.0030129936,0.0032611543,0.8055071,0.59256935,-247.341,877.29095,10.001,-0.00351,-0.03091,-0.33601,0,-0.125,0,0,0,false,false,false,3499.18,-335.06,17,-0.00402182,-0.002656937,0.8313212,-0.5557713,-647.78094,-1618.851,8.411,0.00021,0.00010999999,-0.31301
220.50833,3163.02,-515.01996,93.67,0.07340994,0.36861438,0.5097104,0.7739054,23.630999,-1301.7009,2.3909998,5.99691,-0.16181,0.102409996,1,-0.2734375,0,0,0,false,true,false,3558.98,-3940.7898,16.93,-0.00312089,0.0032018118,0.8046763,0.59369695,-251.551,890.29095,9.751,-0.00301,-0.02701,-0.38331,0,-0.125,0,0,0,false,false,false,3493.78,-348.55,17,-0.0040272153,-0.0026515422,0.8320451,-0.5546869,-651.04095,-1612.731,8.411,0.00021,0.00010999999,-0.30301002
220.51666,3163.22,-525.86,93.64,0.09222168,0.35527295,0.5191404,0.77186096,23.620998,-1301.371,-3.021,5.99691,-0.16181,0.102409996,1,-0.265625,0,0,0,false,true,false,3556.8599,-3933.2998,16.94,-0.0032126012,0.0031478636,0.8037272,0.59498084,-255.211,903.33093,9.511001,-0.00261,-0.02351,-0.42301,0,-0.125,0,0,0,false,false,false,3488.3599,-361.99,17,-0.00403261,-0.0026461475,0.83274543,-0.55363494,-654.141,-1606.6609,8.411,0.00010999999,0.00021,-0.29451
220.525,3163.42,-536.7,93.57,0.11097407,0.34171033,0.52824694,0.76933336,23.610998,-1301.0409,-8.431,5.99691,-0.16181,0.102409996,1,-0.265625,0,0,0,false,true,false,3554.71,-3925.71,16.949999,-0.003293523,0.0031047051,0.80267876,0.5963943,-258.431,916.3909,9.311,-0.00241,-0.02031,-0.45321,0,-0.1171875,0,0,0,false,false,false,3482.91,-375.38,17,-0.0040380047,-0.0026407526,0.83342594,-0.5526099,-657.08093,-1600.641,8.411,0.00010999999,0.00021,-0.28731
220.53334,3163.6199,-547.54,93.45,0.12965633,0.32793203,0.53702426,0.7663254,23.601,-1300.7109,-13.841001,5.99691,-0.16181,0.102409996,1,-0.2578125,0,0,0,false,true,false,3552.54,-3918.01,16.96,-0.0033636554,0.0030669416,0.80155003,0.5979102,-261.121,929.48096,9.141,-0.00221,-0.01751,-0.47831,0,-0.1171875,0,0,0,false,false,false,3477.43,-388.72,17,-0.004038005,-0.0026353581,0.8340869,-0.55161196,-659.80096,-1594.7009,8.411,0.00010999999,0.00021,-0.27891
220.54167,3163.8198,-558.38,93.29,0.14825766,0.3139486,0.5454618,0.76284146,23.591,-1300.381,-19.251,5.99691,-0.16181,0.102409996,1,-0.25,0,0,0,false,true,false,3550.3398,-3910.2,16.97,-0.0034229981,0.0030399675,0.8003562,0.5995071,-263.411,942.561,8.991,-0.00201,-0.015009999,-0.49611,0,-0.1171875,0,0,0,false,false,false,3471.93,-402.00998,17,-0.004038005,-0.0026299632,0.8347283,-0.5506409,-662.391,-1588.8109,8.411,0.00010999999,0.00021,-0.27171
220.55,3164.02,-569.20996,93.079994,0.16676731,0.2997711,0.5535594,0.75887924,23.581,-1300.0509,-24.661,5.99691,-0.16181,0.102409996,1,-0.2421875,0,0,0,false,true,false,3548.13,-3902.28,16.98,-0.0034715512,0.0030183885,0.7991169,0.6011579,-265.321,955.631,8.861,-0.0019099999,-0.012809999,-0.50781,0,-0.109375,0,0,0,false,false,false,3466.41,-415.25,17,-0.004038005,-0.0026245685,0.83535033,-0.5496968,-664.84094,-1582.9609,8.411,0.00010999999,0.00021,-0.26561
220.55833,3164.21,-579.91,93.2,0.18657699,0.2844714,0.56180805,0.75408,22.770998,-1284.031,14.791,5.99781,-0.13051,0.09551,1,-0.234375,0,0,0,false,true,false,3545.9,-3894.25,16.99,-0.0035147096,0.003002204,0.79784375,0.60284644,-266.891,968.68097,8.731,-0.0017099999,-0.01091,-0.51451,0,-0.109375,0,0,0,false,false,false,3460.8699,-428.44,17,-0.0040380047,-0.0026191734,0.83595663,-0.54877424,-667.09094,-1577.1909,8.411,0.00021,0.00021,-0.25811002
220.56667,3164.4,-590.61,93.28,0.20494097,0.27000785,0.5691451,0.74911195,22.761,-1283.7009,9.371,5.99781,-0.13051,0.09551,1,-0.2265625,0,0,0,false,true,false,3543.66,-3886.1099,16.99,-0.0035470787,0.00298602,0.7965486,0.6045567,-268.101,981.7009,8.611,-0.0016099999,-0.00921,-0.51771003,0,-0.109375,0,0,0,false,false,false,3455.3098,-441.58,17,-0.0040380047,-0.0026137787,0.8365474,-0.5478733,-669.23096,-1571.4609,8.411,0.00021,0.00021,-0.25171
220.575,3164.5898,-601.3,93.31,0.22318086,0.25537717,0.5761259,0.7436744,22.751,-1283.371,3.9509997,5.99781,-0.13051,0.09551,1,-0.2265625,0,0,0,false,true,false,3541.41,-3877.8599,16.99,-0.0035740524,0.00297523,0.7952435,0.60627216,-268.991,994.691,8.531,-0.00151,-0.00781,-0.51791,0,-0.109375,0,0,0,false,false,false,3449.73,-454.68,17,-0.004038004,-0.0026083835,0.83712256,-0.5469939,-671.261,-1565.771,8.411,0.00030999997,0.00021,-0.24631
220.58333,3164.78,-611.99,93.299995,0.2412805,0.24058457,0.5827454,0.737774,22.741,-1283.0409,-1.461,5.99781,-0.13051,0.09551,1,-0.2109375,0,0,0,false,true,false,3539.15,-3869.5,16.99,-0.0035956316,0.0029698352,0.79393256,0.60798776,-269.491,1007.65094,8.481,-0.00151,-0.00671,-0.51841,0,-0.109375,0,0,0,false,false,false,3444.14,-467.72998,17,-0.0040380047,-0.0026083838,0.8376825,-0.5461362,-673.18097,-1560.121,8.411,0.00040999998,0.00021,-0.24170999
220.59166,3164.97,-622.68,93.24,0.25922903,0.2256409,0.588998,0.73141485,22.730999,-1282.7109,-6.871,5.99781,-0.13051,0.09551,1,-0.203125,0,0,0,false,true,false,3536.89,-3861.0398,16.99,-0.0036172108,0.0029644405,0.79261583,0.6097033,-269.851,1020.53094,8.451,-0.0014099999,-0.0057099997,-0.51331,0,-0.109375,0,0,0,false,false,false,3438.53,-480.72998,17,-0.0040434,-0.002608384,0.83823067,-0.5452946,-675.001,-1554.511,8.411,0.00040999998,0.00010999999,-0.23780999
220.6,3165.16,-633.37,93.14,0.27701578,0.21055704,0.59488374,0.7245972,22.720999,-1282.381,-12.281,5.99781,-0.13051,0.09551,1,-0.1953125,0,0,0,false,true,false,3534.6199,-3852.47,16.99,-0.0036333953,0.0029644405,0.79130983,0.61139727,-269.971,1033.351,8.431,-0.00131,-0.00481,-0.50651,0,-0.1015625,0,0,0,false,false,false,3432.9,-493.68,17,-0.0040487945,-0.0026083838,0.83877045,-0.54446375,-676.72095,-1548.9309,8.411,0.00030999997,0.00010999999,-0.23440999
220.60834,3165.3499,-643.98,93.2,0.29537427,0.19477718,0.60058063,0.71702063,22.300999,-1273.2909,7.3609996,5.99821,-0.114609994,0.091809995,1,-0.1953125,0,0,0,false,true,false,3532.3499,-3843.7898,16.99,-0.003644185,0.0029644405,0.7900189,0.6130643,-269.881,1046.101,8.4210005,-0.0012099999,-0.00401,-0.49811,0,-0.1015625,0,0,0,false,false,false,3427.26,-506.59,17,-0.004054189,-0.0026083838,0.8393021,-0.5436438,-678.27094,-1543.4209,8.411,0.00021,0.00010999999,-0.22920999
220.61667,3165.54,-654.58997,93.22,0.3128373,0.17947745,0.6056733,0.70928156,22.290998,-1272.9609,1.941,5.99821,-0.114609994,0.091809995,1,-0.1796875,0,0,0,false,true,false,3530.0798,-3835.01,16.99,-0.003654974,0.0029644403,0.7887435,0.61470425,-269.511,1058.8009,8.411,-0.00111,-0.00341,-0.49131,0,-0.1015625,0,0,0,false,false,false,3421.6099,-519.45,17,-0.0040541897,-0.0026029893,0.8398223,-0.54284,-679.751,-1537.9409,8.411,0.00010999999,0.00010999999,-0.22480999
220.625,3165.73,-665.2,93.189995,0.33010614,0.16406442,0.61038846,0.7010981,22.280998,-1272.631,-3.471,5.99821,-0.114609994,0.091809995,1,-0.171875,0,0,0,false,true,false,3527.8198,-3826.1199,16.99,-0.0036603692,0.0029644405,0.7874837,0.61631733,-269.101,1071.391,8.411,-0.0010099999,-0.00281,-0.47991002,0,-0.1015625,0,0,0,false,false,false,3415.95,-532.26996,17,-0.004054189,-0.0025975944,0.8403309,-0.54205227,-681.15094,-1532.481,8.411,0.00010999999,0.00010999999,-0.22110999
220.63333,3165.92,-675.8,93.119995,0.34717,0.148549,0.61472595,0.69247246,22.270998,-1272.3009,-8.8810005,5.99821,-0.114609994,0.091809995,1,-0.171875,0,0,0,false,true,false,3525.5598,-3817.1199,16.99,-0.003665764,0.0029698352,0.78624827,0.6178926,-268.551,1083.901,8.411,-0.0010099999,-0.0023100001,-0.46751,1,-0.1015625,0,0,0,false,true,false,3410.27,-545.04,17,-0.0040541897,-0.0025921997,0.8408315,-0.5412755,-682.48096,-1527.0509,8.411,0.00010999999,0.00010999999,-0.21790999
220.64166,3166.0999,-686.33997,93.159996,0.36457357,0.1324832,0.6187666,0.6831267,21.950998,-1265.111,5.3209996,5.9984097,-0.10291,0.08900999,1,-0.1640625,0,0,0,false,true,false,3523.3098,-3808.02,16.99,-0.0036711588,0.00297523,0.7850417,0.61942476,-267.781,1096.341,8.411,-0.00091,-0.00201,-0.45721,1,-0.1015625,0,0,0,false,true,false,3404.5498,-557.83,17,-0.0040541887,-0.0025868046,0.8413241,-0.5405093,-689.001,-1533.141,8.361,0,0.00021,-0.21571
220.65,3166.28,-696.88,93.159996,0.38121662,0.116822034,0.6222948,0.6736286,21.940998,-1264.781,-0.091,5.9984097,-0.10291,0.08900999,1,-0.1484375,0,0,0,false,true,false,3521.0598,-3798.8198,16.99,-0.0036765535,0.0029806248,0.78386027,0.6209191,-266.941,1108.6809,8.411,-0.00081,-0.0017099999,-0.44571,1,-0.1015625,0,0,0,false,true,false,3398.78,-570.67,17,-0.004054189,-0.0025814099,0.8418089,-0.5397541,-695.47095,-1539.241,8.331,0,0.00021,-0.21371
220.65834,3166.46,-707.42,93.11,0.39762226,0.10108542,0.6254346,0.66370904,21.931,-1264.4609,-5.501,5.9984097,-0.10291,0.08900999,1,-0.1484375,0,0,0,false,true,false,3518.8198,-3789.51,16.99,-0.0036765537,0.00298602,0.78270423,0.6223758,-266.131,1120.901,8.411,-0.00071,-0.0014099999,-0.43031,1,-0.1015625,0,0,0,false,true,false,3392.96,-583.56,17,-0.004054189,-0.0025760152,0.84228927,-0.5390042,-701.90094,-1545.361,8.311,0,0.00021,-0.21191
220.66667,3166.64,-717.91,93.14,0.41416278,0.08494949,0.62821823,0.653142,21.700998,-1259.1609,3.291,5.99861,-0.094809994,0.087009996,1,-0.140625,0,0,0,false,true,false,3516.5898,-3780.0999,16.99,-0.0036765535,0.0029914144,0.78158677,0.62377834,-265.151,1133.0409,8.411,-0.00071,-0.0012099999,-0.41741002,1,-0.1015625,0,0,0,false,true,false,3387.0798,-596.5,17,-0.0040541887,-0.00257062,0.84276515,-0.5382597,-708.30096,-1551.491,8.301001,0,0.00021,-0.21031
220.675,3166.8198,-728.38995,93.14,0.4301368,0.069061734,0.6305489,0.6423556,21.661,-1258.091,0,5.99861,-0.093609996,0.08671,1,-0.1328125,0,0,0,false,true,false,3514.3699,-3770.5898,16.99,-0.0036765537,0.0029968095,0.7804999,0.62513787,-264.141,1145.0709,8.411,-0.00071,-0.0010099999,-0.40371,1,-0.1015625,0,0,0,false,true,false,3381.15,-609.49,17,-0.004054189,-0.0025652256,0.84323686,-0.53752065,-714.67096,-1557.621,8.291,0,0.00021,-0.20880999
220.68333,3167,-738.86,93.14,0.44592744,0.05305529,0.63248235,0.63110995,21.571,-1255.871,0,5.99861,-0.09061,0.08591,1,-0.125,0,0,0,false,true,false,3512.15,-3760.98,16.99,-0.0036765535,0.003002204,0.77944803,0.62644875,-263.121,1157.001,8.411,-0.00061,-0.00081,-0.38931,1,-0.109375,0,0,0,false,false,false,3375.17,-622.52997,17,-0.004054189,-0.0025598307,0.8437041,-0.5367869,-721.02094,-1563.761,8.291,0,0.00021,-0.20741
220.69167,3167.18,-749.31,93.14,0.46144298,0.037021957,0.63400775,0.6194625,21.480999,-1253.651,0,5.9987097,-0.08761,0.085109994,1,-0.1171875,0,0,0,false,true,false,3509.94,-3751.27,16.99,-0.0036765535,0.003007599,0.7784317,0.6277112,-262.091,1168.8209,8.411,-0.00061,-0.00071,-0.37431002,1,-0.109375,0,0,0,false,false,false,3369.13,-635.62,17,-0.004054189,-0.002554436,0.8441671,-0.5360586,-727.42096,-1569.861,8.291,0.00010999999,0.00021,-0.20841
220.7,3167.3599,-759.74,93.14,0.47667256,0.020972354,0.63512415,0.6074212,21.390999,-1251.4309,0,5.99881,-0.084709994,0.084309995,1,-0.1171875,0,0,0,false,true,false,3507.74,-3741.46,16.99,-0.0036765535,0.0030129936,0.7774514,0.62892497,-261.061,1180.531,8.411,-0.00061,-0.00061,-0.35881,1,-0.109375,0,0,0,false,false,false,3363.04,-648.76,17,-0.004054189,-0.002554436,0.8446325,-0.53532493,-733.80096,-1575.971,8.291,0.00010999999,0.00021,-0.20910999
220.70833,3167.54,-770.14996,93.14,0.49160534,0.004911962,0.6358289,0.59499705,21.300999,-1249.2109,0,5.99881,-0.08181,0.08351,1,-0.109375,0,0,0,false,true,false,3505.5498,-3731.5498,16.99,-0.0036765535,0.0030183885,0.77651155,0.63008493,-259.951,1192.151,8.411,-0.00051,-0.00051,-0.34571,1,-0.1171875,0,0,0,false,false,false,3356.9,-661.95996,17,-0.004054189,-0.002549041,0.84509706,-0.53459126,-740.17096,-1582.0809,8.291,0.00010999999,0.00010999999,-0.20961
220.71666,3167.72,-780.54,93.14,0.5062361,-0.011142993,0.6361207,0.5821951,21.210999,-1246.991,0,5.99891,-0.079009995,0.08271,1,-0.1015625,0,0,0,false,true,false,3503.3699,-3721.5498,16.99,-0.0036765535,0.0030237832,0.775604,0.6312017,-258.881,1203.651,8.411,-0.00051,-0.00040999998,-0.33171,1,-0.1171875,0,0,0,false,false,false,3350.7,-675.20996,17,-0.0040541897,-0.0025436466,0.84556425,-0.5338522,-746.61096,-1588.151,8.291,0.00021,0.00010999999,-0.21230999
220.725,3167.9,-790.91,93.14,0.52055395,-0.02718716,0.6359978,0.5690264,21.120998,-1244.781,0,5.99891,-0.07621,0.08200999,1,-0.09375,0,0,0,false,true,false,3501.2,-3711.45,16.99,-0.0036765535,0.003029178,0.7747291,0.6322752,-257.861,1215.0409,8.411,-0.00040999998,-0.00030999997,-0.31701002,1,-0.125,0,0,0,false,false,false,3344.45,-688.51,17,-0.0040541897,-0.0025436466,0.8460372,-0.53310233,-753.04095,-1594.2109,8.291,0.00021,0.00010999999,-0.21451
220.73334,3168.0798,-801.26,93.14,0.5345481,-0.04320979,0.6354645,0.5554962,21.030998,-1242.5709,0,5.99891,-0.07341,0.08131,1,-0.09375,0,0,0,false,true,false,3499.04,-3701.26,16.99,-0.0036765537,0.003034573,0.77389145,0.6333003,-256.881,1226.3209,8.411,-0.00040999998,-0.00021,-0.30181,1,-0.1328125,0,0,0,false,false,false,3338.15,-701.86,17,-0.0040541897,-0.0025436466,0.8465126,-0.5323471,-759.55096,-1600.231,8.291,0.00021,0.00010999999,-0.21870999
220.74167,3168.25,-811.6,93.14,0.54820776,-0.059200007,0.6345205,0.54161537,20.950998,-1240.361,0,5.99901,-0.070709996,0.08061,1,-0.0859375,0,0,0,false,true,false,3496.89,-3690.97,16.99,-0.0036765535,0.0030399675,0.7730957,0.6342713,-255.86101,1237.501,8.411,-0.00030999997,-0.00021,-0.28891,0,-0.140625,0,0,0,false,false,false,3331.8198,-715.2,17,-0.004054189,-0.0025382515,0.84699726,-0.53157556,-762.561,-1598.751,8.341001,0.00021,0.00010999999,-0.22451
220.75,3168.42,-821.92,93.14,0.56152755,-0.07514711,0.6331623,0.5273946,20.870998,-1238.151,0,5.99901,-0.068009995,0.079909995,1,-0.0859375,0,0,0,false,true,false,3494.74,-3680.5898,16.99,-0.0036765537,0.0030453627,0.7723335,0.63519925,-254.921,1248.5709,8.411,-0.00021,-0.00010999999,-0.27511,0,-0.140625,0,0,0,false,false,false,3325.47,-728.51996,17,-0.0040541897,-0.002532857,0.8474945,-0.5307826,-763.701,-1593.3109,8.371,0.00051,0,-0.23090999
220.75833,3168.5898,-832.22,93.14,0.57449675,-0.091040224,0.631396,0.5128394,20.790998,-1235.9409,0,5.9991097,-0.065409996,0.07921,1,-0.078125,0,0,0,false,true,false,3492.5999,-3670.1199,16.99,-0.0036765535,0.003050757,0.77160496,0.63608396,-253.961,1259.5409,8.411,-0.00021,-0.00010999999,-0.26341,0,-0.1640625,0,0,0,false,false,false,3319.1099,-741.8,17,-0.004059584,-0.0025328568,0.8480041,-0.5299679,-764.821,-1587.871,8.391,0.00071,0,-0.23620999
220.76666,3168.76,-842.5,93.14,0.58710444,-0.106874034,0.6292229,0.4979605,20.710999,-1233.731,0,5.9991097,-0.06281,0.078509994,1,-0.078125,0,0,0,false,true,false,3490.47,-3659.5598,16.99,-0.0036765535,0.003056152,0.7709059,0.63693094,-253.091,1270.401,8.411,-0.00010999999,0,-0.25061,0,-0.1796875,0,0,0,false,false,false,3312.74,-755.02997,17,-0.0040649786,-0.0025328568,0.8485261,-0.5291317,-766.16095,-1582.3109,8.401,0.00081,0,-0.24750999
220.775,3164.18,-855.57996,94.45,0.6027602,-0.11297555,0.6192152,0.49039695,-1050.741,-1745.501,267.771,4.11491,2.8524098,-0.51261,1,-0.0703125,0,0,0,false,true,false,3488.3499,-3648.91,16.99,-0.0036711588,0.0030615467,0.77024114,0.6377348,-252.211,1281.1609,8.411,-0.00010999999,0,-0.23970999,0,-0.1796875,0,0,0,false,false,false,3307.15,-767.75,16.779999,0.0034499723,-0.005580959,0.84835607,-0.52938527,-678.54095,-1517.641,-0.341,-0.16950999,1.04431,0.010809999
220.78334,3155.43,-870.12,96.64,0.61814976,-0.119028546,0.60893184,0.482623,-1050.471,-1745.0509,262.281,4.11491,2.8524098,-0.51261,1,-0.0703125,0,0,0,false,true,false,3486.24,-3638.17,16.99,-0.003665764,0.0030669416,0.7696017,0.63850623,-251.431,1291.8109,8.411,-0.00010999999,0,-0.22771,1,-0.3046875,0,0,0,false,true,false,3301.5,-780.39996,16.71,0.007517649,-0.0072857146,0.8483135,-0.5293907,-685.68097,-1509.1809,9.311,-0.06251,0.49511,-0.046809997
220.79167,3146.68,-884.66,98.78,0.63327175,-0.12502755,0.59837955,0.47463325,-1050.2009,-1744.601,256.79102,4.11491,2.8524098,-0.51261,1,1,0,0,0,false,false,true,3484.13,-3627.3398,16.99,-0.0036657634,0.003072336,0.76899683,0.6392345,-250.651,1302.361,8.411,-0.00010999999,0,-0.21751,1,-0.375,0,0,0,false,true,false,3295.76,-793.04,16.72,0.009405828,-0.008159672,0.8484012,-0.5292073,-698.891,-1511.7109,13.451,0.00361,0.14560999,-0.13291
220.8,3137.93,-899.19,100.869995,0.6481171,-0.13097267,0.587563,0.46643314,-1049.9309,-1744.1509,251.301,4.11491,2.8524098,-0.51261,1,1,0,0,0,false,false,true,3482.04,-3616.49,16.99,-0.003665764,0.0030777312,0.76841784,0.6399304,-261.401,1300.5709,8.471001,-0.00071,0.00341,0.16461,1,-0.375,0,0,0,false,true,false,3289.91,-805.7,16.76,0.009907544,-0.008499544,0.84868807,-0.52873254,-711.86096,-1514.3009,14.321,0.04231,-0.07980999,-0.22480999
220.80833,3129.18,-913.72,102.92,0.66267806,-0.13685839,0.57648736,0.45802805,-1049.661,-1743.7009,245.821,4.11491,2.8524098,-0.51261,1,1,0,0,0,false,false,true,3479.8599,-3605.65,16.99,-0.0036603692,0.0030885208,0.7688578,0.63940173,-269.921,1299.471,8.511001,-0.00091,0.00471,0.46291,1,-0.4453125,0,0,0,false,true,false,3283.95,-818.38,16.81,0.009524512,-0.008483359,0.8491862,-0.52793944,-723.97095,-1517.3309,13.501,0.05481,-0.18530999,-0.30161
220.81667,3120.44,-928.25,104.92,0.67694587,-0.1426848,0.5651583,0.44942328,-1049.391,-1743.251,240.341,4.11491,2.8524098,-0.51261,1,1,0,0,0,false,false,true,3477.6099,-3594.8198,16.99,-0.0036549745,0.0030993104,0.77008915,0.6379182,-278.071,1298.471,8.531,-0.00091,0.00501,0.72111,1,-0.734375,0,0,0,false,true,false,3277.89,-831.08997,16.859999,0.008736872,-0.008283751,0.84985304,-0.52688205,-736.071,-1520.2909,12.561,0.05721,-0.24651,-0.38681
220.825,3111.7,-942.76996,106.88,0.69091713,-0.14844646,0.553581,0.44061896,-1049.121,-1742.8009,234.86101,4.11491,2.8524098,-0.51261,1,1,0,0,0,false,false,true,3475.29,-3584,16.99,-0.0036495798,0.0031047054,0.77200043,0.6356039,-286.261,1297.4309,8.541,-0.00081,0.00471,0.94611,1,-1,0,0,0,false,false,false,3271.73,-843.82,16.9,0.0077226507,-0.007960063,0.85070723,-0.5255226,-750.18097,-1521.861,11.701,0.053309996,-0.28001,-0.54181
220.83333,3102.96,-957.29,108.79,0.7045806,-0.1541434,0.541761,0.43162584,-1048.851,-1742.351,229.381,4.11491,2.8524098,-0.51261,1,1,0,0,0,false,false,true,3472.9,-3573.19,16.99,-0.0036495796,0.0031047051,0.7744999,0.6325558,-294.751,1296.251,8.551001,-0.00061,0.00411,1.14341,1,-1,0,0,0,false,false,false,3265.45,-856.56,16.93,0.0065951385,-0.007555454,0.85189724,-0.5236128,-765.85095,-1522.1909,10.951,0.046609998,-0.29311,-0.74470997
220.84166,3094.22,-971.81,110.659996,0.71793675,-0.15977016,0.5297035,0.42243835,-1048.5809,-1741.9009,223.901,4.11491,2.8524098,-0.51261,1,1,0,0,0,false,false,true,3470.44,-3562.39,16.99,-0.0036549745,0.0030993104,0.7775035,0.62886024,-303.691,1294.861,8.561,-0.00051,0.00331,1.3178099,1,-1,0,0,0,false,false,true,3259.04,-869.31,16.949999,0.005429862,-0.007102291,0.8535252,-0.5209747,-780.951,-1522.8309,10.271,0.04011,-0.29201,-0.91231
220.85,3085.48,-986.32,112.479996,0.73097515,-0.16532686,0.51741415,0.4130677,-1048.3109,-1741.4509,218.421,4.11491,2.8524098,-0.51261,1,1,0,0,0,false,false,true,3467.91,-3551.5999,16.99,-0.0036603687,0.0030885206,0.7809443,0.6245821,-313.151,1293.2009,8.561,-0.00030999997,0.00251,1.47321,1,-1,0,0,0,false,false,true,3252.5,-882.06,16.97,0.004275376,-0.006632944,0.85550284,-0.51773787,-796.071,-1523.341,9.701,0.03411,-0.28101,-1.06481
220.85834,3076.75,-1000.82996,114.25,0.74369174,-0.17081337,0.5048982,0.40351337,-1048.0409,-1741.001,212.94101,4.11491,2.8524098,-0.51261,1,1,0,0,0,false,false,true,3465.2998,-3540.8198,16.99,-0.0036711588,0.0030723363,0.7847645,0.6197754,-323.131,1291.231,8.571,-0.00021,0.0018099999,1.61271,1,-1,0,0,0,false,false,true,3245.8298,-894.82,16.98,0.0031694428,-0.0061689913,0.8577948,-0.5139453,-811.41095,-1523.5709,9.221001,0.02851,-0.26351002,-1.2043099
220.86667,3068.02,-1015.32996,115.979996,0.7560812,-0.1762244,0.49216104,0.39378121,-1047.771,-1740.5509,207.47101,4.11491,2.8524098,-0.51261,1,1,0,0,0,false,false,true,3462.6099,-3530.0598,16.99,-0.0036873426,0.0030507569,0.78891116,0.6144884,-333.601,1288.9309,8.571,-0.00010999999,0.00111,1.73881,1,-1,0,0,0,false,false,true,3239.04,-907.57996,16.99,0.0021336419,-0.0057212235,0.86036587,-0.5096402,-827.131,-1523.401,8.841001,0.02291,-0.24230999,-1.33331
220.875,3059.29,-1029.83,117.659996,0.76814044,-0.18155985,0.47920272,0.38387623,-1047.501,-1740.101,202.001,4.11491,2.8524098,-0.51261,1,1,0,0,0,false,false,true,3459.8298,-3519.3198,16.99,-0.0037035276,0.003029178,0.7933405,0.6087592,-344.501,1286.2909,8.571,0,0.00051,1.85351,1,-1,0,0,0,false,false,true,3232.1099,-920.33997,17,0.0011841576,-0.005300387,0.86318374,-0.50486034,-843.311,-1522.751,8.541,0.017310001,-0.21921,-1.45371
220.88333,3050.5598,-1044.33,119.299995,0.7798609,-0.18681441,0.46603394,0.37380415,-1047.231,-1739.6509,196.531,4.11491,2.8524098,-0.51261,1,1,0,0,0,false,false,true,3456.96,-3508.5999,16.99,-0.003725107,0.0030022042,0.79801804,0.6026145,-355.741,1283.3109,8.571,0,0,1.9584099,1,-1,0,0,0,false,false,true,3225.05,-933.08997,17,0.00032638517,-0.004906567,0.8662263,-0.49962747,-859.98096,-1521.5609,8.301001,0.01201,-0.19570999,-1.56691
220.89166,3041.8398,-1058.82,120.89,0.7912395,-0.19198802,0.45266014,0.36356476,-1046.9609,-1739.2009,191.061,4.11491,2.8524098,-0.51261,1,1,0,0,0,false,false,true,3454,-3497.91,16.99,-0.0037520807,0.0029698352,0.8029097,0.5960814,-367.221,1279.991,8.571,0,-0.00030999997,2.05461,1,-1,0,0,0,false,false,true,3217.88,-945.76996,17,-0.0004396759,-0.004545116,0.86947095,-0.4939629,-873.011,-1512.621,8.1710005,0.00721,-0.17251,-1.67461
220.9,3033.1199,-1073.3099,122.439995,0.80226904,-0.19707535,0.43908685,0.35316896,-1046.6909,-1738.751,185.591,4.11491,2.8524098,-0.51261,1,1,0,0,0,false,false,true,3450.94,-3487.24,16.99,-0.0037790549,0.0029374666,0.80798256,0.5891869,-378.841,1276.361,8.571,0,-0.00051,2.14311,1,-1,0,0,0,false,false,true,3210.6099,-958.38,17,-0.0011086306,-0.0042106383,0.8728951,-0.48788834,-886.3909,-1503.141,8.101,0.00311,-0.15021,-1.7774099
220.90834,3024.4,-1087.7999,123.939995,0.8129439,-0.20207633,0.42532462,0.34261677,-1046.4209,-1738.3009,180.121,4.11491,2.8524098,-0.51261,1,1,0,0,0,false,false,true,3447.78,-3476.5999,16.99,-0.0038060287,0.0028997029,0.81321263,0.5819469,-390.491,1272.4509,8.571,0.00010999999,-0.00071,2.22451,1,-1,0,0,0,false,false,true,3203.22,-970.91,17,-0.0016912686,-0.0039085294,0.8764826,-0.4814146,-900.05096,-1493.121,8.071,-0.00021,-0.12941,-1.87571
220.925,3006.96,-1116.76,126.81,0.83321744,-0.21180859,0.39724463,0.32106444,-1045.881,-1737.4009,169.19101,4.11491,2.8524098,-0.51261,1,1,0,0,0,false,false,true,3441.18,-3455.43,16.99,-0.0038653717,0.0028241759,0.8240392,0.56651247,-413.371,1263.9509,8.571,0.00021,-0.0010099999,2.3682098,1,-1,0,0,0,false,false,true,3188.0999,-995.69995,17,-0.0026191734,-0.0033852346,0.8840818,-0.4673125,-927.871,-1471.5509,8.091001,-0.00491,-0.09300999,-2.06021
220.93333,2998.25,-1131.23,128.17,0.84280765,-0.21653445,0.38293752,0.31007513,-1045.611,-1736.9509,163.731,4.11491,2.8524098,-0.51261,1,1,0,0,0,false,false,true,3437.74,-3444.9,16.99,-0.0038977403,0.0027810175,0.82958794,0.5583554,-424.35098,1259.491,8.571,0.00030999997,-0.00111,2.43111,1,-1,0,0,0,false,false,true,3180.3699,-1007.95996,17,-0.0029806246,-0.0031640476,0.88806045,-0.45970577,-941.84094,-1460.0809,8.121,-0.00631,-0.07751,-2.14671
220.95,2980.8298,-1160.1699,130.76,0.8608695,-0.2257056,0.35382712,0.28769204,-1045.0709,-1736.0709,152.811,4.11491,2.8524098,-0.51261,1,1,0,0,0,false,false,true,3430.5798,-3423.94,16.99,-0.0039624777,0.0026947006,0.84085596,0.5412376,-444.731,1250.5409,8.571,0.00040999998,-0.00111,2.53961,1,-1,0,0,0,false,false,true,3164.5598,-1032.2,17,-0.0035362889,-0.0027864121,0.89629513,-0.44343504,-969.371,-1436.0609,8.201,-0.0076099997,-0.052109998,-2.30831
220.95833,2972.1199,-1174.63,131.98999,0.8693354,-0.23014016,0.3390345,0.276309,-1044.8009,-1735.631,147.351,4.11491,2.8524098,-0.51261,1,1,0,0,0,false,false,true,3426.8699,-3413.52,16.99,-0.0039948463,0.0026461475,0.84653634,0.53230923,-453.871,1246.261,8.571,0.00051,-0.00111,2.58531,1,-1,0,0,0,false,false,true,3156.48,-1044.1699,17,-0.0037412911,-0.002629963,0.90051895,-0.43479258,-982.7009,-1423.6709,8.241,-0.00771,-0.041909996,-2.3833098
220.96666,2963.42,-1189.09,133.17,0.87741965,-0.23447762,0.32409096,0.2648019,-1044.531,-1735.1909,141.891,4.11491,2.8524098,-0.51261,1,1,0,0,0,false,false,true,3423.0898,-3403.13,16.99,-0.0040272153,0.0025975944,0.85222113,0.5231597,-462.131,1242.271,8.571,0.00051,-0.00111,2.62521,1,0.6929134,0,0,0,false,true,false,3148.29,-1056.03,17,-0.0039085294,-0.0024896984,0.90479046,-0.42583174,-995.58093,-1411.151,8.281,-0.00751,-0.03321,-2.45421
220.975,2954.72,-1203.5499,134.31,0.8851173,-0.23870717,0.309007,0.2531814,-1044.261,-1734.751,136.431,4.11491,2.8524098,-0.51261,1,1,0,0,0,false,false,true,3419.24,-3392.78,16.99,-0.0040595834,0.0025490408,0.85789347,0.5138049,-469.371,1238.721,8.571,0.00061,-0.00111,2.6593099,1,0.7559055,0,0,0,false,false,false,3139.95,-1067.84,17,-0.004043399,-0.002360223,0.9090969,-0.41655806,-1005.05096,-1413.251,8.251,-0.009109999,-0.02901,-2.14581
220.98334,2946.02,-1218,135.4,0.8924253,-0.2428342,0.2937882,0.24144773,-1043.991,-1734.3109,130.97101,4.11491,2.8524098,-0.51261,1,1,0,0,0,false,false,true,3415.3298,-3382.46,16.99,-0.0040919525,0.002500488,0.8635344,0.504267,-475.471,1235.771,8.571,0.00061,-0.00111,2.68731,1,0.8031496,0,0,0,false,false,false,3131.53,-1079.6699,17,-0.00415669,-0.0022415377,0.9127855,-0.4084119,-1015.52094,-1414.3309,8.231,-0.010109999,-0.02511,-1.83241
220.99167,2937.3198,-1232.45,136.45,0.89934176,-0.24685332,0.27844003,0.22960608,-1043.721,-1733.871,125.520996,4.11491,2.8524098,-0.51261,1,1,0,0,0,false,false,true,3411.3699,-3372.16,16.99,-0.0041243215,0.0024519349,0.86912614,0.4945671,-480.291,1233.591,8.561,0.00071,-0.00111,2.70921,1,0.8503937,0,0,0,false,false,false,3123.02,-1091.51,17,-0.0042537972,-0.0021282472,0.91587687,-0.40143102,-1027.0409,-1414.391,8.221001,-0.0105099995,-0.02141,-1.52481
221,2928.6199,-1246.9,137.45,0.905862,-0.25076458,0.26296765,0.21766739,-1043.4509,-1733.4309,120.071,4.11491,2.8524098,-0.51261,1,1,0,0,0,false,false,true,3407.3699,-3361.88,16.99,-0.00415669,0.0023979868,0.87465227,0.484727,-485.301,1231.1709,8.561,0.00071,-0.00111,2.73051,1,0.8897638,0,0,0,false,false,false,3114.41,-1103.35,17,-0.0043293233,-0.0020257456,0.91840833,-0.39560458,-1039.3309,-1413.641,8.211,-0.01041,-0.01801,-1.22311
221.00833,2919.93,-1261.34,138.41,0.91198295,-0.25456792,0.24738201,0.20563152,-1043.1809,-1732.991,114.620995,4.11491,2.8524098,-0.51261,1,1,0,0,0,false,false,true,3403.3298,-3351.6199,16.99,-0.0041836645,0.0023440388,0.8801094,0.47474653,-490.491,1228.491,8.561,0.00071,-0.0010099999,2.75141,1,0.9133858,0,0,0,false,false,false,3105.7,-1115.1799,17,-0.0043886667,-0.0019340344,0.9204113,-0.39092192,-1052.1909,-1412.281,8.211,-0.00991,-0.015009999,-0.92941
221.01666,2911.24,-1275.78,139.31999,0.91770333,-0.25825796,0.23168845,0.193504,-1042.911,-1732.5509,109.171,4.11491,2.8524098,-0.51261,1,1,0,0,0,false,false,true,3399.24,-3341.38,16.99,-0.0042106383,0.0022900908,0.88549405,0.4646259,-495.841,1225.5609,8.561,0.00071,-0.00091,2.77191,1,0.9448819,0,0,0,false,false,false,3096.88,-1127,17,-0.0044372203,-0.0018531126,0.9219177,-0.38735595,-1065.481,-1410.471,8.211,-0.009109999,-0.012209999,-0.64761
221.025,2902.55,-1290.21,140.18,0.9230205,-0.26183477,0.21589251,0.18129012,-1042.641,-1732.111,103.721,4.11491,2.8524098,-0.51261,1,1,0,0,0,false,false,true,3395.1099,-3331.17,16.99,-0.0042376127,0.0022361432,0.89079994,0.4543704,-501.331,1222.371,8.561,0.00061,-0.00081,2.7920098,1,0.96062994,0,0,0,false,false,false,3087.95,-1138.7999,17,-0.0044749826,-0.0017883747,0.9229585,-0.3848689,-1078.871,-1408.521,8.211,-0.00821,-0.00981,-0.37491
221.03334,2893.8599,-1304.64,141,0.9279325,-0.26529282,0.19999935,0.16900077,-1042.371,-1731.6709,98.270996,4.11491,2.8524098,-0.51261,1,1,0,0,0,false,false,true,3390.93,-3320.98,16.99,-0.0042645857,0.0021821947,0.89602643,0.44397447,-506.961,1218.9209,8.561,0.00061,-0.00071,2.81181,1,0.97637796,0,0,0,false,false,false,3078.91,-1150.59,17,-0.004501957,-0.0017344267,0.9235578,-0.38342845,-1092.241,-1406.601,8.211,-0.00711,-0.00771,-0.11531
221.04167,2885.18,-1319.07,141.77,0.93243533,-0.26863757,0.18401986,0.15663579,-1042.101,-1731.231,92.821,4.11491,2.8524098,-0.51261,1,1,0,0,0,false,false,true,3386.71,-3310.8198,16.99,-0.00429156,0.002128247,0.90116775,0.43344387,-512.71094,1215.2109,8.561,0.00051,-0.00061,2.83121,1,0.984252,0,0,0,false,false,false,3069.76,-1162.36,17,-0.004523536,-0.0016912686,0.9237414,-0.3829861,-1105.3209,-1404.971,8.221001,-0.00601,-0.00581,0.13171
221.05,2876.5,-1333.49,142.5,0.93652856,-0.2718637,0.16795956,0.14420079,-1041.8309,-1730.7909,87.381,4.11491,2.8524098,-0.51261,1,1,0,0,0,false,false,true,3382.44,-3300.69,16.99,-0.0043185335,0.0020742987,0.9062178,0.4227836,-518.561,1211.241,8.561,0.00051,-0.00051,2.8503098,1,0.984252,0,0,0,false,false,false,3060.5,-1174.12,17,-0.004534326,-0.0016588998,0.923531,-0.3834932,-1117.9309,-1403.8309,8.231,-0.00491,-0.00421,0.36451
221.05833,2867.8198,-1347.9099,143.18,0.9402101,-0.27497107,0.15182362,0.13170095,-1041.5609,-1730.351,81.940994,4.11491,2.8524098,-0.51261,1,1,0,0,0,false,false,false,3378.1199,-3290.5999,16.99,-0.0043455083,0.0020203511,0.9111738,0.4119941,-524.501,1207.011,8.561,0.00051,-0.00051,2.8691099,1,0.984252,0,0,0,false,false,false,3051.14,-1185.87,17,-0.0045397207,-0.0016427154,0.9229473,-0.3848959,-1129.891,-1403.381,8.241,-0.00371,-0.00281,0.58141
221.06667,2859.14,-1362.33,143.81999,0.94347835,-0.2779544,0.13562296,0.119147174,-1041.2909,-1729.9109,76.501,4.11491,2.8524098,-0.51261,1,1,0,0,0,false,false,false,3373.75,-3280.54,16.99,-0.0043724827,0.0019664033,0.916035,0.40106958,-531.24097,1201.721,8.561,0.00040999998,-0.00040999998,2.8891098,1,0.97637796,0,0,0,false,false,false,3041.68,-1197.61,17,-0.004539721,-0.0016373207,0.92201275,-0.38712937,-1140.971,-1403.8309,8.251,-0.00261,-0.0016099999,0.78301
221.075,2850.46,-1376.74,144.41,0.946331,-0.2808191,0.119362995,0.10653956,-1041.021,-1729.471,71.061,4.11491,2.8524098,-0.51261,1,1,0,0,0,false,false,false,3369.3198,-3270.53,16.99,-0.0043940614,0.0019124552,0.92079574,0.3900156,-538.761,1195.3109,8.561,0.00040999998,-0.00030999997,2.91021,1,0.97637796,0,0,0,false,false,false,3032.17,-1209.3099,17,-0.0045343256,-0.0016373204,0.9207452,-0.39013425,-1145.221,-1399.4309,8.311,-0.00151,-0.00051,0.96711
221.08333,2841.79,-1391.15,144.95999,0.94876796,-0.28355965,0.10304912,0.093883276,-1040.751,-1729.0309,65.620995,4.11491,2.8524098,-0.51261,1,1,0,0,0,false,false,false,3364.8298,-3260.5698,16.99,-0.0044156406,0.0018585073,0.92545736,0.3788213,-547.03094,1187.7109,8.561,0.00040999998,-0.00021,2.93221,1,0.9527559,0,0,0,false,false,false,3022.63,-1220.97,17,-0.0045289313,-0.0016481102,0.9191661,-0.39384052,-1148.1909,-1396.251,8.351,-0.00061,0.00021,1.1367099
221.09166,2833.1199,-1405.5499,145.45999,0.9507875,-0.28617615,0.08668662,0.08118932,-1040.481,-1728.591,60.181,4.11491,2.8524098,-0.51261,1,1,0,0,0,false,false,false,3360.27,-3250.67,16.99,-0.0044372194,0.0018045591,0.9300162,0.36748683,-556.011,1178.881,8.571,0.00030999997,-0.00021,2.95491,1,0.93700784,0,0,0,false,false,false,3013.0598,-1232.61,17,-0.0045181415,-0.0016696894,0.9172908,-0.3981887,-1149.9309,-1394.261,8.3810005,0,0.00081,1.2847099
221.1,2824.45,-1419.95,145.92,0.95239013,-0.28866318,0.070286356,0.06845752,-1040.2109,-1728.1509,54.740997,4.11491,2.8524098,-0.51261,1,1,0,0,0,false,false,false,3355.64,-3240.8499,16.99,-0.004458799,0.0017506114,0.9344711,0.35600665,-565.65094,1168.761,8.571,0.00030999997,-0.00021,2.9781098,1,0.9133858,0,0,0,false,false,false,3003.48,-1244.23,17,-0.004507352,-0.0016966634,0.91514647,-0.4030926,-1150.1909,-1393.611,8.401,0.00051,0.00131,1.41441
221.10834,2815.78,-1434.35,146.33,0.95357287,-0.29102606,0.053859115,0.055693433,-1039.9409,-1727.7109,49.310997,4.11491,2.8524098,-0.51261,1,1,0,0,0,false,false,false,3350.93,-3231.1099,16.99,-0.0044803782,0.0016912686,0.9388158,0.34438625,-575.90094,1157.3209,8.571,0.00030999997,-0.00021,3.00161,1,0.8897638,0,0,0,false,false,false,2993.9,-1255.84,17,-0.004491167,-0.0017290319,0.9127559,-0.40847662,-1148.9209,-1394.2909,8.411,0.00091,0.0017099999,1.5239099
221.11667,2807.1199,-1448.74,146.7,0.9543366,-0.29325953,0.037404984,0.042907674,-1039.6709,-1727.271,43.880997,4.11491,2.8524098,-0.51261,1,1,0,0,0,false,false,false,3346.13,-3221.47,16.99,-0.0045019574,0.0016319258,0.94304866,0.3326201,-586.701,1144.531,8.581,0.00030999997,-0.00010999999,3.02521,1,0.86614174,0,0,0,false,false,false,2984.3298,-1267.46,17,-0.004474983,-0.001761401,0.9101434,-0.4142653,-1146.021,-1396.3309,8.4210005,0.00131,0.00201,1.61401
