time,ball_loc_x,ball_loc_y,ball_loc_z,ball_rot_x,ball_rot_y,ball_rot_z,ball_rot_w,ball_vel_x,ball_vel_y,ball_vel_z,ball_ang_x,ball_ang_y,ball_ang_z,player0_throttle,player0_steer,player0_pitch,player0_yaw,player0_roll,player0_jump,player0_boost,player0_handbrake,player0_loc_x,player0_loc_y,player0_loc_z,player0_rot_x,player0_rot_y,player0_rot_z,player0_rot_w,player0_vel_x,player0_vel_y,player0_vel_z,player0_ang_x,player0_ang_y,player0_ang_z,player1_throttle,player1_steer,player1_pitch,player1_yaw,player1_roll,player1_jump,player1_boost,player1_handbrake,player1_loc_x,player1_loc_y,player1_loc_z,player1_rot_x,player1_rot_y,player1_rot_z,player1_rot_w,player1_vel_x,player1_vel_y,player1_vel_z,player1_ang_x,player1_ang_y,player1_ang_z
260.6,-3382.8599,1080.38,93.14,0.1226539,0.46551067,0.12702368,0.86724895,244.991,-447.251,0,4.90131,2.68491,-2.10561,1,0,1,-0.2734375,0.08661418,false,false,false,-970.08997,1630.26,32.45,-0.106631264,-0.12465532,-0.61007553,0.77517647,492.651,-1999.011,-228.451,3.0162098,0.42381,0.54911,1,0.26771653,0,0,0,false,false,false,-3716.5798,2066.4,17.01,0.003191022,0.0035794473,-0.6675303,0.74456704,125.701,-1276.981,8.321,-0.00010999999,-0.00010999999,0.61501
260.60834,-3380.8198,1076.65,93.14,0.14582463,0.47139636,0.1275092,0.86038476,244.941,-447.161,0,4.9004097,2.68431,-2.10561,1,0,1,-0.3046875,0.1023622,false,false,false,-965.98,1613.6,30.47,-0.09737915,-0.1157161,-0.6096385,0.77811813,492.651,-1999.011,-222.121,3.37341,0.50071,0.55471,1,0.26771653,0,0,0,false,false,false,-3715.53,2055.76,17.01,0.0031802324,0.003584842,-0.66562057,0.7462748,132.55101,-1278.4409,8.321,-0.00010999999,-0.00010999999,0.61461
260.61667,-3378.78,1072.9199,93.14,0.16890365,0.47699085,0.12791382,0.8529884,244.891,-447.081,0,4.89951,2.68381,-2.10561,1,0,1,-0.3203125,0.11023622,false,false,false,-961.87,1596.94,28.539999,-0.08718833,-0.10562244,-0.609207,0.7810946,493.63098,-1998.761,-215.311,3.74051,0.59251,0.53911,1,0.26771653,0,0,0,false,false,false,-3714.43,2045.11,17.01,0.0031694428,0.003590237,-0.6637054,0.7479786,139.391,-1279.851,8.321,-0.00010999999,-0.00010999999,0.61421
260.625,-3376.74,1069.19,93.14,0.19187479,0.48228857,0.12823752,0.8450662,244.841,-446.991,0,4.89861,2.68321,-2.10561,1,0,1,-0.328125,0.11811024,false,false,false,-957.75995,1580.2799,26.67,-0.076064214,-0.09428792,-0.6088131,0.78400916,495.501,-1998.2809,-208.701,4.10341,0.69611,0.50441,1,0.26771653,0,0,0,false,false,false,-3713.27,2034.44,17.01,0.0031586532,0.0035956316,-0.66179025,0.74967366,146.231,-1281.2109,8.321,0,-0.00010999999,0.61381
260.63333,-3374.7,1065.47,93.14,0.21472183,0.48728412,0.12848027,0.83662504,244.791,-446.911,0,4.8976097,2.68271,-2.10561,1,0,1,-0.3203125,0.12598425,false,false,false,-953.63,1563.63,24.859999,-0.06405536,-0.08167481,-0.6084679,0.786761,498.111,-1997.601,-202.821,4.4496098,0.80851,0.45401,0,0.26771653,0,0,0,false,false,false,-3712.0498,2023.76,17.01,0.0031478636,0.0036010265,-0.65986973,0.7513647,153.071,-1282.521,8.321,0,-0.00010999999,0.61331
260.64166,-3372.66,1061.75,93.14,0.23743401,0.49197763,0.12864213,0.82766795,244.741,-446.82098,0,4.89671,2.6821098,-2.10561,1,0,1,-0.296875,0.12598425,false,false,false,-949.48,1546.98,23.1,-0.05123189,-0.06779396,-0.60817116,0.78924453,501.271,-1996.761,-198.05101,4.76961,0.92680997,0.39201,0,0.25984251,0,0,0,false,false,false,-3710.77,2013.07,17.01,0.003137074,0.0036064212,-0.65794915,0.7530471,158.901,-1277.221,8.321,0.00040999998,0,0.60941
260.65,-3370.6199,1058.03,93.14,0.2599951,0.49636355,0.12872304,0.8182029,244.691,-446.741,0,4.89571,2.6816099,-2.10561,1,0,1,-0.265625,0.11811024,false,false,false,-945.3,1530.34,21.369999,-0.03775561,-0.052645333,-0.60791224,0.7913568,505.211,-1995.7009,-171.481,4.13381,0.84701,0.32601002,0,0.25984251,0,0,0,false,false,false,-3709.45,2002.4299,17.01,0.0031316795,0.003617211,-0.656034,0.7547161,164.621,-1271.901,8.321,0.00061,0,0.60361
260.66666,-3366.54,1050.59,93.14,0.30461565,0.50421304,0.12864211,0.7977653,244.591,-446.57098,0,4.89391,2.68051,-2.10561,1,0,1,-0.265625,0.11811024,false,false,false,-936.83997,1497.09,18.64,-0.016802177,-0.027262686,-0.6070544,0.79401463,515.34094,-1992.9509,-109.571,3.06401,0.86341,0.22390999,1,0.25984251,0,0,0,false,false,false,-3706.66,1981.2799,17.01,0.0031208897,0.00363879,-0.65224683,0.7579914,176.011,-1261.1709,8.321,0.00071,0,0.59511
260.675,-3364.5,1046.87,93.14,0.3266427,0.5076712,0.12848029,0.78680825,244.541,-446.481,0,4.8930097,2.67991,-2.10561,1,-1,0,0,0,false,false,true,-932.55,1480.48,17.66,-0.008823231,-0.016667306,-0.6065473,0.7948236,520.24097,-1991.601,-84.410995,2.52321,0.74201,0.19120999,1,0.25984251,0,0,0,false,false,false,-3705.19,1970.7699,17.01,0.0031154947,0.0036495796,-0.65036404,0.75960743,182.821,-1262.4609,8.321,0.00021,0,0.59541
260.68332,-3362.46,1043.15,93.14,0.34846473,0.5108163,0.1282375,0.775367,244.491,-446.401,0,4.8920097,2.67941,-2.10561,1,-1,0,0,0,false,false,true,-928.20996,1463.88,16.89,-0.0023278545,-0.0078413775,-0.606024,0.7954042,514.43097,-1992.4609,-62.871,1.99891,0.60941,-0.12550999,1,0.25984251,0,0,0,false,false,false,-3703.67,1960.25,17.01,0.0031047051,0.0036603692,-0.6484758,0.76122,189.591,-1263.7009,8.321,0,0,0.59551
260.69168,-3360.42,1039.4299,93.14,0.37007096,0.51364315,0.12791382,0.76345015,244.441,-446.311,0,4.89111,2.67881,-2.10561,1,-1,0,0,0,false,false,true,-923.92,1447.2799,16.3,0.0027540433,-0.0007741532,-0.6064772,0.7950956,508.971,-1993.2809,-44.211,1.51441,0.48361,-0.39591,1,0.25984251,0,0,0,false,false,false,-3702.0898,1949.72,17.01,0.0030939155,0.003665764,-0.6465876,0.76282454,196.341,-1264.891,8.321,-0.00010999999,-0.00010999999,0.59551
260.7,-3358.38,1035.71,93.14,0.3914452,0.51615167,0.12751459,0.7510645,244.391,-446.231,0,4.8902097,2.67831,-2.10561,1,-1,0,0,0,false,false,true,-919.68,1430.6699,15.86,0.006546585,0.0046530114,-0.6077827,0.7940627,502.751,-1994.2709,-9.371,0.39281002,0.17560999,-0.64021,1,0.25984251,0,0,0,false,false,false,-3700.45,1939.1799,17.01,0.003083126,0.0036711588,-0.64469403,0.7644256,203.071,-1266.0409,8.321,-0.00010999999,-0.00010999999,0.59541
260.70834,-3356.3398,1031.99,93.14,0.41257674,0.518342,0.12703446,0.7382168,244.341,-446.151,0,4.88931,2.67771,-2.10561,1,-1,0,0,0,false,false,true,-915.49,1414.0499,15.71,0.0074151466,0.0062121074,-0.60989743,0.79242116,495.561,-1995.471,8.111,0.01091,0.07391,-0.85681,1,0.2519685,0,0,0,false,false,false,-3698.76,1928.63,17.01,0.0030723363,0.0036765535,-0.6427951,0.7660231,209.791,-1267.141,8.321,-0.00010999999,-0.00010999999,0.59531
260.71667,-3354.2998,1028.27,93.14,0.4334493,0.5202088,0.12647341,0.72492,244.291,-446.061,0,4.88841,2.6772099,-2.10561,1,-1,0,0,0,false,false,true,-911.36,1397.4199,15.71,0.0072856722,0.0064548734,-0.6127244,0.7902366,487.171,-1996.891,16.331,-0.10691,0.034009997,-1.04971,1,0.2519685,0,0,0,false,false,false,-3697.01,1918.07,17.01,0.0030615467,0.0036819484,-0.6408907,0.7676171,216.401,-1268.2109,8.321,-0.00010999999,-0.00010999999,0.59231
260.725,-3352.26,1024.5499,93.14,0.4540521,0.521757,0.12583143,0.7111769,244.241,-445.981,0,4.8874097,2.67661,-2.10561,1,-1,0,0,0,false,false,true,-907.3,1380.78,15.78,0.0068756677,0.006260661,-0.6161771,0.78755265,477.491,-1998.511,18.921,-0.11171,0.02411,-1.22261,1,0.2519685,0,0,0,false,false,false,-3695.21,1907.5,17.01,0.003050757,0.003687343,-0.6389918,0.7691986,223.021,-1269.231,8.321,0,-0.00010999999,0.58981
260.73334,-3350.22,1020.82996,93.14,0.4743689,0.52298164,0.12511392,0.6970012,244.191,-445.891,0,4.88651,2.67611,-2.10561,1,-1,0,0,0,false,false,true,-903.32,1364.13,15.87,0.0064764526,0.006017895,-0.62018543,0.7844053,466.511,-2000.2909,20.130999,-0.107609995,0.02171,-1.37911,1,0.2519685,0,0,0,false,false,false,-3693.3499,1896.9199,17.01,0.0030399675,0.003692738,-0.6370982,0.7707677,229.651,-1270.2009,8.321,0,-0.00010999999,0.58761
260.74167,-3348.19,1017.11,93.14,0.49439445,0.52388257,0.12432089,0.68239677,244.141,-445.811,0,4.88551,2.67551,-2.10561,1,-1,0,0,0,false,false,true,-899.43,1347.46,15.969999,0.0061042123,0.00577513,-0.62468475,0.7808318,454.271,-2002.1609,20.521,-0.100609995,0.019510001,-1.52191,0,0.2519685,0,0,0,false,false,false,-3691.44,1886.33,17.01,0.0030291777,0.0036981322,-0.6352099,0.77232456,236.281,-1271.121,8.321,0,-0.00010999999,0.58571
260.75,-3346.16,1013.39996,93.14,0.5141125,0.5244598,0.12344693,0.66737616,244.091,-445.721,0,4.8846097,2.67501,-2.10561,1,-1,0,0,0,false,false,true,-895.63995,1330.78,16.07,0.00576434,0.0055377586,-0.6296264,0.7768569,440.861,-2004.0609,20.351,-0.09231,0.01761,-1.65311,0,0.2519685,0,0,0,false,false,false,-3689.47,1875.74,17.01,0.0030183885,0.0037035276,-0.63332176,0.77387375,241.481,-1265.521,8.321,0.00040999998,0,0.58081
260.75833,-3344.13,1009.69,93.14,0.5335123,0.52471334,0.12249745,0.6519469,244.041,-445.641,0,4.88371,2.6744099,-2.10561,1,-1,0,0,0,false,false,true,-891.97,1314.08,16.17,0.0054568364,0.0053111766,-0.6349672,0.77250147,426.391,-2005.9209,19.831,-0.083409995,0.01581,-1.77441,0,0.2519685,0,0,0,false,false,false,-3687.46,1865.19,17.01,0.0030129936,0.0037143172,-0.6314444,0.7754063,246.661,-1259.891,8.321,0.00071,0,0.57681
260.76666,-3342.0999,1005.98,93.14,0.55257756,0.52464324,0.12147235,0.63612247,243.991,-445.551,0,4.88281,2.67391,-2.10561,1,-1,0,0,0,false,false,true,-888.42,1297.36,16.27,0.005187097,0.00510078,-0.6406642,0.7677867,411.011,-2007.6709,19.091,-0.074609995,0.0143099995,-1.88701,0,0.2519685,0,0,0,false,false,false,-3685.4,1854.69,17.01,0.0030075992,0.003725107,-0.6295779,0.7769226,251.811,-1254.231,8.321,0.00081,0,0.57351
260.775,-3340.0698,1002.26996,93.14,0.571303,0.52424943,0.12037181,0.6199079,243.941,-445.471,0,4.8818097,2.67341,-2.10561,1,-1,0,0,0,false,false,true,-884.99,1280.63,16.359999,0.0049497252,0.004906567,-0.6466847,0.7627255,394.891,-2009.241,18.200998,-0.066309996,0.012909999,-1.99181,0,0.2519685,0,0,0,false,false,false,-3683.2998,1844.24,17.01,0.003002204,0.0037358964,-0.62772197,0.7784228,256.931,-1248.5509,8.321,0.00081,0,0.57091
260.78333,-3338.04,998.56,93.14,0.5896724,0.5235319,0.119195744,0.60331833,243.891,-445.381,0,4.88091,2.6728098,-2.10561,1,-1,0,0,0,false,false,true,-881.69995,1263.89,16.44,0.004744723,0.0047285384,-0.6529913,0.75733566,378.201,-2010.5809,17.271,-0.058509998,0.011709999,-2.0896099,0,0.2519685,0,0,0,false,false,false,-3681.16,1833.84,17.01,0.0029968095,0.0037466863,-0.62586623,0.77991563,262.001,-1242.851,8.321,0.00071,0,0.56881
260.79166,-3336.01,994.85,93.14,0.60767955,0.5224907,0.11794415,0.58636,243.841,-445.301,0,4.88001,2.6723099,-2.10561,1,-1,0,0,0,false,false,true,-878.55,1247.14,16.52,0.0045666946,0.0045666946,-0.6595622,0.75162214,361.141,-2011.631,16.351,-0.051409997,0.010609999,-2.18081,0,0.2519685,0,0,0,false,false,false,-3678.98,1823.48,17.01,0.0029914146,0.0037574759,-0.62401575,0.781397,267.021,-1237.131,8.321,0.00061,0,0.56711
260.8,-3333.98,991.13995,93.14,0.62530446,0.5211312,0.116622426,0.569048,243.791,-445.221,0,4.87911,2.67171,-2.10561,1,-1,0,0,0,false,false,true,-875.54,1230.38,16.59,0.004415641,0.004415641,-0.6663651,0.74559945,343.911,-2012.361,15.441,-0.045009997,0.009609999,-2.2657099,0,0.2519685,0,0,0,false,false,false,-3676.75,1813.1699,17.01,0.0029860197,0.0037682652,-0.6221653,0.782871,271.991,-1231.391,8.321,0.00051,0,0.56571
260.80832,-3331.95,987.43,93.14,0.64255035,0.51944804,0.11522517,0.55138534,243.741,-445.131,0,4.87821,2.67121,-2.10561,1,-1,0,0,0,false,false,true,-872.67,1213.61,16.65,0.00429156,0.0042807707,-0.6733729,0.739278,326.721,-2012.741,14.571,-0.039309997,0.00871,-2.3445098,0,0.24409449,0,0,0,false,false,false,-3674.48,1802.9099,17.01,0.0029806248,0.0037790546,-0.62032026,0.78433377,276.911,-1225.641,8.321,0.00040999998,0,0.56461
260.81668,-3329.92,983.72,93.14,0.6593976,0.51744646,0.11375779,0.5333882,243.691,-445.051,0,4.8772097,2.67061,-2.10561,1,-1,0,0,0,false,false,true,-869.94995,1196.84,16.699999,0.004189059,0.00415669,-0.6805642,0.7326645,309.811,-2012.761,13.771,-0.034209996,0.00781,-2.4172099,0,0.24409449,0,0,0,false,false,false,-3672.17,1792.7,17.01,0.0029752303,0.0037898445,-0.6184753,0.78578943,281.681,-1219.901,8.321,0.00030999997,0,0.56101
260.825,-3327.89,980.00995,93.14,0.67583764,0.51512676,0.11222028,0.51506746,243.641,-444.961,0,4.87631,2.67011,-2.10561,1,-1,0,0,0,false,false,true,-867.37,1180.07,16.75,0.004102742,0.004043399,-0.68791187,0.7257712,293.411,-2012.4209,13.061,-0.02981,0.00711,-2.48381,0,0.24409449,0,0,0,false,false,false,-3669.8198,1782.5299,17.01,0.0029698354,0.0037952394,-0.6166357,0.7872338,286.401,-1214.141,8.321,0.00021,0,0.55811
260.84167,-3323.8298,972.58997,93.14,0.7074522,0.5095377,0.108940236,0.47750875,243.541,-444.801,0,4.87451,2.66901,-2.10561,-1,-1,0,0,0,false,false,false,-862.61,1146.5399,16.83,0.003978662,0.0038383976,-0.7029689,0.711199,263.191,-2010.7809,11.821,-0.02251,0.00581,-2.59791,1,0.47244096,0,0,0,false,false,false,-3665,1762.34,17.01,0.002948256,0.0038060287,-0.61297256,0.7900894,297.571,-1209.371,8.321,-0.00021,-0.00010999999,0.55721
260.85,-3321.7998,968.88,93.14,0.7226121,0.50627387,0.10719772,0.458287,243.491,-444.711,0,4.87361,2.66841,-2.10561,-1,-1,0,0,0,false,false,false,-860.42,1129.78,16.859999,-0.0039355042,-0.0037466863,0.7106287,-0.7035462,248.531,-1990.741,11.291,-0.01821,0.00481,-2.6096098,1,0.46456692,0,0,0,false,false,false,-3662.52,1752.26,17.01,0.0029374666,0.0038114237,-0.61113834,0.79150915,306.791,-1209.3309,8.321,-0.00021,-0.00091,0.64021
260.86667,-3317.74,961.47,93.14,0.7515878,0.49881288,0.10351846,0.4190289,243.391,-444.541,0,4.87171,2.66731,-2.10561,-1,-1,0,0,0,false,false,false,-856.41,1096.77,16.91,-0.0038923454,-0.003590237,0.7257952,-0.68789035,215.121,-1948.1609,10.4210005,-0.012309999,0.00341,-2.63501,1,0.4566929,0,0,0,false,false,false,-3657.3298,1732.1,17.01,0.0029158874,0.003822213,-0.60669297,0.7949216,323.821,-1209.5609,8.321,-0.00021,-0.00131,0.75481
260.875,-3315.71,957.76996,93.14,0.76538795,0.49462104,0.10158174,0.39901412,243.341,-444.461,0,4.87081,2.66681,-2.10561,-1,-1,0,0,0,false,false,false,-854.62,1080.5399,16.93,-0.0038869507,-0.0035201046,0.7333054,-0.67987907,196.47101,-1925.491,10.071,-0.01031,0.00301,-2.6479099,1,0.44094488,0,0,0,false,false,false,-3654.63,1722.02,17.01,0.0029050978,0.003827608,-0.6041898,0.7968258,332.181,-1209.641,8.321,-0.00021,-0.0012099999,0.79801
260.89166,-3311.65,950.37,93.14,0.7915677,0.4853312,0.09752476,0.35827786,243.241,-444.291,0,4.86901,2.66571,-2.10561,-1,-1,0,0,0,false,false,false,-851.51,1048.64,16.96,-0.0038923454,-0.0033906293,0.7481628,-0.663495,155.631,-1877.131,9.501,-0.00731,0.00241,-2.67311,1,0.41732284,0,0,0,false,false,false,-3649.02,1701.86,17.01,0.0028835183,0.003838397,-0.5987733,0.80090404,348.621,-1209.731,8.321,-0.00021,-0.00081,0.85241
260.9,-3309.6199,946.67,93.14,0.80393404,0.48023856,0.09540462,0.33757797,243.191,-444.211,0,4.86801,2.6651099,-2.10561,-1,-1,0,0,0,false,false,false,-850.20996,1033,16.97,-0.003903135,-0.0033312866,0.7555054,-0.6551222,133.61101,-1851.351,9.291,-0.00621,0.00221,-2.68481,1,0.4015748,0,0,0,false,false,false,-3646.1099,1691.7799,17.01,0.002872729,0.0038437922,-0.5959249,0.8030257,356.82098,-1209.6909,8.321,-0.00021,-0.00051,0.86680996
260.925,-3303.53,935.57,93.14,0.83804065,0.46321246,0.08870427,0.2743237,243.041,-443.961,0,4.8653097,2.6635098,-2.10561,-1,-1,0,0,0,false,false,false,-847.45996,987.39996,17,-0.003946293,-0.0031640478,0.7771438,-0.6293027,62.420998,-1767.1709,8.831,-0.00381,0.0016099999,-2.7137098,1,0.35433072,0,0,0,false,false,false,-3637.01,1661.6,17.01,0.0028295706,0.003876161,-0.5871799,0.80944216,376.761,-1196.281,8.321,0.00010999999,0.00030999997,0.85581
260.93332,-3301.51,931.87,93.14,0.84839135,0.45696527,0.08636293,0.25289547,242.991,-443.881,0,4.86441,2.66291,-2.10561,-1,-1,0,0,0,false,false,false,-846.94,972.67,17.01,-0.0039678724,-0.0031101,0.7842086,-0.6204767,37.371,-1736.741,8.701,-0.00321,0.0014099999,-2.72081,1,0.35433072,0,0,0,false,false,false,-3633.8699,1651.63,17.01,0.0028133863,0.0038869507,-0.5842883,0.8115319,385.07098,-1196.0609,8.321,-0.00010999999,0.00030999997,0.84911
260.94168,-3299.49,928.17,93.14,0.85822386,0.4504375,0.08396764,0.23131621,242.941,-443.791,0,4.8635097,2.66241,-2.10561,-1,-1,0,0,0,false,false,false,-846.63,958.19995,17.01,-0.0039894516,-0.003056152,0.79119104,-0.6115483,11.8810005,-1705.101,8.581,-0.00271,0.00131,-2.72641,1,0.31496063,0,0,0,false,false,false,-3630.66,1641.6599,17.01,0.0027972017,0.0038977403,-0.58141285,0.81359446,393.521,-1195.7109,8.321,-0.00021,0.00021,0.84371
260.95,-3297.47,924.47,93.14,0.86753094,0.4436347,0.08151841,0.20960209,242.891,-443.711,0,4.8625097,2.66181,-2.10561,-1,-1,0,0,0,false,false,false,-846.52997,943.99,17.01,-0.004011031,-0.003007599,0.7980858,-0.6025228,-13.901,-1672.261,8.511001,-0.0023100001,0.0012099999,-2.7302098,1,0.31496063,0,0,0,false,false,false,-3627.38,1631.7,17.01,0.0027810177,0.00390853,-0.57854825,0.815634,401.611,-1195.4409,8.321,-0.00030999997,0.00030999997,0.82521
260.95834,-3295.45,920.76996,93.14,0.87630695,0.4365621,0.07902061,0.18776385,242.841,-443.621,0,4.86161,2.66131,-2.10561,-1,-1,0,0,0,false,false,false,-846.64996,930.05,17.01,-0.00403261,-0.0029590456,0.804888,-0.59340554,-39.850998,-1638.221,8.461,-0.0019099999,0.0010099999,-2.73201,0,0.28346455,0,0,0,false,false,false,-3624.03,1621.74,17.01,0.002764833,0.0039193192,-0.5757429,0.81761664,409.841,-1195.0409,8.321,-0.00030999997,0.00030999997,0.81001
260.975,-3291.41,913.37,93.14,0.89224786,0.4216238,0.07388468,0.14376381,242.741,-443.461,0,4.85981,2.66021,-2.10561,-1,-1,0,0,0,false,false,false,-847.52997,903.04,17.01,-0.0040865573,-0.0028619391,0.8181847,-0.57493365,-91.671,-1566.6609,8.411,-0.0014099999,0.00061,-2.72911,0,0.26771653,0,0,0,false,false,false,-3617.15,1601.88,17.01,0.0027324639,0.003940898,-0.5703049,0.82141894,420.671,-1181.511,8.321,0.00010999999,0.00061,0.75371
260.98334,-3289.39,909.68,93.14,0.89940447,0.41376355,0.07124662,0.12163426,242.691,-443.371,0,4.85891,2.65971,-2.10561,-1,-1,0,0,0,false,false,false,-848.29,889.98,17.01,-0.0041135317,-0.0028133863,0.8246678,-0.56559527,-117.260994,-1529.2109,8.401,-0.0012099999,0.00051,-2.72411,1,0.24409449,0,0,0,false,false,false,-3613.64,1592.0299,17.01,0.0027216745,0.003951688,-0.56772083,0.8232071,426.081,-1174.661,8.321,0.00021,0.00061,0.73001
260.99167,-3287.3699,905.99,93.14,0.9060107,0.40565512,0.06856541,0.099434525,242.641,-443.291,0,4.8579097,2.6591098,-2.10561,-1,-1,0,0,0,false,false,false,-849.26996,877.24,17.01,-0.0041405065,-0.0027648332,0.8310352,-0.5561975,-142.47101,-1490.6809,8.401,-0.00111,0.00040999998,-2.7174098,1,0.24409449,0,0,0,false,false,false,-3610.0898,1582.24,17.01,0.002710885,0.0039624777,-0.56521225,0.8249315,433.85098,-1174.371,8.321,-0.00010999999,0.00040999998,0.70551
261,-3285.3499,902.3,93.14,0.9120642,0.3972986,0.06584644,0.07718091,242.591,-443.201,0,4.85701,2.6586099,-2.10561,0,-1,0,0,0,false,false,false,-850.45996,864.82,17.01,-0.00416748,-0.0027162798,0.8372803,-0.5467512,-167.141,-1451.131,8.401,-0.0010099999,0.00030999997,-2.70851,1,0.22047244,0,0,0,false,false,false,-3606.47,1572.45,17.01,0.0027000955,0.003973267,-0.56278455,0.8265896,441.631,-1174.011,8.321,-0.00030999997,0.00030999997,0.68491
261.00833,-3283.3298,898.61,93.14,0.91756207,0.38869926,0.06308969,0.05488413,242.541,-443.121,0,4.85611,2.65801,-2.10561,0,-1,0,0,0,false,false,false,-851.85,852.73,17.01,-0.004194454,-0.0026677267,0.84339744,-0.5372671,-201.181,-1427.8109,8.401,-0.0018099999,0.0012099999,-2.74771,1,0.2047244,0,0,0,false,false,false,-3602.79,1562.6699,17.01,0.002689306,0.003978662,-0.56042165,0.8281934,449.091,-1173.721,8.321,-0.00040999998,0.00030999997,0.65901
261.01666,-3281.3098,894.92,93.14,0.9225015,0.37986255,0.060295194,0.032554984,242.491,-443.041,0,4.85521,2.65751,-2.10561,0,-1,0,0,0,false,false,false,-853.52997,840.82996,17.01,-0.004216033,-0.0026137787,0.849492,-0.527578,-235.001,-1403.511,8.401,-0.00221,0.0017099999,-2.78301,1,0.19685039,0,0,0,false,false,false,-3599.0498,1552.89,17.01,0.0026785163,0.003984057,-0.558145,0.8297295,456.35098,-1173.4609,8.321,-0.00051,0.00030999997,0.63161
261.025,-3279.29,891.23,93.14,0.9268795,0.37079388,0.057462927,0.010209653,242.441,-442.951,0,4.85431,2.65691,-2.10561,0,-1,0,0,0,false,false,false,-855.49,829.13,17.01,-0.0042376122,-0.0025598307,0.855551,-0.5176947,-268.531,-1378.231,8.401,-0.0023100001,0.0019099999,-2.8150098,0,0.18897638,0,0,0,false,false,false,-3595.25,1543.11,17.01,0.0026677267,0.0039894516,-0.5559601,0.83119506,463.491,-1173.1909,8.321,-0.00051,0.00030999997,0.60570997
261.03333,-3277.27,887.54,93.14,0.93069357,0.36149856,0.05459821,-0.012135637,242.391,-442.871,0,4.85331,2.65641,-2.10561,0,-1,0,0,0,false,false,false,-857.73,817.63995,17.01,-0.004253797,-0.0025058826,0.86156535,-0.50762254,-301.691,-1352.001,8.401,-0.00221,0.0019099999,-2.8438098,0,0.18897638,0,0,0,false,false,false,-3591.39,1533.33,17.01,0.002656937,0.0039948463,-0.55386156,0.8325949,467.741,-1166.601,8.321,-0.00010999999,0.00051,0.57840997
261.04166,-3275.25,883.85,93.14,0.93394005,0.3519875,0.0516958,-0.034470174,242.341,-442.781,0,4.85241,2.6558099,-2.10561,0,-1,0,0,0,false,false,false,-860.24,806.37,17.01,-0.004269981,-0.0024519349,0.86752,-0.49737784,-334.391,-1324.851,8.401,-0.00201,0.0018099999,-2.86921,0,0.18897638,0,0,0,false,false,false,-3587.49,1523.61,17.01,0.0026461475,0.004000241,-0.55185467,0.83392644,471.901,-1160.011,8.321,0,0.00061,0.55541
261.05,-3273.23,880.16,93.14,0.9366193,0.3422606,0.048766427,-0.05677774,242.291,-442.701,0,4.85151,2.65531,-2.10561,0,-1,0,0,0,false,false,false,-863.02997,795.32996,17.01,-0.0042861653,-0.0023979868,0.87340415,-0.48697123,-366.551,-1296.8209,8.401,-0.0018099999,0.0017099999,-2.89131,0,0.15748031,0,0,0,false,false,false,-3583.5598,1513.94,17.01,0.002635358,0.004011031,-0.5499233,0.83520126,475.951,-1153.4409,8.321,0.00010999999,0.00061,0.53601
261.05832,-3271.21,876.47,93.14,0.93872833,0.33232883,0.045804687,-0.07904755,242.241,-442.621,0,4.85061,2.65471,-2.10561,1,-1,0,0,0,false,false,false,-866.07996,784.51996,17.01,-0.0043023494,-0.0023440386,0.8792075,-0.47641352,-398.091,-1267.9509,8.401,-0.0016099999,0.00151,-2.9100099,0,0.1496063,0,0,0,false,false,false,-3579.5898,1504.33,17.01,0.0026245685,0.0040218206,-0.5480568,0.83642733,479.511,-1147.0709,8.321,0.00010999999,0.00061,0.50871
261.06668,-3269.19,872.77997,93.14,0.94026834,0.32219195,0.042815965,-0.10126339,242.191,-442.531,0,4.84971,2.6542099,-2.10561,1,-1,0,0,0,false,false,false,-869.39996,773.95,17.01,-0.0043239295,-0.002290091,0.88492084,-0.46571568,-432.631,-1242.721,8.401,-0.0017099999,0.0016099999,-2.94011,0,0.14173228,0,0,0,false,false,false,-3575.5898,1494.77,17.01,0.0026137787,0.0040272153,-0.5462818,0.8375876,482.891,-1140.751,8.321,0.00010999999,0.00061,0.48311
261.075,-3267.17,869.08997,93.14,0.94123703,0.3118609,0.039805673,-0.123414524,242.141,-442.451,0,4.84871,2.65361,-2.10561,1,-1,0,0,0,false,false,false,-873.01,763.58997,17.01,-0.0043401127,-0.0022361428,0.8905598,-0.45483962,-466.611,-1216.751,8.401,-0.0017099999,0.0016099999,-2.9660099,0,0.13385826,0,0,0,false,false,false,-3571.5698,1485.26,17.01,0.0026029893,0.0040326104,-0.5445933,0.8386865,486.07098,-1134.501,8.321,0.00021,0.00051,0.45881
261.08334,-3265.15,865.39996,93.14,0.94163454,0.30134097,0.036768395,-0.14548469,242.091,-442.361,0,4.84781,2.65311,-2.10561,1,-1,0,0,0,false,true,false,-876.89996,753.45,17.01,-0.004356297,-0.0021768,0.89611155,-0.44380182,-499.971,-1190.0609,8.401,-0.0016099999,0.00151,-2.9881098,0,0.12598425,0,0,0,false,false,false,-3567.52,1475.8099,17.01,0.0025921995,0.0040380047,-0.542991,0.8397247,489.041,-1128.3309,8.321,0.00021,0.00051,0.43551
261.09167,-3263.13,861.70996,93.14,0.9414611,0.29063764,0.033714946,-0.1674632,242.041,-442.281,0,4.84691,2.65251,-2.10561,1,-1,0,0,0,false,true,false,-881.11,743.48,17.01,-0.0043724817,-0.002117457,0.90156645,-0.432613,-537.691,-1169.2009,8.351,-0.00151,0.00131,-3.00601,0,0.11811024,0,0,0,false,false,false,-3563.44,1466.4099,17.01,0.0025868048,0.0040433994,-0.54146427,0.84071,491.791,-1122.241,8.321,0.00030999997,0.00040999998,0.41311002
261.1,-3261.1099,858.02997,93.14,0.9407163,0.27976173,0.03063983,-0.18933378,241.991,-442.201,0,4.8460097,2.65201,-2.10561,1,-1,0,0,0,false,true,false,-885.63,733.68,17.01,-0.0043886667,-0.0020581146,0.9069133,-0.42128932,-574.891,-1147.491,8.321,-0.00131,0.00111,-3.02011,0,0.11023622,0,0,0,false,false,false,-3559.3398,1457.0599,17.01,0.0025814099,0.0040487945,-0.54001844,0.8416394,494.32098,-1116.231,8.321,0.00030999997,0.00040999998,0.39151
261.10834,-3259.0898,854.35,93.14,0.9394024,0.26871306,0.027548607,-0.21108566,241.941,-442.121,0,4.84511,2.6514099,-2.10561,1,-1,0,0,0,false,true,false,-890.47,724.06,17.01,-0.0044102455,-0.001998772,0.9121438,-0.40984154,-611.52094,-1124.9609,8.301001,-0.0012099999,0.00091,-3.03041,0,0.1023622,0,0,0,false,false,false,-3555.22,1447.76,17.01,0.0025760152,0.004054189,-0.53864276,0.8425205,496.63098,-1110.3109,8.321,0.00030999997,0.00040999998,0.37051
261.11667,-3257.0698,850.67,93.14,0.93751895,0.2575027,0.024441209,-0.23270811,241.891,-442.031,0,4.8442097,2.65091,-2.10561,1,-1,0,0,0,false,true,false,-895.61,714.63,17.01,-0.0044318247,-0.0019394292,0.91724616,-0.39829123,-647.53094,-1101.651,8.281,-0.00111,0.00081,-3.03701,1,0.09448819,0,0,0,false,false,false,-3551.0798,1438.51,17.01,0.0025706203,0.004059584,-0.5373426,0.8433503,498.721,-1104.481,8.321,0.00030999997,0.00040999998,0.34991
261.125,-3255.05,846.99,93.14,0.9350682,0.24613577,0.02131762,-0.25418484,241.841,-441.951,0,4.84331,2.65031,-2.10561,1,-1,0,0,0,false,true,false,-901.05,705.39996,17.01,-0.0044534034,-0.0018800863,0.92221177,-0.3866546,-682.881,-1077.591,8.271,-0.0010099999,0.00071,-3.03981,1,0.08661418,0,0,0,false,false,false,-3546.92,1429.3099,17.01,0.0025652256,0.0040649786,-0.53611255,0.8441327,503.741,-1105.351,8.321,-0.00010999999,0.00010999999,0.33121002
261.13333,-3253.03,843.31,93.14,0.93205035,0.23462328,0.018183243,-0.27550516,241.791,-441.871,0,4.84241,2.6498098,-2.10561,1,-1,0,0,0,false,true,false,-906.79,696.37,17.01,-0.0044749826,-0.0018207434,0.92703533,-0.37494242,-717.53094,-1052.8309,8.261001,-0.00091,0.00061,-3.03901,1,0.08661418,0,0,0,false,false,false,-3542.72,1420.1,17.01,0.0025598307,0.0040703737,-0.5349473,0.84487164,508.551,-1106.2909,8.321,-0.00030999997,0,0.31251
261.14166,-3251.02,839.63,93.14,0.9284692,0.22297049,0.01503808,-0.2966529,241.741,-441.791,0,4.84151,2.64921,-2.10561,1,-1,0,0,0,false,true,false,-912.82,687.55,17.01,-0.004496562,-0.0017614007,0.93170774,-0.36317635,-751.451,-1027.411,8.261001,-0.00091,0.00051,-3.03471,1,0.08661418,0,0,0,false,false,false,-3538.48,1410.88,17.01,0.002554436,0.0040703737,-0.53384674,0.8455675,513.24097,-1107.241,8.321,-0.00040999998,0,0.29661
261.15,-3249.01,835.94995,93.14,0.9243266,0.21118283,0.011887518,-0.31761715,241.691,-441.711,0,4.84061,2.64871,-2.10561,1,-1,0,0,0,false,true,false,-919.13,678.94,17.01,-0.0045127473,-0.0017020582,0.9362253,-0.35136715,-784.61096,-1001.381,8.251,-0.00091,0.00051,-3.0269098,1,0.07086614,0,0,0,false,false,false,-3534.2,1401.65,17.01,0.0025490413,0.004070374,-0.5328002,0.8462274,517.80096,-1108.221,8.321,-0.00040999998,0,0.28311
261.15833,-3247,832.26996,93.14,0.91962534,0.19926563,0.008731476,-0.33838716,241.641,-441.621,0,4.8397098,2.64811,-2.10561,1,-1,0,0,0,false,true,false,-925.72,670.55,17.01,-0.0045289313,-0.0016427154,0.9405825,-0.3395309,-816.98096,-974.78094,8.251,-0.00081,0.00040999998,-3.0157099,0,0.07086614,0,0,0,false,false,false,-3529.88,1392.4099,17.01,0.0025436464,0.0040703737,-0.5318021,0.8468549,522.05096,-1109.3209,8.321,-0.00040999998,0,0.26581
261.16666,-3244.99,828.58997,93.14,0.9143692,0.18722978,0.0055701276,-0.35894683,241.591,-441.541,0,4.83881,2.64761,-2.10561,1,-0.984375,0,0,0,false,true,false,-932.57996,662.38,17.01,-0.0045451154,-0.0015833727,0.9447751,-0.32768387,-848.54095,-947.66095,8.251,-0.00081,0.00030999997,-3.0013099,0,0.062992126,0,0,0,false,false,false,-3525.53,1383.1699,17.01,0.0025382515,0.0040703737,-0.5308634,0.84744376,523.03094,-1103.9609,8.321,0,0.00010999999,0.25011
261.175,-3242.98,824.91,93.14,0.9085612,0.17508069,0.0024087764,-0.37928528,241.541,-441.461,0,4.8379097,2.64711,-2.10561,1,-0.9375,0,0,0,false,true,false,-939.70996,654.44,17.01,-0.0045613004,-0.00152403,0.9487995,-0.31584227,-879.22095,-920.251,8.251,-0.00081,0.00021,-2.97921,0,0.062992126,0,0,0,false,false,false,-3521.17,1373.97,17.01,0.0025328568,0.0040757684,-0.5299787,0.84799725,523.821,-1098.6909,8.321,0.00021,0.00021,0.23411
261.18332,-3240.97,821.23,93.14,0.9022041,0.16282903,-0.00075257407,-0.39939177,241.491,-441.381,0,4.83701,2.64651,-2.10561,1,-0.890625,0,0,0,false,true,false,-947.08997,646.73,17.01,-0.0045774844,-0.0014646872,0.95264757,-0.3040384,-908.93097,-892.92096,8.241,-0.00091,0,-2.94131,1,0.05511811,0,0,0,false,false,false,-3516.7998,1364.8099,17.01,0.0025274619,0.004081163,-0.5291533,0.8485126,524.511,-1093.471,8.321,0.00030999997,0.00021,0.22061
261.19168,-3238.96,817.55,93.14,0.8953051,0.15047495,-0.003913925,-0.41925013,241.441,-441.291,0,4.83611,2.64601,-2.10561,1,-0.8515625,0,0,0,false,true,false,-954.72,639.25,17.01,-0.0045936685,-0.0014053442,0.9563015,-0.29234236,-937.7009,-865.66095,8.231,-0.0010099999,-0.00010999999,-2.89011,1,0.05511811,0,0,0,false,false,false,-3512.43,1355.7,17.01,0.0025220672,0.004086558,-0.52837104,0.84899986,528.261,-1094.891,8.321,0,0,0.20720999
261.2,-3236.95,813.87,93.14,0.8878668,0.13803445,-0.0070699225,-0.43884948,241.391,-441.211,0,4.83521,2.64541,-2.10561,1,-0.8046875,0,0,0,false,true,false,-962.58997,632,17.01,-0.004609853,-0.0013460016,0.9597534,-0.28080288,-965.561,-838.42096,8.231,-0.0012099999,-0.00021,-2.8289099,1,0.047244094,0,0,0,false,false,false,-3508.03,1346.58,17.01,0.0025166722,0.004086558,-0.52763736,0.8494561,531.91095,-1096.3309,8.321,-0.00010999999,-0.00010999999,0.19580999
261.20834,-3234.94,810.19,93.14,0.87989134,0.12551314,-0.010220483,-0.4581845,241.341,-441.131,0,4.83431,2.6449099,-2.10561,1,-0.765625,0,0,0,false,true,false,-970.69,624.98,17.01,-0.0046260376,-0.0012866588,0.9629972,-0.26946837,-992.49097,-811.371,8.221001,-0.0014099999,-0.00030999997,-2.75571,1,0.047244094,0,0,0,false,false,false,-3503.5999,1337.44,17.01,0.0025112776,0.004086558,-0.5269414,0.84988797,535.36096,-1097.8309,8.321,-0.00021,-0.00010999999,0.18330999
261.21667,-3232.93,806.51,93.14,0.8713863,0.1129162,-0.01336565,-0.47723898,241.291,-441.051,0,4.83341,2.64431,-2.10561,1,-0.765625,0,0,0,false,true,false,-979.01996,618.18,17.01,-0.004642222,-0.0012273161,0.9660279,-0.2583928,-1018.5109,-784.47095,8.211,-0.0016099999,-0.00040999998,-2.67431,0,0.047244094,0,0,0,false,false,false,-3499.14,1328.2899,17.01,0.0025058826,0.004086558,-0.52629405,0.85028905,538.72095,-1099.341,8.321,-0.00021,-0.00010999999,0.17271
261.225,-3230.92,802.83997,93.14,0.862357,0.10024923,-0.016500028,-0.4960022,241.241,-440.971,0,4.83251,2.64381,-2.10561,1,-0.6796875,0,0,0,false,true,false,-987.57,611.61,17.01,-0.004653011,-0.0011679733,0.96884674,-0.24761395,-1043.741,-757.36096,8.211,-0.0016099999,-0.00040999998,-2.59761,0,0.047244094,0,0,0,false,false,false,-3494.65,1319.13,17.01,0.0025004882,0.0040865582,-0.5256845,0.8506661,538.74097,-1094.4309,8.321,0.00021,0,0.16301
261.23334,-3228.91,799.17,93.14,0.85281163,0.08752281,-0.019623654,-0.51445776,241.191,-440.881,0,4.8316097,2.64321,-2.10561,1,-0.640625,0,0,0,false,true,false,-996.32996,605.26996,17.01,-0.0046638013,-0.0011086306,0.9714695,-0.23711567,-1067.911,-731.201,8.201,-0.0018099999,-0.00051,-2.4962099,0,0.03937008,0,0,0,false,false,false,-3490.16,1310.01,17.01,0.0025004882,0.0040865582,-0.52510726,0.85102254,538.67096,-1089.5609,8.321,0.00040999998,0,0.15471
261.24167,-3226.9,795.5,93.14,0.84275293,0.074747846,-0.022731058,-0.5326006,241.141,-440.801,0,4.83071,2.64271,-2.10561,1,-0.6015625,0,0,0,false,true,false,-1005.29,599.14,17.01,-0.004674591,-0.0010546828,0.97388285,-0.22700043,-1091.231,-705.36096,8.191,-0.0019099999,-0.00061,-2.39101,0,0.03937008,0,0,0,false,false,false,-3485.67,1300.9299,17.01,0.002500488,0.004086558,-0.52455693,0.8513618,538.43097,-1084.771,8.321,0.00051,0,0.14491
261.25,-3224.89,791.82996,93.14,0.8321879,0.06192442,-0.025822276,-0.5504196,241.091,-440.721,0,4.8298097,2.6421099,-2.10561,1,-0.5625,0,0,0,false,true,false,-1014.44995,593.23,17.01,-0.004685381,-0.0010007347,0.9760966,-0.21728437,-1113.6909,-680.001,8.181,-0.00201,-0.00061,-2.28101,1,0.031496063,0,0,0,false,false,false,-3481.18,1291.89,17.01,0.002500488,0.004086558,-0.5240444,0.85167736,538.11096,-1080.021,8.321,0.00061,0,0.13661
261.25833,-3222.88,788.16,93.14,0.8211222,0.049068537,-0.028897353,-0.5679043,241.041,-440.641,0,4.82891,2.64161,-2.10561,1,-0.5234375,0,0,0,false,true,false,-1023.79,587.52997,17.01,-0.00469617,-0.0009467867,0.97811705,-0.20799987,-1135.3109,-655.21094,8.181,-0.00211,-0.00061,-2.16691,1,0.031496063,0,0,0,false,false,false,-3476.7,1282.89,17.01,0.002500488,0.0040919525,-0.52355886,0.8519759,540.97095,-1081.911,8.321,0.00021,0,0.12731
261.26666,-3220.8699,784.49,93.14,0.8095638,0.03618037,-0.0319562,-0.5850436,240.991,-440.561,0,4.82801,2.64101,-2.10561,1,-0.4921875,0,0,0,false,true,false,-1033.3099,582.04,17.01,-0.0047069597,-0.00089283875,0.9799557,-0.19915774,-1155.9409,-631.40094,8.1710005,-0.00211,-0.00061,-2.05381,1,0.031496063,0,0,0,false,false,false,-3472.19,1273.87,17.01,0.0025004882,0.004091953,-0.52310574,0.8522543,543.761,-1083.8109,8.321,0,-0.00010999999,0.119509995
261.275,-3218.8599,780.82,93.14,0.7975199,0.023275932,-0.03499347,-0.60182685,240.941,-440.471,0,4.82711,2.6405098,-2.10561,1,-0.4609375,0,0,0,false,true,false,-1043.01,576.75,17.01,-0.004717749,-0.0008442856,0.9816243,-0.1907634,-1175.661,-608.501,8.1710005,-0.00201,-0.00051,-1.9441099,1,0.031496063,0,0,0,false,false,false,-3467.66,1264.84,17.01,0.002500488,0.0040919525,-0.5226795,0.85251564,546.48096,-1085.7109,8.321,-0.00010999999,-0.00010999999,0.11280999
261.28333,-3216.8499,777.14996,93.14,0.78499883,0.010355312,-0.038009167,-0.61824334,240.891,-440.391,0,4.82621,2.63991,-2.10561,1,-0.4296875,0,0,0,false,true,false,-1052.87,571.64996,17.01,-0.0047231438,-0.0007957324,0.98313725,-0.18280607,-1194.5409,-586.53094,8.1710005,-0.0018099999,-0.00040999998,-1.83741,1,0.023622047,0,0,0,false,false,false,-3463.1099,1255.7899,17.01,0.002500488,0.0040919525,-0.52228034,0.85276026,549.131,-1087.621,8.321,-0.00010999999,-0.00010999999,0.10710999
261.29166,-3214.8398,773.48,93.14,0.772005,-0.0025706203,-0.040997922,-0.6342875,240.841,-440.311,0,4.8253098,2.63941,-2.10561,1,-0.3984375,0,0,0,false,true,false,-1062.89,566.74,17.01,-0.0047285384,-0.00075257407,0.9845078,-0.1752749,-1212.631,-565.501,8.1710005,-0.0016099999,-0.00030999997,-1.73331,1,0.023622047,0,0,0,false,false,false,-3458.53,1246.73,17.01,0.002500488,0.0040919525,-0.52189726,0.8529948,551.621,-1089.5809,8.321,-0.00021,-0.00010999999,0.09941
261.3,-3212.8298,769.81,93.14,0.7585521,-0.0154912,-0.043959666,-0.64994323,240.791,-440.231,0,4.82441,2.63881,-2.10561,1,-0.375,0,0,0,false,true,false,-1073.0599,562,17.01,-0.0047339336,-0.0007094157,0.9857482,-0.16815913,-1229.981,-545.42096,8.1710005,-0.00131,-0.00030999997,-1.63181,0,0.023622047,0,0,0,false,false,false,-3453.93,1237.65,17.01,0.002500488,0.0040919525,-0.5215412,0.85321254,554.061,-1091.5409,8.321,-0.00021,0,0.09291
261.30832,-3210.8198,766.13995,93.14,0.744645,-0.02840103,-0.046894435,-0.6652052,240.741,-440.151,0,4.8235097,2.63831,-2.10561,1,-0.3515625,0,0,0,false,true,false,-1083.37,557.43,17.01,-0.0047393283,-0.0006716521,0.9868687,-0.1614534,-1246.6609,-526.201,8.1710005,-0.0010099999,-0.00021,-1.53521,0,0.023622047,0,0,0,false,false,false,-3449.3098,1228.5499,17.01,0.0025004882,0.004091953,-0.52121216,0.85341364,553.141,-1087.091,8.321,0.00010999999,0.00010999999,0.087009996
261.31668,-3208.8098,762.47,93.14,0.73028934,-0.041294634,-0.049796876,-0.6800679,240.691,-440.061,0,4.82261,2.6377099,-2.10561,1,-0.328125,0,0,0,false,true,false,-1093.82,553.01996,17.01,-0.004744723,-0.00063928333,0.9878814,-0.15513603,-1262.7109,-507.861,8.1710005,-0.00071,-0.00010999999,-1.4428099,0,0.023622047,0,0,0,false,false,false,-3444.7,1219.49,17.01,0.002500488,0.0040919525,-0.5209046,0.85360134,552.17096,-1082.661,8.321,0.00021,0.00021,0.08200999
261.325,-3206.8,758.8,93.14,0.71550065,-0.054161265,-0.052666906,-0.6945152,240.641,-439.981,0,4.82171,2.63721,-2.10561,1,-0.3046875,0,0,0,false,true,false,-1104.41,548.76996,17.01,-0.0047501177,-0.0006069146,0.98879594,-0.14919637,-1278.1709,-490.401,8.161,-0.00040999998,0,-1.35431,1,0.015748031,0,0,0,false,false,false,-3440.0999,1210.47,17.01,0.0025004882,0.004091953,-0.5206133,0.8537791,551.141,-1078.261,8.321,0.00030999997,0.00030999997,0.07781
261.33334,-3204.8,755.13,93.14,-0.70028234,0.06699553,0.055504616,0.7085446,240.591,-439.901,0,4.82081,2.63661,-2.10561,1,-0.3046875,0,0,0,false,true,false,-1115.13,544.66,17.01,-0.004755513,-0.00057994056,0.9896223,-0.14361271,-1293.091,-473.811,8.161,-0.00021,0,-1.26921,1,0.015748031,0,0,0,false,false,false,-3435.51,1201.48,17.01,0.002500488,0.0040919525,-0.5203381,0.85394675,553.34094,-1080.4409,8.321,0,0.00010999999,0.07171
261.34167,-3202.8,751.45996,93.14,-0.6846481,0.07978667,0.05830991,0.7221433,240.541,-439.82098,0,4.81991,2.6361098,-2.10561,1,-0.265625,0,0,0,false,true,false,-1125.97,540.69,17.01,-0.0047609075,-0.0005529666,0.9903676,-0.13837977,-1307.5409,-457.82098,8.161,0,0,-1.19501,1,0.015748031,0,0,0,false,false,false,-3430.9,1192.48,17.01,0.0025004882,0.004091953,-0.5200846,0.85410124,555.501,-1082.611,8.321,-0.00010999999,0,0.06651
261.35,-3200.8,747.8,93.14,-0.66860396,0.09252919,0.061077442,0.73530716,240.491,-439.741,0,4.81901,2.6356099,-2.10561,1,-0.25,0,0,0,false,true,false,-1136.9299,536.86,17.01,-0.0047609075,-0.0005313874,0.99104404,-0.13344887,-1321.471,-442.921,8.161,0.00010999999,0,-1.11691,1,0.015748031,0,0,0,false,false,false,-3426.27,1183.46,17.01,0.0025004882,0.004091953,-0.5198473,0.8542457,557.61096,-1084.781,8.321,-0.00021,0,0.062109996
261.35834,-3198.8,744.13995,93.14,-0.6521605,0.105212435,0.063807204,0.7480277,240.441,-439.651,0,4.81811,2.63501,-2.10561,1,-0.2265625,0,0,0,false,true,false,-1148.01,533.14996,17.01,-0.004760907,-0.00050980813,0.99165416,-0.1288363,-1334.981,-428.771,8.161,0.00021,0,-1.04411,0,0.015748031,0,0,0,false,false,false,-3421.6199,1174.4199,17.01,0.002500488,0.0040919525,-0.519626,0.85438025,559.68097,-1086.9409,8.321,-0.00030999997,0,0.058409996
261.375,-3194.8,736.82,93.14,-0.6181192,0.13037923,0.069142655,0.7721069,240.341,-439.491,0,4.81631,2.63391,-2.10561,1,-0.2109375,0,0,0,false,true,false,-1170.49,526.08,17.01,-0.0047609075,-0.00047204466,0.99270225,-0.12049593,-1358.7109,-402.221,8.161,0.00051,0,-0.91051,0,0.015748031,0,0,0,false,false,false,-3412.3098,1156.34,17.01,0.002500488,0.0040919525,-0.5192214,0.8546262,557.02094,-1078.4509,8.321,0.00021,0.00030999997,0.052109998
261.38333,-3192.8,733.16,93.14,-0.60054284,0.14284661,0.07174834,0.7834508,240.291,-439.411,0,4.8154097,2.63341,-2.10561,1,-0.1875,0,0,0,false,true,false,-1181.88,522.70996,17.01,-0.0047609075,-0.00045586028,0.9931521,-0.11673036,-1370.001,-389.981,8.161,0.00071,0,-0.85121,0,0.015748031,0,0,0,false,false,false,-3407.67,1147.35,17.01,0.002500488,0.0040919525,-0.51903796,0.85473764,555.631,-1074.231,8.321,0.00030999997,0.00040999998,0.049609996
261.39166,-3190.8,729.5,93.14,-0.5826051,0.15522775,0.074305475,0.79432625,240.241,-439.32098,0,4.81451,2.6328099,-2.10561,1,-0.171875,0,0,0,false,true,false,-1193.36,519.44,17.01,-0.004760907,-0.00043967582,0.9935597,-0.113207504,-1381.011,-378.591,8.161,0.00081,0,-0.79221,1,0.007874016,0,0,0,false,false,false,-3403.04,1138.4,17.01,0.002500488,0.0040919525,-0.51886,0.8548457,554.21094,-1070.031,8.321,0.00030999997,0.00040999998,0.047509998
261.4,-3188.8,725.83997,93.14,-0.56432205,0.16751179,0.07681945,0.80472296,240.191,-439.241,0,4.81361,2.63231,-2.10561,1,-0.15625,0,0,0,false,true,false,-1204.94,516.26996,17.01,-0.0047609075,-0.0004288863,0.9939281,-0.10992748,-1391.7909,-367.911,8.161,0.00091,-0.00010999999,-0.73611,1,0.007874016,0,0,0,false,false,false,-3398.42,1129.48,17.01,0.002500488,0.0040919525,-0.51869273,0.85494715,556.081,-1072.4409,8.321,0,0.00030999997,0.043109998
261.40833,-3186.8,722.18,93.14,-0.54570466,0.17969325,0.079284966,0.8146353,240.141,-439.161,0,4.81271,2.63171,-2.10561,1,-0.1484375,0,0,0,false,true,false,-1216.61,513.19,17.01,-0.0047609075,-0.0004180967,0.99426043,-0.10687943,-1402.341,-357.941,8.161,0.0010099999,-0.00010999999,-0.68251,1,0.007874016,0,0,0,false,false,false,-3393.79,1120.5399,17.01,0.002500488,0.0040919525,-0.5185417,0.8550388,557.93097,-1074.8309,8.321,-0.00021,0.00021,0.03941
261.41666,-3184.8,718.51996,93.14,-0.5267634,0.19176687,0.08170182,0.82405734,240.091,-439.081,0,4.81181,2.6312099,-2.10561,1,-0.1328125,0,0,0,false,true,false,-1228.36,510.19,17.01,-0.004760908,-0.00040730715,0.9945603,-0.104052514,-1412.7109,-348.561,8.161,0.00111,-0.00021,-0.63361,1,0.007874016,0,0,0,false,false,false,-3389.14,1111.58,17.01,0.002500488,0.0040919525,-0.5184014,0.8551239,559.74097,-1077.2109,8.321,-0.00030999997,0.00021,0.036209997
261.425,-3182.8,714.86,93.14,-0.5075093,0.20372714,0.084064744,0.8329841,240.041,-439.001,0,4.8109097,2.63061,-2.10561,1,-0.125,0,0,0,false,true,false,-1240.2,507.27,17.01,-0.0047609075,-0.00040191232,0.9948316,-0.101425245,-1422.891,-339.861,8.161,0.00111,-0.00021,-0.58630997,1,0.007874016,0,0,0,false,false,false,-3384.48,1102.6,17.01,0.0025004877,0.004091952,-0.51827186,0.85520226,561.52094,-1079.5809,8.321,-0.00030999997,0.00021,0.03351
261.43332,-3180.8,711.2,93.14,-0.48795846,0.21556342,0.08637372,0.84140855,239.991,-438.911,0,4.81001,2.63011,-2.10561,1,-0.1171875,0,0,0,false,true,false,-1252.12,504.41998,17.01,-0.0047609075,-0.0003965175,0.99507666,-0.09899219,-1432.9109,-331.721,8.161,0.00111,-0.00021,-0.54301,1,0.007874016,0,0,0,false,false,false,-3379.7998,1093.6,17.01,0.002500488,0.0040919525,-0.51815325,0.85527426,563.27094,-1081.9309,8.321,-0.00030999997,0.00021,0.03131
261.44168,-3178.8,707.54,93.14,-0.46811634,0.22726473,0.08863415,0.8493302,239.941,-438.831,0,4.8091097,2.62951,-2.10561,1,-0.109375,0,0,0,false,true,false,-1264.13,501.63998,17.01,-0.0047609075,-0.0003911227,0.9952979,-0.09674256,-1442.7809,-324.131,8.161,0.00111,-0.00030999997,-0.50301,0,0.007874016,0,0,0,false,false,false,-3375.1099,1084.58,17.01,0.0025004882,0.004091953,-0.51804,0.8553429,564.99097,-1084.271,8.321,-0.00030999997,0.00021,0.029409999
261.45,-3176.8,703.88,93.14,-0.44799906,0.23883125,0.09083521,0.8567411,239.891,-438.751,0,4.80821,2.62901,-2.10561,1,-0.1015625,0,0,0,false,true,false,-1276.22,498.93,17.01,-0.0047609075,-0.0003857279,0.99549866,-0.094654776,-1452.511,-317.081,8.161,0.0010099999,-0.00030999997,-0.46601,0,0.007874016,0,0,0,false,false,false,-3370.4,1075.5399,17.01,0.0025004882,0.004091953,-0.51793754,0.855405,563.321,-1080.2009,8.321,0,0.00040999998,0.02771
261.45834,-3174.8,700.22,93.14,-0.42761743,0.250252,0.092982344,0.86363846,239.841,-438.671,0,4.80731,2.6284099,-2.10561,1,-0.09375,0,0,0,false,true,false,-1288.39,496.27,17.01,-0.0047609075,-0.00038033313,0.9956804,-0.09272339,-1462.111,-310.551,8.161,0.0010099999,-0.00030999997,-0.43151,0,0.007874016,0,0,0,false,false,false,-3365.71,1066.5399,17.01,0.002500488,0.0040919525,-0.5178403,0.85546374,561.631,-1076.141,8.321,0.00010999999,0.00051,0.02621
261.46667,-3172.8,696.57,93.14,-0.40698227,0.26152185,0.09507013,0.87001914,239.791,-438.591,0,4.80641,2.62791,-2.10561,1,-0.0859375,0,0,0,false,true,false,-1300.64,493.66998,17.01,-0.0047609075,-0.00037493833,0.99584556,-0.090932325,-1471.601,-304.511,8.161,0.0010099999,-0.00030999997,-0.39931,0,0.007874016,0,0,0,false,false,false,-3361.03,1057.57,17.01,0.002500488,0.0040919525,-0.51774865,0.85551924,559.93097,-1072.091,8.321,0.00021,0.00051,0.02491
261.475,-3170.8,692.92,93.14,-0.38610435,0.2726351,0.097098574,0.8758797,239.741,-438.501,0,4.80551,2.62731,-2.10561,1,-0.078125,0,0,0,false,true,false,-1312.97,491.12,17.01,-0.0047609075,-0.00036954353,0.9959954,-0.08927612,-1480.981,-298.941,8.161,0.00091,-0.00040999998,-0.36921,1,0.007874016,0,0,0,false,false,false,-3356.3599,1048.64,17.01,0.002500488,0.0040919525,-0.51766235,0.85557145,558.21094,-1068.0509,8.321,0.00021,0.00051,0.02381
261.48334,-3168.8,689.26996,93.14,-0.36499977,0.28358123,0.099067666,0.8812163,239.691,-438.421,0,4.80461,2.6268098,-2.10561,1,-0.0703125,0,0,0,false,true,false,-1325.38,488.62,17.01,-0.0047609075,-0.00036414873,0.99613154,-0.087744,-1490.261,-293.821,8.161,0.00091,-0.00040999998,-0.34091002,1,0.007874016,0,0,0,false,false,false,-3351.71,1039.74,17.01,0.002500488,0.0040919525,-0.517576,0.8556237,559.90094,-1070.5509,8.321,-0.00010999999,0.00030999997,0.02301
261.49167,-3166.8,685.62,93.14,-0.34368488,0.29436004,0.10097752,0.88602275,239.641,-438.341,0,4.80371,2.62621,-2.10561,1,-0.0703125,0,0,0,false,true,false,-1337.87,486.16,17.01,-0.004760908,-0.00035875395,0.9962551,-0.08633057,-1499.4509,-289.131,8.161,0.00091,-0.00040999998,-0.31421,1,0.007874016,0,0,0,false,false,false,-3347.04,1030.82,17.01,0.002500488,0.0040919525,-0.5174951,0.85567266,561.561,-1073.0409,8.321,-0.00030999997,0.00021,0.02231
261.5,-3164.8,681.97,93.14,-0.32216498,0.30496094,0.10282254,0.8903011,239.591,-438.261,0,4.8028097,2.62571,-2.10561,1,-0.0625,0,0,0,false,true,false,-1350.4299,483.74,17.01,-0.0047609075,-0.00035875392,0.99636734,-0.08502502,-1508.5709,-284.761,8.161,0.00091,-0.00040999998,-0.29121,1,0.007874016,0,0,0,false,false,false,-3342.3599,1021.88,17.01,0.002500488,0.0040919525,-0.51741415,0.8557216,563.191,-1075.511,8.321,-0.00040999998,0.00021,0.02171
261.50833,-3162.8,678.32,93.14,-0.30045623,0.31537828,0.10460822,0.8940468,239.541,-438.181,0,4.80191,2.62511,-2.10561,1,-0.0546875,0,0,0,false,true,false,-1363.07,481.36,17.01,-0.004760908,-0.00035875395,0.99646974,-0.083816595,-1517.611,-280.79102,8.161,0.00081,-0.00040999998,-0.26901,1,0.007874016,0,0,0,false,false,false,-3337.67,1012.92,17.01,0.002500488,0.0040919525,-0.51733863,0.85576725,564.80096,-1077.9609,8.321,-0.00040999998,0.00021,0.02121
261.51666,-3160.8,674.67,93.14,-0.27857482,0.3256015,0.10632916,0.897259,239.491,-438.091,0,4.8010097,2.62461,-2.10561,1,-0.0546875,0,0,0,false,true,false,-1375.78,479.00998,17.01,-0.0047609075,-0.00035875392,0.996563,-0.08269982,-1526.5709,-277.201,8.161,0.00071,-0.00051,-0.24750999,1,0.007874016,0,0,0,false,false,false,-3332.96,1003.94,17.01,0.002500488,0.0040919525,-0.5172631,0.8558129,566.391,-1080.401,8.321,-0.00040999998,0.00021,0.02081
261.525,-3158.8,671.01996,93.14,-0.2565316,0.33563042,0.107985355,0.8999349,239.441,-438.011,0,4.80011,2.6240098,-2.10561,1,-0.046875,0,0,0,false,true,false,-1388.57,476.69,17.01,-0.004766302,-0.00035875392,0.99664795,-0.08166941,-1535.481,-273.881,8.161,0.00061,-0.00051,-0.22910999,0,0.007874016,0,0,0,false,false,false,-3328.24,994.94,17.01,0.002500488,0.0040919525,-0.5171876,0.85585856,567.96094,-1082.8209,8.321,-0.00040999998,0.00021,0.02041
261.53333,-3156.8,667.37,93.14,-0.23433734,0.34545982,0.10957143,0.902074,239.391,-437.931,0,4.79921,2.62351,-2.10561,1,-0.046875,0,0,0,false,true,false,-1401.4299,474.4,17.01,-0.004766302,-0.00035875392,0.9967253,-0.08071993,-1544.3309,-270.911,8.161,0.00051,-0.00051,-0.21090999,0,0.007874016,0,0,0,false,false,false,-3323.51,985.92,17.01,0.002500488,0.0040919525,-0.5171121,0.85590416,566.141,-1078.8309,8.321,0,0.00040999998,0.02001
261.54166,-3154.8098,663.72,93.14,-0.21200821,0.35507876,0.11109277,0.9036758,239.341,-437.85098,0,4.79831,2.62301,-2.10561,1,-0.0390625,0,0,0,false,true,false,-1414.37,472.12997,17.01,-0.004766302,-0.00035875392,0.9967957,-0.07984597,-1553.131,-268.181,8.161,0.00040999998,-0.00051,-0.19531,0,0.007874016,0,0,0,false,false,false,-3318.79,976.93,17.01,0.002500488,0.0040919525,-0.5170419,0.85594654,564.321,-1074.841,8.321,0.00010999999,0.00051,0.01961
261.55,-3152.8198,660.07,93.14,-0.18955499,0.3644873,0.11254397,0.9047385,239.301,-437.771,0,4.79741,2.62241,-2.10561,1,-0.0390625,0,0,0,false,true,false,-1427.38,469.87997,17.01,-0.004766302,-0.00035875392,0.9968602,-0.07903676,-1561.871,-265.771,8.161,0.00030999997,-0.00051,-0.17941,0,0.007874016,0,0,0,false,false,false,-3314.0898,967.97,17.01,0.002500488,0.0040919525,-0.51697177,0.8559889,562.49097,-1070.851,8.321,0.00021,0.00061,0.01931
261.55832,-3150.8298,656.42,93.14,-0.16699384,0.3736747,0.11393043,0.9052624,239.251,-437.681,0,4.7965097,2.6219099,-2.10561,1,-0.0390625,0,0,0,false,true,false,-1440.46,467.65,17.01,-0.0047663026,-0.00035875395,0.996919,-0.07829228,-1570.5709,-263.571,8.161,0.00021,-0.00051,-0.16580999,1,0,0,0,0,false,false,false,-3309.4,959.05,17.01,0.0025004882,0.004097348,-0.51690173,0.85603124,560.65094,-1066.871,8.321,0.00021,0.00061,0.01901
261.56668,-3148.8398,652.76996,93.14,-0.14433563,0.38264087,0.115246765,0.90524656,239.201,-437.60098,0,4.79561,2.62141,-2.10561,1,-0.03125,0,0,0,false,true,false,-1453.62,465.44,17.01,-0.004766302,-0.00035875392,0.9969729,-0.07760174,-1579.241,-261.581,8.161,0.00021,-0.00051,-0.15411,1,0,0,0,0,false,false,false,-3304.73,950.16,17.01,0.002500488,0.0041027423,-0.5168315,0.85607356,562.16095,-1069.4609,8.321,-0.00010999999,0.00040999998,0.01601
261.575,-3146.8499,649.12,93.14,-0.12159647,0.3913751,0.11649295,0.9046928,239.151,-437.521,0,4.7947097,2.62091,-2.10561,1,-0.03125,0,0,0,false,true,false,-1466.85,463.25,17.01,-0.004766302,-0.00035875392,0.9970227,-0.07695976,-1587.861,-259.861,8.161,0.00010999999,-0.00051,-0.14161,1,0,0,0,0,false,false,false,-3300.04,941.25,17.01,0.002500488,0.0041027423,-0.51677215,0.8561094,563.66095,-1072.031,8.321,-0.00030999997,0.00021,0.013509999
261.58334,-3144.8599,645.47,93.14,-0.09878719,0.39987728,0.11766362,0.9036008,239.101,-437.441,0,4.79381,2.6203098,-2.10561,1,-0.03125,0,0,0,false,true,false,-1480.15,461.06998,17.01,-0.004766302,-0.00035875392,0.9970679,-0.07637172,-1596.4509,-258.311,8.161,0,-0.00051,-0.13091,1,0,0,0,0,false,false,false,-3295.3398,932.32,17.01,0.002500488,0.0041027423,-0.51672363,0.8561387,565.15094,-1074.5709,8.321,-0.00040999998,0.00010999999,0.011409999
261.59167,-3142.8699,641.82996,93.14,-0.07592395,0.4081367,0.11876415,0.9019727,239.051,-437.361,0,4.79291,2.6198099,-2.10561,1,-0.03125,0,0,0,false,true,false,-1493.52,458.91,17.01,-0.0047663026,-0.00035335918,0.99710953,-0.07582686,-1605.011,-256.931,8.161,0,-0.00051,-0.121709995,1,0,0,0,0,false,false,false,-3290.63,923.37,17.01,0.002500488,0.0041027423,-0.5166805,0.85616475,566.631,-1077.091,8.321,-0.00051,0.00010999999,0.009609999
261.6,-3140.88,638.19,93.14,-0.053017564,0.41615346,0.119794555,0.899808,239.001,-437.271,0,4.79211,2.61921,-2.10561,1,-0.0234375,0,0,0,false,true,false,-1506.96,456.75998,17.01,-0.0047663026,-0.00035335918,0.997148,-0.075319745,-1613.5509,-255.711,8.161,0,-0.00051,-0.113809995,0,0,0,0,0,false,false,false,-3285.91,914.38995,17.01,0.002500488,0.0041027423,-0.5166481,0.85618424,568.09094,-1079.591,8.321,-0.00051,0.00010999999,0.00811
261.60834,-3138.89,634.55,93.14,-0.030084204,0.4239219,0.12074943,0.8971089,238.951,-437.191,0,4.79111,2.61871,-2.10561,1,-0.0234375,0,0,0,false,true,false,-1520.47,454.62,17.01,-0.004766302,-0.00035335915,0.9971837,-0.07484499,-1622.0509,-254.72101,8.161,0,-0.00051,-0.104609996,0,0,0,0,0,false,false,false,-3281.18,905.38995,17.01,0.0025004877,0.004102742,-0.51662105,0.85620046,566.15094,-1075.661,8.321,-0.00010999999,0.00030999997,0.00691
261.61667,-3136.9,630.91,93.14,-0.00713466,0.43143702,0.121634275,0.893877,238.901,-437.111,0,4.79021,2.61811,-2.10561,1,-0.0234375,0,0,0,false,true,false,-1534.0599,452.49,17.01,-0.004766302,-0.00035335915,0.9972164,-0.07440802,-1630.5309,-253.851,8.161,0,-0.00051,-0.09671,0,0,0,0,0,false,false,false,-3276.46,896.43,17.01,0.002500488,0.0041027423,-0.5165942,0.8562168,564.21094,-1071.731,8.321,0,0.00040999998,0.00581
261.625,-3134.91,627.26996,93.14,0.015814926,0.43869296,0.12244348,0.8901155,238.851,-437.031,0,4.78931,2.61761,-2.10561,1,-0.0234375,0,0,0,false,true,false,-1547.72,450.36,17.01,-0.004766302,-0.00035335915,0.9972461,-0.0740088,-1638.991,-253.101,8.161,0,-0.00051,-0.090009995,0,0,0,0,0,false,false,false,-3271.76,887.5,17.01,0.002500488,0.0041027423,-0.5165726,0.85622984,562.261,-1067.8109,8.321,0,0.00051,0.00491
261.63333,-3132.92,623.63,93.14,0.03875369,0.4456847,0.1231772,0.88582766,238.801,-436.941,0,4.7884097,2.6170099,-2.10561,1,-0.015625,0,0,0,false,true,false,-1561.45,448.24,17.01,-0.004766302,-0.00035335915,0.9972736,-0.07363656,-1647.4309,-252.47101,8.161,0,-0.00051,-0.08420999,1,0,0,0,0,false,false,false,-3267.0698,878.6,17.01,0.002500488,0.0041027423,-0.5165564,0.8562396,560.30096,-1063.891,8.321,0,0.00051,0.00421
261.64166,-3130.93,619.99,93.14,0.06166547,0.45241198,0.123835355,0.8810139,238.751,-436.861,0,4.78751,2.61651,-2.10561,1,-0.015625,0,0,0,false,true,false,-1575.25,446.13,17.01,-0.004766302,-0.00035335915,0.9972995,-0.0732859,-1655.841,-252.031,8.161,0,-0.00051,-0.076809995,1,0,0,0,0,false,false,false,-3262.4,869.73,17.01,0.002500488,0.0041027423,-0.5165402,0.85624933,561.79095,-1066.521,8.321,-0.00030999997,0.00030999997,0.00361
261.65,-3128.94,616.35,93.14,0.0845341,0.45886967,0.124418,0.8756784,238.701,-436.781,0,4.78661,2.61591,-2.10561,1,-0.015625,0,0,0,false,true,false,-1589.12,444.02,17.01,-0.0047663026,-0.00035335918,0.99732286,-0.07296762,-1664.241,-251.681,8.161,0,-0.00051,-0.07051,0,0,0,0,0,true,false,false,-3257.72,860.83997,17.01,0.0025004877,0.004102742,-0.5165294,0.85625577,563.261,-1069.131,8.321,-0.00040999998,0.00021,0.00311
261.65833,-3126.95,612.70996,93.14,0.10734878,0.4650521,0.124925114,0.86982554,238.651,-436.701,0,4.78571,2.6154099,-2.10561,1,-0.015625,0,0,0,false,true,false,-1603.0599,441.91,17.01,-0.004766302,-0.00035335915,0.9973441,-0.072676286,-1672.621,-251.431,8.161,0,-0.00051,-0.06511,0,0,0,0,0,true,false,false,-3253.01,851.91,19.539999,0.002500488,0.0041027423,-0.5165186,0.8562624,562.621,-1067.8109,304.001,-0.00010999999,0.00030999997,0.00271
261.66666,-3124.96,609.07,93.14,0.13009872,0.47095942,0.12535669,0.86345655,238.601,-436.621,0,4.78481,2.61481,-2.10561,1,-0.015625,0,0,0,false,true,false,-1617.07,439.8,17.01,-0.004766302,-0.00035335915,0.9973637,-0.07240655,-1680.991,-251.261,8.161,0,-0.00051,-0.06051,0,0,0,0,0,true,false,false,-3248.3198,843.01,22.109999,0.0025004877,0.004102742,-0.51650774,0.8562688,560.68097,-1064.011,308.021,0.00010999999,0.00040999998,0.0023100001
261.675,-3122.97,605.43,93.14,0.15276772,0.4765862,0.12571272,0.8565767,238.551,-436.531,0,4.78391,2.61431,-2.10561,1,-0.015625,0,0,0,false,true,false,-1631.15,437.69998,17.01,-0.0047663017,-0.00035335912,0.997382,-0.07215299,-1689.351,-251.171,8.161,0,-0.00051,-0.056509998,0,0,0,0,0,true,false,false,-3243.65,834.13995,24.71,0.002500488,0.0041027423,-0.516497,0.85627544,558.73096,-1060.221,312.041,0.00030999997,0.00051,0.00201
261.68332,-3120.98,601.79,93.14,0.17533964,0.4819271,0.12599327,0.84919244,238.501,-436.451,0,4.78301,2.61371,-2.10561,1,-0.0078125,0,0,0,false,true,false,-1645.2999,435.59998,17.01,-0.0047663026,-0.00035335918,0.9973993,-0.07191563,-1697.7009,-251.161,8.161,0,-0.00051,-0.053109996,0,0,0,0,0,true,false,false,-3238.99,825.3,27.34,0.0025004877,0.004102742,-0.51649153,0.8562786,556.78094,-1056.4309,316.061,0.00051,0.00061,0.0018099999
261.69168,-3118.99,598.14996,93.14,0.19780366,0.48698202,0.12619826,0.8413062,238.451,-436.371,0,4.7821097,2.61321,-2.10561,1,-0.0078125,0,0,0,false,true,false,-1659.52,433.5,17.01,-0.0047663026,-0.00035335918,0.9974152,-0.071694404,-1706.021,-251.301,8.161,-0.00010999999,-0.00051,-0.047809996,0,0,0,0,0,true,false,false,-3234.3499,816.5,30.01,0.0025004882,0.0041081375,-0.5164863,0.85628194,554.821,-1052.641,320.081,0.00071,0.00071,0.0016099999
261.7,-3117,594.51,93.14,0.220149,0.49174565,0.12632775,0.8329237,238.401,-436.291,0,4.78121,2.61271,-2.10561,1,-0.0078125,0,0,0,false,true,false,-1673.7999,431.4,17.01,-0.004766302,-0.00035335915,0.9974295,-0.07149479,-1714.341,-251.501,8.161,-0.00010999999,-0.00051,-0.043309998,0,0,0,0,0,true,false,false,-3229.73,807.73,32.71,0.002500488,0.0041135317,-0.5164808,0.85628515,554.871,-1052.741,324.101,0.00071,0.00071,0.0016099999
261.70834,-3115.01,590.87,93.14,0.24235944,0.4962179,0.1263817,0.8240493,238.36101,-436.211,0,4.7803097,2.61211,-2.10561,1,-0.0078125,0,0,0,false,true,false,-1688.1499,429.28998,17.01,-0.0047663017,-0.00035335912,0.9974421,-0.07131675,-1722.6509,-251.751,8.161,-0.00010999999,-0.00051,-0.03941,0,0,0.96062994,0.023622047,-0.09375,false,false,false,-3225.1099,798.95996,35.469997,0.0025004882,0.0041189273,-0.5164755,0.8562884,554.92096,-1052.841,330.831,0.00061,0.00061,0.00151
261.71667,-3113.02,587.24,93.14,0.26442423,0.5003935,0.12636012,0.8146896,238.311,-436.121,0,4.77951,2.61161,-2.10561,1,-0.0078125,0,0,0,false,true,false,-1702.57,427.18,17.01,-0.0047663017,-0.00035335912,0.9974537,-0.07115491,-1730.9509,-252.061,8.161,-0.00010999999,-0.00051,-0.03611,0,0,0.96062994,0.023622047,-0.09375,false,false,false,-3220.49,790.19,38.18,0.002392592,0.0037035276,-0.51646465,0.8562971,554.92096,-1052.841,325.411,-0.07361,-0.072409995,0.00291
261.725,-3111.03,583.61,93.14,0.28632718,0.5042724,0.12626301,0.80485004,238.261,-436.041,0,4.77851,2.61111,-2.10561,1,-0.0078125,0,0,0,false,true,false,-1717.0599,425.06998,17.01,-0.004766302,-0.00035335915,0.99746454,-0.07100386,-1739.241,-252.431,8.161,-0.00010999999,-0.00051,-0.033309996,0,0,-1,0,0,false,false,false,-3215.8699,781.42,40.85,0.0021714054,0.002867334,-0.51644844,0.85631067,554.92096,-1052.841,319.991,-0.14830999,-0.14431,0.0043099998
261.73334,-3109.04,579.98,93.14,0.30805755,0.5078546,0.12609039,0.79453474,238.211,-435.961,0,4.77761,2.61061,-2.10561,1,-0.0078125,0,0,0,false,true,false,-1731.62,422.96,17.01,-0.0047663026,-0.00035335918,0.99747455,-0.070863605,-1747.521,-252.851,8.161,-0.00010999999,-0.00051,-0.03081,0,0,-1,0,0,false,false,false,-3211.25,772.64996,43.469997,0.0021660107,0.0024087764,-0.5164323,0.8563218,554.92096,-1052.841,314.571,-0.057509996,-0.09371,0.0043099998
261.74167,-3107.0598,576.35,93.14,0.32960442,0.51113456,0.12584221,0.7837512,238.161,-435.881,0,4.77671,2.61001,-2.10561,1,-0.0078125,0,0,0,false,true,false,-1746.25,420.84,17.01,-0.0047663026,-0.00035335918,0.99748373,-0.07073413,-1755.8009,-253.311,8.161,-0.00010999999,-0.00051,-0.02871,0,0,-1,0,0,true,false,false,-3206.63,763.88,46.05,0.0023764079,0.0023278547,-0.51641613,0.8563313,554.92096,-1052.841,309.151,0.033309996,-0.043209996,0.0043099998
261.75,-3105.0798,572.72,93.14,0.35095167,0.51410705,0.12551852,0.77251,238.11101,-435.801,0,4.77581,2.60951,-2.10561,1,-0.0078125,0,0,0,false,true,false,-1760.95,418.72,17.01,-0.0047663017,-0.00035335912,0.997492,-0.070615426,-1764.0709,-253.821,8.161,-0.00021,-0.00051,-0.02691,0,0,-1,0,0,true,false,false,-3200.0598,751.42,48.579998,0.006595139,0.008909507,-0.5163676,0.8562952,788.24097,-1495.0609,303.731,1.68301,0.82961,0.00731
261.75833,-3103.0999,569.08997,93.14,0.3720886,0.5167775,0.12511931,0.76081276,238.061,-435.711,0,4.77501,2.6089098,-2.10561,1,-0.0078125,0,0,0,false,true,false,-1775.72,416.59998,17.01,-0.004766302,-0.00035335915,0.9975001,-0.07050215,-1772.3309,-254.371,8.161,-0.00021,-0.00051,-0.02541,0,0,0,0,0,false,false,false,-3193.49,738.95996,51.07,0.01472518,0.02199197,-0.5161895,0.8560653,788.24097,-1495.0609,298.311,3.29321,1.68151,0.01101
261.76666,-3101.1199,565.45996,93.14,0.39300433,0.5191404,0.12464458,0.74866843,238.011,-435.631,0,4.7740097,2.60841,-2.10561,1,0,0,0,0,false,true,false,-1790.5599,414.47,17.01,-0.004766302,-0.00035335915,0.99750775,-0.07039425,-1780.591,-254.961,8.161,-0.00021,-0.00051,-0.02411,0,0,0,0,0,false,false,false,-3186.92,726.5,53.51,0.026669258,0.041413322,-0.51570934,0.8553463,788.24097,-1495.0609,292.891,4.86481,2.51301,0.015509999
