time,ball_loc_x,ball_loc_y,ball_loc_z,ball_rot_x,ball_rot_y,ball_rot_z,ball_rot_w,ball_vel_x,ball_vel_y,ball_vel_z,ball_ang_x,ball_ang_y,ball_ang_z,player0_throttle,player0_steer,player0_pitch,player0_yaw,player0_roll,player0_jump,player0_boost,player0_handbrake,player0_loc_x,player0_loc_y,player0_loc_z,player0_rot_x,player0_rot_y,player0_rot_z,player0_rot_w,player0_vel_x,player0_vel_y,player0_vel_z,player0_ang_x,player0_ang_y,player0_ang_z,player1_throttle,player1_steer,player1_pitch,player1_yaw,player1_roll,player1_jump,player1_boost,player1_handbrake,player1_loc_x,player1_loc_y,player1_loc_z,player1_rot_x,player1_rot_y,player1_rot_z,player1_rot_w,player1_vel_x,player1_vel_y,player1_vel_z,player1_ang_x,player1_ang_y,player1_ang_z
103.00833,3276.18,1821.6499,93.15,0.1287554,0.89899844,-0.4144973,0.058444776,-402.021,-294.621,0,3.2288098,-4.4057097,2.28691,1,-1,0,0,0,false,false,false,4077.5898,2554.8398,255.81999,-0.51242393,0.46195546,0.5319427,-0.49097416,-12.891,-539.22095,-102.111,2.29211,0.17691,-0.099209994,1,-0.203125,0,0,0,false,true,false,2967.49,3144.3,17.01,0.002867334,0.0038599768,-0.59584403,0.8030857,428.491,-1341.9409,8.321,0,-0.00040999998,-0.57091
103.025,3269.48,1816.75,93.15,0.1282537,0.9093573,-0.3839842,0.09579304,-401.871,-294.501,0,3.2274098,-4.40401,2.28691,1,-1,0,0,0,false,false,false,4077.5,2545.8,253.93999,-0.52053237,0.45134923,0.5418687,-0.48136064,-13.811,-552.04095,-121.870995,2.31051,0.21230999,-0.08900999,1,-0.171875,0,0,0,false,true,false,2974.5798,3121.92,17.01,0.0028889135,0.0038383978,-0.5995611,0.80031455,416.111,-1345.9409,8.321,0,-0.00051,-0.51671
103.041664,3262.78,1811.85,93.15,0.12742828,0.91750246,-0.35254857,0.1328932,-401.711,-294.381,0,3.22611,-4.40231,2.28691,1,-1,0,0,0,false,false,false,4077.39,2536.55,251.73,-0.5283279,0.44029528,0.55184275,-0.4716769,-15.441,-564.251,-143.011,2.32741,0.27881,-0.09691,1,-0.1484375,0,0,0,false,true,false,2981.47,3099.47,17.01,0.0029104925,0.003827608,-0.6029058,0.7977978,404.421,-1349.621,8.321,0,-0.00040999998,-0.46381
103.058334,3256.0798,1806.95,93.15,0.12628998,0.92341554,-0.32026598,0.16965891,-401.561,-294.261,0,3.22481,-4.40061,2.28691,1,-1,0,0,0,false,false,false,4077.26,2527.0999,249.15999,-0.5357026,0.42875573,0.561946,-0.46196085,-16.601,-575.74097,-165.621,2.34561,0.32921,-0.08181,1,-0.140625,0,0,0,false,true,false,2988.16,3076.96,17.01,0.0029266768,0.0038168184,-0.6059107,0.795518,393.231,-1353.031,8.321,-0.00010999999,-0.00021,-0.42121
103.075,3249.38,1802.0499,93.15,0.124838784,0.9270835,-0.28721735,0.20600374,-401.401,-294.151,0,3.22351,-4.39891,2.28691,1,-1,0,0,0,false,false,false,4077.1099,2517.46,246.2,-0.54277515,0.41669297,0.5720503,-0.4522394,-17.710999,-586.42096,-189.651,2.36341,0.37411,-0.058009997,1,-0.1328125,0,0,0,false,true,false,2994.67,3054.39,17.01,0.0029374664,0.0038060287,-0.6086351,0.7934356,382.681,-1356.151,8.321,-0.00010999999,-0.00010999999,-0.38571
103.09167,3242.7,1797.1499,93.15,0.12308007,0.92850006,-0.2534835,0.24183613,-401.251,-294.031,0,3.2223098,-4.39721,2.28691,1,-1,0,0,0,false,false,false,4076.93,2507.64,242.84,-0.5495295,0.40439275,0.58213085,-0.44227517,-29.960999,-595.97095,-212.311,2.3087099,0.62411,-0.38851002,1,-0.140625,0,0,0,false,true,false,3001.01,3031.78,17.01,0.0029482562,0.0037952394,-0.61114377,0.791505,372.491,-1359.0709,8.321,-0.00010999999,0,-0.36471
103.10833,3236.02,1792.25,93.15,0.121019185,0.92766345,-0.21915095,0.27706972,-401.091,-293.911,0,3.22101,-4.39561,2.28691,1,-1,0,0,0,false,false,false,4076.49,2497.67,239.09999,-0.55299294,0.3927292,0.5945848,-0.43177685,-42.931,-604.42096,-236.61101,2.27071,0.83311,-0.58671,1,-0.1484375,0,0,0,false,true,false,3007.17,3009.1099,17.01,0.0029590456,0.0037844495,-0.61352825,0.78965807,362.691,-1361.7909,8.321,-0.00010999999,0,-0.35401002
103.125,3229.3398,1787.35,93.15,0.11865626,0.924581,-0.18429504,0.3116181,-400.941,-293.79102,0,3.2197099,-4.39391,2.28691,1,-1,0,0,0,false,false,false,4075.8599,2487.56,234.95,-0.554784,0.38116264,0.6080327,-0.42098176,-50.981,-611.80096,-263.231,2.26401,0.90630996,-0.69501,1,-0.15625,0,0,0,false,true,false,3013.17,2986.4,17.01,0.0029698352,0.00377366,-0.615848,0.78785026,353.241,-1364.3209,8.321,-0.00010999999,0,-0.35051
103.14167,3222.66,1782.45,93.15,0.11599663,0.9192614,-0.14900212,0.34540048,-400.781,-293.671,0,3.2183099,-4.39221,2.28691,1,-1,0,0,0,false,false,false,4075.1099,2477.3298,230.34,-0.5556688,0.3697149,0.62185293,-0.40968508,-56.880997,-618.02094,-291.431,2.2664099,0.95001,-0.78941,1,-0.171875,0,0,0,false,true,false,3019.01,2963.65,17.01,0.0029806248,0.0037628703,-0.61815697,0.7860399,343.891,-1366.741,8.321,-0.00010999999,0.00021,-0.35691
103.15833,3215.98,1777.5499,93.15,0.11305107,0.91171813,-0.113363974,0.37833577,-400.631,-293.551,0,3.21701,-4.39051,2.28691,1,-1,0,0,0,false,false,false,4074.27,2467.01,225.26,-0.55580366,0.35834798,0.63590944,-0.39785424,-61.470997,-623.04095,-320.881,2.2720098,0.99951,-0.86661,1,-0.1796875,0,0,0,false,true,false,3024.71,2940.8599,17.01,0.0029914142,0.0037520803,-0.620509,0.78418446,334.731,-1369.0409,8.321,-0.00010999999,0.00030999997,-0.36581
103.175,3209.3,1772.6499,93.15,0.10983039,0.901973,-0.07746148,0.41034332,-400.471,-293.431,0,3.21571,-4.3888097,2.28691,1,-1,0,0,0,false,false,false,4073.3499,2456.6099,219.68,-0.55518866,0.3469326,0.650174,-0.38558644,-65.241,-626.86096,-351.321,2.27791,1.07201,-0.92361,1,-0.203125,0,0,0,false,true,false,3030.25,2918.03,17.01,0.0030022038,0.0037412907,-0.6229313,0.78226167,325.311,-1371.3109,8.321,-0.00010999999,0.00040999998,-0.38601
103.191666,3202.6199,1767.77,93.15,0.10633455,0.89005226,-0.041380953,0.44134727,-400.32098,-293.321,0,3.2144098,-4.3871098,2.28691,1,-1,0,0,0,false,false,false,4072.2898,2446.16,213.59999,-0.55454665,0.33510712,0.6640294,-0.3731568,-85.141,-629.131,-379.07098,2.35061,0.92091,-0.65871,1,-0.21875,0,0,0,false,true,false,3035.63,2895.16,17.01,0.0030129934,0.003730501,-0.6254831,0.78022283,315.731,-1373.5409,8.321,-0.00010999999,0.00051,-0.40941
103.208336,3195.95,1762.89,93.15,0.10257977,0.8759866,-0.0052140704,0.4712723,-400.161,-293.201,0,3.2132099,-4.38541,2.28691,1,-1,0,0,0,false,false,false,4070.92,2435.67,207.04,-0.55485415,0.3218413,0.67671835,-0.36139604,-109.851,-630.251,-401.831,2.32181,1.52631,-0.64051,1,-0.2265625,0,0,0,false,true,false,3040.8499,2872.25,17.01,0.0030237832,0.003719712,-0.62818056,0.77805275,306.051,-1375.731,8.321,0,0.00051,-0.43051
103.225,3189.29,1758.01,93.15,0.09857135,0.85981226,0.030952727,0.5000483,-400.011,-293.081,0,3.21191,-4.38371,2.28691,1,-1,0,0,0,false,false,false,4069.0698,2425.17,200.12999,-0.5503225,0.3066818,0.69252753,-0.35142103,-136.41101,-630.251,-424.211,2.29301,2.06741,-0.69800997,1,-0.2421875,0,0,0,false,true,false,3045.91,2849.3198,17.01,0.0030345728,0.0037089223,-0.63100743,0.7757619,295.961,-1377.9109,8.321,0,0.00051,-0.45491
103.24167,3182.63,1753.13,93.15,0.094314866,0.8415724,0.0670333,0.52760506,-399.851,-292.961,0,3.21061,-4.38201,2.28691,1,-1,0,0,0,false,false,false,4066.8298,2414.67,192.83,-0.54271585,0.29031396,0.71000606,-0.34215274,-153.41101,-628.97095,-451.131,2.3050098,2.29751,-0.72741,1,-0.25,0,0,0,false,true,false,3050.8,2826.3499,17.01,0.0030453624,0.0036981327,-0.63398,0.7733345,285.591,-1380.0809,8.321,0,0.00051,-0.47701
103.25833,3175.97,1748.25,93.15,0.089831784,0.8213079,0.10294122,0.55388314,-399.701,-292.841,0,3.2093098,-4.38031,2.28691,1,-1,0,0,0,false,false,false,4064.3298,2404.2,185.06999,-0.53351766,0.27319077,0.72795403,-0.33287907,-163.651,-626.27094,-480.85098,2.3331099,2.43011,-0.73561,1,-0.2578125,0,0,0,false,true,false,3055.52,2803.3398,17.01,0.003056152,0.003687343,-0.6370874,0.77077657,274.861,-1382.231,8.321,0,0.00040999998,-0.49751
103.275,3169.3098,1743.37,93.15,0.085127525,0.79907477,0.1385955,0.57881254,-399.541,-292.731,0,3.20801,-4.37861,2.28691,1,-1,0,0,0,false,false,false,4061.68,2393.78,176.8,-0.5232137,0.25529626,0.74593836,-0.3234921,-171.011,-622.02094,-511.891,2.37171,2.53881,-0.70541,1,-0.265625,0,0,0,false,true,false,3060.05,2780.29,17.01,0.0030669416,0.0036765535,-0.6403135,0.76809865,263.731,-1384.361,8.321,0,0.00030999997,-0.51691
103.291664,3162.65,1738.49,93.15,0.08021286,0.77492476,0.17391002,0.6023393,-399.391,-292.611,0,3.2067099,-4.3769097,2.28691,1,-1,0,0,0,false,false,false,4058.89,2383.44,168.01999,-0.51185745,0.23678662,0.7638,-0.31391627,-211.131,-614.18097,-527.09094,2.1988099,2.49911,-1.05031,1,-0.265625,0,0,0,false,true,false,3064.4,2757.2,17.01,0.0030777312,0.003665764,-0.6436367,0.7653161,252.36101,-1386.4509,8.321,0,0.00010999999,-0.53081
103.308334,3155.99,1733.61,93.15,0.07510391,0.7489175,0.20879285,0.62440956,-399.241,-292.491,0,3.20541,-4.37521,2.28691,1,-1,0,0,0,false,false,false,4055.23,2373.25,159.05,-0.4991797,0.22149229,0.7813336,-0.3021232,-265.321,-601.73096,-537.35095,2.14731,2.53261,-1.18761,1,-0.2734375,0,0,0,false,true,false,3068.55,2734.0898,17.01,0.0030939155,0.0036549745,-0.64704084,0.7624402,240.541,-1388.511,8.321,0.00010999999,0,-0.54571
103.325,3149.3298,1728.73,93.15,0.06980622,0.7211243,0.24316327,0.6449638,-399.081,-292.381,0,3.20411,-4.37351,2.28691,1,-1,0,0,0,false,false,false,4050.7,2363.28,149.89,-0.48551464,0.20550203,0.7986236,-0.2902492,-305.281,-588.49097,-554.52094,2.26281,2.73341,-1.02351,1,-0.2734375,0,0,0,false,true,false,3072.5,2710.94,17.01,0.0031154947,0.003644185,-0.6505205,0.75947344,228.461,-1390.511,8.321,0.00010999999,0,-0.55651
103.34167,3142.68,1723.85,93.15,0.06433589,0.6916092,0.27694026,0.66395897,-398.931,-292.261,0,3.20291,-4.37181,2.28691,1,-1,0,0,0,false,false,false,4045.5798,2353.53,140.42,-0.4706087,0.18738621,0.81580204,-0.27907115,-331.271,-574.66095,-577.43097,2.31021,2.93821,-0.97181,1,-0.28125,0,0,0,false,true,false,3076.25,2687.75,17.01,0.0031370737,0.0036333948,-0.654054,0.7564325,215.951,-1392.4609,8.321,0,0,-0.56911
103.35833,3136.04,1718.98,93.15,0.058709122,0.66044694,0.3100482,0.6813465,-398.771,-292.141,0,3.2016098,-4.37011,2.28691,1,-1,0,0,0,false,false,false,4040.0498,2344.01,130.55,-0.45400348,0.16858536,0.8329066,-0.26781756,-350.841,-558.881,-603.751,2.29261,3.06891,-1.02891,1,-0.28125,0,0,0,false,true,false,3079.8,2664.54,17.01,0.0031586532,0.0036226057,-0.6576471,0.7533108,203.22101,-1394.341,8.321,0,0,-0.57821
103.375,3129.4,1714.12,93.15,0.052936606,0.62770575,0.34240088,0.6970973,-398.621,-292.021,0,3.20031,-4.36841,2.28691,1,-1,0,0,0,false,false,false,4033.92,2334.78,120.45,-0.435823,0.1509281,0.8496982,-0.2555228,-423.451,-537.68097,-588.28094,1.9419099,3.0420098,-1.54371,1,-0.28125,0,0,0,false,true,false,3083.13,2641.29,17.01,0.0031802324,0.003611816,-0.6612778,0.7501256,190.271,-1396.121,8.321,-0.00010999999,0,-0.58491
103.39167,3122.76,1709.26,93.15,0.047034703,0.59347576,0.37392828,0.7111623,-398.461,-291.911,0,3.19901,-4.3667097,2.28691,1,-0.9453125,0,0,0,false,false,false,4026.72,2325.92,110.5,-0.41587833,0.13684759,0.86621153,-0.2408219,-475.011,-514.061,-588.67096,2.01231,3.15111,-1.5397099,1,-0.2890625,0,0,0,false,true,false,3086.25,2618.02,17.01,0.0032018116,0.0035956316,-0.66494083,0.7468804,176.94101,-1397.8309,8.321,-0.00030999997,0,-0.59451
103.40833,3116.1199,1704.3999,93.15,0.0410195,0.5578375,0.40454918,0.7235154,-398.311,-291.79102,0,3.19781,-4.36501,2.28691,1,-0.84375,0,0,0,false,false,false,4018.63,2317.45,100.57,-0.3949896,0.12026391,0.8821001,-0.22675766,-520.29095,-492.191,-589.761,2.23071,3.3740098,-1.22621,1,-0.2890625,0,0,0,false,true,false,3089.14,2594.71,17.01,0.0032126012,0.0035740524,-0.66864705,0.7435643,163.44101,-1399.4309,8.321,-0.00030999997,0,-0.60151
103.425,3109.48,1699.5399,93.15,0.0349018,0.52087766,0.43419376,0.734128,-398.151,-291.681,0,3.1965098,-4.36331,2.28691,1,-0.7421875,0,0,0,false,false,false,4009.9,2309.3298,90.54,-0.37270364,0.101247266,0.89725095,-0.21396652,-575.631,-470.491,-570.98096,1.9758099,3.43531,-1.36251,1,-0.2890625,0,0,0,false,true,false,3091.8098,2571.38,17.01,0.0032287855,0.0035524734,-0.6723749,0.7401951,149.781,-1400.9209,8.321,-0.00010999999,0,-0.60661
103.441666,3102.8398,1694.6799,93.15,0.028703094,0.48268768,0.462797,0.742972,-398.001,-291.561,0,3.19521,-4.36161,2.28691,1,-0.6328125,0,0,0,false,false,false,4000.1099,2301.5898,80.979996,-0.34878844,0.08572096,0.9115617,-0.20013422,-628.061,-446.291,-553.321,1.5576099,3.50861,-1.64801,1,-0.296875,0,0,0,false,true,false,3094.25,2548.03,17.01,0.0032503647,0.0035308942,-0.67611885,0.7367769,135.781,-1402.3109,8.321,0,0,-0.61511
103.458336,3096.2,1689.82,93.15,0.022428948,0.44335413,0.49028364,0.75003725,-397.841,-291.451,0,3.19391,-4.35991,2.28691,1,-0.53125,0,0,0,false,false,false,3989.45,2294.25,71.74,-0.32280156,0.07295139,0.92517644,-0.185811,-682.40094,-423.061,-525.72095,1.49361,3.76581,-1.46231,1,-0.296875,0,0,0,false,true,false,3096.45,2524.65,17.01,0.0032719441,0.0035093152,-0.6799007,0.73328847,121.660995,-1403.5709,8.321,0,0.00010999999,-0.62121
103.475,3089.5798,1684.96,93.15,0.016106248,0.4029793,0.5165887,0.75530404,-397.691,-291.331,0,3.19271,-4.35821,2.28691,1,-0.4453125,0,0,0,false,false,false,3977.97,2287.28,62.859997,-0.29480246,0.059070572,0.93784446,-0.17334896,-736.501,-401.271,-484.88098,1.27531,3.80981,-1.38151,1,-0.3046875,0,0,0,false,true,false,3098.41,2501.25,17.01,0.0032935233,0.0034931307,-0.68369865,0.7297486,107.241,-1404.7009,8.321,0,0.00030999997,-0.63041
103.49167,3082.96,1680.1,93.15,0.009745699,0.361655,0.5416585,0.7587599,-397.531,-291.221,0,3.1914098,-4.3565097,2.28691,1,-0.3671875,0,0,0,false,false,false,3965.53,2280.69,54.789997,-0.26597795,0.047703654,0.9491936,-0.16128075,-779.10095,-378.671,-457.481,0.91451,3.8433099,-1.45101,1,-0.3125,0,0,0,false,true,false,3100.13,2477.8298,17.01,0.0033151023,0.0034823408,-0.6875397,0.7261308,92.541,-1405.7009,8.321,0,0.00030999997,-0.64161
103.50833,3076.3398,1675.24,93.15,0.0033582605,0.3194837,0.56543344,0.7603971,-397.381,-291.101,0,3.1902099,-4.3548098,2.28691,1,-0.296875,0,0,0,false,false,false,3952.4,2274.47,47.18,-0.23404604,0.04125148,0.959847,-0.14904529,-817.03094,-354.951,-428.191,0.35031,4.23851,-1.51771,1,-0.3203125,0,0,0,false,true,false,3101.6099,2454.4,17.01,0.0033366815,0.0034661565,-0.6914294,0.7224279,77.571,-1406.5609,8.321,-0.00021,0.00030999997,-0.65431
103.525,3069.72,1670.39,93.15,-0.0030399677,0.27656803,0.5878544,0.7602158,-397.221,-290.981,0,3.18891,-4.35321,2.28691,1,-0.25,0,0,0,false,false,false,3938.65,2268.63,40.01,-0.20085171,0.03338586,0.9691737,-0.13873042,-863.33093,-335.201,-383.761,0.46461,3.0815098,-1.19651,1,-0.328125,0,0,0,false,true,false,3102.8398,2430.96,17.01,0.003347471,0.0034445773,-0.6953838,0.7186224,62.310997,-1407.271,8.321,-0.00021,0.00030999997,-0.66811
103.541664,3063.0999,1665.5499,93.15,-0.009427449,0.23301028,0.6088726,0.75821596,-397.07098,-290.871,0,3.18761,-4.35151,2.28691,1,-0.203125,0,0,0,false,false,false,3924.1099,2263.13,33.8,-0.17402332,0.02677176,0.9758121,-0.12957542,-901.33093,-314.551,-304.141,-0.17261,4.43421,-1.23131,1,-0.3359375,0,0,0,false,true,false,3103.8098,2407.5,17.01,0.0033636554,0.0034229981,-0.6993975,0.7147167,46.760998,-1407.8209,8.321,0,0.00030999997,-0.68271
103.558334,3056.48,1660.71,93.15,-0.015793307,0.18891303,0.62843406,0.75440896,-396.921,-290.751,0,3.18641,-4.34981,2.28691,1,-0.1640625,0,0,0,false,false,false,3909,2257.98,28.72,-0.13588732,0.026588337,0.9829681,-0.1208358,-930.97095,-295.891,-261.591,0.53141,4.4292097,-0.88661,1,-0.34375,0,0,0,false,true,false,3104.52,2384.04,17.01,0.0033852342,0.0034014184,-0.70347595,0.71070266,30.901,-1408.2009,8.321,0,0.00030999997,-0.69781
103.575,3049.8599,1655.87,93.15,-0.02211605,0.1443842,0.64649594,0.7488037,-396.771,-290.641,0,3.1851099,-4.3481097,2.28691,1,-0.140625,0,0,0,false,false,false,3893.4,2253.0898,24.34,-0.10062142,0.016359802,0.9881704,-0.114572406,-962.03094,-282.311,-208.83101,0.42351002,3.2950099,-0.71891,1,-0.3515625,0,0,0,false,true,false,3104.97,2360.57,17.01,-0.003406814,-0.00337984,0.7076188,-0.7065781,14.721,-1408.401,8.321,0,0.00030999997,-0.71341
103.59167,3043.24,1651.0299,93.15,-0.028390244,0.09952632,0.6630203,0.7414125,-396.611,-290.521,0,3.18381,-4.34651,2.28691,1,0.19685039,0,0,0,false,false,false,3877.27,2248.45,20.96,-0.07394946,0.010900185,0.9912463,-0.10882695,-985.16095,-266.051,-156.271,-0.29601002,3.54471,-0.72991,1,-0.359375,0,0,0,false,true,false,3105.14,2337.0898,17.01,-0.003428393,-0.0033582605,0.71183294,-0.7023323,-1.781,-1408.4109,8.321,0,0.00040999998,-0.72941
103.60833,3036.64,1646.19,93.15,-0.034594256,0.054452542,0.6779639,0.7322588,-396.461,-290.411,0,3.18251,-4.34481,2.28691,1,1,0,0,0,false,false,false,3860.7898,2244.05,18.279999,-0.04374387,0.011623172,0.9935554,-0.10391764,-1001.03094,-261.091,-117.541,0.69211,3.1723099,-0.32101,1,-0.3671875,0,0,0,false,true,false,3105.04,2313.6099,17.01,-0.0034499725,-0.0033366818,0.71611816,-0.6979625,-18.620998,-1408.221,8.321,0,0.00040999998,-0.74561
103.625,3030.04,1641.35,93.15,-0.040711995,0.0092655625,0.69129986,0.7213605,-396.311,-290.29102,0,3.18131,-4.34311,2.28691,1,1,0,0,0,false,false,false,3844.0999,2239.5999,16.34,-0.019019436,0.00063388847,0.99447167,-0.10326486,-1008.621,-278.191,-53.591,0.55781,1.9232099,0.50151,1,-0.375,0,0,0,false,true,false,3104.65,2290.14,17.01,-0.0034715508,-0.0033151018,0.72046554,-0.69347394,-35.821,-1407.8109,8.321,0,0.00040999998,-0.76201
103.64167,3023.44,1636.51,93.15,-0.04673259,-0.03592677,0.7029959,0.7087468,-396.161,-290.181,0,3.1800098,-4.3414097,2.28691,1,1,0,0,0,false,false,false,3827.26,2234.92,15.49,-0.005732013,-0.0033852346,0.99407434,-0.108497865,-1016.621,-286.741,-25.681,-0.24310999,1.06041,1.01301,1,-0.390625,0,0,0,false,true,false,3103.98,2266.68,17.01,-0.0034931304,-0.003293523,0.7248873,-0.68885064,-53.551,-1407.1609,8.321,0,0.00051,-0.78311
103.65833,3016.8398,1631.6699,93.15,-0.052639935,-0.081016645,0.71301913,0.6944558,-396.001,-290.061,0,3.17881,-4.33981,2.28691,1,1,0,0,0,false,false,false,3810.2998,2230.0999,14.94,0.00298602,-0.0018045595,0.99304223,-0.11770683,-1021.18097,-298.521,-8.711,0.29951,0.69711,1.38081,1,-0.3984375,0,0,0,false,true,false,3103.01,2243.23,17.01,-0.0035147096,-0.003271944,0.7293997,-0.6840708,-71.631,-1406.271,8.321,0,0.00051,-0.80301
103.675,3010.24,1626.83,93.15,-0.058423158,-0.12589613,0.7213566,0.67851424,-395.851,-289.941,0,3.17751,-4.33811,2.28691,1,1,0,0,0,false,false,false,3793.27,2225.05,14.73,0.0079330485,-0.0062930724,0.9915002,-0.1297103,-1023.2009,-316.011,19.970999,0.29431,0.050009996,1.64141,1,-0.40625,0,0,0,false,true,false,3101.74,2219.8,17.01,-0.0035362889,-0.0032503647,0.7339879,-0.6791454,-90.071,-1405.121,8.321,0,0.00051,-0.82201
103.691666,3003.64,1621.99,93.15,-0.064060755,-0.1704627,0.7279863,0.66096485,-395.701,-289.831,0,3.17621,-4.33641,2.28691,1,1,0,0,0,false,false,false,3776.21,2219.71,15,0.0072964607,-0.007566243,0.9895686,-0.14367744,-1024.481,-334.821,30.350998,-0.015209999,-0.25361001,1.81861,1,-0.421875,0,0,0,false,true,false,3100.16,2196.39,17.01,-0.003557868,-0.0032287855,0.7386577,-0.67406344,-109.071,-1403.6609,8.321,0,0.00051,-0.84501
103.708336,2997.04,1617.1699,93.15,-0.06954187,-0.2146031,0.73289603,0.641851,-395.551,-289.711,0,3.17501,-4.33471,2.28691,1,1,0,0,0,false,false,false,3759.13,2214.04,15.38,0.0053003877,-0.00687571,0.9872484,-0.15895018,-1023.79095,-357.341,29.720999,-0.06861,-0.26661,1.9434099,1,-0.4296875,0,0,0,false,true,false,3098.26,2173,17.01,-0.0035794473,-0.0032072063,0.7434187,-0.66880894,-128.431,-1401.9209,8.321,0,0.00051,-0.86621
103.725,2990.44,1612.35,93.15,-0.074861184,-0.25822017,0.7360721,0.6212212,-395.391,-289.601,0,3.1737099,-4.33311,2.28691,1,1,0,0,0,false,false,false,3742.0798,2207.98,15.73,0.0033582607,-0.0058399094,0.9845224,-0.17512925,-1020.8909,-383.291,26.940998,-0.08101,-0.23911,2.03521,1,-0.4375,0,0,0,false,true,false,3096.04,2149.65,17.01,-0.0036010265,-0.003185627,0.748256,-0.6633925,-148.181,-1399.871,8.321,0,0.00040999998,-0.88631
103.74167,2983.8599,1607.5299,93.15,-0.079997025,-0.30121148,0.7375109,0.599124,-395.241,-289.491,0,3.17241,-4.33141,2.28691,1,1,0,0,0,false,false,false,3725.0798,2201.48,16.029999,0.0016912686,-0.004793276,0.98138934,-0.19196105,-1015.691,-412.07098,23.560999,-0.073809996,-0.20041,2.10481,1,-0.453125,0,0,0,false,true,false,3093.49,2126.32,17.01,-0.0036226057,-0.0031640478,0.7531694,-0.6578089,-168.511,-1397.4409,8.321,-0.00010999999,0.00030999997,-0.91021
103.75833,2977.28,1602.71,93.15,-0.084938705,-0.34347448,0.73721075,0.57561344,-395.091,-289.381,0,3.17121,-4.32971,2.28691,1,1,0,0,0,false,false,false,3708.18,2194.49,16.27,0.00033177997,-0.0038869507,0.97785056,-0.20926765,-1008.18097,-443.111,20.321,-0.05921,-0.16230999,2.15871,1,-0.4609375,0,0,0,false,true,false,3090.5999,2103.04,17.01,-0.003644185,-0.003137074,0.7581676,-0.6520418,-189.211,-1394.6709,8.321,-0.00021,0.00021,-0.93211
103.775,2970.7,1597.89,93.15,-0.08967534,-0.38491207,0.7351712,0.5507487,-394.931,-289.261,0,3.1700099,-4.3281097,2.28691,1,0.6535433,0,0,0,false,true,false,3691.42,2186.97,16.46,-0.0007579688,-0.003158653,0.97390795,-0.22691947,-998.3909,-475.861,17.560999,-0.04361,-0.12880999,2.20111,1,-0.4765625,0,0,0,false,true,false,3087.3499,2079.81,17.01,-0.003665764,-0.0031047051,0.76324946,-0.6460859,-210.481,-1391.481,8.321,-0.00021,0.00021,-0.95730996
103.791664,2964.1199,1593.07,93.15,-0.09419622,-0.42542177,0.73140234,0.52458936,-394.781,-289.151,0,3.16871,-4.32641,2.28691,1,0.5905512,0,0,0,false,true,false,3674.6199,2178.8298,16.609999,-0.0016103467,-0.0026191736,0.96968895,-0.24432316,-1006.27094,-510.811,15.281,-0.02951,-0.09981,2.01241,1,-0.4921875,0,0,0,false,true,false,3083.76,2056.63,17.01,-0.003687343,-0.0030723363,0.7684178,-0.6399304,-232.301,-1387.851,8.321,-0.00010999999,0.00021,-0.98481
103.808334,2957.54,1588.25,93.15,-0.09849048,-0.4649172,0.72591263,0.49719444,-394.631,-289.031,0,3.16751,-4.32471,2.28691,1,0.52755904,0,0,0,false,true,false,3657.7,2170.0999,16.72,-0.0022685118,-0.0022415377,0.9655552,-0.26017854,-1011.7609,-547.35095,13.451,-0.018410001,-0.07691,1.8421099,1,-0.5,0,0,0,false,true,false,3079.79,2033.51,17.01,-0.0037089223,-0.0030399675,0.7736749,-0.63356453,-254.491,-1383.8109,8.321,0,0.00021,-1.00931
103.825,2950.96,1583.4299,93.15,-0.10254736,-0.5033013,0.7187166,0.46863422,-394.481,-288.921,0,3.16621,-4.32301,2.28691,1,0.47244096,0,0,0,false,true,false,3640.7,2160.75,16.8,-0.0027756223,-0.001987982,0.96154803,-0.27461502,-1015.631,-584.251,12.061,-0.01041,-0.05901,1.68061,1,-0.515625,0,0,0,false,true,false,3075.45,2010.47,17.01,-0.0037305015,-0.003007599,0.7790139,-0.6269883,-277.251,-1379.271,8.321,0,0.00021,-1.03641
103.84167,2944.38,1578.61,93.15,-0.10635613,-0.5404824,0.7098341,0.43897894,-394.32098,-288.801,0,3.16501,-4.3214097,2.28691,1,0.41732284,0,0,0,false,true,false,3623.65,2150.79,16.859999,-0.003169443,-0.0018261386,0.9577046,-0.28772986,-1018.35095,-620.90094,11.011001,-0.00491,-0.04511,1.52921,1,-0.53125,0,0,0,false,true,false,3070.73,1987.51,17.01,-0.0037520807,-0.00297523,0.7844405,-0.62018543,-300.561,-1374.1909,8.321,0,0.00010999999,-1.06531
103.85833,2937.8098,1573.7899,93.15,-0.10990589,-0.5763794,0.69928813,0.40829316,-394.171,-288.691,0,3.1637099,-4.31971,2.28691,1,0.37795275,0,0,0,false,true,false,3606.5598,2140.22,16.9,-0.0034715508,-0.0017344267,0.95405734,-0.2995984,-1020.40094,-656.77094,10.241,-0.0014099999,-0.03431,1.38411,1,-0.546875,0,0,0,false,true,false,3065.63,1964.63,17.01,-0.00377366,-0.0029428613,0.78995985,-0.6131398,-324.421,-1368.5609,8.321,0,0.00010999999,-1.09551
103.875,2931.25,1568.98,93.15,-0.11319673,-0.6109063,0.6871045,0.3766526,-394.021,-288.571,0,3.16251,-4.31811,2.28691,1,0.33070865,0,0,0,false,true,false,3589.43,2129.05,16.93,-0.0037035272,-0.0016858736,0.95062923,-0.31030172,-1021.941,-691.74097,9.661,0.00051,-0.02601,1.2531099,1,-0.5625,0,0,0,false,true,false,3060.13,1941.85,17.01,-0.0037952391,-0.0029104925,0.79556745,-0.605846,-348.821,-1362.341,8.321,0.00010999999,0,-1.1267099
103.89167,2924.69,1564.1799,93.15,-0.116212465,-0.64398193,0.67331326,0.3441381,-393.871,-288.461,0,3.1612098,-4.31641,2.28691,1,0.2913386,0,0,0,false,true,false,3572.28,2117.29,16.949999,-0.0038815557,-0.0016696894,0.9474275,-0.3199423,-1023.441,-725.371,9.261001,0.0016099999,-0.01971,1.1267099,1,-0.3828125,0,0,0,false,true,false,3054.23,1919.1699,17.01,-0.003827608,-0.0028781237,0.8011057,-0.59850365,-369.791,-1357.091,8.321,0,-0.00081,-1.04301
103.90833,2918.13,1559.38,93.15,0.11894759,0.67553586,-0.65794915,-0.31081426,-393.721,-288.351,0,3.1600099,-4.31481,2.28691,1,0.25984251,0,0,0,false,true,false,3555.1099,2104.98,16.97,-0.004016426,-0.0016696895,0.9444682,-0.32857403,-1025.0409,-757.6409,8.971001,0.00201,-0.014909999,1.00871,1,-0.171875,0,0,0,false,true,false,3048,1896.57,17.01,-0.0038599768,-0.0028403602,0.8060285,-0.59185725,-387.151,-1352.771,8.321,-0.00030999997,-0.0017099999,-0.85841
103.925,2911.5698,1554.58,93.15,0.12140222,0.7054903,-0.6410472,-0.27677298,-393.57098,-288.241,0,3.15871,-4.31311,2.28691,1,0.22834645,0,0,0,false,true,false,3537.91,2092.13,16.99,-0.0041189264,-0.0016804788,0.9417541,-0.33627236,-1026.8309,-788.55096,8.721001,0.00201,-0.011409999,0.90181,0.16535433,0,0,0,0,true,false,false,3041.48,1873.99,22.109999,-0.0038923454,-0.0027972017,0.80994654,-0.586484,-401.061,-1351.591,308.021,-0.00091,-0.00361,-0.64371
103.941666,2905.01,1549.7799,93.15,0.123565614,0.73377776,-0.62265086,-0.2420897,-393.421,-288.131,0,3.15751,-4.31141,2.28691,1,0.2047244,0,0,0,false,true,false,3520.68,2078.78,16.99,-0.0041998485,-0.0016966634,0.93927723,-0.34312922,-1029.011,-818.011,8.521,0.0019099999,-0.00881,0.80281,0,0,0,0,0,true,false,false,3034.76,1851.52,27.34,-0.003930109,-0.0027540436,0.81289965,-0.582384,-410.301,-1339.481,316.061,-0.00071,-0.00491,-0.50941
103.958336,2898.45,1544.98,93.15,0.12543221,0.76033807,-0.6027979,-0.20685077,-393.271,-288.021,0,3.1563098,-4.3098097,2.28691,1,0.18110237,0,0,0,false,true,false,3503.41,2064.94,16.99,-0.004259192,-0.0017182427,0.9370295,-0.34922,-1031.5809,-846.121,8.441,0.0016099999,-0.00671,0.71471,0,0,0,0,0,true,false,false,3027.89,1829.25,32.71,-0.0039732675,-0.0027108851,0.815251,-0.57908773,-414.361,-1333.7009,324.101,-0.00061,-0.0054099998,-0.46181
103.975,2891.89,1540.1799,93.15,0.12699671,0.78510654,-0.58154243,-0.17113706,-393.121,-287.901,0,3.15511,-4.3081098,2.28691,1,0.15748031,0,0,0,false,true,false,3486.0999,2050.63,16.99,-0.0043023503,-0.0017398219,0.93499684,-0.3546256,-1034.661,-872.85095,8.411,0.00131,-0.00511,0.63461,0,0,0,0,0,true,false,false,3020.99,1807.01,38.28,-0.0040164255,-0.0026677267,0.8174189,-0.57602346,-414.441,-1333.9209,337.561,-0.00040999998,-0.00471,-0.44711
103.99167,2885.3398,1535.38,93.15,0.12825906,0.8080261,-0.55893797,-0.13502415,-392.971,-287.79102,0,3.15381,-4.30651,2.28691,1,0.14173228,0,0,0,false,true,false,3468.74,2035.88,16.99,-0.004334719,-0.0017614011,0.9331677,-0.3594108,-1038.3009,-898.2009,8.401,0.0010099999,-0.00381,0.56051,0,0,0,0,0,true,false,false,3014.0898,1784.77,44.079998,-0.004054189,-0.002629963,0.8195092,-0.5730455,-414.521,-1334.141,351.021,-0.00021,-0.00411,-0.43281
104.00833,2878.8,1530.58,93.15,0.12921396,0.82904696,-0.5350336,-0.09860916,-392.82098,-287.671,0,3.1526098,-4.30481,2.28691,1,0.12598425,0,0,0,false,true,false,3451.3198,2020.72,16.99,-0.004356297,-0.0017829799,0.9315316,-0.3636295,-1042.4209,-922.34094,8.401,0.00071,-0.00281,0.49591,0,0,0,0,0,false,false,false,3007.19,1762.5299,49.789997,-0.004086558,-0.0025975944,0.82152355,-0.5701539,-414.521,-1334.141,340.181,0,-0.00351,-0.41901
104.025,2872.26,1525.7799,93.15,0.12986133,0.84812087,-0.5098883,-0.06197297,-392.661,-287.561,0,3.1514099,-4.30321,2.28691,1,0.11023622,0,0,0,false,true,false,3433.8198,2005.1599,16.99,-0.004372482,-0.0017937698,0.9300678,-0.36735734,-1046.241,-944.501,8.401,0.00051,-0.00211,0.43811,0,0,0,0,0,false,false,false,3000.29,1740.2899,55.32,-0.004118927,-0.0025652256,0.8234634,-0.56734854,-414.521,-1334.141,329.341,0,-0.00291,-0.40571
104.041664,2865.72,1520.98,93.15,0.13019583,0.86520624,-0.48356175,-0.025201876,-392.511,-287.451,0,3.15021,-4.30151,2.28691,1,0.1023622,0,0,0,false,true,false,3416.27,1989.24,16.99,-0.0043832716,-0.0018045594,0.92876333,-0.3706428,-1049.761,-964.73096,8.401,0.00051,-0.0017099999,0.38561,0,0,0,0,0,false,false,false,2993.39,1718.0499,60.67,-0.0041459007,-0.0025436464,0.82532996,-0.5646296,-414.521,-1334.141,318.501,0,-0.00251,-0.39281002
104.058334,2859.18,1516.2,93.15,0.1302228,0.8802659,-0.45611292,0.011617779,-392.361,-287.341,0,3.14901,-4.29991,2.28691,1,0.08661418,0,0,0,false,true,false,3398.66,1972.98,16.99,-0.0043940614,-0.0018153489,0.9276041,-0.3735344,-1053.9209,-984.2009,8.401,0.00030999997,-0.00131,0.34201,0,0,0,0,0,false,false,false,2986.49,1695.8099,65.84,-0.00416748,-0.0025220672,0.8271322,-0.56198615,-414.521,-1334.141,307.661,0,-0.00211,-0.38031
104.075,2852.64,1511.4199,93.15,0.12994227,0.8932639,-0.42761207,0.048399586,-392.211,-287.231,0,3.1477098,-4.2982097,2.28691,1,0.07874016,0,0,0,false,true,false,3380.98,1956.3999,16.99,-0.004399456,-0.0018261385,0.9265702,-0.37609154,-1058.8309,-1002.811,8.401,0.00021,-0.00091,0.30031002,0,0,0,0,0,true,false,false,2967.39,1674.7899,70.83,-0.025617274,0.012518709,0.8286062,-0.5591053,-1145.641,-1260.6809,296.821,-0.060209997,-4.16151,-0.40511
104.09167,2846.0999,1506.64,93.15,0.12934881,0.90417427,-0.39812395,0.085057385,-392.061,-287.111,0,3.14651,-4.29661,2.28691,1,0.07086614,0,0,0,false,true,false,3363.21,1939.5199,16.99,-0.004399456,-0.0018369281,0.9256561,-0.37833577,-1064.341,-1020.7609,8.401,0.00021,-0.00081,0.26481,0,0,0,0,0,true,false,false,2948.29,1653.77,75.64,-0.07180229,0.04466099,0.827697,-0.55476785,-1145.641,-1260.6809,285.981,-0.06901,-5.49221,-0.28421
104.10833,2836.13,1493.99,93.009995,0.12142919,0.9106994,-0.37361532,0.12764408,-1237.021,-1639.5509,70.831,1.18031,-4.4671097,3.82761,1,0.07086614,0,0,0,false,true,false,3345.3499,1922.34,16.99,-0.004399456,-0.0018477177,0.9248466,-0.38031027,-1070.411,-1038.091,8.401,0.00010999999,-0.00071,0.23391,0,0,0,0,0,false,false,false,2929.8499,1634.12,80.57,-0.10115551,0.08615793,0.8299529,-0.5417772,-1078.471,-1124.401,308.551,-3.3113098,-3.5239098,-2.62041
104.125,2815.28,1466.09,94.009995,0.10739731,0.91235584,-0.3556074,0.17209196,-1236.381,-1638.7109,59.950996,1.18031,-4.4671097,3.82761,1,0.51968503,0,0,0,false,true,false,3327.38,1904.87,16.99,-0.0043994565,-0.0018585074,0.92412364,-0.38206363,-1076.891,-1054.9609,8.401,0,-0.00071,0.21090999,0,0,0,0,0,false,false,false,2911.91,1615.48,85.58,-0.12654889,0.13530469,0.83146054,-0.5237855,-1078.471,-1124.401,297.711,-2.09351,-4.87491,-1.4499099
104.14167,2794.68,1438.7899,94.869995,0.09310103,0.91173244,-0.33670938,0.21610828,-1235.741,-1637.871,49.080997,1.18031,-4.4671097,3.82761,1,0.511811,0,0,0,false,false,false,3309.3398,1887.09,16.99,-0.004399456,-0.0018639021,0.923242,-0.3841892,-1076.721,-1077.5709,8.401,-0.00131,-0.00201,0.44751,0,0,0,0,0,false,false,false,2893.93,1596.74,90.409996,-0.16427487,0.18026508,0.8249336,-0.50990456,-1078.471,-1124.401,286.871,-1.37401,-5.29221,-0.59481
104.15833,2774.0898,1411.5,95.549995,0.078567445,0.90883046,-0.31696975,0.2595851,-1235.101,-1637.0309,38.220997,1.18031,-4.4671097,3.82761,1,0.503937,0,0,0,false,false,false,3291.44,1869.09,16.99,-0.004399456,-0.0018639021,0.9216637,-0.38796014,-1066.161,-1087.241,8.481,-0.00131,-0.00201,0.60641,0,0,0,0,0,false,false,false,2875.95,1578,95.06,-0.20698024,0.22099596,0.81237763,-0.49835968,-1078.471,-1124.401,276.031,-1.02461,-5.4032097,-0.07431
104.175,2753.51,1384.23,96.049995,0.06383957,0.9036564,-0.29643708,0.30241457,-1234.4609,-1636.1909,27.360998,1.18031,-4.4671097,3.82761,1,0.48818898,0,0,0,false,false,false,3273.72,1850.9299,16.99,-0.0043994565,-0.0018746918,0.9195956,-0.3928371,-1055.4509,-1096.9409,8.511001,-0.00091,-0.00151,0.71571,0,0,0,0,0,false,false,false,2857.97,1559.26,99.53,-0.25132564,0.25867876,0.7951406,-0.4875161,-1078.471,-1124.401,265.191,-0.87121,-5.42591,0.22370999
104.191666,2732.95,1356.97,96.369995,0.048949853,0.89622283,-0.27516532,0.34448874,-1233.8209,-1635.351,16.501,1.18031,-4.4671097,3.82761,1,0.47244096,0,0,0,false,false,false,3256.17,1832.61,16.99,-0.004399456,-0.0018908761,0.9171738,-0.39845845,-1044.091,-1107.0609,8.531,-0.00040999998,-0.00091,0.78571,0,0,0,0,0,false,false,false,2839.99,1540.52,103.81,-0.29578972,0.29418743,0.77401227,-0.47630566,-1078.471,-1124.401,254.351,-0.81011,-5.4260097,0.38941
104.208336,2712.39,1329.73,96.509995,0.03393613,0.8865507,-0.253203,0.3856997,-1233.1809,-1634.511,5.661,1.18031,-4.4671097,3.82761,1,0.4488189,0,0,0,false,false,false,3238.8198,1814.11,16.99,-0.004388667,-0.0019124553,0.91450846,-0.40453842,-1031.8209,-1117.781,8.531,0,-0.00040999998,0.82800996,0,0,0,0,0,false,false,false,2822.01,1521.7799,107.909996,-0.3396118,0.3279644,0.749461,-0.46412417,-1078.471,-1124.401,243.511,-0.78921,-5.4218097,0.47971
104.225,2691.8499,1302.5,96.47,0.01884141,0.87466013,-0.23060954,0.42595044,-1232.5409,-1633.6709,-5.171,1.18031,-4.4671097,3.82761,1,0.41732284,0,0,0,false,false,false,3221.67,1795.44,16.99,-0.004377877,-0.001944824,0.9116804,-0.41087192,-1018.751,-1128.9509,8.531,0.00021,0,0.84631,0,0,0,0,0,false,false,false,2804.03,1503.0399,109.96,-0.38236034,0.36019304,0.7217913,-0.45064256,-1078.471,-1124.401,93.940994,-0.78451,-5.4180098,0.52791
104.24167,2671.31,1275.28,96.25,0.0036981327,0.86058503,-0.2074388,0.465133,-1231.901,-1632.8309,-15.991,1.18031,-4.4671097,3.82761,1,0.39370078,0,0,0,false,false,false,3204.75,1776.58,16.99,-0.0043670875,-0.0019771927,0.9087648,-0.417281,-1005.08093,-1140.371,8.531,0.00030999997,0.00021,0.84321,0,0,0,0,0,false,false,false,2786.05,1484.2999,110.68,-0.42374936,0.39090574,0.6912275,-0.4356989,-1078.471,-1124.401,30.741,-0.78531,-5.41541,0.55341
104.25833,2650.79,1248.08,95.85,-0.0114504965,0.84435713,-0.18375017,0.50315565,-1231.261,-1631.991,-26.810999,1.18031,-4.4671097,3.82761,0,0,0,0,0,true,false,false,3188.05,1757.5299,16.99,-0.0043562977,-0.0020095615,0.9058248,-0.42362526,-990.821,-1151.981,8.531,0.00040999998,0.00030999997,0.82891,0,0,0,0,0,false,false,false,2768.0698,1465.5599,110.829994,-0.4635685,0.42005932,0.65795267,-0.41922852,-1078.471,-1124.401,4.041,-0.78741,-5.4137096,0.56651
104.275,2630.27,1220.89,95.27,-0.026572153,0.82602143,-0.15960294,0.5399159,-1230.621,-1631.151,-37.621,1.18031,-4.4671097,3.82761,0,0,0,0,0,true,false,false,3171.5598,1738.2899,22.1,-0.0043455083,-0.002047325,0.9030924,-0.42941934,-979.47095,-1153.871,308.231,0.00201,0.00151,0.61511,0,0,0,0,0,false,false,false,2750.0898,1446.82,110.75,-0.5016397,0.44757825,0.62212557,-0.40123677,-1078.471,-1124.401,-7.231,-0.78951,-5.4127097,0.57321
104.291664,2609.77,1193.71,94.509995,-0.041623723,0.8056211,-0.13505654,0.5753276,-1229.981,-1630.3109,-48.420998,1.18031,-4.4671097,3.82761,0,0,0,0,0,true,false,false,3155.29,1719.0499,27.34,-0.0043347185,-0.0020904834,0.9010119,-0.4337676,-966.02094,-1153.721,316.271,0.00311,0.00201,0.48241,0,0,0,0,0,false,false,false,2732.1099,1428.08,110.57,-0.5378066,0.47337624,0.58390164,-0.3817561,-1078.471,-1124.401,-11.981,-0.79101,-5.41211,0.57651
104.308334,2589.28,1166.5499,93.57,-0.056578137,0.78320825,-0.11017565,0.6092987,-1229.341,-1629.471,-59.220997,1.18031,-4.4671097,3.82761,0,0,0,0,0,true,false,false,3139.24,1699.82,32.71,-0.0043239295,-0.0021390368,0.8993441,-0.43721488,-959.58093,-1153.521,324.311,0.00361,0.00211,0.43581,0,0,0,0,0,false,false,false,2714.13,1409.34,110.34,0.5719264,-0.49736163,-0.54343873,0.36084038,-1078.471,-1124.401,-13.991,-0.79201,-5.41181,0.57811
104.325,2568.95,1139.6799,93.35,-0.0687866,0.75786704,-0.08219271,0.643545,-1210.621,-1595.131,38.760998,1.90481,-4.50521,3.47481,0,0,0,0,0,false,false,false,3123.24,1680.6,38.28,-0.0043131392,-0.002182195,0.89778703,-0.44040316,-959.72095,-1153.7009,337.771,0.00321,0.0017099999,0.42191002,0,0,0,0,0,false,false,false,2696.15,1390.6,110.1,0.6038666,-0.51944804,-0.5008953,0.3385598,-1078.471,-1124.401,-14.841,-0.79271,-5.41171,0.57881
104.34167,2548.78,1113.1,93.86,-0.077342786,0.73208266,-0.054021,0.6746515,-1210.001,-1594.3109,27.901,1.90481,-4.50521,3.47481,0,0,0,0,0,false,false,false,3107.24,1661.38,43.77,-0.00430235,-0.0022253534,0.8962693,-0.4434836,-959.72095,-1153.7009,326.931,0.00281,0.00131,0.40841,0,0,0,0,0,false,false,false,2678.17,1371.86,109.84,0.6335017,-0.5395545,-0.4564366,0.31499523,-1078.471,-1124.401,-15.201,-0.79311,-5.4116096,0.57911
104.35833,2528.6199,1086.5399,94.189995,-0.085704766,0.7044656,-0.02571438,0.70407486,-1209.381,-1593.491,17.040998,1.90481,-4.50521,3.47481,0,0,0,0,0,false,false,false,3091.24,1642.1599,49.079998,-0.0042915605,-0.002263117,0.8947923,-0.44645616,-959.72095,-1153.7009,316.091,0.00241,0.00091,0.39531,0,0,0,0,0,false,false,false,2660.19,1353.12,109.579994,0.6607221,-0.55760014,-0.41023535,0.29023302,-1078.471,-1124.401,-15.351,-0.79331,-5.41151,0.57931
104.375,2508.47,1059.99,94.34,-0.09385092,0.6750886,0.0026569373,0.73173785,-1208.761,-1592.6709,6.2009997,1.90481,-4.50521,3.47481,0,0,-1,0,0,true,false,false,3075.24,1622.94,54.21,-0.0042915605,-0.002295486,0.8933518,-0.44933158,-959.72095,-1153.7009,305.251,0.00201,0.00051,0.38261,0,0,0,0,0,false,false,false,2642.21,1334.38,109.32,0.685416,-0.57352567,-0.36246964,0.2643649,-1078.471,-1124.401,-15.4210005,-0.79341,-5.41151,0.57931
104.39167,2488.3298,1033.45,94.31,-0.10176512,0.6440251,0.03102286,0.75757045,-1208.141,-1591.851,-4.631,1.90481,-4.50521,3.47481,0,0,-1,0,0,true,false,false,3054.28,1597.02,59.16,-0.024959108,-0.012729064,0.89160955,-0.4519373,-1257.871,-1555.0709,294.411,2.96651,-2.19401,0.36951,0,0,0,0,0,false,false,false,2624.23,1315.64,109.06,0.70749754,-0.5872608,-0.3133228,0.23748791,-1078.471,-1124.401,-15.451,-0.79351,-5.41151,0.57931
104.40833,2468.2,1006.93,94.1,-0.10942577,0.61134875,0.059307944,0.7815121,-1207.521,-1591.0309,-15.451,1.90481,-4.50521,3.47481,1,0.22047244,0,0,0,false,false,false,3033.3198,1571.1,63.93,-0.07199115,-0.036530986,0.88768524,-0.45331836,-1257.871,-1555.0709,283.571,4.42601,-3.25361,0.27271,0,0,0,0,0,false,false,false,2606.25,1296.9,108.799995,0.726879,-0.59875715,-0.2629838,0.20970455,-1078.471,-1124.401,-15.451,-0.79351,-5.41151,0.57931
104.425,2448.0798,980.42,93.71,-0.11681129,0.57715094,0.087447286,0.80349535,-1206.901,-1590.2109,-26.270998,1.90481,-4.50521,3.47481,1,0.21259843,0,0,0,false,false,false,3012.3398,1545.1699,68.52,-0.12536205,-0.06365076,0.8808478,-0.4520398,-1258.501,-1555.9509,272.521,4.44201,-3.23941,0.15411,0,0,0,0,0,false,false,false,2588.27,1278.1599,108.54,0.74349296,-0.6079662,-0.21163598,0.18112287,-1078.471,-1124.401,-15.451,-0.79361,-5.41151,0.57931
104.441666,2427.97,953.92,93.14,-0.123900056,0.5415075,0.11537084,0.8234731,-1206.281,-1589.391,-37.080997,1.90481,-4.50521,3.47481,1,0.2047244,0,0,0,false,false,false,2991.3599,1519.23,72.92,-0.17825824,-0.09064641,0.87120014,-0.44834974,-1259.111,-1556.8009,261.331,4.45471,-3.2244098,0.089609995,0,0,0,0,0,false,false,false,2570.29,1259.4199,108.28,0.75726634,-0.61486083,-0.15948427,0.15185063,-1078.471,-1124.401,-15.451,-0.79361,-5.41151,0.57931
104.458336,2408.06,927.76996,93.47,-0.12713696,0.5031233,0.14414684,0.8425703,-1194.5609,-1568.8309,16.810999,2.28681,-4.49621,3.24871,1,0.2047244,0,0,0,false,false,false,2970.3599,1493.27,77.13,-0.23047468,-0.11739393,0.8586016,-0.44260967,-1259.6809,-1557.611,250.021,4.46401,-3.2123098,0.055109996,0,0,0,0,0,false,false,false,2552.31,1240.6799,108.02,0.7681537,-0.61940855,-0.10672297,0.12199573,-1078.471,-1124.401,-15.451,-0.79361,-5.41151,0.57931
104.475,2388.16,901.63,93.61,-0.12994225,0.46475536,0.17159025,0.85887957,-1193.9409,-1568.0309,5.9709997,2.28681,-4.49621,3.24871,1,0.19685039,0,0,0,false,false,false,2949.3599,1467.2999,81.159996,-0.28182253,-0.14377455,0.8430056,-0.43502456,-1260.2109,-1558.371,238.591,4.47041,-3.2037098,0.036909997,0,0,0,0,0,false,false,false,2534.3298,1221.94,107.759995,0.7761108,-0.6215935,-0.053551655,0.091682196,-1078.471,-1124.401,-15.451,-0.79361,-5.41151,0.57931
104.49167,2368.27,875.51,93.57,-0.13241847,0.42522213,0.19860208,0.87304556,-1193.3209,-1567.231,-4.8609996,2.28681,-4.49621,3.24871,1,0.19685039,0,0,0,false,false,false,2928.3499,1441.32,84.99,-0.3321292,-0.16967508,0.8244119,-0.42572927,-1260.7009,-1559.0709,227.061,4.47461,-3.1979098,0.02751,0,0,0,0,0,false,false,false,2516.3499,1203.2,107.5,0.7811057,-0.62140995,-0.00018072565,0.061018087,-1078.471,-1124.401,-15.451,-0.79361,-5.41151,0.57931
104.50833,2348.39,849.39996,93.35,-0.13456559,0.38462612,0.2251176,0.88502926,-1192.7009,-1566.4309,-15.681,2.28681,-4.49621,3.24871,1,0.19685039,0,0,0,false,false,false,2907.3298,1415.33,88.63,-0.38121662,-0.19498757,0.8028556,-0.41482097,-1261.141,-1559.6909,215.421,4.4773097,-3.19411,0.022809999,-0.8359375,0,0,0,0,false,false,false,2498.3699,1184.47,107.24,0.7831246,-0.618853,0.05319556,0.030116536,-1078.6709,-1123.501,-15.531,-0.79371,-5.41141,0.57931
104.525,2328.52,823.3,92.95,-0.13637824,0.3430699,0.25107202,0.8947998,-1192.0809,-1565.631,-26.501,2.28681,-4.49621,3.24871,1,0.19685039,0,0,0,false,false,false,2886.3098,1389.33,92.079994,-0.42891222,-0.21960412,0.7784002,-0.40236968,-1261.521,-1560.231,203.701,4.47901,-3.19171,0.02041,-1,0,0,0,0,false,false,false,2480.39,1165.76,106.979996,0.782154,-0.6139382,0.10636692,-0.00089823356,-1078.911,-1122.4209,-15.611,-0.79371,-5.41141,0.57931
104.541664,2308.8,797.45996,93.17,-0.13538021,0.29925862,0.2765626,0.90312207,-1183.121,-1550.3309,10.471,2.5436099,-4.47781,3.0787098,1,0.19685039,0,0,0,false,false,false,2865.28,1363.32,93.77,-0.4750379,-0.24343301,0.7511309,-0.3884349,-1261.841,-1560.6909,76.321,4.4801097,-3.19031,0.01941,-1,0,0,0,0,false,false,false,2462.41,1147.07,106.72,0.778204,-0.6066768,0.15913358,-0.031907648,-1079.151,-1121.341,-15.691,-0.79371,-5.41141,0.57931
104.558334,2289.0898,771.63,93.21,-0.13406388,0.25586268,0.30066666,0.90893376,-1182.521,-1549.5309,-0.36099997,2.5436099,-4.47781,3.0787098,1,0.19685039,0,0,0,false,false,false,2844.24,1337.2999,94.32,-0.51943725,-0.26638797,0.72113574,-0.3730759,-1262.091,-1561.0509,22.460999,4.48071,-3.18941,0.01891,-1,0,0,0,0,false,false,false,2444.43,1128.39,106.46,0.7712808,-0.59710646,0.21129614,-0.06279838,-1079.371,-1120.281,-15.761,-0.79371,-5.41141,0.57931
104.575,2269.39,745.81,93.07,-0.13241307,0.21183561,0.3240208,0.91247076,-1181.9209,-1548.731,-11.181,2.5436099,-4.47781,3.0787098,1,0.18897638,0,0,0,false,false,false,2823.2,1311.28,94.39,-0.561943,-0.28837723,0.6885287,-0.3563519,-1262.271,-1561.3109,-0.32099998,4.48101,-3.18891,0.01871,-1,0,0,0,0,false,false,false,2426.43,1109.73,106.2,0.7614202,-0.5852539,0.26264933,-0.09344629,-1079.5809,-1119.221,-15.831,-0.79371,-5.41141,0.57931
104.59167,2249.77,720.13,93.14,-0.12931107,0.16650836,0.34645244,0.9140701,-1177.1909,-1540.901,1.281,2.66181,-4.46601,2.99491,1,0.18110237,0,0,0,false,false,false,2802.16,1285.26,94.259995,-0.6024095,-0.3093199,0.6534175,-0.33833325,-1262.371,-1561.4609,-9.971,4.4812098,-3.18871,0.01861,-1,0,0,0,0,false,false,false,2408.43,1091.09,105.939995,0.7486529,-0.5711735,0.31299916,-0.12373821,-1079.761,-1118.1709,-15.891,-0.79371,-5.41151,0.57921
104.60833,2230.18,694.49,93.14,-0.12559941,0.121078536,0.3676811,0.9134415,-1174.881,-1537.241,0,2.70911,-4.46061,2.9602098,1,0.13385826,0,0,0,false,false,false,2781.1199,1259.24,94.04,0.6406895,0.32914042,-0.6159288,0.31908447,-1262.391,-1561.501,-14.061,4.48131,-3.18851,0.01861,-1,0,0,0,0,false,false,false,2390.43,1072.47,105.68,0.7330296,-0.55491346,0.3621567,-0.15356074,-1079.911,-1117.131,-15.951,-0.79371,-5.41151,0.57921
104.625,2210.63,668.92,93.14,-0.121105544,0.07523338,0.38776058,0.9106673,-1172.341,-1533.2009,0,2.76161,-4.45431,2.92101,1,-1,0,0,0,false,false,false,2760.0798,1233.22,93.78,0.6766375,0.34776878,-0.57620686,0.29867056,-1262.3309,-1561.4309,-15.791,4.48141,-3.18841,0.01861,-1,0,0,0,0,false,false,false,2372.43,1053.86,105.42,0.7146094,-0.53653884,0.4099333,-0.1827953,-1080.021,-1116.091,-16.011,-0.79371,-5.41151,0.57921
104.64167,2191.1199,643.42,93.14,-0.11586174,0.029118493,0.40659377,0.9057645,-1169.7909,-1529.1609,0,2.8129098,-4.44761,2.8819098,1,-1,0,0,0,false,false,false,2739.04,1207.2,93.5,0.71012783,0.36512932,-0.53439164,0.27717224,-1262.1909,-1561.261,-16.501,4.48141,-3.18841,0.01861,-1,0,0,0,0,false,false,false,2354.43,1035.27,105.159996,0.69346404,-0.51611936,0.4561453,-0.21132845,-1080.101,-1115.0709,-16.060999,-0.79371,-5.41151,0.57911
104.65833,2171.65,617.98,93.14,-0.109905906,-0.017158233,0.42412698,0.89874494,-1167.231,-1525.121,0,2.8631098,-4.44061,2.84301,1,-1,0,0,0,false,false,false,2718,1181.1799,93.22,0.7410342,0.38116807,-0.4906343,0.25467044,-1261.991,-1560.981,-16.771,4.48141,-3.18841,0.01861,-1,0,0,0,0,false,false,false,2336.43,1016.69995,104.899994,0.6696758,-0.49372545,0.50062007,-0.23905781,-1080.131,-1114.0509,-16.101,-0.79371,-5.41151,0.57911
104.675,2152.22,592.61,93.14,-0.10328105,-0.06347812,0.44029528,0.8896311,-1164.6709,-1521.101,0,2.91221,-4.43331,2.8043098,1,-1,0,0,0,false,false,false,2696.97,1155.16,92.939995,0.7692482,0.3958204,-0.44509664,0.23124069,-1261.7109,-1560.601,-16.841,4.48141,-3.18841,0.01861,-1,0,0,0,0,false,false,false,2318.43,998.13995,104.64,0.6433293,-0.46945423,0.54318523,-0.26587543,-1080.121,-1113.0509,-16.140999,-0.79371,-5.41151,0.57911
104.691666,2132.8499,567.31,93.14,-0.096030444,-0.109733276,0.45503935,0.8784508,-1162.111,-1517.0809,0,2.96011,-4.4257097,2.76581,1,-1,0,0,0,false,false,false,2675.95,1129.16,92.659996,0.7946666,0.40903774,-0.39794055,0.20696941,-1261.361,-1560.121,-16.821,4.48141,-3.18841,0.01861,-1,0,0,0,0,false,false,false,2300.43,979.6,104.38,0.6145292,-0.4433919,0.58367866,-0.29167885,-1080.0709,-1112.0509,-16.161,-0.79381,-5.41151,0.57911
104.708336,2113.52,542.07,93.14,-0.08818637,-0.1557996,0.46831053,0.8652368,-1159.5409,-1513.0609,0,3.00701,-4.41791,2.72751,1,-1,0,0,0,false,false,false,2654.93,1103.16,92.38,0.81719834,0.42076603,-0.34933868,0.18194826,-1260.9509,-1559.5509,-16.751,4.48141,-3.18841,0.01861,-0.1640625,0,0,0,0,false,false,false,2282.43,961.06,104.119995,0.5833874,-0.41563562,0.621945,-0.31637096,-1080.0509,-1111.891,-15.831,-0.79381,-5.41151,0.57911
104.725,2094.23,516.89996,93.14,-0.07980282,-0.20156923,0.48006588,0.8500223,-1156.9609,-1509.0509,0,3.0527098,-4.4099097,2.68941,1,-1,0,0,0,false,false,false,2633.92,1077.1799,92.1,0.8367644,0.43096226,-0.29946357,0.15626356,-1260.481,-1558.901,-16.651,4.48141,-3.18841,0.01861,0,0,0,0,0,false,false,false,2264.43,942.51996,103.81,0.55486494,-0.39065218,0.65290153,-0.33650437,-1080.0509,-1111.891,-21.110998,-0.76321,-5.21021,0.52731
104.74167,2074.98,491.8,93.14,-0.07093373,-0.24692884,0.49026746,0.83284587,-1154.381,-1505.0509,0,3.09741,-4.40171,2.65151,1,-1,0,0,0,false,false,false,2612.92,1051.21,91.82,0.8532874,0.43959388,-0.24850409,0.13001238,-1259.9609,-1558.1809,-16.521,4.48141,-3.18841,0.01861,0,0,0,0,0,false,false,false,2246.43,923.98,103.32,0.5310954,-0.37050253,0.67615366,-0.35139948,-1080.0509,-1111.891,-31.930998,-0.70181,-4.8309097,0.43221
104.75833,2055.77,466.75998,93.14,-0.061616916,-0.29176515,0.49887222,0.81375843,-1151.8009,-1501.0509,0,3.14101,-4.39331,2.61391,1,-1,0,0,0,false,false,false,2591.92,1025.25,91.54,0.86671096,0.4466288,-0.19663839,0.1032865,-1259.391,-1557.401,-16.380999,4.48141,-3.18841,0.01861,0,0,0,0,0,false,false,false,2228.43,905.44,102.649994,0.508038,-0.35152894,0.6968045,-0.36440098,-1080.0509,-1111.891,-42.751,-0.64101,-4.4805098,0.34771
104.775,2036.6,441.78998,93.14,-0.051911637,-0.3359595,0.5058585,0.7928073,-1149.221,-1497.0509,0,3.1835098,-4.38471,2.5766098,1,-1,0,0,0,false,false,false,2570.94,999.31,91.259995,0.8769854,0.45203975,-0.14405508,0.07618826,-1258.8009,-1556.5709,-16.220999,4.48141,-3.18841,0.01861,0,0,0,0,0,false,false,false,2210.43,886.89996,101.799995,0.48578438,-0.33374763,0.71515363,-0.3757409,-1080.0509,-1111.891,-53.571,-0.58151,-4.1567097,0.27311
104.791664,2017.47,416.88998,93.14,-0.04186109,-0.37941477,0.5112048,0.77004004,-1146.621,-1493.0709,0,3.2251098,-4.37591,2.53951,1,-1,0,0,0,false,false,false,2549.97,973.38,91,0.8840711,0.45581073,-0.0909485,0.04881498,-1258.1709,-1555.7009,-16.040998,4.48141,-3.18841,0.01861,0,0,0,0,0,false,false,false,2192.43,868.36,100.77,0.4644047,-0.3171478,0.7314667,-0.3856188,-1080.0509,-1111.891,-64.391,-0.52391,-3.8573098,0.20751
104.808334,1998.3999,392.05,93.14,-0.031519223,-0.42201224,0.51488936,0.7455206,-1144.021,-1489.091,0,3.26561,-4.36701,2.50281,1,-1,0,0,0,false,false,false,2529.01,947.45996,90.74,0.887947,0.4579202,-0.037512843,0.02125828,-1257.531,-1554.8009,-15.861,4.48141,-3.18841,0.01861,0,0,0,0,0,false,false,false,2174.43,849.82,99.56,0.44393137,-0.3017024,0.74599,-0.39420736,-1080.0509,-1111.891,-75.211,-0.46861,-3.58051,0.15021
104.825,1979.37,367.28,93.14,-0.020939985,-0.46364403,0.5168962,0.7193149,-1141.4209,-1485.111,0,3.3052099,-4.35801,2.46631,1,-1,0,0,0,false,false,false,2508.06,921.56,90.479996,0.88859457,0.45836794,0.016057694,-0.006368599,-1256.881,-1553.891,-15.681,4.48141,-3.18841,0.01861,0,0,0,0,0,false,false,false,2156.43,831.27997,98.17,0.42438596,-0.28736842,0.75892955,-0.4016738,-1080.0509,-1111.891,-86.031,-0.41591,-3.32441,0.10041
104.84167,1960.38,342.58,93.14,-0.01017193,-0.50421304,0.5172307,0.6914752,-1138.8209,-1481.141,0,3.3438098,-4.3488097,2.4302099,1,-1,0,0,0,false,false,false,2487.1199,895.67,90.22,0.88601124,0.4571541,0.06956884,-0.033973854,-1256.231,-1552.981,-15.491,4.48141,-3.18841,0.01861,-0.8359375,0,0,0,0,false,false,false,2138.43,812.76,96.6,0.40577924,-0.27410796,0.77046686,-0.40815297,-1079.741,-1111.091,-97.230995,-0.36611,-3.08741,0.057409998
104.85833,1941.4299,317.94,93.14,0.00073099486,-0.54361135,0.515882,0.66208136,-1136.2109,-1477.1809,0,3.38141,-4.33961,2.39431,1,-1,0,0,0,false,false,false,2466.19,869.8,89.96,0.8802089,0.4542787,0.12282654,-0.06145508,-1255.591,-1552.0809,-15.301,4.48141,-3.18841,0.01861,-1,0,0,0,0,false,false,false,2120.44,794.25,94.84,0.3880897,-0.26186174,0.78077525,-0.413769,-1079.351,-1110.131,-108.501,-0.31931,-2.86801,0.02041
104.875,1922.5199,293.37,93.14,0.011714884,-0.58173656,0.5128555,0.63120866,-1133.591,-1473.221,0,3.41811,-4.33031,2.35881,1,-1,0,0,0,false,false,false,2445.27,843.94,89.7,0.87121123,0.44974697,0.17563635,-0.08871506,-1254.971,-1551.2109,-15.121,4.48141,-3.18841,0.01861,-1,0,0,0,0,false,false,false,2102.46,775.76,92.89,0.37130636,-0.25058115,0.78999066,-0.41863507,-1078.9409,-1109.1709,-119.760994,-0.27551,-2.6649098,-0.011109999
104.89167,1903.6599,268.87,93.14,-0.022725662,0.6185024,-0.50816745,-0.59891903,-1130.971,-1469.261,0,3.4539099,-4.32091,2.32371,1,-1,0,0,0,false,false,false,2424.3599,818.1,89.45,0.85904664,0.44358072,0.22781499,-0.11565136,-1254.381,-1550.381,-14.941,4.48141,-3.18841,0.01861,-1,0,0,0,0,false,false,false,2084.48,757.27997,90.759995,0.3554024,-0.24020693,0.79824394,-0.42284304,-1078.511,-1108.231,-131.001,-0.23481,-2.4769099,-0.037809998
104.90833,1884.85,244.43,93.14,-0.033714905,0.65380216,-0.5018339,-0.5653039,-1128.351,-1465.3209,0,3.48871,-4.31151,2.28881,1,-1,0,0,0,false,false,false,2403.46,792.26996,89.21,0.84376335,0.43580142,0.27915752,-0.14216691,-1253.8309,-1549.601,-14.761,4.48141,-3.18841,0.01861,-1,0,0,0,0,false,false,false,2066.51,738.82,88.43,0.34035087,-0.23069046,0.8056418,-0.42647913,-1078.0709,-1107.2909,-142.231,-0.19711,-2.30271,-0.060209997
104.925,1866.08,220.06,93.14,-0.04462862,0.68755746,-0.4938658,-0.53044266,-1125.731,-1461.381,0,3.5227098,-4.3021097,2.25431,1,-1,0,0,0,false,false,false,2382.57,766.45,88.97,0.82541025,0.42644134,0.32949114,-0.16816992,-1253.3209,-1548.881,-14.601,4.48141,-3.18841,0.01861,-1,0,0,0,0,false,false,false,2048.55,720.38,85.92,0.326114,-0.22196703,0.81228834,-0.42961353,-1077.611,-1106.351,-153.44101,-0.16240999,-2.14131,-0.07890999
104.941666,1847.35,195.75,93.14,-0.055423647,0.71967965,-0.4842954,-0.49441606,-1123.091,-1457.4409,0,3.55581,-4.2926097,2.22021,1,-1,0,0,0,false,false,false,2361.69,740.64996,88.729996,0.8040578,0.41553304,0.37862706,-0.19355793,-1252.861,-1548.241,-14.441,4.48141,-3.18841,0.01861,-1,0,0,0,0,false,false,false,2030.59,701.95,83.22,0.3126647,-0.21398269,0.8182632,-0.43231633,-1077.131,-1105.411,-164.641,-0.13051,-1.99171,-0.09430999
104.958336,1828.6599,171.51,93.14,-0.066046044,0.7500826,-0.4731605,-0.45731056,-1120.4509,-1453.501,0,3.5880098,-4.28311,2.1865098,1,-1,0,0,0,false,false,false,2340.81,714.85,88.49,0.7797834,0.4031196,0.42638204,-0.21824464,-1252.4609,-1547.6809,-14.301,4.48141,-3.18841,0.01861,-1,0,0,0,0,false,false,false,2012.6499,683.54,80.33,0.29996535,-0.20668894,0.8236454,-0.43463618,-1076.641,-1104.471,-175.821,-0.101409994,-1.85311,-0.106809996
104.975,1810.01,147.33,93.14,-0.07645265,0.7786896,-0.46048808,-0.41922313,-1117.8109,-1449.5809,0,3.61941,-4.27361,2.15301,1,-1,0,0,0,false,false,false,2319.94,689.06,88.25,0.75267327,0.38923874,0.472594,-0.24213827,-1252.121,-1547.2009,-14.181,4.48141,-3.18841,0.01861,-1,0,0,0,0,false,false,false,1994.71,665.14,77.259995,0.287978,-0.20003171,0.8285032,-0.43662143,-1076.141,-1103.531,-186.991,-0.07491,-1.72451,-0.116809994
104.99167,1791.4199,123.21999,93.14,-0.08658951,0.8054322,-0.44632128,-0.38023475,-1115.1709,-1445.6609,0,3.6500099,-4.26411,2.11991,1,-1,0,0,0,false,false,false,2299.0798,663.27997,88.009995,0.7228343,0.373939,0.51708496,-0.26514712,-1251.851,-1546.8209,-14.081,4.48141,-3.18841,0.01861,-1,0,0,0,0,false,false,false,1976.7799,646.76,74.01,0.27666515,-0.19396797,0.8328911,-0.43832082,-1075.621,-1102.591,-198.151,-0.050909996,-1.60531,-0.12451
105.00833,1772.87,99.18,93.14,-0.09641887,0.830234,-0.43070868,-0.340448,-1112.531,-1441.741,0,3.6798098,-4.25461,2.08721,1,-1,0,0,0,false,false,false,2278.22,637.5,87.77,0.6903672,0.3572798,0.5596987,-0.28719574,-1251.651,-1546.5409,-14.001,4.48141,-3.18841,0.01861,-1,0,0,0,0,false,false,false,1958.86,628.39996,70.57,0.26599956,-0.18845445,0.836857,-0.439772,-1075.101,-1101.651,-209.291,-0.02931,-1.49471,-0.13041
105.025,1754.36,75.2,93.14,-0.105897576,0.8530335,-0.41369885,-0.2999545,-1109.881,-1437.8309,0,3.7088099,-4.2452097,2.05491,1,-1,0,0,0,false,false,false,2257.3599,611.72,87.53,0.65538865,0.33932588,0.6002786,-0.30820322,-1251.531,-1546.371,-13.941,4.48141,-3.18841,0.01861,-1,0,0,0,0,false,false,false,1940.95,610.05,66.939995,0.2559382,-0.18344265,0.8404531,-0.44100192,-1074.5609,-1100.7109,-220.421,-0.00981,-1.39211,-0.13461
105.041664,1735.89,51.28,93.14,-0.11497702,0.8737731,-0.39534026,-0.25885677,-1107.221,-1433.9309,0,3.73701,-4.23571,2.02301,1,-1,0,0,0,false,false,false,2236.5,585.94,87.25,0.62297994,0.3226775,0.63385,-0.32559064,-1251.491,-1546.3009,-18.780998,4.37391,-3.1119099,0.01811,-1,0,0,0,0,false,false,false,1923.0499,591.72,63.129997,0.24645412,-0.17889482,0.8437177,-0.44203782,-1074.021,-1099.771,-231.541,0.0076099997,-1.2969099,-0.13751
105.058334,1717.47,27.43,93.14,-0.12362492,0.8923945,-0.37570316,-0.2172466,-1104.5609,-1430.0309,0,3.76451,-4.22631,1.9915099,1,0.68503934,0,0,0,false,false,false,2215.64,560.16,86.81,0.5950672,0.30833268,0.6601273,-0.33920184,-1251.511,-1546.3209,-28.501,4.16661,-2.96451,0.01711,-1,0,0,0,0,false,false,false,1905.1499,573.39996,59.129997,0.23751493,-0.17477858,0.8466807,-0.44291174,-1073.471,-1098.8309,-242.651,0.02301,-1.20851,-0.13911
105.075,1699.1,3.6499999,93.14,-0.13180347,0.9088525,-0.35484135,-0.17522095,-1101.901,-1426.131,0,3.7913098,-4.21691,1.96041,1,0.33070865,0,0,0,false,false,false,2194.78,534.38,86.21,0.5674457,0.29413345,0.68401766,-0.3515829,-1251.5809,-1546.4209,-38.220997,3.96921,-2.82401,0.01631,-1,0,0,0,0,false,false,false,1887.2699,555.1,54.949997,0.22908816,-0.17105073,0.84937555,-0.44364545,-1072.911,-1097.891,-253.751,0.036609996,-1.12641,-0.13971
105.09167,1680.77,-20.07,93.14,-0.13948569,0.9231018,-0.33281973,-0.13288242,-1099.241,-1422.241,0,3.8173099,-4.20751,1.9297099,1,0.2992126,0,0,0,false,false,false,2173.92,508.59998,85.45,0.54024506,0.28014478,0.7056994,-0.36282572,-1251.7109,-1546.601,-47.961,3.7811098,-2.6902099,0.015509999,-1,0,0,0,0,false,false,false,1869.39,536.81,50.579998,0.22114703,-0.16768438,0.85183215,-0.44424966,-1072.351,-1096.9509,-264.831,0.048609998,-1.05021,-0.13950999
105.10833,1662.48,-43.73,93.14,-0.14662841,0.9351028,-0.30971372,-0.0903335,-1096.5809,-1418.361,0,3.84271,-4.19831,1.89931,1,0.2913386,0,0,0,false,false,false,2153.06,482.81998,84.53,0.51356214,0.26642027,0.72534996,-0.37301648,-1251.881,-1546.841,-57.720997,3.6019099,-2.56271,0.014709999,-1,0,0,0,0,false,false,false,1851.5299,518.54,46.03,0.21365905,-0.1646471,0.85407376,-0.444746,-1067.601,-1090.011,-271.301,0.14501,-1.17271,-0.039809998
105.125,1644.23,-67.32,93.14,-0.15320471,0.9448251,-0.28558812,-0.04767668,-1093.901,-1414.481,0,3.8673098,-4.18911,1.86921,1,0.28346455,0,0,0,false,false,false,2132.2,457.03998,83.45,0.48747835,0.25300336,0.7431294,-0.382247,-1252.091,-1547.141,-67.511,3.43121,-2.44121,0.013909999,-1,0,0,0,0,false,false,false,1833.77,500.43,41.34,0.20274529,-0.1602989,0.8563248,-0.4471089,-1058.721,-1078.4209,-271.731,0.29111,-1.9909099,0.16060999
105.14167,1626.0399,-90.85,93.14,-0.15918754,0.9522402,-0.2605238,-0.005009068,-1091.221,-1410.601,0,3.89131,-4.18001,1.83951,1,0.28346455,0,0,0,false,false,false,2111.32,431.25,82.21,0.462058,0.23992641,0.75919634,-0.39058748,-1252.361,-1547.501,-77.321,3.26861,-2.32551,0.01311,-1,0,0,0,0,false,false,false,1816.1699,482.5,36.68,0.18524987,-0.15338272,0.8589054,-0.45214763,-1048.1809,-1068.101,-266.381,0.42871,-3.03791,0.32641
105.15833,1607.89,-114.31,93.14,-0.16455542,0.9573269,-0.23459631,0.037566833,-1088.5409,-1406.731,0,3.9147098,-4.17101,1.81021,1,0.28346455,0,0,0,false,false,false,2090.44,405.44998,80.79,0.43734965,0.22721075,0.7736937,-0.39811856,-1252.651,-1547.9209,-87.171,3.11371,-2.2153099,0.012509999,-1,0,0,0,0,false,false,false,1798.76,464.74,32.12,0.1597324,-0.14307323,0.8618758,-0.4595494,-1034.9209,-1059.7009,-260.871,0.52461,-4.16881,0.42971
105.175,1589.7799,-137.70999,93.14,-0.16928124,0.9600711,-0.20788118,0.07995391,-1085.861,-1402.871,0,3.93751,-4.1620097,1.78131,1,0.28346455,0,0,0,false,false,false,2069.56,379.65,79.21,0.41339138,0.21487829,0.786757,-0.40490526,-1252.981,-1548.391,-97.061,2.96611,-2.11031,0.011909999,-1,0,0,0,0,false,false,false,1781.61,447.16,27.82,0.124844186,-0.12687258,0.8650928,-0.46896872,-1011.40094,-1040.4609,-223.401,-0.08200999,-5.4590096,0.66481
105.191666,1571.71,-161.04,93.14,-0.17334357,0.9604632,-0.1804647,0.12204428,-1083.1809,-1399.011,0,3.95961,-4.15311,1.75281,1,0.28346455,0,0,0,false,false,false,2048.68,353.83,77.47,0.39020443,0.2029395,0.7985142,-0.4110122,-1253.351,-1548.901,-106.971,2.82561,-2.01031,0.011309999,-1,0,0,0,0,false,false,false,1764.87,429.88998,24.029999,0.08699951,-0.102671444,0.8674124,-0.47904626,-975.631,-1020.15094,-199.911,-0.56161,-5.43251,0.64971
105.208336,1553.69,-184.31,93.14,-0.1767315,0.95849735,-0.15243325,0.16374613,-1080.501,-1395.151,0,3.9811099,-4.14431,1.72471,1,0.28346455,0,0,0,false,false,false,2027.7799,328.00998,75.57,0.36780518,0.19140545,0.8090754,-0.41650957,-1253.741,-1549.4509,-116.921,2.69171,-1.91501,0.010709999,-1,0,0,0,0,false,false,false,1748.86,413.02,20.75,0.052348573,-0.076350145,0.8685224,-0.48692808,-912.881,-990.371,-152.891,-0.92131,-4.50721,0.48411
105.225,1535.72,-207.51,93.14,-0.1794289,0.95417744,-0.12386769,0.20495717,-1077.8109,-1391.3009,0,4.00201,-4.13561,1.6970099,1,0.28346455,0,0,0,false,false,false,2006.88,302.18,73.49,0.3461989,0.18027587,0.81855375,-0.4214458,-1254.1609,-1550.0409,-126.910995,2.56411,-1.82431,0.010109999,-1,0,0,0,0,false,false,false,1733.9299,396.63,18.34,0.02651281,-0.050131354,0.868609,-0.49224195,-843.58093,-963.98096,-95.190994,-1.6123099,-3.52021,0.43161
