time,ball_loc_x,ball_loc_y,ball_loc_z,ball_rot_x,ball_rot_y,ball_rot_z,ball_rot_w,ball_vel_x,ball_vel_y,ball_vel_z,ball_ang_x,ball_ang_y,ball_ang_z,player0_throttle,player0_steer,player0_pitch,player0_yaw,player0_roll,player0_jump,player0_boost,player0_handbrake,player0_loc_x,player0_loc_y,player0_loc_z,player0_rot_x,player0_rot_y,player0_rot_z,player0_rot_w,player0_vel_x,player0_vel_y,player0_vel_z,player0_ang_x,player0_ang_y,player0_ang_z,player1_throttle,player1_steer,player1_pitch,player1_yaw,player1_roll,player1_jump,player1_boost,player1_handbrake,player1_loc_x,player1_loc_y,player1_loc_z,player1_rot_x,player1_rot_y,player1_rot_z,player1_rot_w,player1_vel_x,player1_vel_y,player1_vel_z,player1_ang_x,player1_ang_y,player1_ang_z
158.7,3188.97,-3493.3198,158.69,0.8863008,0.34530336,0.30379564,-0.054263767,-852.34094,-533.67096,-386.251,2.30041,1.02661,5.44551,1,-0.140625,0,0,0,false,false,false,-778.95996,-1534.11,17.01,0.0033097076,0.003482341,-0.6865255,0.7270898,142.341,-1952.4009,8.321,-0.00010999999,0,-0.41001,1,-1,0.11023622,-1,0,false,true,false,2007.58,-2485.73,17.01,0.0005745458,0.004760908,-0.119395405,0.99283516,1588.511,-432.611,8.271,0.00131,-0.00040999998,1.59761
158.71666,3174.77,-3502.21,152.12,0.87108606,0.37879434,0.2999923,-0.08791123,-851.90094,-533.391,-396.871,2.30041,1.02661,5.44551,1,-0.125,0,0,0,false,false,false,-776.64996,-1566.65,17.01,0.003320497,0.0034715512,-0.68895316,0.72478986,127.440994,-1953.111,8.321,-0.00010999999,0,-0.37711,1,-1,0.11023622,-1,0,false,true,false,2034.24,-2492.99,17.01,0.0005098082,0.004771697,-0.1083576,0.99410033,1603.261,-433.731,8.221001,-0.0068099997,0.00151,0.62781
158.73334,3160.5698,-3511.0898,145.37,0.8536953,0.41133592,0.295439,-0.121337526,-851.46094,-533.11096,-407.491,2.30041,1.02661,5.44551,1,-0.1171875,0,0,0,false,false,false,-774.58997,-1599.21,17.01,0.0033312866,0.0034607616,-0.6911758,0.72267056,113.620995,-1953.7009,8.321,-0.00010999999,0,-0.34461,1,-1,0.11023622,-1,0,false,true,false,2061.17,-2500.23,17.01,0.00042888633,0.004782487,-0.10471068,0.9944911,1619.8009,-430.021,8.181,-0.00811,0.00151,-0.06521
158.75,3146.39,-3519.97,138.45,0.8341701,0.442847,0.2901521,-0.1544617,-851.02094,-532.831,-418.111,2.30041,1.02661,5.44551,1,-0.1015625,0,0,0,false,false,false,-772.75,-1631.77,17.01,0.0033420762,0.0034499723,-0.6932043,0.72072506,100.730995,-1954.1709,8.321,-0.00010999999,0,-0.31661,1,-1,0.11023622,-1,0,false,true,false,2088.3699,-2507.42,17.01,0.00036954353,0.0047824867,-0.10636692,0.9943153,1636.1909,-428.561,8.151,-0.00641,0.00111,-0.56441
158.76666,3132.21,-3528.8499,131.34999,0.81256425,0.47324678,0.28413692,-0.18719745,-850.58093,-532.55096,-428.731,2.30041,1.02661,5.44551,1,-0.09375,0,0,0,false,false,false,-771.12,-1664.34,17.01,0.0033528658,0.0034391826,-0.6950547,0.7189407,88.910995,-1954.5509,8.321,-0.00010999999,0,-0.28761,1,-1,0.11023622,-1,0,false,true,true,2115.8398,-2514.6099,17.01,0.00034796438,0.004782487,-0.11184804,0.99371374,1651.371,-432.991,8.151,-0.00371,0.00061,-0.92401
158.78334,3118.04,-3537.73,124.07,0.7889235,0.5024705,0.27740955,-0.21946922,-850.1409,-532.27094,-439.331,2.30041,1.02661,5.44551,1,-0.0859375,0,0,0,false,false,false,-769.69,-1696.9199,17.01,0.0033636554,0.003428393,-0.6967379,0.7173096,77.980995,-1954.851,8.321,-0.00010999999,0,-0.26221,1,-1,0.1023622,-1,0,false,false,true,2143.55,-2521.9,17.01,0.00036414873,0.0047824867,-0.1201183,0.99274796,1664.241,-445.931,8.161,-0.00131,0.00021,-1.21341
158.8,3103.88,-3546.5898,116.61,0.76331127,0.53043723,0.26998627,-0.25119615,-849.7009,-531.99097,-449.931,2.30041,1.02661,5.44551,1,-0.078125,0,0,0,false,false,false,-768.43,-1729.5,17.01,0.0033744453,0.0034176037,-0.69826466,0.71582353,67.921,-1955.0809,8.321,-0.00010999999,0.00010999999,-0.23931,1,-1,0.1023622,-1,0,false,false,true,2171.47,-2529.44,17.01,0.00040730712,0.0047824867,-0.13067596,0.9914135,1674.5609,-466.561,8.181,0.00030999997,-0.00010999999,-1.46091
158.81667,3089.72,-3555.45,108.979996,0.73579675,0.55707145,0.26188868,-0.2822919,-849.261,-531.71094,-460.531,2.30041,1.02661,5.44551,1,-0.0703125,0,0,0,false,false,false,-767.32996,-1762.08,17.01,0.00337984,0.003406814,-0.6996565,0.71446323,58.700996,-1955.251,8.321,-0.00010999999,0.00030999997,-0.21821,0,-1,0.1023622,-1,0,false,false,true,2199.3398,-2537.31,17.01,0.0004774395,0.0047716973,-0.14320272,0.9896817,1666.4009,-488.911,8.281,0.00131,-0.00030999997,-1.68171
158.83333,3075.5698,-3564.3098,101.17,0.7064389,0.58231914,0.25313824,-0.31268087,-848.821,-531.43097,-471.121,2.30041,1.02661,5.44551,1,-0.0625,0,0,0,false,false,false,-766.38995,-1794.6599,17.01,0.0033798397,0.0034068138,-0.70091885,0.71322477,50.271,-1955.381,8.321,0,0.00030999997,-0.19840999,0,-1,0.1023622,-1,0,false,false,false,2227.0798,-2545.56,17.01,0.0005583614,0.004760908,-0.15748279,0.9875101,1655.861,-515.42096,8.331,0.0016099999,-0.00040999998,-1.8824099
158.85,3061.43,-3573.17,93.189995,0.6753162,0.6061103,0.2437567,-0.34228763,-848.381,-531.15094,-481.701,2.30041,1.02661,5.44551,1,-0.0546875,0,0,0,false,false,false,-765.57996,-1827.25,17.01,0.0033798397,0.0034068138,-0.702068,0.71209365,42.600998,-1955.471,8.321,0,0.00021,-0.17971,0,-1,0.1023622,-1,0,false,false,false,2254.5999,-2554.27,17.01,0.00065007294,0.0047501177,-0.17327882,0.9848611,1635.641,-543.831,8.351,0.00211,-0.00021,-2.02981
158.86667,3049.46,-3581.28,93.259995,0.63151455,0.6362651,0.25944483,-0.35922733,-588.081,-442.291,292.121,3.00441,-3.87231,3.4609098,1,-0.046875,0,0,0,false,false,false,-764.88995,-1859.85,17.01,0.0033798397,0.0034068138,-0.7031038,0.7110709,35.631,-1955.5409,8.321,0,0,-0.16171,0,-1,0.1023622,-1,0,false,false,false,2281.77,-2563.47,17.01,0.00074717926,0.0047393283,-0.19015379,0.98174256,1612.001,-577.03094,8.351,0.0023100001,-0.00021,-2.14021
158.88333,3039.66,-3588.64,97.99,0.595024,0.65877074,0.28505942,-0.3615363,-587.78094,-442.051,281.141,3.00441,-3.87231,3.4609098,1,-0.046875,0,0,0,false,false,false,-764.32,-1892.45,17.01,0.0033798397,0.0034068138,-0.7040371,0.71014684,29.341,-1955.5809,8.321,0,0,-0.14431,0,-1,0.11023622,-1,0,false,false,false,2308.52,-2573.24,17.01,0.0008550751,0.004728538,-0.20780563,0.9781582,1584.731,-614.371,8.351,0.00241,-0.00040999998,-2.21891
158.9,3029.8599,-3596,102.54,0.5570499,0.6796251,0.3099619,-0.3629444,-587.48096,-441.811,270.161,3.00441,-3.87231,3.4609098,1,-0.0390625,0,0,0,false,false,false,-763.86,-1925.0499,17.01,0.0033798397,0.0034068138,-0.70486784,0.7093223,23.520998,-1955.601,8.321,0,0,-0.13150999,1,-1,0.11023622,-1,0,false,false,false,2334.81,-2583.65,17.01,0.0009629711,0.0047123544,-0.22597536,0.9741211,1553.751,-655.03094,8.351,0.00221,-0.00061,-2.27041
158.91667,3020.0798,-3603.3599,106.909996,0.5176785,0.6987884,0.33408752,-0.36344075,-587.18097,-441.57098,259.181,3.00441,-3.87231,3.4609098,1,-0.0390625,0,0,0,false,false,false,-763.49,-1957.6499,17.01,0.0033798397,0.0034068138,-0.70562315,0.7085709,18.331,-1955.611,8.321,0,-0.00010999999,-0.117809996,1,-1,0.11023622,-1,0,false,false,false,2360.5999,-2594.76,17.01,0.001070867,0.004690775,-0.24445802,0.9696479,1526.011,-702.23096,8.351,0.0018099999,-0.0010099999,-2.31021
158.93333,3010.3,-3610.72,111.09,0.47701246,0.71620226,0.35738233,-0.36303073,-586.881,-441.331,248.201,3.00441,-3.87231,3.4609098,1,-0.03125,0,0,0,false,false,false,-763.20996,-1990.25,17.01,0.0033798397,0.0034068138,-0.7062975,0.70789874,13.551,-1955.611,8.321,0,-0.00021,-0.10781,0,-1,0.11023622,-1,0,false,false,false,2385.91,-2606.66,17.01,0.0011787629,0.0046638013,-0.26312408,0.96474993,1494.751,-751.30096,8.351,0.0016099999,-0.0012099999,-2.32631
158.95,3000.52,-3618.0798,115.09,0.43515405,0.7318262,0.37978163,-0.36171436,-586.581,-441.091,237.241,3.00441,-3.87231,3.4609098,1,-0.03125,0,0,0,false,false,false,-763,-2022.85,17.01,0.0033798397,0.0034068138,-0.7069125,0.70728457,9.331,-1955.611,8.321,0,-0.00030999997,-0.096109994,1,-1,0.11811024,-1,0,false,true,false,2410.66,-2619.3699,17.01,0.0012866588,0.0046314322,-0.2817524,0.95947504,1453.361,-796.67096,8.351,0.0017099999,-0.00091,-2.31101
158.96666,2990.74,-3625.42,118.909996,0.3922113,0.74562,0.40123138,-0.35949168,-586.28094,-440.85098,226.281,3.00441,-3.87231,3.4609098,1,-0.0234375,0,0,0,false,false,false,-762.86,-2055.45,17.01,-0.0033798397,-0.0034068138,0.7074679,-0.70672905,5.4309998,-1955.591,8.321,0,-0.00030999997,-0.08761,1,-1,0.11811024,-1,0,false,false,false,2434.9,-2632.97,17.01,0.0013945547,0.0045990637,-0.3001487,0.95388025,1429.5809,-856.21094,8.271,0.00131,-0.0010099999,-2.29141
158.98334,2980.98,-3632.76,122.54,0.3482867,0.75755,0.42167774,-0.3563735,-585.98096,-440.611,215.321,3.00441,-3.87231,3.4609098,1,-0.0234375,0,0,0,false,false,false,-762.77997,-2088.05,17.01,-0.0033798397,-0.0034068138,0.7079687,-0.70622736,2.011,-1955.5709,8.321,0,-0.00040999998,-0.07701,1,-1,0.11811024,-1,0,false,false,false,2458.73,-2647.56,17.01,0.0014916611,0.0045666946,-0.31824294,0.947997,1402.8209,-915.9509,8.241,0.00111,-0.0010099999,-2.25441
159,2971.22,-3640.0999,125.99,0.30348814,0.76758957,0.44106674,-0.35236514,-585.68097,-440.371,204.371,3.00441,-3.87231,3.4609098,1,-0.0234375,0,0,0,false,false,false,-762.76,-2120.65,17.01,-0.00337984,-0.003406814,0.7084098,-0.70578504,-1.131,-1955.5509,8.321,0,-0.00051,-0.069309995,1,-1,0.11023622,-1,0,false,false,false,2482.0999,-2663.15,17.01,0.0015887675,0.004534326,-0.33590016,0.9418853,1373.4609,-975.311,8.221001,0.0010099999,-0.0010099999,-2.2025099
159.01666,2961.46,-3647.44,129.26,0.2579343,0.7757074,0.45935518,-0.34747744,-585.381,-440.131,193.431,3.00441,-3.87231,3.4609098,1,-0.015625,0,0,0,false,false,false,-762.79,-2153.25,17.01,-0.00337984,-0.003406814,0.7088073,-0.7053858,-3.991,-1955.5309,8.321,0,-0.00051,-0.06371,1,-1,0.11023622,-1,0,false,false,false,2504.97,-2679.73,17.01,0.0016858738,0.0045019574,-0.3530395,0.935596,1342.3309,-1033.1809,8.211,0.00081,-0.00091,-2.15711
159.03334,2951.7,-3654.78,132.34999,0.2117385,0.78188545,0.47649992,-0.34171578,-585.081,-439.891,182.491,3.00441,-3.87231,3.4609098,1,-0.015625,0,0,0,false,false,false,-762.86,-2185.8499,17.01,-0.00337984,-0.003406814,0.7091668,-0.70502436,-6.4509997,-1955.511,8.321,0,-0.00061,-0.055209998,-1,-1,0.11023622,-1,0,false,false,false,2527.16,-2697.14,17.01,0.0017721907,0.004469589,-0.36973113,0.9291263,1297.501,-1078.1709,8.291,0.00040999998,-0.00071,-2.12301
159.05,2941.96,-3662.0999,135.26,0.16500852,0.7861115,0.49244693,-0.33510712,-584.78094,-439.651,171.55101,3.00441,-3.87231,3.4609098,1,-0.015625,0,0,0,false,false,false,-762.97,-2218.45,17.01,-0.0033798397,-0.0034068138,0.70947766,-0.70471144,-8.701,-1955.491,8.321,0,-0.00061,-0.04911,0,-1,0.11023622,-1,0,false,false,false,2548.43,-2715.1099,17.01,0.0018585074,0.004442615,-0.38591555,0.92252153,1212.4109,-1077.871,8.321,0.00251,0.0010099999,-2.0308099
159.06667,2932.22,-3669.42,137.98,0.117868625,0.7883733,0.507164,-0.3276569,-584.48096,-439.411,160.631,3.00441,-3.87231,3.4609098,1,-0.015625,0,0,0,false,false,false,-763.12,-2251.05,17.01,-0.00337984,-0.003406814,0.7097616,-0.7044256,-10.751,-1955.471,8.321,0,-0.00061,-0.044609997,1,-1,0.12598425,-1,0,false,false,false,2568.42,-2733.21,17.01,0.001944824,0.00442643,-0.40146336,0.91586226,1160.4509,-1111.351,8.331,0.00071,0.00010999999,-2.02631
159.08333,2922.48,-3676.74,140.52,0.070432015,0.78866184,0.52061874,-0.31938663,-584.18097,-439.171,149.711,3.00441,-3.87231,3.4609098,1,-0.0078125,0,0,0,false,false,false,-763.31,-2283.65,17.01,-0.0033798392,-0.0034014184,0.7100185,-0.7041665,-12.621,-1955.4509,8.321,0,-0.00071,-0.041309997,0,-1,0.12598425,-1,0,false,false,false,2587.5698,-2751.89,17.01,0.0020203511,0.0043940614,-0.41688716,0.9089453,1114.2009,-1148.741,8.331,-0.00030999997,-0.00021,-2.03301
159.1,2912.74,-3684.0598,142.87999,0.022822771,0.78697807,0.53277326,-0.31031796,-583.881,-438.931,138.791,3.00441,-3.87231,3.4609098,1,-0.0078125,0,0,0,false,false,false,-763.52997,-2316.25,17.01,-0.0033798397,-0.003401419,0.71025383,-0.7039292,-14.1710005,-1955.4309,8.321,0,-0.00071,-0.034509998,-1,-1,0.11811024,-1,0,false,false,false,2605.92,-2771.15,17.01,0.0020958784,0.004361693,-0.43220848,0.9017607,1062.651,-1176.661,8.331,-0.00021,-0.00010999999,-2.02621
159.11667,2903.02,-3691.38,145.06,-0.02484582,0.78332615,0.5435953,-0.3004778,-583.581,-438.691,127.881,3.00441,-3.87231,3.4609098,1,-0.0078125,0,0,0,false,false,false,-763.76996,-2348.8499,17.01,-0.0033798397,-0.003401419,0.7104463,-0.70373493,-15.601,-1955.4109,8.321,0,-0.00071,-0.02961,1,-1,0.13385826,-1,0,false,false,false,2623.3,-2790.7,17.01,0.0021714056,0.0043293242,-0.44723302,0.89440435,982.97095,-1161.341,8.331,0.0018099999,0.00081,-1.9584099
159.13333,2893.3,-3698.68,147.05,-0.07244971,0.7777186,0.55305773,-0.28988236,-583.28094,-438.451,116.980995,3.00441,-3.87231,3.4609098,1,-0.0078125,0,0,0,false,false,false,-764.04,-2381.43,17.01,-0.0033798397,-0.003401419,0.7106119,-0.70356774,-16.880999,-1955.391,8.321,0,-0.00071,-0.02601,0,-1,0.13385826,-1,0,false,false,false,2639.49,-2810.19,17.01,0.0022523273,0.00430235,-0.461826,0.88695717,936.21094,-1191.7009,8.331,-0.00030999997,0,-1.98631
159.15,2883.5798,-3705.98,148.86,-0.119875535,0.7701673,0.56113374,-0.27856943,-582.98096,-438.211,106.08099,3.00441,-3.87231,3.4609098,1,-0.0078125,0,0,0,false,false,false,-764.32996,-2414.01,17.01,-0.0033798397,-0.003401419,0.7107614,-0.70341665,-18.030998,-1955.371,8.321,0,-0.00071,-0.02341,0,1,0.13385826,-1,0,false,false,true,2654.88,-2830.14,17.01,0.002317065,0.0042591915,-0.47645673,0.8791845,885.35095,-1212.1809,8.331,-0.00051,0,-1.9937099
159.16667,2873.8599,-3713.28,150.48999,-0.16699924,0.7606934,0.56780714,-0.2665552,-582.68097,-437.971,95.181,3.00441,-3.87231,3.4609098,1,-0.0078125,0,0,0,false,false,false,-764.63,-2446.5898,17.01,-0.00337984,-0.0034014191,0.7108949,-0.7032819,-19.060999,-1955.351,8.321,0,-0.00071,-0.02141,0,1,0.13385826,-1,0,false,false,false,2669.5999,-2850.3499,17.01,0.0023925917,0.004210638,-0.4889133,0.87231874,875.001,-1216.0809,8.331,0.00331,-0.00711,-0.93801
159.18333,2864.16,-3720.5798,151.94,-0.21370755,0.7493167,0.5730617,-0.25387737,-582.381,-437.731,84.300995,3.00441,-3.87231,3.4609098,1,-0.0078125,0,0,0,false,false,false,-764.95,-2479.17,17.01,-0.0033798397,-0.003401419,0.7110176,-0.7031577,-19.980999,-1955.3309,8.321,0,-0.00071,-0.01991,1,-1,0.14173228,-1,0,false,false,false,2684.1099,-2870.6099,17.01,0.0024735143,0.0041566906,-0.49422726,0.86931926,856.86096,-1215.5609,8.321,0.00361,-0.00741,-0.17040999
159.2,2854.46,-3727.88,153.20999,-0.25988182,0.7360656,0.5768866,-0.24056298,-582.081,-437.491,73.421,3.00441,-3.87231,3.4609098,1,-0.0078125,0,0,0,false,false,false,-765.29,-2511.75,17.01,-0.00337984,-0.0034014191,0.71113497,-0.7030391,-20.821,-1955.3109,8.321,0,-0.00071,-0.01881,1,-1,0.14173228,-1,0,false,false,false,2698.17,-2890.98,17.01,0.0025166722,0.0041243215,-0.4965794,0.8679778,808.27094,-1239.9509,8.331,-0.0018099999,0.0017099999,-0.70091
159.21666,2844.76,-3735.16,154.3,-0.30540872,0.72097605,0.5792658,-0.22664978,-581.78094,-437.261,62.540997,3.00441,-3.87231,3.4609098,1,0,0,0,0,false,false,false,-765.63995,-2544.3298,17.01,-0.0033798397,-0.003401419,0.7112416,-0.70293117,-21.601,-1955.2909,8.321,0,-0.00081,-0.01801,0,0.062992126,0.14173228,-1,0,false,false,false,2711.48,-2911.73,17.01,0.0025166722,0.004118927,-0.5023249,0.8646654,769.121,-1259.3009,8.331,-0.00321,0.0043099998,-1.05571
159.23334,2835.06,-3742.44,155.20999,-0.3501641,0.7040882,0.580199,-0.21216464,-581.48096,-437.041,51.661,3.00441,-3.87231,3.4609098,1,0,0,0,0,false,false,false,-766,-2576.91,17.01,-0.0033798397,-0.003401419,0.71133757,-0.702834,-22.151,-1955.2709,8.321,0,-0.00081,-0.01311,0,-0.078125,0.14173228,-1,0,false,false,false,2724.22,-2932.72,17.01,0.0025220672,0.0041135317,-0.50928414,0.8605848,749.79095,-1259.991,8.311,-0.00061,0.00051,-0.73411
159.25,2825.38,-3749.72,155.94,-0.39405096,0.68543327,0.5796866,-0.1971509,-581.18097,-436.82098,40.801,3.00441,-3.87231,3.4609098,1,0,0,0,0,false,false,false,-766.37,-2609.49,17.01,-0.0033798397,-0.003401419,0.7114069,-0.7027639,-22.661,-1955.251,8.321,0,-0.00081,-0.009609999,0,-1,0.14173228,-1,0,false,false,false,2736.6199,-2953.73,17.01,0.0025436464,0.0041027423,-0.51425815,0.8576218,727.41095,-1262.031,8.311,-0.00010999999,0,-0.58761
159.26666,2815.7,-3757,156.48,-0.4369505,0.6650724,0.5777174,-0.18164615,-580.881,-436.60098,29.940998,3.00441,-3.87231,3.4609098,1,0,0,0,0,false,false,false,-766.75,-2642.0698,17.01,-0.0033798397,-0.003401419,0.7114602,-0.70271,-23.110998,-1955.231,8.321,0,-0.00081,-0.00701,1,-1,0.1496063,-1,0,false,false,false,2748.5698,-2974.8,17.01,0.0025598307,0.0040973476,-0.51927537,0.8545932,688.66095,-1269.361,8.331,-0.0018099999,0.00351,-0.99151
159.28334,2806.02,-3764.28,156.84,-0.47875494,0.64304847,0.5743079,-0.1656883,-580.581,-436.381,19.081,3.00441,-3.87231,3.4609098,1,0,0,0,0,false,false,false,-767.13,-2674.65,17.01,-0.0033798397,-0.003401419,0.7114974,-0.7026722,-23.491,-1955.2109,8.321,0,-0.00081,-0.00521,1,-0.0546875,0.1496063,-1,0,false,false,false,2759.92,-2996.01,17.01,0.0025706203,0.0040919525,-0.52687126,0.84993124,657.561,-1282.4509,8.331,-0.00241,0.00361,-1.2811099
159.3,2796.3398,-3771.5498,157.01999,-0.5193671,0.61941427,0.5694634,-0.14931506,-580.28094,-436.161,8.231,3.00441,-3.87231,3.4609098,1,0,0,0,0,false,false,false,-767.52997,-2707.23,17.01,-0.0033798397,-0.003401419,0.71152407,-0.70264524,-23.810999,-1955.1909,8.321,0,-0.00081,-0.00391,1,-1,0.1496063,-1,0,false,false,false,2770.8398,-3017.41,17.01,0.002586805,0.004075769,-0.5352872,0.8446563,645.86096,-1288.031,8.321,-0.00030999997,-0.00091,-0.95271
159.31667,2786.68,-3778.8098,157.01999,-0.5586791,0.5942346,0.5631945,-0.13256952,-579.98096,-435.941,-2.6009998,3.00441,-3.87231,3.4609098,1,0,0,0,0,false,false,false,-767.93,-2739.81,17.01,-0.00337984,-0.0034014191,0.71154547,-0.70262367,-24.060999,-1955.1709,8.321,0,-0.00081,-0.00291,0,-1,0.1496063,-1,0,false,false,false,2781.45,-3038.93,17.01,0.0026137787,0.0040487945,-0.54262954,0.8399582,611.68097,-1300.9109,8.331,-0.0014099999,0.0017099999,-1.2739099
159.33333,2777.02,-3786.0698,156.84,0.596601,-0.56756437,-0.55551773,0.11548952,-579.68097,-435.721,-13.4210005,3.00441,-3.87231,3.4609098,1,0,0,0,0,false,false,false,-768.32996,-2772.39,17.01,-0.00337984,-0.0034014191,0.7115614,-0.7026075,-24.270998,-1955.1509,8.321,0,-0.00081,-0.00221,0,-1,0.1496063,-1,0,false,false,false,2791.5,-3060.63,17.01,0.0026407526,0.0040272153,-0.5518978,0.83389777,576.46094,-1304.271,8.331,-0.00091,0.00201,-1.47771
159.35,2767.3599,-3793.3298,156.48,0.6330257,-0.539479,-0.54645455,0.098123595,-579.381,-435.501,-24.241,3.00441,-3.87231,3.4609098,1,0,0,0,0,false,false,false,-768.73,-2804.97,17.01,-0.0033798397,-0.003401419,0.71157205,-0.70259666,-24.440998,-1955.131,8.321,0,-0.00081,-0.0016099999,1,0.2992126,0.16535433,-1,0,false,false,false,2800.96,-3082.38,17.01,0.002678516,0.0040056356,-0.5624069,0.8268464,540.701,-1307.031,8.331,-0.00051,0.00151,-1.63051
159.36667,2757.7,-3800.5898,155.94,0.6678684,-0.5100448,-0.53602624,0.08050957,-579.081,-435.281,-35.060997,3.00441,-3.87231,3.4609098,1,0,0,0,0,false,false,false,-769.13,-2837.55,17.01,-0.0033798397,-0.003401419,0.71158266,-0.7025859,-24.571,-1955.121,8.321,0,-0.00081,-0.0012099999,1,-1,0.16535433,-1,0,false,false,false,2809.95,-3104.17,17.01,0.002732464,0.0039678724,-0.5724197,0.8199465,533.04095,-1309.471,8.321,0.00131,-0.00451,-0.99941
159.38333,2748.06,-3807.8499,155.22,0.70104283,-0.4793322,-0.5242603,0.06269588,-578.78094,-435.061,-45.861,3.00441,-3.87231,3.4609098,1,0,0,0,0,false,false,false,-769.54,-2870.13,17.01,-0.0033798397,-0.003401419,0.71159333,-0.7025751,-24.671,-1955.121,8.321,0,-0.00081,-0.00091,1,-1,0.16535433,-1,0,false,false,false,2818.66,-3126.04,17.01,0.002786412,0.003930108,-0.5798375,0.81471777,493.531,-1320.4509,8.331,-0.00051,0.00021,-1.3134099
159.4,2738.42,-3815.0898,154.31999,0.7324617,-0.44742718,-0.51118314,0.044725724,-578.48096,-434.841,-56.661,3.00441,-3.87231,3.4609098,1,0,0,0,0,false,false,false,-769.95996,-2902.71,17.01,-0.0033798397,-0.003401419,0.7115987,-0.70256966,-24.761,-1955.121,8.321,0,-0.00081,-0.00071,1,-1,0.16535433,-1,0,false,false,false,2826.73,-3148.0898,17.01,0.0028241756,0.0038977403,-0.58911127,0.80803746,457.221,-1330.4209,8.331,-0.00091,0.0014099999,-1.52931
159.41667,2728.78,-3822.3298,153.23999,0.7620531,-0.41440016,-0.49682757,0.026642285,-578.18097,-434.621,-67.461,3.00441,-3.87231,3.4609098,1,0,0,0,0,false,false,false,-770.38,-2935.29,17.01,-0.0033798397,-0.003401419,0.7115987,-0.70256966,-24.831,-1955.121,8.321,0,-0.00081,-0.00051,0,-1,0.15748031,-1,0,false,false,false,2834.2,-3170.3098,17.01,0.0028619394,0.0038653715,-0.59964734,0.8002498,421.32098,-1340.151,8.331,-0.00081,0.00131,-1.68941
159.43333,2719.14,-3829.5698,151.98,0.78973913,-0.38033727,-0.48123115,0.008494106,-577.881,-434.401,-78.251,3.00441,-3.87231,3.4609098,1,0,0,0,0,false,false,false,-770.8,-2967.8699,17.01,-0.0033798397,-0.003401419,0.7115987,-0.70256966,-24.870998,-1955.121,8.321,0,-0.00081,-0.00030999997,1,-0.0625,0.18110237,-1,0,false,false,false,2841.0598,-3192.65,17.01,0.0029050978,0.0038330026,-0.61103576,0.79158825,382.471,-1339.361,8.331,-0.00010999999,0.00081,-1.79311
159.45,2709.52,-3836.8098,150.54,0.815454,-0.34532493,-0.4644263,-0.00967561,-577.581,-434.181,-89.031,3.00441,-3.87231,3.4609098,1,0,0,0,0,false,false,false,-771.22,-3000.45,17.01,-0.0033798397,-0.003401419,0.7115987,-0.70256966,-24.901,-1955.121,8.321,0,-0.00081,-0.00010999999,1,-1,0.17322835,-1,0,false,false,false,2847.3699,-3215,17.01,0.0029644405,0.0037844495,-0.62198186,0.7830168,364.891,-1346.4409,8.321,0.00051,-0.00371,-1.33371
159.46666,2699.9,-3844.0498,148.92,0.839127,-0.30944937,-0.44646692,-0.027823787,-577.28094,-433.961,-99.811,3.00441,-3.87231,3.4609098,1,0,0,0,0,false,false,false,-771.63995,-3033.03,17.01,-0.0033798397,-0.003401419,0.7115987,-0.70256966,-24.921,-1955.121,8.321,0,-0.00081,-0.00010999999,1,-1,0.17322835,-1,0,false,false,false,2853.27,-3237.48,17.01,0.0030237832,0.0037358964,-0.6311099,0.77567846,322.421,-1355.5709,8.331,-0.00030999997,0,-1.57481
159.48334,2690.28,-3851.28,147.12,0.8607072,-0.272797,-0.42738545,-0.045896396,-576.98096,-433.741,-110.590996,3.00441,-3.87231,3.4609098,1,0,0,0,0,false,false,false,-772.06,-3065.6099,17.01,-0.0033798397,-0.003401419,0.7115987,-0.70256966,-24.931,-1955.121,8.321,0,-0.00081,-0.00010999999,1,-1,0.17322835,-1,0,false,false,false,2858.48,-3260.1099,17.01,0.0030669416,0.003692738,-0.6415057,0.76710314,282.401,-1363.4609,8.331,-0.00040999998,0.00091,-1.7308099
159.5,2680.66,-3858.5,145.14,0.8801325,-0.23546486,-0.40724123,-0.06385575,-576.68097,-433.521,-121.351,3.00441,-3.87231,3.4609098,1,0,0,0,0,false,false,false,-772.48,-3098.19,17.01,-0.0033798397,-0.003401419,0.7115987,-0.70256966,-24.931,-1955.121,8.321,0,-0.00081,-0.00010999999,1,-1,0.17322835,-1,0,false,false,false,2863.02,-3282.8599,17.01,0.0031101,0.0036495796,-0.6526946,0.75760585,242.36101,-1370.2909,8.331,-0.00030999997,0.00081,-1.8457099
159.51666,2671.06,-3865.72,142.98,0.8973607,-0.19754471,-0.38607198,-0.081658624,-576.381,-433.301,-132.11101,3.00441,-3.87231,3.4609098,1,0,0,0,0,false,false,false,-772.89996,-3130.77,17.01,-0.0033798397,-0.003401419,0.7115987,-0.70256966,-24.931,-1955.121,8.321,0,-0.00081,-0.00010999999,0,-1,0.17322835,-1,0,false,false,false,2866.89,-3305.72,17.01,0.0031640478,0.0036064212,-0.66441214,0.7473509,201.55101,-1376.021,8.331,-0.00021,0.00051,-1.93101
159.53334,2661.46,-3872.94,140.64,0.9123434,-0.15913358,-0.3639424,-0.09925654,-576.081,-433.081,-142.871,3.00441,-3.87231,3.4609098,1,0,0,0,0,false,false,false,-773.32,-3163.3499,17.01,-0.0033798397,-0.003401419,0.7115987,-0.70256966,-24.931,-1955.121,8.321,0,-0.00081,-0.00010999999,1,-1,0.19685039,-1,0.015748031,false,false,false,2870.0698,-3328.63,17.01,0.0032179959,0.0035524734,-0.67642635,0.73649454,159.181,-1368.9609,8.331,0.00030999997,0.00010999999,-1.97731
159.55,2651.8599,-3880.16,138.12,0.9250468,-0.1203233,-0.34090117,-0.11660629,-575.78094,-432.861,-153.631,3.00441,-3.87231,3.4609098,1,0,0,0,0,false,false,false,-773.74,-3195.93,17.01,-0.0033798397,-0.003401419,0.7115987,-0.70256966,-24.931,-1955.121,8.321,0,-0.00081,-0.00010999999,1,-1,0.19685039,-1,0.015748031,false,false,false,2872.55,-3351.46,17.01,0.0032827335,0.0034985254,-0.6885593,0.7251641,115.931,-1372.3209,8.331,0,0,-2.03371
159.56667,2642.26,-3887.38,135.42,0.93543637,-0.08121086,-0.31701294,-0.13366467,-575.48096,-432.641,-164.371,3.00441,-3.87231,3.4609098,1,0,0,0,0,false,false,false,-774.16,-3228.51,17.01,-0.0033798397,-0.003401419,0.7115987,-0.70256966,-24.931,-1955.121,8.321,0,-0.00081,-0.00010999999,1,-1,0.19685039,-1,0.015748031,false,false,false,2874.3,-3374.3499,17.01,0.003336681,0.0034445769,-0.7008163,0.7133255,71.701,-1374.251,8.331,0,0,-2.07621
159.58333,2632.68,-3894.5798,132.55,0.9434881,-0.04189885,-0.2923316,-0.15038861,-575.18097,-432.421,-175.11101,3.00441,-3.87231,3.4609098,1,0,0,0,0,false,false,false,-774.57996,-3261.0898,17.01,-0.0033798397,-0.003401419,0.7115987,-0.70256966,-24.931,-1955.121,8.321,0,-0.00081,-0.00010999999,1,-1,0.18897638,-1,0.023622047,false,false,false,2875.3098,-3397.25,17.01,-0.003401419,-0.0033852346,0.7131029,-0.7010429,26.520998,-1374.641,8.331,-0.00010999999,-0.00010999999,-2.1089098
159.6,2623.0999,-3901.78,129.5,0.9491832,-0.002478909,-0.26691666,-0.1667349,-574.881,-432.201,-185.851,3.00441,-3.87231,3.4609098,1,0,0,0,0,false,false,false,-775,-3293.67,17.01,-0.0033798397,-0.003401419,0.7115987,-0.70256966,-24.931,-1955.121,8.321,0,-0.00081,-0.00010999999,1,-1,0.19685039,-1,0.023622047,false,false,false,2875.5598,-3420.15,17.01,-0.003455367,-0.003320497,0.7253536,-0.6883597,-19.491,-1373.401,8.331,-0.00010999999,-0.00010999999,-2.1342099
159.61667,2613.52,-3908.98,126.27,0.9525059,0.036946423,-0.24083269,-0.1826658,-574.581,-431.981,-196.58101,3.00441,-3.87231,3.4609098,1,0,0,0,0,false,false,false,-775.42,-3326.25,17.01,-0.0033798397,-0.003401419,0.7115987,-0.70256966,-24.931,-1955.121,8.321,0,-0.00081,-0.00010999999,1,-0.9375,0.22047244,-1,0.023622047,false,false,false,2875.04,-3443.02,17.01,-0.0035093152,-0.0032557596,0.7375138,-0.6753151,-66.190994,-1370.471,8.331,0,-0.00021,-2.15401
159.63333,2603.94,-3916.18,122.86,0.95344764,0.07627997,-0.21414994,-0.19813813,-574.28094,-431.761,-207.301,3.00441,-3.87231,3.4609098,1,0,0,0,0,false,false,false,-775.83997,-3358.8298,17.01,-0.0033798397,-0.003401419,0.7115987,-0.70256966,-24.931,-1955.121,8.321,0,-0.00081,-0.00010999999,1,-1,0.22047244,-1,0.023622047,false,false,false,2873.75,-3465.8398,17.01,-0.0035740524,-0.003191022,0.7494831,-0.662006,-112.131,-1366.251,8.331,0,-0.00061,-2.13381
159.65,2594.38,-3923.38,119.27,0.95200664,0.11541939,-0.1869331,-0.21311413,-573.98096,-431.541,-218.021,3.00441,-3.87231,3.4609098,1,0,0,0,0,false,false,false,-776.26,-3391.41,17.01,-0.0033798397,-0.003401419,0.7115987,-0.70256966,-24.931,-1955.121,8.321,0,-0.00081,-0.00010999999,1,-1,0.22047244,-1,0.023622047,false,false,false,2871.69,-3488.5798,17.01,-0.0036333953,-0.0031262843,0.7611695,-0.6485352,-159.91101,-1359.741,8.341001,0,-0.00030999997,-2.15731
159.66667,2584.8198,-3930.5698,115.5,0.9481856,0.15427287,-0.15924688,-0.22756147,-573.68097,-431.32098,-228.741,3.00441,-3.87231,3.4609098,1,0,0,0,0,false,false,false,-776.68,-3423.99,17.01,-0.0033798397,-0.003401419,0.7115987,-0.70256966,-24.931,-1955.121,8.321,0,-0.00081,-0.00010999999,1,-1,0.22047244,-1,0.023622047,false,false,false,2868.8298,-3511.21,17.01,-0.003687343,-0.0030615467,0.772728,-0.6347191,-207.631,-1351.501,8.341001,0,-0.00021,-2.17411
159.68333,2575.26,-3937.75,111.549995,0.9419941,0.19273795,-0.13116689,-0.24144235,-573.381,-431.10098,-239.441,3.00441,-3.87231,3.4609098,1,0,0,0,0,false,false,false,-777.1,-3456.5698,17.01,-0.0033798397,-0.003401419,0.7115987,-0.70256966,-24.931,-1955.121,8.321,0,-0.00081,-0.00010999999,1,0.97637796,0.2519685,-1,0.023622047,false,false,true,2865.17,-3533.69,17.01,-0.0037412911,-0.0029968093,0.78411615,-0.6205954,-255.33101,-1341.501,8.341001,0,-0.00021,-2.1874099
159.7,2565.7,-3944.93,107.43,0.93344843,0.23072278,-0.10275776,-0.25471896,-573.081,-430.881,-250.141,3.00441,-3.87231,3.4609098,1,0,0,0,0,false,false,false,-777.51996,-3489.15,17.01,-0.0033798397,-0.003401419,0.7115987,-0.70256966,-24.931,-1955.121,8.321,0,-0.00081,-0.00010999999,1,0.047244094,0.2519685,-1,0.023622047,false,false,false,2860.9,-3556.0498,17.01,-0.0038060287,-0.002921282,0.7937169,-0.60826826,-259.521,-1340.611,8.341001,-0.0023100001,-0.00871,-1.05121
159.71666,2556.16,-3952.1099,103.13,0.92257017,0.26813585,-0.07408973,-0.26735362,-572.78094,-430.661,-260.841,3.00441,-3.87231,3.4609098,1,0,0,0,0,false,false,false,-777.94,-3521.73,17.01,-0.0033798397,-0.003401419,0.7115987,-0.70256966,-24.931,-1955.121,8.321,0,-0.00081,-0.00010999999,1,-1,0.24409449,-1,0.023622047,false,false,false,2856.45,-3578.3699,17.01,-0.0038707666,-0.0028349655,0.7986406,-0.6017891,-290.051,-1335.371,8.311,-0.00151,-0.00491,-0.77630997
159.73334,2546.6199,-3959.2898,98.65,0.909386,0.30487457,-0.045232832,-0.27932468,-572.48096,-430.441,-271.54102,3.00441,-3.87231,3.4609098,1,0,0,0,0,false,false,false,-778.36,-3554.3098,17.01,-0.0033798397,-0.003401419,0.7115987,-0.70256966,-24.931,-1955.121,8.321,0,-0.00081,-0.00010999999,1,-1,0.24409449,-1,0.015748031,false,false,false,2851.4,-3600.5598,17.01,-0.003903135,-0.0027864121,0.8031178,-0.5958008,-339.011,-1320.2009,8.331,0.00051,0.00211,-1.18611
159.75,2537.0798,-3966.46,93.99,0.8939293,0.34085256,-0.016268048,-0.2905945,-572.18097,-430.221,-282.221,3.00441,-3.87231,3.4609098,1,0,0,0,0,false,false,false,-778.77997,-3586.89,17.01,-0.0033798397,-0.003401419,0.7115987,-0.70256966,-24.931,-1955.121,8.321,0,-0.00081,-0.00010999999,1,-0.2734375,0.28346455,-1,0.007874016,false,false,false,2845.5598,-3622.51,17.01,-0.0039139246,-0.002764833,0.8093169,-0.5873526,-381.151,-1307.101,8.331,0.0010099999,0.00371,-1.45251
159.76666,2528.06,-3973.25,93.03,0.8745552,0.3780175,0.020869853,-0.30301875,-509.441,-385.471,172.491,3.24541,-4.28921,2.65891,1,0,0,0,0,false,false,false,-779.2,-3619.47,17.01,-0.0033798397,-0.003401419,0.7115987,-0.70256966,-24.931,-1955.121,8.321,0,-0.00081,-0.00010999999,1,-0.4140625,0.2913386,-1,0.007874016,false,false,false,2839.0999,-3644.27,17.01,-0.0039301086,-0.002737859,0.8160623,-0.577944,-406.151,-1301.781,8.321,0,0.00040999998,-1.22321
159.78334,2519.5798,-3979.67,95.77,0.85615367,0.40717646,0.055596326,-0.31323653,-509.181,-385.271,161.571,3.24541,-4.28921,2.65891,1,0,0,0,0,false,false,false,-779.62,-3652.0498,17.01,-0.0033798397,-0.003401419,0.7115987,-0.70256966,-24.931,-1955.121,8.321,0,-0.00081,-0.00010999999,1,-1,0.28346455,-1,0.007874016,false,false,false,2832.21,-3665.94,17.01,-0.003951688,-0.0026947006,0.8218195,-0.5697277,-434.82098,-1294.151,8.321,0,0,-1.1497099
159.8,2511.0999,-3986.0898,98.329994,0.8356101,0.4353213,0.09018785,-0.3226721,-508.921,-385.07098,150.651,3.24541,-4.28921,2.65891,1,0,0,0,0,false,false,false,-780.04,-3684.63,17.01,-0.0033798397,-0.003401419,0.7115987,-0.70256966,-24.931,-1955.121,8.321,0,-0.00081,-0.00010999999,1,-1,0.2913386,-1,0.007874016,false,false,false,2824.8,-3687.44,17.01,-0.003973267,-0.002656937,0.8276271,-0.56125784,-473.451,-1279.4409,8.331,0.0010099999,0.00241,-1.44001
159.81667,2502.6199,-3992.51,100.7,0.8129806,0.46237087,0.12455286,-0.33130378,-508.661,-384.871,139.731,3.24541,-4.28921,2.65891,1,0,0,0,0,false,false,false,-780.45996,-3717.21,17.01,-0.0033798397,-0.003401419,0.7115987,-0.70256966,-24.931,-1955.121,8.321,0,-0.00081,-0.00010999999,1,-1,0.2992126,-1,0.007874016,false,false,false,2816.75,-3708.7,17.01,-0.0039948467,-0.0026245685,0.834547,-0.550916,-509.211,-1265.3009,8.331,0.00111,0.00251,-1.63871
159.83333,2494.14,-3998.93,102.89,0.78831446,0.4882713,0.15860488,-0.33911008,-508.401,-384.671,128.821,3.24541,-4.28921,2.65891,1,0,0,0,0,false,false,false,-780.88,-3749.7898,17.01,-0.0033798397,-0.003401419,0.7115987,-0.70256966,-24.931,-1955.121,8.321,0,-0.00081,-0.00010999999,1,-1,0.2913386,-1,0.015748031,false,false,false,2808.1199,-3729.72,17.01,-0.004016426,-0.002586805,0.84216857,-0.5391931,-544.34094,-1250.481,8.331,0.0010099999,0.0018099999,-1.7847099
159.85,2485.67,-4005.3298,104.899994,0.7616834,0.51294714,0.19225779,-0.34606394,-508.141,-384.471,117.921,3.24541,-4.28921,2.65891,1,0,0,0,0,false,false,false,-781.3,-3782.3699,17.01,-0.0033798397,-0.003401419,0.7115987,-0.70256966,-24.931,-1955.121,8.321,0,-0.00081,-0.00010999999,1,-1,0.2913386,-1,0.015748031,false,false,false,2798.9,-3750.49,17.01,-0.0040487945,-0.0025382515,0.85022235,-0.52640194,-579.65094,-1234.391,8.331,0.00071,0.0010099999,-1.8924099
159.86667,2477.21,-4011.73,106.729996,0.7331439,0.5363445,0.22543588,-0.35215476,-507.88098,-384.271,107.020996,3.24541,-4.28921,2.65891,1,1,0,0,0,false,false,true,-781.72,-3814.95,17.01,-0.0033798397,-0.003401419,0.7115987,-0.70256966,-24.931,-1955.121,8.321,0,-0.00081,-0.00010999999,1,-1,0.2992126,-1,0.015748031,false,false,false,2789.0898,-3770.99,17.01,-0.004081163,-0.0024843037,0.8585099,-0.5127746,-615.48096,-1216.6709,8.331,0.00040999998,0.00040999998,-1.97241
159.88333,2468.75,-4018.13,108.38,0.7027751,0.55839854,0.25805297,-0.35736072,-507.621,-384.07098,96.120995,3.24541,-4.28921,2.65891,1,1,0,0,0,false,false,true,-782.05,-3847.53,17.01,-0.0033852346,-0.0033960242,0.7107081,-0.7034706,-4.391,-1953.6609,8.321,0,-0.00511,0.55321,1,-1,0.3464567,-1,0.015748031,false,false,false,2778.68,-3791.19,17.01,-0.004124321,-0.0024195658,0.8668888,-0.4984783,-651.871,-1197.111,8.331,0.00021,0,-2.03241
159.9,2460.29,-4024.53,109.85,0.67064553,0.57906073,0.29002264,-0.36167657,-507.361,-383.871,85.230995,3.24541,-4.28921,2.65891,1,1,0,0,0,false,false,true,-782.05,-3880.0798,17.01,0.0033960242,0.0033852346,-0.70681536,0.7073817,15.371,-1952.131,8.321,0,-0.00531,0.96700996,0,-1,0.36220473,1,0.015748031,false,false,false,2767.66,-3811.0598,17.01,-0.00416748,-0.0023494337,0.8752554,-0.48363724,-688.701,-1175.621,8.331,0,-0.00021,-2.07791
159.91667,2451.8298,-4030.93,111.13,0.63684565,0.5982717,0.3212641,-0.36508614,-507.10098,-383.671,74.351,3.24541,-4.28921,2.65891,1,1,0,0,0,false,false,true,-781.7,-3912.6099,17.01,0.0033960242,0.0033852346,-0.70057356,0.713564,38.031,-1950.1509,8.331,0,-0.00421,1.30111,1,-1,0.37007874,1,0.023622047,false,false,false,2756.06,-3830.52,17.01,-0.0042106383,-0.0022739065,0.88351375,-0.46838066,-718.511,-1142.511,8.331,0.00021,-0.00071,-2.0938098
159.93333,2443.39,-4037.3298,112.229996,0.6014492,0.6159894,0.35170698,-0.36758396,-506.841,-383.471,63.470997,3.24541,-4.28921,2.65891,1,1,0,0,0,false,false,true,-780.95996,-3945.0999,17.01,0.0033798397,0.003401419,-0.6923573,0.7215388,64.381,-1947.361,8.331,0,-0.00281,1.58051,1,-1,0.37007874,1,0.023622047,false,false,false,2743.93,-3849.46,17.01,-0.004253797,-0.0021983793,0.891588,-0.45282203,-755.78094,-1117.1809,8.341001,0,-0.00040999998,-2.12921
159.95,2434.95,-4043.71,113.149994,0.56454873,0.63216996,0.38126516,-0.36916465,-506.581,-383.271,52.591,3.24541,-4.28921,2.65891,1,1,0,0,0,false,false,true,-779.76,-3977.5398,17.01,0.0033474711,0.003433788,-0.6824147,0.73094946,94.120995,-1943.4509,8.341001,0,-0.0016099999,1.82031,1,-1,0.35433072,1,0.023622047,false,false,false,2731.18,-3867.97,17.01,-0.0042969557,-0.0021228525,0.89950943,-0.43687502,-792.73096,-1090.0809,8.341001,-0.00010999999,-0.00021,-2.15621
159.96666,2426.51,-4050.0898,113.89,0.5262401,0.6467689,0.40986854,-0.3698228,-506.32098,-383.07098,41.731,3.24541,-4.28921,2.65891,1,1,0,0,0,false,false,true,-778.06,-4009.9,17.01,0.0032989178,0.0034769461,-0.6709183,0.7415157,126.361,-1938.1909,8.341001,0,-0.00071,2.02941,1,-1,0.37795275,1,0.023622047,false,false,false,2717.81,-3886.02,17.01,-0.004340113,-0.002047325,0.9072315,-0.4206042,-829.22095,-1061.221,8.341001,-0.00030999997,-0.00021,-2.17711
159.98334,2418.0698,-4056.47,114.45,0.48661518,0.65974814,0.43745223,-0.36955845,-506.061,-382.871,30.870998,3.24541,-4.28921,2.65891,1,1,0,0,0,false,false,true,-775.82,-4042.17,17.01,0.003239575,0.0035308942,-0.6579815,0.75301874,159.881,-1931.471,8.341001,0,0,2.21271,1,-1,0.37795275,1,0.023622047,false,false,false,2703.8398,-3903.5798,17.01,-0.0043724827,-0.0019610086,0.9147278,-0.4040421,-865.11096,-1030.631,8.341001,-0.00030999997,-0.00010999999,-2.19361
160,2409.63,-4062.8499,114.829994,0.44577643,0.6710802,0.46394077,-0.36836624,-505.801,-382.671,20.011,3.24541,-4.28921,2.65891,1,1,0,0,0,false,false,true,-773.01996,-4074.3298,17.01,0.0031748374,0.0035956316,-0.643723,0.7652435,193.251,-1923.4009,8.341001,0,0.00021,2.37231,0,-1,0.37795275,1,0.023622047,false,false,false,2689.27,-3920.63,17.01,-0.0044048512,-0.0018746918,0.92197216,-0.3872265,-900.251,-998.381,8.341001,-0.00030999997,-0.00010999999,-2.2067099
160.01666,2401.21,-4069.23,115.03,0.4038209,0.6807348,0.4892694,-0.3662568,-505.541,-382.471,9.161,3.24541,-4.28921,2.65891,1,1,0,0,0,false,false,true,-769.66,-4106.35,17.01,0.0030993104,0.0036603692,-0.62823987,0.7780048,224.881,-1914.3109,8.341001,0,0.00051,2.50861,-1,-1,0.37795275,1,0.023622047,false,false,false,2674.16,-3937.0999,17.01,-0.0044372194,-0.0017883747,0.9289265,-0.37023276,-925.071,-956.46094,8.341001,0,-0.00071,-2.19721
160.03334,2392.79,-4075.6099,115.049995,0.36085656,0.6886899,0.51337343,-0.36323032,-505.281,-382.271,-1.671,3.24541,-4.28921,2.65891,1,1,0,0,0,false,false,true,-765.79,-4138.21,17.01,0.0030183888,0.003725107,-0.61164546,0.7911174,253.021,-1904.8209,8.341001,-0.00010999999,0.00071,2.62021,0,-1,0.37795275,1,0.023622047,false,false,false,2658.8,-3952.73,17.01,-0.0044857734,-0.001707453,0.9354779,-0.35335243,-909.67096,-882.621,8.341001,0.0012099999,-0.00291,-2.1105099
160.05,2384.3699,-4081.97,114.89,0.3169913,0.69492185,0.53619885,-0.35929206,-505.021,-382.07098,-12.491,3.24541,-4.28921,2.65891,1,1,0,0,0,false,false,true,-761.47,-4169.9097,17.01,0.0029320717,0.0037952391,-0.5940691,0.8043996,275.801,-1895.9109,8.341001,-0.00010999999,0.0010099999,2.70501,1,-1,0.37795275,1,0.023622047,false,false,false,2643.55,-3967.25,17.01,-0.004534326,-0.0016319258,0.9415692,-0.3367849,-931.52094,-838.311,8.341001,0.00040999998,-0.00091,-2.14041
160.06667,2375.95,-4088.3298,114.549995,0.272333,0.6994181,0.557681,-0.35445833,-504.761,-381.871,-23.310999,3.24541,-4.28921,2.65891,1,1,0,0,0,false,false,true,-756.8,-4201.48,17.01,0.00284036,0.003870766,-0.5756781,0.8176622,291.29102,-1888.9609,8.341001,-0.00030999997,0.0012099999,2.75981,1,-1,0.48031497,1,0.023622047,false,false,false,2627.9,-3981.0698,17.01,-0.0045666946,-0.0015510039,0.9474611,-0.3198344,-962.821,-801.77094,8.341001,-0.00010999999,0.00030999997,-2.18841
160.08333,2367.54,-4094.69,114.03,0.2269896,0.7021655,0.5777714,-0.3487399,-504.501,-381.671,-34.131,3.24541,-4.28921,2.65891,1,1,0,0,0,false,false,true,-751.88,-4232.9297,17.01,0.0027432537,0.003946293,-0.5566453,0.8307363,305.561,-1881.7109,8.341001,-0.00051,0.0012099999,2.80481,1,-0.1640625,0.503937,1,0.023622047,false,false,false,2611.73,-3994.28,17.01,-0.004588274,-0.0014646872,0.95315915,-0.3024307,-992.4509,-764.701,8.341001,-0.00021,0.00061,-2.22331
160.1,2359.14,-4101.05,113.329994,0.1810851,0.7031581,0.5964159,-0.34214735,-504.241,-381.471,-44.931,3.24541,-4.28921,2.65891,1,1,0,0,0,false,false,true,-746.72,-4264.26,17.01,0.0026407526,0.004011031,-0.5369973,0.8435702,320.821,-1873.0509,8.341001,-0.00051,0.0010099999,2.84811,1,0,0.511811,1,0.023622047,false,false,true,2595.1099,-4006.94,17.01,-0.0046098535,-0.0013729758,0.95827764,-0.28579852,-1012.2609,-744.33093,8.321,-0.00351,-0.0014099999,-1.7286099
160.11667,2350.74,-4107.4097,112.45,0.13472745,0.70239073,0.6135714,-0.3347025,-503.981,-381.271,-55.731,3.24541,-4.28921,2.65891,1,1,0,0,0,false,false,true,-741.31,-4295.44,17.01,0.0025328568,0.0040757684,-0.5167506,0.85612243,336.841,-1862.9209,8.341001,-0.00051,0.00081,2.88961,1,0.11023622,0.48031497,1,0.023622047,false,false,false,2578.16,-4019.26,17.01,-0.0046314327,-0.0012758693,0.9620244,-0.27292112,-1029.981,-725.43097,8.311,-0.00411,-0.0018099999,-1.29561
160.13333,2342.3398,-4113.76,111.39,0.08803532,0.6998662,0.6291948,-0.32642153,-503.721,-381.07098,-66.531,3.24541,-4.28921,2.65891,1,1,0,0,0,false,false,true,-735.62,-4326.44,17.01,0.0024249607,0.004140506,-0.49591044,0.86836034,353.411,-1851.2809,8.341001,-0.00040999998,0.00061,2.92911,1,0.023622047,0.51968503,1,0.015748031,false,false,false,2560.93,-4031.28,17.01,-0.0046530114,-0.0011949473,0.9646867,-0.26335606,-1046.471,-707.48096,8.311,-0.00361,-0.00151,-0.90761
160.15,2333.94,-4120.1,110.149994,0.041122,0.695597,0.64324284,-0.31732044,-503.461,-380.871,-77.321,3.24541,-4.28921,2.65891,1,1,0,0,0,false,false,true,-729.64996,-4357.2397,17.01,0.002317065,0.004205243,-0.47449842,0.8802432,370.32098,-1838.111,8.341001,-0.00030999997,0.00040999998,2.96651,1,0.023622047,0.52755904,1,0.015748031,true,false,false,2543.42,-4042.99,17.01,-0.0046638013,-0.0011356046,0.9665181,-0.25655317,-1063.641,-687.67096,8.311,-0.00201,-0.00061,-0.67241
160.16667,2325.56,-4126.44,108.729996,-0.005899252,0.6895893,0.65568334,-0.30742633,-503.201,-380.671,-88.101,3.24541,-4.28921,2.65891,1,1,0,0,0,false,false,false,-723.39996,-4387.82,17.01,0.0022091689,0.0042591915,-0.4525307,0.89173585,387.341,-1823.4109,8.341001,-0.00030999997,0.00030999997,3.00151,1,0.007874016,0.5590551,0.8188976,0.007874016,true,false,false,2525.5798,-4054.4,22.109999,-0.00467459,-0.001092446,0.9678457,-0.25149822,-1081.091,-672.93097,308.001,-0.00341,-0.00091,-0.51071
160.18333,2317.18,-4132.78,107.13,-0.052904278,0.6818503,0.6664891,-0.29677156,-502.941,-380.471,-98.881,3.24541,-4.28921,2.65891,1,1,0,0,0,false,false,false,-716.86,-4418.13,17.01,0.002101273,0.0043131392,-0.43001276,0.90281,408.051,-1803.631,8.341001,-0.00021,0.00030999997,3.0399098,1,-0.5078125,0.70866144,-0.6953125,0.007874016,true,false,false,2507.5,-4065.5598,27.34,-0.0046745907,-0.0010384982,0.9688524,-0.2475924,-1093.7109,-660.60095,316.041,-0.0043099998,-0.0010099999,-0.41461
160.2,2308.8,-4139.12,105.35,-0.09977983,0.67241263,0.6756262,-0.28536692,-502.681,-380.271,-109.660995,3.24541,-4.28921,2.65891,1,1,0,0,0,false,false,false,-709.95996,-4448.09,17.01,0.0019879823,0.0043670875,-0.40692833,0.91344744,433.261,-1777.0309,8.351,-0.00021,0.00021,3.08211,1,-1,0.7480315,-0.5859375,0.007874016,true,false,false,2489.2,-4076.49,32.71,-0.0046745907,-0.0009845502,0.969811,-0.24381065,-1101.361,-650.98096,324.081,-0.00341,-0.00040999998,-0.52211
160.21666,2300.42,-4145.46,103.39,-0.14640182,0.6612939,0.6830747,-0.27325016,-502.421,-380.07098,-120.421,3.24541,-4.28921,2.65891,1,1,0,0,0,false,false,false,-702.62,-4477.57,17.01,0.0018692969,0.0044210353,-0.38325045,0.9236319,462.291,-1743.091,8.361,-0.00010999999,0.00010999999,3.12581,1,0.11811024,0.5669291,0.53543305,0.007874016,false,false,false,2470.8298,-4087.3499,38.28,-0.0037251068,-0.00073638966,0.9709899,-0.2390902,-1102.531,-651.59094,337.541,-0.070609994,0.13911,-0.60381
160.23334,2292.05,-4151.8,101.25,-0.19265698,0.648519,0.68882,-0.26044828,-502.161,-379.871,-131.181,3.24541,-4.28921,2.65891,1,1,0,0,0,false,false,false,-694.79,-4506.46,17.01,0.0017506111,0.0044641932,-0.35897914,0.9333331,494.301,-1701.491,8.371,-0.00010999999,0,3.16871,1,0.2519685,0.6771653,0.5826772,0.007874016,false,false,false,2452.44,-4098.21,43.77,-0.0017667958,-0.00028322678,0.9720547,-0.23474735,-1103.511,-652.09094,326.701,-0.119109996,0.24211,-0.51381
160.25,2278.52,-4160.87,99.88,-0.23689987,0.6347245,0.69297975,-0.24654041,-1459.2909,-752.441,30.770998,3.09831,-4.1346097,2.30751,1,1,0,0,0,false,false,false,-686.41,-4534.62,17.01,0.0016319259,0.0045073526,-0.33413067,0.94251454,528.311,-1652.101,8.3810005,0,0,3.20901,1,0.27559054,0.8267717,0.5590551,0,false,false,false,2434.9,-4108.63,48.92,0.008084102,0.0045720898,0.9741287,-0.22580273,-1026.101,-610.33093,301.641,-1.49561,1.68431,-1.70001
160.26666,2253.92,-4173.55,100.31,-0.27907655,0.6200721,0.69569004,-0.23160757,-1458.5509,-752.061,19.911,3.09831,-4.1346097,2.30751,1,1,0,0,0,false,false,false,-677.45996,-4561.9297,17.01,0.0015132403,0.0045505106,-0.30873725,0.9511352,564.16095,-1595.4609,8.391,0,0,3.24771,1,0.86614174,1,0.71653545,0.11023622,false,false,false,2417.8298,-4118.78,53.8,0.025687404,0.013381874,0.97672707,-0.21252067,-1027.091,-610.80096,290.831,-1.51941,1.84381,-1.59401
160.28334,2229.6199,-4186.08,100.509995,-0.32062203,0.6040441,0.69685435,-0.21616223,-1457.8109,-751.68097,9.061,3.09831,-4.1346097,2.30751,1,0.96850395,0,0,0,false,false,false,-667.89996,-4588.26,17.01,0.0013891599,0.004593669,-0.2828098,0.95916396,601.35095,-1532.011,8.401,-0.00021,0,3.2850099,1,-1,1,1,0.5590551,false,false,false,2400.7,-4128.96,58.51,0.044979285,0.021711443,0.9785057,-0.20008028,-1028.091,-611.251,280.061,-1.49761,2.08341,-1.4822099
160.3,2205.3298,-4198.6,100.53,-0.3614554,0.58666754,0.69647425,-0.20023672,-1457.0709,-751.30096,-1.771,3.09831,-4.1346097,2.30751,1,0.92913383,0,0,0,false,false,false,-657.72,-4613.51,17.01,0.001259685,0.004626038,-0.25639677,0.9665597,638.33093,-1461.971,8.401,-0.00030999997,0,3.31301,1,-1,-0.953125,-0.046875,0,true,false,false,2383.55,-4139.1597,63.039997,0.066488415,0.027742824,0.97942126,-0.18852995,-1029.101,-611.67096,269.341,-1.21351,2.43151,-1.37781
160.31667,2181.05,-4211.12,100.369995,-0.40149033,0.5679906,0.6945389,-0.18386886,-1456.3309,-750.92096,-12.591001,3.09831,-4.1346097,2.30751,1,0.8897638,0,0,0,false,false,false,-646.93,-4637.56,17.01,0.0011302097,0.0046584057,-0.2295791,0.97327805,674.251,-1385.871,8.401,-0.00030999997,0,3.33161,1,-1,-1,1,0.22047244,false,false,false,2358.65,-4152.4297,67.4,0.064837605,0.029868374,0.9814153,-0.17812335,-1494.231,-796.43097,258.661,0.00301,-1.19001,-1.19831
160.33333,2156.79,-4223.63,100.02,-0.44062975,0.54805136,0.6910612,-0.16709095,-1455.591,-750.54095,-23.411,3.09831,-4.1346097,2.30751,1,0.8503937,0,0,0,false,false,false,-635.55,-4660.32,17.01,0.0010007346,0.004690775,-0.20245937,0.97927886,708.311,-1304.3209,8.401,-0.00040999998,0,3.3408098,1,1,-0.625,1,0.2047244,false,false,false,2333.73,-4165.71,71.58,0.032927226,0.027197951,0.98459095,-0.16957797,-1495.261,-796.80096,247.961,1.23711,-4.60331,-0.90521
160.35,2132.54,-4236.13,99.49,-0.47878733,0.52689284,0.6860497,-0.14994085,-1454.851,-750.16095,-34.231,3.09831,-4.1346097,2.30751,1,0.8031496,0,0,0,false,false,false,-623.61,-4681.6997,17.01,0.0008658648,0.0047123544,-0.17512923,0.9845337,739.811,-1218.0509,8.401,-0.00051,0,3.34021,1,1,1,1,0.33070865,false,false,false,2308.8,-4178.9897,75.58,-0.023637384,0.020443663,0.98608243,-0.16329302,-1496.3009,-797.16095,237.171,1.56361,-5.26051,-0.36311
160.36667,2108.3,-4248.63,98.78,-0.515882,0.5045637,0.67951185,-0.13245623,-1454.111,-749.78094,-45.031,3.09831,-4.1346097,2.30751,1,0.7559055,0,0,0,false,false,false,-611.14996,-4701.63,17.01,0.00072560005,0.0047339336,-0.14769118,0.9890219,768.21094,-1127.9509,8.401,-0.00061,0,3.3282099,1,1,0,0,0,false,false,false,2283.8499,-4192.28,79.4,-0.06725987,0.0150165,0.9847325,-0.15985109,-1497.341,-797.511,226.261,1.4822099,-5.00741,-0.22351
160.38333,2084.0798,-4261.12,97.89,-0.55182767,0.48111248,0.67146504,-0.1146803,-1453.371,-749.40094,-55.830997,3.09831,-4.1346097,2.30751,1,0.70866144,0,0,0,false,false,false,-598.24,-4720.04,17.01,0.0005853354,0.0047555133,-0.12025857,0.99273103,793.04095,-1034.861,8.401,-0.00061,0,3.3052099,1,1,0,0,0,false,false,false,2258.88,-4205.58,83.03,-0.12571271,0.008111076,0.9795429,-0.15692712,-1498.371,-797.85095,215.251,1.49691,-5.2923098,-0.02331
160.4,2059.8599,-4273.6,96.82,-0.5865488,0.45658767,0.66192734,-0.09664546,-1452.631,-749.02094,-66.631,3.09831,-4.1346097,2.30751,1,0.6614173,0,0,0,false,false,false,-584.93,-4736.89,17.01,0.00044507068,0.004766302,-0.09294998,0.99565923,813.96094,-939.621,8.401,-0.00051,-0.00010999999,3.27161,1,1,0,0,0,false,false,false,2233.9,-4218.88,86.479996,-0.18491004,0.001443108,0.9704797,-0.15483932,-1499.381,-798.191,204.101,1.44971,-5.30471,0.08671
160.41667,2035.6599,-4286.08,95.57,-0.6199643,0.43104863,0.650919,-0.07839478,-1451.891,-748.6409,-77.421,3.09831,-4.1346097,2.30751,1,0.61417323,0,0,0,false,false,false,-571.29,-4752.15,17.01,0.00031559556,0.004777092,-0.06587341,0.99781644,830.761,-843.09094,8.401,-0.00051,-0.00010999999,3.22711,1,1,0,0,0,false,false,false,2208.9,-4232.1797,89.74,-0.24347077,-0.0049659098,0.9577517,-0.1529997,-1500.341,-798.511,192.83101,1.41651,-5.31241,0.14460999
160.43333,2011.47,-4298.56,94.14,0.6519998,-0.40455458,-0.6384631,0.059971504,-1451.151,-748.261,-88.201,3.09831,-4.1346097,2.30751,1,0.5590551,0,0,0,false,false,false,-557.39,-4765.8,17.01,0.00018612048,0.004782487,-0.039142113,0.99922216,843.36096,-746.16095,8.391,-0.00061,-0.00021,3.17101,1,1,0,0,0,false,false,false,2183.88,-4245.4897,92.81,-0.3011683,-0.011180756,0.94146633,-0.15104137,-1501.241,-798.821,181.44101,1.39441,-5.31741,0.17460999
160.45,1987.2899,-4311.02,92.54,0.68259215,-0.37715974,-0.62458223,0.04141872,-1450.4109,-747.881,-98.980995,3.09831,-4.1346097,2.30751,1,0.503937,0,0,0,false,false,false,-543.29,-4777.84,17.01,0.000056645364,0.004782487,-0.012880119,0.9999056,851.91095,-649.751,8.3810005,-0.00071,-0.00021,3.10021,1,1,0,0,0,false,false,false,2158.8499,-4258.81,95.689995,-0.35777614,-0.01724455,0.9217174,-0.14878093,-1502.0809,-799.121,169.94101,1.3802099,-5.32051,0.18981
160.46666,1964,-4323.1,93.479996,0.71622884,-0.34838378,-0.60445416,0.016732045,-1397.091,-724.701,53.931,3.15041,-4.71811,1.9527099,1,0.4488189,0,0,0,false,false,false,-529.07,-4788.27,17.01,-0.00007282975,0.004782487,0.012766871,0.999907,856.61096,-554.66095,8.371,-0.00081,-0.00021,3.01381,1,1,0,0,0,false,false,false,2133.81,-4272.13,97.079994,-0.41308928,-0.023178827,0.89859426,-0.14611052,-1502.8209,-799.40094,62.220997,1.37141,-5.32251,0.19740999
160.48334,1940.72,-4335.1797,94.24,0.7451942,-0.32109138,-0.5844232,-0.00594241,-1396.371,-724.321,43.071,3.15041,-4.71811,1.9527099,1,0.39370078,0,0,0,false,false,false,-514.77997,-4797.12,17.01,-0.00020230486,0.004777092,0.037647754,0.99927956,857.751,-461.681,8.361,-0.00081,-0.00030999997,2.91011,1,1,0,0,0,false,false,false,2108.75,-4285.4497,97.509995,-0.4669079,-0.02898367,0.8721887,-0.14298153,-1503.471,-799.66095,16.640999,1.36611,-5.32381,0.20100999
160.5,1917.46,-4347.2397,94.82,0.7722966,-0.2930006,-0.5629302,-0.028600639,-1395.651,-723.941,32.211,3.15041,-4.71811,1.9527099,1,0.33070865,0,0,0,false,false,false,-500.49,-4804.44,17.01,-0.0003209904,0.0047663026,0.06160613,0.9980891,855.73096,-371.521,8.351,-0.00081,-0.00030999997,2.78701,1,1,0,0,0,false,false,false,2083.69,-4298.78,97.53,-0.51902723,-0.034659,0.84260684,-0.13936703,-1504.021,-799.8909,-2.6809998,1.36291,-5.32451,0.20270999
160.51666,1894.21,-4359.3,95.22,0.79747033,-0.26417604,-0.54002917,-0.05118873,-1394.9309,-723.561,21.351,3.15041,-4.71811,1.9527099,1,0.27559054,0,0,0,false,false,false,-486.24,-4810.27,17.01,-0.00043967587,0.004755513,0.08445857,0.9964155,851.121,-284.981,8.341001,-0.00091,-0.00030999997,2.63991,1,1,0,0,0,false,false,false,2058.6099,-4312.12,97.38,-0.56925833,-0.040188696,0.8099583,-0.1352669,-1504.4509,-800.10095,-10.891,1.36101,-5.32501,0.20341
160.53334,1870.97,-4371.36,95.439995,0.82065004,-0.2346934,-0.5157795,-0.07364735,-1394.2109,-723.18097,10.501,3.15041,-4.71811,1.9527099,1,0.21259843,0,0,0,false,false,false,-472.08,-4814.67,17.01,-0.0005475718,0.004744723,0.10600007,0.9943546,844.381,-202.58101,8.331,-0.0010099999,-0.00040999998,2.47081,1,1,0,0,0,false,false,false,2033.5299,-4325.46,97.15,-0.6174233,-0.045567315,0.77435875,-0.13069214,-1504.761,-800.27094,-14.401,1.35991,-5.3253098,0.20370999
160.55,1847.74,-4383.4,95.479996,0.84177876,-0.20462272,-0.49024048,-0.095927946,-1393.491,-722.80096,-0.33099997,3.15041,-4.71811,1.9527099,1,0.1496063,0,0,0,false,false,false,-458.03998,-4817.7197,17.01,-0.00065546774,0.0047339336,0.12603642,0.99201405,836.24097,-125.050995,8.331,-0.00111,-0.00051,2.27511,1,1,0,0,0,false,false,false,2008.45,-4338.8,96.89,-0.663344,-0.050773337,0.735942,-0.12564258,-1504.9509,-800.42096,-15.911,1.35921,-5.32541,0.20370999
160.56667,1824.52,-4395.44,95.34,0.86080396,-0.1740395,-0.4634768,-0.11796577,-1392.771,-722.42096,-11.151,3.15041,-4.71811,1.9527099,1,0.08661418,0,0,0,false,false,false,-444.13998,-4819.5,17.01,-0.0007525741,0.0047177495,0.14435185,0.9895149,827.36096,-52.911,8.321,-0.0012099999,-0.00071,2.05371,1,1,1,1,0,false,false,false,1983.37,-4352.14,96.61,0.70685047,0.055790536,-0.69484967,0.12013984,-1505.011,-800.53094,-16.560999,1.35891,-5.32551,0.20370999
160.58333,1801.32,-4407.48,95.02,0.8776783,-0.14301929,-0.43555325,-0.13971227,-1392.0509,-722.04095,-21.970999,3.15041,-4.71811,1.9527099,1,0.023622047,0,0,0,false,false,false,-430.38998,-4820.1,17.01,-0.0008388908,0.00469617,0.16075203,0.98698324,818.41095,13.351,8.311,-0.00131,-0.00071,1.8084099,1,1,1,1,0,false,false,false,1958.2899,-4365.48,96.329994,0.7373127,0.05778121,-0.66307956,0.115570426,-1504.9509,-800.61096,-16.841,1.15771,-5.1276097,-0.012209999
160.6,1778.13,-4419.5,94.52,0.8923593,-0.11164303,-0.40653992,-0.16110812,-1391.3309,-721.66095,-32.791,3.15041,-4.71811,1.9527099,1,-1,0,0,0,false,false,false,-416.78,-4819.62,17.01,-0.00091981277,0.0046745907,0.17504832,0.9845483,810.071,73.361,8.301001,-0.00131,-0.00061,1.54301,-1,1,0,0,0,false,false,false,1933.21,-4378.82,96.049995,0.7652469,0.05751147,-0.63154143,0.11065577,-1504.7909,-800.67096,-16.950998,0.97641,-4.93631,-0.22480999
160.61667,1754.95,-4431.52,93.84,0.904809,-0.079991624,-0.37651232,-0.1820993,-1390.611,-721.28094,-43.591,3.15041,-4.71811,1.9527099,1,-1,0,0,0,false,false,false,-403.28,-4818.26,17.01,-0.0009953398,0.004658406,0.18578936,0.982578,809.34094,105.641,8.311,-0.00551,-0.0023100001,0.65261,-1,1,0,0,0,false,false,false,1908.13,-4392.1597,95.79,0.8013601,0.058331486,-0.5861819,0.10397163,-1505.021,-800.61096,-15.201,1.17131,-5.3737097,-0.015209999
160.63333,1731.7799,-4443.54,92.979996,0.9149979,-0.04813524,-0.34554613,-0.20263201,-1389.891,-720.90094,-54.391,3.15041,-4.71811,1.9527099,1,-1,0,0,0,false,false,false,-389.8,-4816.37,17.01,-0.0010654721,0.0046476168,0.18956041,0.9818574,809.85095,135.671,8.311,-0.00551,-0.0023100001,-0.075909995,-1,1,0,0,0,false,false,false,1883.0399,-4405.5,95.549995,0.83568484,0.060575724,-0.537143,0.09715252,-1505.391,-800.58093,-14.491,1.2129099,-5.36341,0.10840999
160.65,1709.12,-4455.32,93.479996,0.92378616,-0.015836466,-0.30992952,-0.22430298,-1359.7009,-707.22095,27.190998,3.08621,-4.85131,1.7143099,1,-1,0,0,0,false,false,false,-376.28998,-4814,17.01,-0.001097841,0.004636827,0.18767214,0.9822201,812.49097,161.151,8.311,-0.00381,-0.0017099999,-0.66121,-1,1,0,0,0,false,false,false,1857.94,-4418.84,95.31,0.86691105,0.06346734,-0.4860973,0.09025798,-1505.881,-800.571,-14.241,1.22881,-5.35801,0.17740999
160.66667,1686.46,-4467.1,93.799995,0.9296146,0.014406889,-0.2758235,-0.2439887,-1359.001,-706.86096,16.331,3.08621,-4.85131,1.7143099,1,-1,0,0,0,false,false,false,-362.72998,-4811.23,17.01,-0.001097841,0.004636827,0.18125233,0.983425,817.821,180.241,8.311,-0.0018099999,-0.00081,-1.12281,-1,1,0,0,0,false,false,false,1832.84,-4432.1797,95.07,0.8949426,0.06659632,-0.43326584,0.08320698,-1506.471,-800.60095,-14.181,1.23381,-5.35541,0.21561
160.68333,1660.73,-4480.56,93.009995,0.92086136,0.01476834,-0.28575537,-0.26483968,-1538.891,-823.09094,116.741,2.96541,2.55391,-1.18431,1,-1,0,0,0,false,false,false,-349.06,-4808.17,17.01,-0.0010600775,0.0046476168,0.17126657,0.98521316,825.93097,191.421,8.311,0,-0.00010999999,-1.47551,-1,1,0,0,0,false,false,false,1808.3999,-4445.1597,95.869995,0.9119004,0.066812105,-0.39703423,0.07960864,-1457.591,-772.131,73.370995,0.67610997,-4.32201,-0.04601
160.7,1634.52,-4494.38,94.65,0.9076989,0.007328831,-0.30295402,-0.29025462,-1604.6909,-838.191,88.510994,2.94241,2.63411,-1.12371,1,-1,0,0,0,false,false,false,-335.25998,-4804.9497,17.01,-0.0010007347,0.0046584066,0.15856175,0.9873375,836.3909,194.651,8.321,0.00131,0.00030999997,-1.7380099,-1,-1,0,0,0,false,false,false,1784.1,-4458.04,96.97,0.9329218,0.06720592,-0.3458374,0.07440798,-1458.0309,-772.501,63.871,1.01831,-5.40351,0.12290999
160.71666,1607.7799,-4508.34,95.99,0.89347094,-0.00011598813,-0.31980208,-0.31533518,-1603.871,-837.751,77.631,2.94241,2.63411,-1.12371,1,-1,0,0,0,false,false,false,-321.27,-4801.7197,17.01,-0.00091981277,0.0046745907,0.14382315,0.9895919,848.561,190.55101,8.321,0.00221,0.00071,-1.92791,-1,-1,0,0,0,false,false,false,1759.7899,-4470.92,97.909996,0.9523938,0.068700284,-0.28916487,0.067896456,-1458.871,-772.58093,53.731,1.09691,-5.38551,0.20611
160.73334,1581.0599,-4522.3,97.15,0.87819725,-0.007560849,-0.33627778,-0.3400434,-1603.0509,-837.311,66.751,2.94241,2.63411,-1.12371,1,-1,0,0,0,false,false,false,-307.07,-4798.58,17.01,-0.0008227065,0.0046961703,0.12760633,0.9918134,861.74097,180.091,8.331,0.00281,0.00081,-2.06281,-1,-1,0,0,0,false,false,false,1735.47,-4483.8,98.68,0.96835697,0.07071794,-0.2314781,0.060840067,-1459.7909,-772.68097,43.481,1.1346099,-5.37541,0.25781
160.75,1554.35,-4536.25,98.13,0.861896,-0.0150002735,-0.35235438,-0.36435786,-1602.231,-836.871,55.871,2.94241,2.63411,-1.12371,1,-1,0,0,0,false,false,false,-292.65,-4795.64,17.01,-0.00071481057,0.0047177495,0.11032131,0.9938845,875.251,164.41101,8.331,0.00301,0.00071,-2.16021,-1,-1,0,0,0,false,false,false,1711.13,-4496.6797,99.28,0.98076975,0.072913624,-0.17297673,0.053416748,-1460.7809,-772.80096,33.111,1.15191,-5.3702097,0.28921
160.76666,1527.65,-4550.19,98.93,0.84458447,-0.02241816,-0.36802092,-0.38824606,-1601.4109,-836.43097,45.010998,2.94241,2.63411,-1.12371,1,-1,0,0,0,false,false,false,-278.00998,-4792.98,17.01,-0.0006069146,0.0047285384,0.09225405,0.995724,888.571,144.41101,8.341001,0.00301,0.00051,-2.2311099,-1,-1,0,0,0,false,false,false,1686.77,-4509.56,99.7,0.9895976,0.07510391,-0.113860294,0.04573455,-1461.8109,-772.941,22.620998,1.15931,-5.36751,0.30781
160.78334,1500.97,-4564.13,99.54,0.82628375,-0.029809073,-0.38325584,-0.4116812,-1600.591,-835.99097,34.150997,2.94241,2.63411,-1.12371,1,-1,0,0,0,false,false,false,-263.15,-4790.67,17.01,-0.00048822907,0.0047393283,0.073609546,0.9972757,901.311,120.811,8.341001,0.00281,0.00051,-2.28301,-1,-1,0,0,0,false,false,false,1662.39,-4522.44,99.939995,0.99481726,0.07715393,-0.0543339,0.037863545,-1462.881,-773.09094,12.011,1.16221,-5.3663096,0.31871
160.8,1474.3099,-4578.05,99.97,0.80701685,-0.03716757,-0.39804307,-0.43463075,-1599.771,-835.55096,23.290998,2.94241,2.63411,-1.12371,1,-1,0,0,0,false,false,false,-248.08,-4788.76,17.01,-0.00037493833,0.0047501177,0.05453886,0.9985002,913.17096,94.211,8.341001,0.00241,0.00030999997,-2.3210099,-1,-1,0,0,0,false,false,false,1637.99,-4535.32,100.009995,0.9964123,0.07900982,0.0053867036,0.029846795,-1463.9609,-773.251,1.261,1.16311,-5.36571,0.32501
160.81667,1447.6599,-4591.9697,100.22,0.786806,-0.04448296,-0.41236094,-0.45707318,-1598.9509,-835.11096,12.431,2.94241,2.63411,-1.12371,1,-1,0,0,0,false,false,false,-232.81,-4787.3,17.01,-0.00026704237,0.004760907,0.035155352,0.99937034,923.91095,65.101,8.341001,0.00211,0.00021,-2.34881,-1,-1,0,0,0,false,false,false,1613.58,-4548.1997,99.909996,0.9943806,0.080617465,0.06508576,0.021716833,-1465.0409,-773.42096,-8.151,1.16311,-5.36551,0.32851002
160.83333,1421.02,-4605.89,100.29,0.76567215,-0.0517444,-0.42619863,-0.47898155,-1598.131,-834.67096,1.591,2.94241,2.63411,-1.12371,1,-1,0,0,0,false,false,false,-217.37,-4786.34,17.01,-0.00015914648,0.004766302,0.015545189,0.99986774,933.371,33.900997,8.341001,0.0019099999,0,-2.36881,-1,-1,0,0,0,false,false,false,1589.15,-4561.1,99.72,0.9887304,0.081960775,0.12454747,0.013511351,-1466.111,-773.60095,-12.521,1.16291,-5.36541,0.33051
