time,ball_loc_x,ball_loc_y,ball_loc_z,ball_rot_x,ball_rot_y,ball_rot_z,ball_rot_w,ball_vel_x,ball_vel_y,ball_vel_z,ball_ang_x,ball_ang_y,ball_ang_z,player0_throttle,player0_steer,player0_pitch,player0_yaw,player0_roll,player0_jump,player0_boost,player0_handbrake,player0_loc_x,player0_loc_y,player0_loc_z,player0_rot_x,player0_rot_y,player0_rot_z,player0_rot_w,player0_vel_x,player0_vel_y,player0_vel_z,player0_ang_x,player0_ang_y,player0_ang_z,player1_throttle,player1_steer,player1_pitch,player1_yaw,player1_roll,player1_jump,player1_boost,player1_handbrake,player1_loc_x,player1_loc_y,player1_loc_z,player1_rot_x,player1_rot_y,player1_rot_z,player1_rot_w,player1_vel_x,player1_vel_y,player1_vel_z,player1_ang_x,player1_ang_y,player1_ang_z
153.00833,2469.95,-699.51996,93.13,0.56097186,0.17360252,0.33847347,0.73526067,-466.57098,-1421.001,0,4.98631,-0.69581,-0.32321,1,0.062992126,0,0,0,false,false,false,2157.15,-1425.11,17.01,0.0028511498,0.0038707664,-0.595407,0.80340976,666.261,-2198.481,8.301001,0,-0.00051,0.088709995,1,0.07874016,1,0.07874016,0,false,false,false,2596.31,-523.66,17.01,-0.003957083,-0.002872729,0.80417186,-0.5943766,-386.181,-1385.4509,8.351,-0.00491,-0.00561,0.67941
153.025,2462.2,-723.14996,93.13,0.58986115,0.15322629,0.34688944,0.7129187,-464.871,-1416.781,0,5.08211,-0.73581,-0.32321,1,0.062992126,0,0,0,false,false,false,2168.26,-1461.75,17.01,0.0028511495,0.003870766,-0.5947974,0.80386114,668.80096,-2197.691,8.301001,0,-0.00040999998,0.09671,1,-1,1,-1,0,false,false,false,2589.8398,-546.75,17.01,-0.003946293,-0.0028457548,0.8010044,-0.59863853,-392.261,-1383.6809,8.321,-0.00221,0.00010999999,0.52101
153.04167,2454.47,-746.70996,93.13,0.6181138,0.13205162,0.35498163,0.6888291,-463.171,-1412.5609,0,5.17791,-0.77581,-0.32321,1,0.07086614,0,0,0,false,false,false,2179.41,-1498.37,17.01,0.0028511495,0.003870766,-0.5941392,0.8043477,671.65094,-2196.801,8.301001,0,-0.00030999997,0.10261,1,-1,1,-1,0,false,false,false,2583.2,-569.76996,17.01,-0.0039193197,-0.0028565447,0.79942375,-0.60074794,-413.911,-1374.361,8.331,0.00040999998,0.00661,-0.20841
153.05833,2446.77,-770.2,93.13,0.6456058,0.11011091,0.3627016,0.6629601,-461.471,-1408.341,0,5.27371,-0.81580997,-0.32321,1,0.07086614,0,0,0,false,false,false,2190.6199,-1534.98,17.01,0.0028511495,0.003870766,-0.5934325,0.80486923,674.93097,-2195.781,8.301001,0,-0.00021,0.111209996,1,-0.765625,1,-0.765625,0,false,false,false,2576.23,-592.64,17.01,-0.0038869507,-0.0028835186,0.8011497,-0.5984443,-430.011,-1367.4509,8.331,0.00071,0.00721,-0.71631
153.075,2439.0999,-793.62,93.13,0.67221004,0.0874365,0.37000084,0.63528556,-459.771,-1404.121,0,5.3695097,-0.85581,-0.32321,-1,-1,0,0,0,false,false,false,2201.88,-1571.57,17.01,0.0028511498,0.0038707664,-0.59267724,0.80542564,678.451,-2194.661,8.301001,0,-0.00010999999,0.11751,1,0.05511811,1,0.05511811,0,false,false,false,2569.02,-615.42,17.01,-0.0038599768,-0.0028943082,0.8050203,-0.5932275,-441.781,-1362.901,8.321,0.00021,0.00451,-0.95141
153.09166,2431.46,-816.97,93.13,0.69780123,0.06407154,0.37682524,0.6057812,-458.07098,-1399.901,0,5.46531,-0.89581,-0.32321,1,-1,0,0,0,false,false,false,2213.04,-1607.9299,17.01,0.0028511498,0.0038815557,-0.59282833,0.80531436,646.28094,-2142.3909,8.311,0.00131,0.00441,-0.38791,1,1,1,1,0,false,false,false,2561.67,-638.14,17.01,-0.0038599768,-0.0028781237,0.8092776,-0.5874065,-439.751,-1363.491,8.321,-0.0010099999,-0.00111,-0.63841
153.10834,2423.8499,-840.25,93.13,0.72224534,0.040070016,0.3831156,0.5744374,-456.371,-1395.6809,0,5.56111,-0.93580997,-0.32321,1,-1,0,0,0,false,false,false,2223.75,-1643.6499,17.01,0.0028511498,0.0038977403,-0.5961569,0.80285335,630.18097,-2146.241,8.311,-0.00091,0.00421,-0.79041,1,1,1,1,0,false,false,false,2554.43,-660.88,17.01,-0.0038869507,-0.0028403602,0.81135696,-0.58453107,-422.961,-1366.2109,8.331,-0.00251,-0.0065099997,0.12330999
153.125,2416.26,-863.45996,93.13,0.7454037,0.015480452,0.38882336,0.54124844,-454.671,-1391.4609,0,5.65691,-0.97581,-0.32321,1,-1,0,0,0,false,false,false,2234.17,-1679.44,17.01,0.0028511498,0.0038977403,-0.6019563,0.7985143,610.29095,-2151.031,8.321,-0.0012099999,0.00291,-1.07901,1,0.5826772,1,0.5826772,0,false,false,false,2547.44,-683.66,17.01,-0.0039139246,-0.0028025967,0.81005186,-0.58633834,-410.731,-1368.221,8.331,-0.00251,-0.00641,0.65791
153.14166,2408.71,-886.6,93.13,0.767141,-0.0096324505,0.39388907,0.5062145,-452.971,-1387.241,0,5.75271,-1.01581,-0.32321,1,-1,0,0,0,false,false,false,2244.25,-1715.32,17.01,0.002867334,0.0038815557,-0.6094821,0.79278505,584.60095,-2156.961,8.321,-0.0010099999,0.0014099999,-1.28841,1,-0.1953125,1,-0.1953125,0,false,false,false,2540.6099,-706.45996,17.01,-0.0039193192,-0.0027864121,0.8066338,-0.59103185,-406.331,-1369.251,8.321,-0.00131,-0.00281,0.80381
153.15834,2401.18,-909.67,93.13,0.78730875,-0.035203867,0.39826426,0.46935174,-451.271,-1383.031,0,5.84851,-1.05581,-0.32321,1,-1,0,0,0,false,false,false,2253.8599,-1751.2899,17.01,0.0028997029,0.0038545819,-0.6182271,0.7859846,552.55096,-2163.801,8.321,-0.00071,0.00021,-1.4428099,1,-1,1,-1,0,false,false,false,2533.79,-729.26996,17.01,-0.003903135,-0.0027972017,0.80314577,-0.5957631,-413.921,-1366.6609,8.321,0.00051,0.00251,0.44781
153.175,2393.68,-932.67,93.13,0.80575925,-0.06115836,0.40188417,0.43069786,-449.57098,-1378.8309,0,5.89211,-1.08611,-0.32031,1,-1,0,0,0,false,false,false,2262.91,-1787.38,17.01,0.0029428613,0.0038168184,-0.6278353,0.7783312,514.331,-2171.1008,8.331,-0.00040999998,-0.00040999998,-1.55861,1,-1,1,-1,0,false,false,false,2526.81,-752.01,17.01,-0.003876161,-0.0028349652,0.8018945,-0.59744626,-431.481,-1358.601,8.331,0.00201,0.00691,-0.25901002
153.19167,2386.21,-955.6,93.13,0.8221558,-0.08709123,0.40466788,0.39079246,-447.871,-1374.631,0,5.8885098,-1.1073099,-0.31491,1,-1,0,0,0,false,false,false,2271.31,-1823.59,17.01,0.0029968093,0.00377366,-0.63803685,0.7699906,470.491,-2178.3708,8.331,-0.00021,-0.00091,-1.64691,1,-0.4609375,1,-0.4609375,0,false,false,false,2519.56,-774.63,17.01,-0.0038491874,-0.0028727292,0.8038532,-0.5948083,-445.231,-1352.361,8.331,0.0018099999,0.0065099997,-0.75711
153.20833,2378.76,-978.45996,93.13,0.83638936,-0.1128191,0.406583,0.34987816,-446.191,-1370.4309,0,5.88481,-1.12801,-0.30951,1,-1,0,0,0,false,false,false,2278.95,-1859.9199,17.01,0.003050757,0.0037251068,-0.6486593,0.7610636,421.721,-2185.1309,8.331,-0.00021,-0.00111,-1.71531,1,0.27559054,1,0.27559054,0,false,false,false,2512.13,-797.17,17.01,-0.003838397,-0.0028835183,0.8076518,-0.5896399,-449.471,-1350.851,8.321,0.00051,0.00221,-0.80461
153.225,2371.3499,-1001.25,93.13,0.8484224,-0.13827188,0.40762424,0.30806294,-444.511,-1366.221,0,5.88121,-1.14811,-0.30431,1,-1,0,0,0,false,false,false,2285.76,-1896.36,17.01,0.0031100998,0.0036711583,-0.65955675,0.7516392,368.711,-2190.961,8.331,-0.00010999999,-0.0012099999,-1.76901,1,1,1,1,0,false,false,false,2504.67,-819.69995,17.01,-0.0038545819,-0.0028619394,0.81104594,-0.58496267,-442.521,-1352.741,8.321,-0.0010099999,-0.00291,-0.40181
153.24167,2363.96,-1023.97,93.13,0.85822487,-0.16337934,0.4077915,0.2654493,-442.841,-1362.001,0,5.8776097,-1.1676099,-0.29911,1,-1,0,0,0,false,false,false,2291.67,-1932.8999,17.01,0.0031748374,0.0036172108,-0.6706378,0.74176925,312.131,-2195.521,8.331,-0.00010999999,-0.0012099999,-1.81181,1,1,1,1,0,false,false,false,2497.3699,-842.26,17.01,-0.0038815557,-0.0028241756,0.81206733,-0.58354384,-425.391,-1355.771,8.331,-0.00221,-0.0068099997,0.29261002
153.25833,2356.5999,-1046.61,93.13,0.8657803,-0.18806063,0.40707397,0.22214508,-441.181,-1357.781,0,5.8741097,-1.18661,-0.29401,1,-1,0,0,0,false,false,false,2296.63,-1969.51,17.01,0.003239575,0.0035632628,-0.6818158,0.7315079,252.58101,-2198.521,8.331,-0.00010999999,-0.0010099999,-1.84611,1,0.13385826,1,0.13385826,0,false,false,false,2490.3298,-864.87,17.01,-0.003908529,-0.002786412,0.80999726,-0.5864138,-411.611,-1358.3109,8.331,-0.00201,-0.00611,0.78321
153.275,2349.27,-1069.19,93.13,0.8710729,-0.21225096,0.40547168,0.17825283,-439.521,-1353.5609,0,5.8706098,-1.20511,-0.28901002,1,-1,0,0,0,false,false,false,2300.5798,-2006.1599,17.01,0.003298918,0.0035093152,-0.6930317,0.72089094,190.621,-2199.751,8.331,-0.00030999997,-0.00081,-1.87391,1,-0.7265625,1,-0.7265625,0,false,false,false,2483.45,-887.5,17.01,-0.003913925,-0.0027756228,0.806361,-0.59140414,-414.811,-1357.361,8.321,-0.00010999999,-0.00051,0.62851
153.29167,2341.96,-1091.69,93.13,0.8740928,-0.23588026,0.4029847,0.13388586,-437.881,-1349.341,0,5.86711,-1.22301,-0.28401,1,-0.9765625,0,0,0,false,false,false,2303.49,-2042.82,17.01,0.0033528658,0.003455367,-0.7042367,0.70994884,126.730995,-2199.021,8.331,-0.00030999997,-0.00081,-1.89661,1,-1,1,-1,0,false,false,false,2476.46,-910.08997,17.01,-0.0038977403,-0.0028025967,0.8041006,-0.5944737,-429.941,-1350.9109,8.321,0.0016099999,0.00511,0.01571
153.30833,2334.68,-1114.13,93.13,0.8748374,-0.25888374,0.39961293,0.08915204,-436.241,-1345.121,0,5.86371,-1.24051,-0.27921,1,-0.921875,0,0,0,false,false,false,2305.3398,-2079.47,17.01,-0.0034068138,-0.0033906293,0.71538115,-0.6987178,61.760998,-2196.291,8.331,-0.00030999997,-0.00091,-1.90371,1,-0.71875,1,-0.71875,0,false,false,false,2469.23,-932.57996,17.01,-0.003876161,-0.0028349652,0.80480564,-0.59351885,-445.161,-1343.8309,8.331,0.00201,0.00671,-0.56481
153.325,2327.43,-1136.49,93.13,0.87330794,-0.2811967,0.39536184,0.044164665,-434.60098,-1340.901,0,5.86031,-1.25751,-0.27441,1,-0.875,0,0,0,false,false,false,2306.0898,-2116.06,17.01,-0.0034607616,-0.003325892,0.72634524,-0.68731314,-3.3609998,-2191.6108,8.331,-0.00010999999,-0.0010099999,-1.8838099,1,0.05511811,1,0.05511811,0,false,false,false,2461.78,-954.95996,17.01,-0.003859977,-0.0028565447,0.8079235,-0.5892678,-454.191,-1340.111,8.331,0.0012099999,0.0043099998,-0.82010996
153.34166,2320.21,-1158.7899,93.13,0.86951363,-0.30275443,0.39023682,-0.000968366,-432.981,-1336.6809,0,5.8569098,-1.27401,-0.26971,1,-0.8203125,0,0,0,false,false,false,2305.76,-2152.56,17.01,-0.0035147096,-0.0032611543,0.7369897,-0.67588687,-68.421,-2184.971,8.331,0,-0.00111,-1.84821,1,1,1,1,0,false,false,false,2454.24,-977.31,17.01,-0.0038653715,-0.0028511498,0.81156296,-0.58424515,-450.121,-1341.391,8.321,-0.00040999998,-0.00091,-0.54331
153.35834,2313.01,-1181.01,93.13,0.8634666,-0.3234975,0.38424852,-0.046128377,-431.361,-1332.4609,0,5.85361,-1.29011,-0.26511002,1,-0.765625,0,0,0,false,true,false,2304.3499,-2188.94,17.01,-0.0035686577,-0.0031964167,0.7472358,-0.6645416,-132.781,-2176.511,8.331,0,-0.0010099999,-1.79651,1,1,1,1,0,false,false,false,2446.8298,-999.69,17.01,-0.0038923454,-0.002818781,0.813197,-0.58196855,-431.031,-1344.891,8.331,-0.00211,-0.00621,0.19750999
153.375,2305.8398,-1203.1699,93.13,0.85518867,-0.34336656,0.37740245,-0.09120745,-429.741,-1328.241,0,5.85031,-1.30581,-0.26051,1,-0.7109375,0,0,0,false,true,false,2301.8499,-2225.38,17.01,-0.0036226057,-0.0031424686,0.7570011,-0.6533959,-198.091,-2182.771,8.251,0,-0.0010099999,-1.73181,1,0.7480315,1,0.7480315,0,false,false,false,2439.71,-1022.12,17.01,-0.0039193197,-0.0027810177,0.81155515,-0.584256,-416.691,-1347.5609,8.331,-0.00221,-0.00611,0.71661
153.39166,2298.7,-1225.25,93.13,0.8447004,-0.3623132,0.3697149,-0.13609232,-428.141,-1324.021,0,5.84711,-1.32101,-0.25611,1,-0.6640625,0,0,0,false,true,false,2298.26,-2261.92,17.01,-0.0036765535,-0.0030885208,0.76624477,-0.64253074,-262.441,-2187.471,8.211,0,-0.0010099999,-1.65711,1,-0.1015625,1,-0.1015625,0,false,false,false,2432.8,-1044.59,17.01,-0.003924714,-0.002764833,0.80774635,-0.5895105,-406.971,-1349.851,8.331,-0.0012099999,-0.00321,0.94681
153.40834,2291.5898,-1247.27,93.13,0.83203614,-0.38027787,0.3611964,-0.18066968,-426.541,-1319.8009,0,5.8439097,-1.3357099,-0.25171,1,-0.6171875,0,0,0,false,true,false,2293.5999,-2298.53,17.01,-0.0037251068,-0.0030345728,0.7749357,-0.63202167,-325.581,-2190.771,8.191,-0.00021,-0.0010099999,-1.57861,1,-1,1,-1,0,false,false,false,2425.99,-1067.08,17.01,-0.0039085294,-0.0027810175,0.80353373,-0.59523976,-411.691,-1348.341,8.321,0.00061,0.0023100001,0.60570997
153.425,2284.5,-1269.21,93.13,0.81723315,-0.3972123,0.35186347,-0.2248209,-424.941,-1315.5809,0,5.84081,-1.35001,-0.24731,1,-0.5703125,0,0,0,false,true,false,2287.88,-2335.18,17.01,-0.0037682652,-0.0029806248,0.78306824,-0.6219171,-387.151,-2192.8809,8.181,-0.00030999997,-0.0010099999,-1.49671,1,-1,1,-1,0,false,false,false,2419.05,-1089.52,17.01,-0.0038815557,-0.002818781,0.80156875,-0.5978832,-428.421,-1340.6809,8.331,0.00221,0.00741,-0.15291
153.44167,2277.44,-1291.09,93.13,0.8003317,-0.4130731,0.34173197,-0.26843798,-423.361,-1311.361,0,5.83781,-1.36391,-0.24310999,1,-0.5234375,0,0,0,false,true,false,2281.15,-2371.8699,17.01,-0.0038114237,-0.002926677,0.79064566,-0.6122551,-446.85098,-2194.051,8.181,-0.00030999997,-0.00091,-1.41211,1,-0.84375,1,-0.84375,0,false,false,false,2411.8599,-1111.84,17.01,-0.0038491872,-0.0028619394,0.80304575,-0.595898,-441.021,-1335.631,8.331,0.00201,0.00731,-0.68711
153.45833,2270.41,-1312.89,93.13,0.78137475,-0.42781705,0.33082905,-0.3114131,-421.781,-1307.141,0,5.83481,-1.3774099,-0.23890999,1,-0.484375,0,0,0,false,true,false,2273.43,-2408.5698,17.01,-0.0038491872,-0.002872729,0.7976755,-0.60306764,-504.421,-2194.511,8.181,-0.00030999997,-0.00081,-1.32541,1,0.1023622,1,0.1023622,0,false,false,false,2404.46,-1134.09,17.01,-0.0038330022,-0.0028835183,0.80683935,-0.59075123,-451.581,-1332.1909,8.331,0.0012099999,0.00451,-0.98351
153.475,2263.4,-1334.63,93.13,0.7604175,-0.44140124,0.31917083,-0.35363835,-420.201,-1302.9209,0,5.8319097,-1.39061,-0.23471,1,-0.4453125,0,0,0,false,true,false,2264.75,-2445.27,17.01,-0.003881556,-0.0028241759,0.8041724,-0.5943767,-559.811,-2194.451,8.181,-0.00021,-0.00061,-1.24071,1,1,1,1,0,false,false,false,2396.97,-1156.3099,17.01,-0.0038383976,-0.002872729,0.811186,-0.5847685,-446.07098,-1334.7909,8.321,-0.00061,-0.0018099999,-0.63111
153.49167,2256.41,-1356.2899,93.13,0.73751855,-0.45378765,0.3067789,-0.39500576,-418.641,-1298.7009,0,5.82891,-1.40341,-0.23071,1,-0.40625,0,0,0,false,true,false,2255.15,-2481.97,17.01,-0.0039139246,-0.0027810175,0.81016517,-0.5861819,-612.85095,-2194.0908,8.1710005,-0.00010999999,-0.00040999998,-1.15731,1,1,1,1,0,false,false,false,2389.6199,-1178.57,17.01,-0.0038653717,-0.0028349655,0.8132164,-0.5819416,-427.60098,-1338.9409,8.331,-0.0023100001,-0.00711,0.13561
153.50833,2249.45,-1377.88,93.13,0.7127369,-0.4649496,0.29368034,-0.4354076,-417.081,-1294.481,0,5.82611,-1.41591,-0.22670999,1,-0.375,0,0,0,false,true,false,2244.68,-2518.67,17.01,-0.003946293,-0.002737859,0.8156722,-0.57849425,-663.43097,-2193.6309,8.1710005,-0.00010999999,-0.00021,-1.07481,1,1,1,1,0,false,false,false,2382.55,-1200.9,17.01,-0.0038977398,-0.0027918068,0.8118502,-0.58384585,-414.261,-1342.631,8.331,-0.0023100001,-0.00701,0.67571
153.525,2242.52,-1399.4,93.13,0.6861383,-0.47485447,0.27990738,-0.4747412,-415.521,-1290.261,0,5.82331,-1.42801,-0.22271,1,-0.34375,0,0,0,false,false,false,2233.38,-2555.3599,17.01,-0.0039678724,-0.0027054902,0.8207213,-0.5713084,-709.85095,-2187.701,8.151,0,0,-0.99741,1,-0.0390625,1,-0.0390625,0,false,false,false,2375.7,-1223.2999,17.01,-0.0039139246,-0.0027702278,0.8080337,-0.58911663,-400.291,-1346.8209,8.331,-0.0016099999,-0.00501,1.06661
153.54167,2235.6099,-1420.85,93.13,0.65779316,-0.4834754,0.26548702,-0.5129095,-413.961,-1286.0409,0,5.82051,-1.43971,-0.21891,1,-0.3125,0,0,0,false,false,false,2221.38,-2591.76,17.01,-0.0039894516,-0.0026731214,0.8253488,-0.5646026,-749.68097,-2172.021,8.251,0,0,-0.92331,1,-1,1,-1,0,false,false,false,2368.99,-1245.74,17.01,-0.003908529,-0.0027810172,0.8032218,-0.5956605,-405.461,-1346.501,8.321,0.00051,0.0016099999,0.72851
153.55833,2228.73,-1442.23,93.13,0.62777275,-0.49079615,0.25044623,-0.5498154,-412.421,-1281.8209,0,5.81781,-1.45121,-0.21510999,1,-0.28125,0,0,0,false,false,false,2208.73,-2627.9,17.01,-0.004011031,-0.0026407526,0.82957697,-0.5583716,-786.761,-2156.801,8.281,0,0,-0.85201,1,-1,1,-1,0,false,false,false,2362.15,-1268.15,17.01,-0.0038815557,-0.0028241756,0.8007023,-0.59904313,-423.061,-1339.4209,8.331,0.00221,0.00751,-0.067109995
153.575,2221.88,-1463.5399,93.13,0.59616673,-0.4967844,0.23482291,-0.5853619,-410.881,-1277.601,0,5.81521,-1.46231,-0.21131,1,-0.2578125,0,0,0,false,false,false,2195.47,-2663.78,17.01,-0.0040326095,-0.0026083835,0.8334367,-0.5525937,-821.10095,-2142.161,8.301001,0,0.00010999999,-0.78271,1,-1,1,-1,0,false,false,false,2355.04,-1290.45,17.01,-0.0038491872,-0.002872729,0.80178994,-0.5975865,-435.691,-1335.091,8.331,0.00201,0.00751,-0.62661
153.59166,2215.05,-1484.7799,93.13,-0.5630489,0.50143474,-0.21865463,0.6194587,-409.341,-1273.381,0,5.8126097,-1.47311,-0.20771,1,-0.234375,0,0,0,false,false,false,2181.65,-2699.42,17.01,-0.0040433994,-0.0025868048,0.83694285,-0.5472691,-852.881,-2128.1309,8.301001,0,0.00021,-0.71881,1,0,1,0,0,false,false,false,2347.73,-1312.69,17.01,-0.0038330026,-0.0028997029,0.8054415,-0.59265566,-448.921,-1330.851,8.331,0.00131,0.00551,-1.03191
153.60834,2208.25,-1505.95,93.13,-0.5285113,0.50473094,-0.20196843,0.65202075,-407.811,-1269.1609,0,5.81001,-1.48361,-0.20411,1,-0.2109375,0,0,0,false,false,false,2167.31,-2734.8298,17.01,-0.004054189,-0.0025652256,0.84013253,-0.54235977,-882.16095,-2114.811,8.301001,0,0.00021,-0.65891,1,1,1,1,0,false,false,false,2340.28,-1334.89,17.01,-0.0038330022,-0.002888913,0.8101027,-0.5862681,-444.671,-1333.6909,8.321,-0.00061,-0.00111,-0.72651
153.625,2201.47,-1527.0499,93.13,-0.49263576,0.5066677,-0.18480755,0.68296695,-406.291,-1264.9509,0,5.80761,-1.4938099,-0.20051,1,-0.1953125,0,0,0,false,false,false,2152.49,-2770.02,17.01,-0.0040649786,-0.0025436464,0.8430304,-0.53784436,-909.04095,-2102.241,8.301001,0,0.00010999999,-0.60191,1,1,1,1,0,false,false,false,2332.96,-1357.14,17.01,-0.0038599768,-0.0028511498,0.8125593,-0.5828587,-425.451,-1338.3109,8.331,-0.00241,-0.00721,0.069709994
153.64166,2194.72,-1548.08,93.13,-0.45552483,0.50724494,-0.16720964,0.7122082,-404.771,-1260.751,0,5.80511,-1.50371,-0.19701,1,-0.171875,0,0,0,false,false,false,2137.23,-2805.01,17.01,-0.004075769,-0.0025220674,0.84565616,-0.53370655,-933.7609,-2090.3909,8.301001,0,0.00010999999,-0.55111,1,0.6062992,1,0.6062992,0,false,false,false,2325.92,-1379.46,17.01,-0.0038923456,-0.002802597,0.8114853,-0.5843531,-412.121,-1342.251,8.331,-0.00251,-0.00731,0.62861
153.65834,2187.99,-1569.0399,93.13,-0.41727015,0.50645185,-0.14921254,0.73968065,-403.251,-1256.5509,0,5.80271,-1.51331,-0.19361,1,-0.15625,0,0,0,false,true,false,2121.57,-2839.8,17.01,-0.004086558,-0.002500488,0.8480378,-0.52991396,-956.28094,-2079.3508,8.301001,0.00010999999,0.00010999999,-0.50091,1,-0.234375,1,-0.234375,0,false,false,false,2319.07,-1401.85,17.01,-0.0039085294,-0.0027810175,0.8081831,-0.58891165,-406.941,-1345.091,8.321,-0.0012099999,-0.00371,0.80331
153.675,2181.29,-1589.9299,93.13,-0.37797433,0.50429934,-0.13085938,0.765306,-401.741,-1252.351,0,5.80041,-1.52261,-0.19021,1,-0.140625,0,0,0,false,true,false,2105.45,-2874.5999,17.01,-0.004097348,-0.0024896986,0.85018885,-0.52645594,-982.18097,-2079.721,8.201,0.00010999999,0.00010999999,-0.45521,1,-1,1,-1,0,false,false,false,2312.24,-1424.26,17.01,-0.0039031352,-0.0027918073,0.80474204,-0.5936052,-415.631,-1343.3109,8.321,0.00061,0.00211,0.42311
153.69167,2174.6099,-1610.75,93.13,-0.33773443,0.50079817,-0.11218791,0.78901863,-400.241,-1248.151,0,5.79811,-1.53171,-0.18680999,1,-0.1328125,0,0,0,false,false,false,2088.93,-2909.3398,17.01,-0.0041081365,-0.0024789085,0.85212827,-0.52331066,-1001.40094,-2070.531,8.1310005,0.00010999999,0.00010999999,-0.41301,1,-1,1,-1,0,false,false,false,2305.23,-1446.61,17.01,-0.003876161,-0.0028295706,0.8036176,-0.5951265,-433.631,-1336.1609,8.331,0.0019099999,0.00661,-0.28431
153.70833,2167.96,-1631.5,93.13,-0.29665288,0.49595356,-0.0932413,0.8107608,-398.741,-1243.9509,0,5.79591,-1.5405099,-0.18360999,1,-0.1171875,0,0,0,false,false,false,2072.0999,-2943.94,17.01,-0.0041189273,-0.0024681194,0.8538843,-0.5204407,-1018.91095,-2061.971,8.091001,0.00010999999,0.00021,-0.37731,1,-1,1,-1,0,false,false,false,2297.95,-1468.85,17.01,-0.0038491872,-0.0028619394,0.80569154,-0.5923158,-448.061,-1331.101,8.331,0.0018099999,0.00631,-0.78371
153.725,2161.3298,-1652.1799,93.13,-0.25483763,0.48977652,-0.074068144,0.8304761,-397.241,-1239.751,0,5.7937098,-1.5490099,-0.18041,1,-0.109375,0,0,0,false,false,false,2054.99,-2978.39,17.01,-0.004129716,-0.0024573295,0.8554768,-0.51781875,-1034.721,-2054.0908,8.071,0.00010999999,0.00030999997,-0.34231,1,0.03937008,1,0.03937008,0,false,false,false,2290.42,-1491.01,17.01,-0.0038383976,-0.002872729,0.81002074,-0.5863815,-463.551,-1325.851,8.331,0.0012099999,0.00441,-1.14441
153.74167,2154.73,-1672.7899,93.13,-0.21239662,0.48228854,-0.054711536,0.8481108,-395.741,-1235.5509,0,5.79161,-1.55731,-0.17720999,1,-0.09375,0,0,0,false,false,false,2037.62,-3012.72,17.01,-0.0041297157,-0.0024465397,0.85691553,-0.51543415,-1049.101,-2046.7809,8.051001,0,0.00030999997,-0.31211,1,1,1,1,0,false,false,false,2282.72,-1513.12,17.01,-0.0038491872,-0.0028511498,0.81510156,-0.5792981,-460.871,-1328.1709,8.321,-0.00071,-0.00201,-0.78481
153.75833,2148.15,-1693.33,93.13,-0.16944309,0.47351113,-0.03521466,0.863618,-394.261,-1231.351,0,5.78951,-1.56531,-0.17411,1,-0.0859375,0,0,0,false,false,false,2020.0199,-3046.93,17.01,-0.0041297167,-0.0024357506,0.8582196,-0.5132602,-1062.0409,-2040.091,8.051001,0,0.00030999997,-0.28131,1,1,1,1,0,false,false,false,2275.1199,-1535.2799,17.01,-0.0038869507,-0.0028025967,0.81779134,-0.57549477,-444.011,-1332.4209,8.331,-0.00251,-0.0076099997,0.02671
153.775,2141.5999,-1713.7999,93.13,-0.12607956,0.46346605,-0.015626071,0.87696004,-392.781,-1227.151,0,5.78751,-1.57311,-0.17110999,1,-0.078125,0,0,0,false,false,false,2002.2699,-3080.9,17.01,-0.0041297167,-0.002424961,0.85939103,-0.51129645,-1073.5509,-2033.8209,8.201,0.00010999999,0.00010999999,-0.25411,1,1,1,1,0,false,false,false,2267.77,-1557.5,17.01,-0.0039247135,-0.002754043,0.81692433,-0.5767247,-432.611,-1336.001,8.331,-0.00261,-0.00741,0.59771
153.79167,2135.07,-1734.2,93.13,-0.08241929,0.45218542,0.004005636,0.88809866,-391.301,-1222.9509,0,5.78551,-1.5807099,-0.16811,1,-0.0703125,0,0,0,false,false,false,1984.33,-3114.77,17.01,-0.0041297167,-0.0024141714,0.86044455,-0.5095216,-1084.011,-2028.0609,8.271,0.00021,0.00010999999,-0.22981,1,-0.09375,1,-0.09375,0,false,false,false,2260.6099,-1579.7799,17.01,-0.003940899,-0.0027270697,0.8134981,-0.5815478,-420.60098,-1340.0709,8.331,-0.0019099999,-0.00521,1.01131
153.80833,2128.57,-1754.5299,93.13,-0.03858101,0.43969646,0.023637384,0.897006,-389.82098,-1218.751,0,5.78361,-1.58801,-0.16510999,1,-0.0625,0,0,0,false,false,false,1966.23,-3148.55,17.01,-0.004135111,-0.0024087764,0.86139446,-0.5079139,-1093.491,-2022.8009,8.291,0.00030999997,0,-0.20771,1,-1,1,-1,0,false,false,false,2253.56,-1602.11,17.01,-0.003935504,-0.002737859,0.8090427,-0.58773017,-428.57098,-1338.8109,8.321,0.00051,0.0017099999,0.65611
153.825,2122.0898,-1774.7899,93.13,0.005327361,0.42603135,0.04322597,0.9036594,-388.341,-1214.5509,0,5.7817097,-1.5951099,-0.16220999,1,-0.0546875,0,0,0,false,false,false,1947.97,-3182.25,17.01,-0.004140506,-0.0024087764,0.8622485,-0.5064627,-1102.0509,-2018.011,8.301001,0.00021,0,-0.18710999,1,-1,1,-1,0,false,false,false,2246.3298,-1624.39,17.01,-0.003908529,-0.0027756223,0.80687886,-0.5906973,-447.281,-1331.091,8.331,0.00241,0.00731,-0.11801
153.84166,2115.64,-1794.98,93.13,0.049198013,0.41123343,0.06271745,0.908038,-386.881,-1210.351,0,5.77991,-1.60201,-0.15941,1,-0.0546875,0,0,0,false,false,false,1929.57,-3215.8699,17.01,-0.004140506,-0.0024087764,0.86301714,-0.50515175,-1109.771,-2013.6609,8.301001,0.00021,0,-0.16770999,1,-1,1,-1,0,false,false,false,2238.81,-1646.5499,17.01,-0.003876161,-0.002818781,0.80818313,-0.58891165,-461.091,-1326.151,8.331,0.0023100001,0.00741,-0.66351
153.85834,2109.21,-1815.1,93.13,0.092917606,0.39534026,0.082068674,0.9101302,-385.421,-1206.151,0,5.77811,-1.6087099,-0.15661,1,-0.046875,0,0,0,false,false,false,1911.0399,-3249.41,17.01,-0.0041405056,-0.0024087762,0.86370754,-0.5039702,-1116.8309,-2009.6509,8.301001,0.00010999999,0,-0.15331,1,-0.0546875,1,-0.0546875,0,false,false,false,2231.07,-1668.63,17.01,-0.003859977,-0.002845755,0.81194717,-0.58371115,-475.38098,-1321.281,8.331,0.0017099999,0.0054099998,-1.05851
153.875,2102.8,-1835.1499,93.13,0.13637285,0.37839514,0.101231076,0.9099295,-383.961,-1201.9509,0,5.77641,-1.6152099,-0.15381,-1,-0.09375,0,0,0,false,false,false,1892.3999,-3282.89,17.01,-0.004140506,-0.0024087764,0.86433315,-0.5028967,-1123.1709,-2006.0409,8.301001,0.00010999999,0,-0.13841,1,1,1,1,0,false,false,false,2223.17,-1690.6599,17.01,-0.0038653715,-0.0028349652,0.81669956,-0.57704306,-473.32098,-1323.601,8.321,-0.00030999997,-0.00091,-0.77851
153.89166,2096.42,-1855.13,93.13,0.17945586,0.36044115,0.12015602,0.907436,-382.501,-1197.751,0,5.7747097,-1.62151,-0.15111,-1,-0.0390625,0,0,0,false,false,false,1873.7699,-3316.0999,17.01,-0.0041459003,-0.0024087762,0.86492234,-0.50188243,-1100.7009,-1951.6709,8.301001,0.00251,-0.00131,-0.14761,1,1,1,1,0,false,false,false,2215.38,-1712.74,17.01,-0.0038923456,-0.002797202,0.81934345,-0.57328296,-454.841,-1328.481,8.331,-0.00241,-0.00711,0.033809997
153.90834,2090.06,-1875.0399,93.13,0.22205871,0.3415323,0.1388005,0.9026515,-381.041,-1193.5509,0,5.77301,-1.62761,-0.14851,-1,0.023622047,0,0,0,false,false,false,1855.5299,-3348.4,17.01,-0.0041674795,-0.0024195658,0.8655162,-0.5008574,-1076.741,-1898.141,8.301001,0.00291,-0.0018099999,-0.12741,1,0.44094488,1,0.44094488,0,false,false,false,2207.8499,-1734.8999,17.01,-0.003924714,-0.0027486486,0.8184511,-0.57455605,-442.35098,-1332.531,8.331,-0.00251,-0.00721,0.60271
153.925,2083.73,-1894.88,93.13,0.2640628,0.32171723,0.15712133,0.8955901,-379.591,-1189.351,0,5.77141,-1.63361,-0.14591,-1,0.09448819,0,0,0,false,false,false,1837.69,-3379.8198,17.01,-0.0041998485,-0.0024303556,0.8659963,-0.5000267,-1051.371,-1845.4209,8.301001,0.00251,-0.00201,-0.082509995,1,-0.21875,1,-0.21875,0,false,false,false,2200.47,-1757.11,17.01,-0.0039408985,-0.0027270694,0.81544644,-0.57881254,-441.471,-1334.361,8.321,-0.00091,-0.00291,0.68591
153.94167,2077.42,-1914.6499,93.13,0.3053709,0.3010443,0.1750699,0.8862682,-378.151,-1185.151,0,5.76991,-1.63941,-0.14331,-1,0.16535433,0,0,0,false,false,false,1820.2799,-3410.3599,17.01,-0.0042214277,-0.0024411452,0.8662639,-0.4995627,-1024.4309,-1793.591,8.301001,0.0019099999,-0.0019099999,-0.01571,1,-1,1,-1,0,false,false,false,2193.07,-1779.34,17.01,-0.0039355042,-0.0027378593,0.8125786,-0.5828318,-450.051,-1332.361,8.321,0.00081,0.00211,0.34741
153.95833,2071.13,-1934.35,93.13,0.3458752,0.2795729,0.19260307,0.8747075,-376.711,-1180.9509,0,5.76831,-1.64501,-0.14071,-1,0.24409449,0,0,0,false,false,false,1803.32,-3440.04,17.01,-0.0042430074,-0.0024411455,0.86623895,-0.49960592,-995.821,-1742.7109,8.301001,0.0014099999,-0.0018099999,0.06651,1,-1,1,-1,0,false,false,false,2185.48,-1801.5,17.01,-0.003913925,-0.002770228,0.8118153,-0.58389455,-468.611,-1324.4109,8.331,0.00221,0.00641,-0.33931
153.975,2064.8699,-1953.98,93.13,0.3854731,0.25736246,0.2096776,0.8609357,-375.271,-1176.761,0,5.76681,-1.6504099,-0.13831,-1,0.32283464,0,0,0,false,false,false,1786.85,-3468.8699,17.01,-0.0042591915,-0.0024411452,0.86585265,-0.50027484,-965.28094,-1692.9109,8.301001,0.0010099999,-0.0016099999,0.16351,1,-0.015625,1,-0.015625,0,false,false,false,2177.5999,-1823.5499,17.01,-0.0038923454,-0.0028025967,0.81409514,-0.58071154,-483.761,-1318.601,8.331,0.00201,0.00611,-0.82311
153.99167,2058.63,-1973.5399,93.13,0.42407304,0.23446687,0.2262505,0.844984,-373.831,-1172.5809,0,5.76541,-1.65571,-0.13590999,-1,0.4015748,0,0,0,false,false,false,1770.8999,-3496.88,17.01,-0.004269981,-0.0024519349,0.86505,-0.5016613,-932.66095,-1644.241,8.301001,0.00071,-0.00151,0.27031,1,1,1,1,0,false,false,false,2169.56,-1845.5399,17.01,-0.0038869507,-0.0028079913,0.8177534,-0.5755487,-480.251,-1321.3309,8.321,0,0.00010999999,-0.58861
154.00833,2051.77,-1994.09,93.13,0.4536906,0.22016515,0.23505487,0.83092785,-538.201,-1368.871,26.220999,2.8991098,0.28421,-0.41011,-1,0.48031497,0,0,0,false,false,false,1755.5,-3524.0798,17.01,-0.0042807707,-0.0024627245,0.8637886,-0.50383,-897.881,-1596.6809,8.301001,0.00040999998,-0.00131,0.38321,1,1,1,1,0,false,false,false,2161.78,-1867.37,17.14,0.0046530114,-0.002419566,0.82071114,-0.57131916,-445.261,-1301.101,33.321,-0.98121,1.0742099,-0.22920999
154.025,2042.8099,-2016.89,93.43,0.47494075,0.2148351,0.2363874,0.8199988,-537.92096,-1368.1709,15.361,2.8991098,0.28421,-0.41011,-1,-0.3046875,0,0,0,false,false,false,1740.69,-3550.5,17.01,-0.004280771,-0.0024735143,0.86203843,-0.5068188,-860.93097,-1550.1809,8.301001,0.00030999997,-0.0010099999,0.49971,1,1,1,1,0,false,false,false,2154.41,-1889.07,17.59,0.0149733415,-0.0006123093,0.82090265,-0.5708714,-434.551,-1305.881,37.141,-0.65321,0.46541,0.42311
154.04167,2033.85,-2039.69,93.549995,0.49589962,0.2093755,0.23757966,0.80857974,-537.641,-1367.471,4.521,2.8991098,0.28421,-0.41011,-1,-0.2890625,0,0,0,false,false,false,1726.45,-3576.1199,17.01,-0.004275376,-0.0024896984,0.8602582,-0.5098344,-835.10095,-1497.5809,8.301001,0.0018099999,0.0018099999,0.21031,1,0.007874016,1,0.007874016,0,false,false,false,2147.2,-1910.85,18.06,0.02041669,0.0017560062,0.8182237,-0.5745345,-426.121,-1310.391,31.810999,-0.45261002,0.17571,0.88751
154.05833,2024.89,-2062.47,93.49,0.51656175,0.20379728,0.23863165,0.79667145,-537.36096,-1366.771,-6.3009996,2.8991098,0.28421,-0.41011,-1,-0.28125,0,0,0,false,false,false,1712.6499,-3600.8699,17.01,-0.004264586,-0.0025166722,0.859589,-0.51096195,-806.86096,-1446.391,8.301001,0.0018099999,0.00211,0.014009999,1,-1,1,-1,0,false,false,false,2140.05,-1932.69,18.43,0.023248957,0.0041135317,0.81423616,-0.5800533,-435.751,-1310.241,24.360998,-0.29381,-0.00421,0.64520997
154.075,2015.9299,-2085.24,93.25,0.5369164,0.19809498,0.23953797,0.78428346,-537.081,-1366.0709,-17.120998,2.8991098,0.28421,-0.41011,-1,-0.2734375,0,0,0,false,false,false,1699.33,-3624.76,17.01,-0.0042591915,-0.0025382515,0.85968834,-0.5107947,-778.501,-1395.3109,8.301001,0.00151,0.0016099999,-0.12240999,1,-1,1,-1,0,false,false,false,2132.69,-1954.49,18.67,0.024182258,0.00614737,0.8120973,-0.58298814,-457.461,-1302.771,16.720999,-0.13751,-0.14380999,-0.087809995
154.09166,2007.0399,-2107.89,93.17,0.5579023,0.19132991,0.24099457,0.77075255,-530.201,-1352.4509,13.511,3.25301,0.103209995,-0.41011,-1,-0.25,0,0,0,false,false,false,1686.47,-3647.7998,17.01,-0.0042591915,-0.002549041,0.8603157,-0.5097373,-750.92096,-1343.8109,8.301001,0.0010099999,0.0010099999,-0.21690999,1,-1,1,-1,0,false,false,false,2125,-1976.19,18.779999,0.023507908,0.0075500174,0.81323385,-0.58141285,-473.551,-1298.111,8.971001,0.041709997,-0.23311,-0.61180997
154.10834,1998.2,-2130.42,93.259995,0.5794492,0.1834804,0.24297987,0.7559989,-529.92096,-1351.751,2.6709998,3.25301,0.103209995,-0.41011,-1,-0.2265625,0,0,0,false,false,false,1674.07,-3669.98,17.01,-0.004259191,-0.0025490408,0.8613011,-0.5080703,-724.1409,-1291.891,8.301001,0.00051,0.00030999997,-0.27371,1,-0.7421875,1,-0.7421875,0,false,false,false,2117.04,-1997.8099,18.76,0.021425517,0.008019364,0.8167399,-0.57655215,-489.291,-1293.8009,1.141,0.23241,-0.29661,-0.99860996
154.125,1989.37,-2152.94,93.17,0.6005591,0.1754961,0.24478173,0.74068326,-529.641,-1351.0509,-8.151,3.25301,0.103209995,-0.41011,-1,-0.1953125,0,0,0,false,false,false,1662.11,-3691.2998,17.01,-0.004269981,-0.0025436464,0.8624913,-0.5060473,-698.21094,-1239.491,8.301001,0.00010999999,-0.00010999999,-0.30581,1,0.14173228,1,0.14173228,0,false,false,false,2108.8298,-2019.36,18.609999,0.018037584,0.0073935683,0.8217555,-0.5695065,-502.311,-1291.341,-6.621,0.43531,-0.34491,-1.13921
154.14166,1980.58,-2175.38,93.13,0.62179846,0.1667835,0.24686411,0.72429824,-525.04095,-1341.9109,8.1310005,3.4844098,-0.015109999,-0.41011,-1,-0.171875,0,0,0,false,false,false,1650.58,-3711.74,17.01,-0.0042807707,-0.0025328568,0.8637915,-0.50382465,-672.78094,-1186.7909,8.301001,0,-0.00030999997,-0.31671,1,1,1,1,0,false,false,false,2100.46,-2040.8999,18.34,0.013452008,0.005613285,0.8266843,-0.56247705,-501.661,-1294.5409,-11.811,0.55791,-0.34461,-0.73671
154.15834,1971.84,-2197.73,93.15,0.6431565,0.15727238,0.249254,0.7067442,-524.331,-1340.381,0,3.50751,-0.02691,-0.41011,-1,-0.1328125,0,0,0,false,false,false,1639.47,-3731.2998,17.01,-0.00429156,-0.0025220672,0.8651154,-0.501548,-647.67096,-1133.891,8.301001,-0.00010999999,-0.00040999998,-0.31521,1,1,1,1,0,false,false,false,2092.16,-2062.5,18,0.008548054,0.0032557594,0.8291843,-0.5589003,-488.60098,-1299.9409,-12.491,0.53961,-0.30021,0.03461
154.175,1963.13,-2220.02,93.15,0.664342,0.1472057,0.25175178,0.6881868,-522.331,-1336.3209,0,3.59991,-0.074109994,-0.41011,-1,-0.109375,0,0,0,false,false,false,1628.7799,-3749.98,17.01,-0.0043023503,-0.0025112778,0.8664064,-0.49931458,-622.321,-1081.121,8.301001,-0.00030999997,-0.00051,-0.29511002,1,1,1,1,0,false,false,false,2084.06,-2084.18,17.67,0.0041459003,0.0010169189,0.82834595,-0.5602004,-479.311,-1304.621,-10.211,0.44511,-0.24531,0.59281
154.19167,1954.45,-2242.24,93.15,0.6853387,0.1365455,0.2543899,0.66854453,-520.331,-1332.261,0,3.6923099,-0.121309996,-0.41011,-1,-0.0703125,0,0,0,false,false,false,1618.51,-3767.78,17.01,-0.0043131392,-0.002500488,0.8676031,-0.49723217,-596.78094,-1028.4409,8.301001,-0.00040999998,-0.00061,-0.26931,1,-0.0703125,1,-0.0703125,0,false,false,false,2076.1199,-2105.94,17.38,0.0006069146,-0.00075796887,0.825052,-0.5650558,-468.761,-1310.001,-6.481,0.32651,-0.18671,1.00441
154.20833,1945.7999,-2264.4,93.15,0.7060858,0.12528655,0.25715205,0.6477799,-518.331,-1328.2009,0,3.78471,-0.16850999,-0.41011,-1,-0.0390625,0,0,0,false,false,false,1608.6799,-3784.7,17.01,-0.004323929,-0.0024896984,0.86867326,-0.49536017,-570.571,-976.15094,8.301001,-0.00051,-0.00061,-0.23010999,1,-1,1,-1,0,false,false,false,2068.26,-2127.77,17.16,-0.001966403,-0.0019879823,0.8207269,-0.5713138,-477.161,-1309.731,-2.3109999,0.21381,-0.12751,0.66661
154.225,1937.19,-2286.48,93.15,0.726512,0.11345029,0.26002747,0.6258553,-516.331,-1324.141,0,3.87711,-0.21571,-0.41011,-1,-0.0078125,0,0,0,false,false,false,1599.2899,-3800.75,17.01,-0.0043347185,-0.0024789087,0.8695697,-0.49378484,-543.73096,-924.23096,8.301001,-0.00061,-0.00061,-0.18551,1,-1,1,-1,0,false,false,false,2060.21,-2149.56,17,-0.0036333953,-0.0027540433,0.8185774,-0.574378,-496.581,-1302.341,1.571,0.12321,-0.07261,-0.114709996
154.24167,1928.61,-2308.5,93.15,0.74653685,0.101042256,0.26299462,0.60274935,-514.331,-1320.0809,0,3.9695098,-0.26291,-0.41011,-1,0.023622047,0,0,0,false,false,false,1590.34,-3815.94,17.01,-0.0043401136,-0.0024681194,0.87027925,-0.4925333,-516.16095,-872.73096,8.301001,-0.00061,-0.00051,-0.13701,1,-1,1,-1,0,false,false,false,2051.8699,-2171.24,16.91,-0.004566695,-0.003164048,0.8198326,-0.5725762,-510.88098,-1297.741,4.7809997,0.05681,-0.032209996,-0.66611
154.25833,1920.0599,-2330.45,93.15,0.7660814,0.088089265,0.26604268,0.5784295,-512.331,-1316.021,0,4.0619097,-0.31011,-0.41011,-1,0.05511811,0,0,0,false,false,false,1581.86,-3830.27,17.01,-0.004340113,-0.0024573295,0.8707855,-0.49163774,-487.841,-821.67096,8.301001,-0.00061,-0.00051,-0.086109996,1,0,1,0,0,false,false,false,2043.2899,-2192.8499,16.859999,-0.0049659098,-0.003320497,0.823508,-0.567273,-525.52094,-1293.231,7.191,0.012909999,-0.0057099997,-1.06601
154.275,1911.5499,-2352.3298,93.15,0.7850645,0.07459679,0.26914468,0.55287427,-510.331,-1311.971,0,4.1543097,-0.35731,-0.41011,-1,0.08661418,0,0,0,false,false,false,1573.85,-3843.76,17.01,-0.004340113,-0.00244654,0.87108076,-0.49111444,-458.751,-771.071,8.301001,-0.00051,-0.00051,-0.033309996,1,1,1,1,0,false,false,false,2034.5499,-2214.43,16.85,-0.0050360425,-0.003298918,0.8281125,-0.5605296,-522.77094,-1297.231,8.841001,-0.014509999,0.00331,-0.75031
154.29167,1903.07,-2374.15,93.15,0.8034002,0.060586512,0.27227905,0.5260621,-508.331,-1307.9309,0,4.24671,-0.40451,-0.41011,-1,0.11023622,0,0,0,false,false,false,1566.33,-3856.41,17.01,-0.0043401136,-0.0024411455,0.8711568,-0.49097958,-428.931,-720.8909,8.301001,-0.00030999997,-0.00040999998,0.02031,1,1,1,1,0,false,false,false,2025.9199,-2236.0798,16.869999,-0.0049497252,-0.0031640478,0.8305523,-0.55690956,-504.871,-1304.141,9.601,-0.02421,0.00221,0.059809998
154.30833,1894.62,-2395.9,93.15,0.82099557,0.04608521,0.27542958,0.49797663,-506.331,-1303.891,0,4.33911,-0.45171002,-0.41011,-1,0.14173228,0,0,0,false,false,false,1559.3099,-3868.22,17.01,-0.0043401136,-0.0024411455,0.8710169,-0.49122775,-398.601,-671.011,8.301001,-0.00030999997,-0.00030999997,0.069309995,1,1,1,1,0,false,false,false,2017.5599,-2257.8398,16.89,-0.004814855,-0.0030183883,0.8295641,-0.55838233,-492.671,-1309.7109,9.761001,-0.02341,0.00321,0.62651
154.325,1886.21,-2417.5798,93.15,0.83775955,0.031114573,0.27856413,0.46860728,-504.331,-1299.851,0,4.43151,-0.49891,-0.41011,-1,0.16535433,0,0,0,false,false,false,1552.7999,-3879.19,17.01,-0.004340113,-0.0024411452,0.87067586,-0.49183193,-367.711,-621.43097,8.301001,-0.00021,-0.00030999997,0.117709994,1,0,1,0,0,false,false,false,2009.39,-2279.69,16.91,-0.0046638013,-0.0029104925,0.82611835,-0.5634697,-480.081,-1315.6909,9.681,-0.019510001,0.00441,1.03621
154.34166,1877.83,-2439.19,93.15,0.85359627,0.015696242,0.2816607,0.43794313,-502.331,-1295.8109,0,4.52391,-0.54611,-0.41011,-1,0.18897638,0,0,0,false,false,false,1546.8099,-3889.3398,17.01,-0.004340113,-0.0024411452,0.8701449,-0.49277064,-336.521,-572.001,8.301001,-0.00010999999,-0.00021,0.15941,1,-1,1,-1,0,false,false,false,2001.36,-2301.6099,16.93,-0.004512747,-0.0028565445,0.82162154,-0.5700082,-485.681,-1316.131,9.491,-0.01311,0.00991,0.72890997
154.35834,1869.48,-2460.73,93.15,0.8684047,-0.00013217248,0.28469253,0.40598416,-500.331,-1291.771,0,4.61631,-0.59341,-0.41011,-1,0.19685039,0,0,0,false,false,false,1541.34,-3898.67,17.01,-0.004340113,-0.0024411452,0.8694503,-0.49399525,-305.181,-522.631,8.301001,0,0,0.19410999,1,-1,1,-1,0,false,false,false,1993.1699,-2323.51,16.949999,-0.0043616924,-0.0028565445,0.8192162,-0.57346094,-504.001,-1308.3309,9.301001,-0.0076099997,0.014709999,-0.071109995
154.375,1861.1699,-2482.21,93.15,0.8820795,-0.01633818,0.28763273,0.37274137,-498.331,-1287.731,0,4.7087097,-0.64081,-0.41011,-1,0.21259843,0,0,0,false,false,false,1536.39,-3907.17,17.01,-0.004340113,-0.0024519349,0.8686241,-0.4954465,-274.031,-473.141,8.301001,0,0.00010999999,0.21471,1,-1,1,-1,0,false,false,false,1984.71,-2345.29,16.97,-0.004232218,-0.0028673343,0.8202797,-0.57193965,-517.17096,-1303.5509,9.091001,-0.00521,0.01311,-0.63171
154.39166,1852.89,-2503.6199,93.15,0.89452136,-0.032884106,0.29044342,0.3382199,-496.331,-1283.6909,0,4.80111,-0.68821,-0.41011,-1,0.22047244,0,0,0,false,false,false,1531.96,-3914.8499,17.01,-0.0043347185,-0.0024627245,0.8677206,-0.49702716,-243.051,-423.531,8.301001,0,0.00021,0.22631,1,0.023622047,1,0.023622047,0,false,false,false,1976.0399,-2366.99,16.99,-0.0041459003,-0.0028619391,0.82380027,-0.5668576,-530.74097,-1298.741,8.871,-0.00411,0.00981,-1.03721
154.40834,1844.64,-2524.96,93.15,0.9056246,-0.049732137,0.29309767,0.30243075,-494.35098,-1279.651,0,4.89351,-0.73561,-0.41011,-1,0.22834645,0,0,0,false,false,false,1528.0299,-3921.7,17.01,-0.004323929,-0.002473514,0.86677605,-0.49867257,-212.421,-373.711,8.301001,0,0.00021,0.22701,1,1,1,1,0,false,false,false,1967.22,-2388.65,17.01,-0.0040973476,-0.0028295706,0.82826173,-0.5603191,-526.641,-1302.251,8.6310005,-0.00521,0.00201,-0.71641
154.425,1836.4299,-2546.24,93.15,0.9152766,-0.06683908,0.29556847,0.2654061,-492.371,-1275.611,0,4.98591,-0.78301,-0.41011,0,0.22834645,0,0,0,false,false,false,1524.62,-3927.72,17.01,-0.0043131392,-0.0024843037,0.8658367,-0.50030184,-182.201,-323.651,8.301001,0,0.00021,0.21831,1,1,1,1,0,false,false,false,1958.5299,-2410.38,17.01,-0.0040865582,-0.002770228,0.83056563,-0.55689883,-508.13098,-1308.261,8.461,-0.0065099997,-0.00461,0.07741
154.44167,1828.25,-2567.45,93.15,0.92337066,-0.084161855,0.29781812,0.22717302,-490.391,-1271.591,0,5.07831,-0.83041,-0.41011,0,0.22834645,0,0,0,false,false,false,1521.61,-3933.0898,17.01,-0.004296955,-0.0024896984,0.86488074,-0.50195265,-175.351,-317.271,8.301001,-0.00211,0.00111,0.25611,1,1,1,1,0,false,false,false,1950.12,-2432.2,17.01,-0.004086558,-0.002710885,0.8295074,-0.55847406,-495.291,-1313.1809,8.391,-0.0057099997,-0.00521,0.63481
154.45833,1820.1,-2588.5898,93.15,0.92979854,-0.10164644,0.2998089,0.18776926,-488.411,-1267.5709,0,5.17071,-0.87781,-0.41011,0,0.22834645,0,0,0,false,false,false,1518.72,-3938.3499,17.01,-0.004275376,-0.0024896984,0.8637791,-0.5038462,-168.931,-310.671,8.301001,-0.00251,0.0012099999,0.28101,1,0,1,0,0,false,false,false,1941.9199,-2454.0999,17.01,-0.0040811636,-0.0026731216,0.82603025,-0.56360465,-482.07098,-1318.4609,8.361,-0.00441,-0.00371,1.03841
154.475,1811.99,-2609.67,93.15,0.93444777,-0.11923895,0.30150828,0.14724886,-486.431,-1263.5509,0,5.2631097,-0.92521,-0.41011,0,0.23622048,0,0,0,false,false,false,1515.9299,-3943.5,17.01,-0.004253797,-0.0024896984,0.8625802,-0.5058962,-162.791,-303.941,8.301001,-0.0023100001,0.00111,0.29691002,1,-1,1,-1,0,false,false,false,1933.85,-2476.0698,17.01,-0.004054189,-0.0026731214,0.821516,-0.5701647,-486.981,-1318.281,8.331,-0.00111,0.00241,0.73131
154.49167,1803.8999,-2630.68,93.15,0.9372102,-0.13687995,0.30287847,0.10566558,-484.451,-1259.531,0,5.3555098,-0.97261,-0.41011,0,0.23622048,0,0,0,false,false,false,1513.24,-3948.53,17.01,-0.0042322176,-0.0024896984,0.861311,-0.50805414,-156.731,-297.151,8.301001,-0.00201,0.00091,0.30961,1,-1,1,-1,0,false,false,false,1925.6499,-2498,17.01,-0.004011031,-0.002710885,0.8190901,-0.57364434,-504.731,-1310.0709,8.341001,0.00151,0.00811,-0.066709995
154.50833,1795.85,-2651.6199,93.15,0.93797797,-0.15451026,0.30388197,0.063084304,-482.471,-1255.511,0,5.44791,-1.02001,-0.41011,0,0.22834645,0,0,0,false,false,false,1510.65,-3953.46,17.01,-0.004210638,-0.0024896981,0.85998976,-0.5102875,-150.851,-290.271,8.301001,-0.0016099999,0.00081,0.31661,1,-0.703125,1,-0.703125,0,false,false,false,1917.1799,-2519.81,17.01,-0.0039678724,-0.0027540433,0.82013094,-0.57215536,-517.48096,-1304.971,8.331,0.0017099999,0.00821,-0.62671
154.525,1787.84,-2672.5,93.15,0.93664646,-0.17205961,0.3044754,0.019585893,-480.491,-1251.491,0,5.54031,-1.06741,-0.41011,0,0.22047244,0,0,0,false,false,false,1508.1599,-3958.27,17.01,-0.004189059,-0.0024896984,0.85864145,-0.5125534,-145.231,-283.271,8.301001,-0.0012099999,0.00071,0.31631002,1,0.2913386,1,0.2913386,0,false,false,false,1908.5299,-2541.55,17.01,-0.003940899,-0.0027756228,0.8234004,-0.56744033,-525.09094,-1303.111,8.321,0.00071,0.00481,-0.85931
154.54167,1779.85,-2693.31,93.15,0.9331086,-0.18946865,0.30462644,-0.02474871,-478.511,-1247.471,0,5.63271,-1.11481,-0.41011,0,0.21259843,0,0,0,false,false,false,1505.76,-3962.96,17.01,-0.0041728746,-0.0024950933,0.8572914,-0.5148084,-139.791,-276.181,8.301001,-0.00081,0.00061,0.31111002,1,1,1,1,0,false,false,false,1899.82,-2563.29,17.01,-0.0039408985,-0.002764833,0.82688683,-0.5623476,-515.73096,-1307.6909,8.321,-0.00131,-0.0019099999,-0.43021
154.55833,1771.8999,-2714.05,93.15,0.92726624,-0.20666195,0.30429196,-0.06981701,-476.531,-1243.4509,0,5.72511,-1.16221,-0.41011,0,0.2047244,0,0,0,false,false,false,1503.46,-3967.53,17.01,-0.0041620852,-0.0025058826,0.8559625,-0.5170149,-134.511,-269.011,8.301001,-0.00061,0.00061,0.30241,1,1,1,1,0,false,false,false,1891.3099,-2585.1099,17.01,-0.0039624777,-0.0027270694,0.8279852,-0.56072915,-497.451,-1313.401,8.331,-0.00291,-0.00631,0.27791
154.575,1763.99,-2734.73,93.15,0.9190233,-0.22356386,0.30343413,-0.11551108,-474.551,-1239.4309,0,5.8175097,-1.20961,-0.41011,0,0.19685039,0,0,0,false,false,false,1501.24,-3971.98,17.01,-0.0041512954,-0.0025166722,0.8546685,-0.5191513,-129.371,-261.771,8.301001,-0.00051,0.00051,0.29141,1,1,1,1,0,false,false,false,1883.07,-2607.02,17.01,-0.0039840564,-0.0026893057,0.82604903,-0.56357753,-483.201,-1318.511,8.331,-0.00281,-0.00601,0.77931
154.59166,1756.1,-2755.3398,93.15,0.90829384,-0.24009363,0.30201533,-0.16169076,-472.57098,-1235.4309,0,5.85521,-1.24541,-0.40621,0,0.19685039,0,0,0,false,false,false,1499.1,-3976.3098,17.01,-0.004140506,-0.0025274619,0.8534199,-0.5212013,-124.370995,-254.461,8.301001,-0.00040999998,0.00040999998,0.27881,1,0,1,0,0,false,false,false,1875.07,-2629.02,17.01,-0.003989452,-0.0026731216,0.82190543,-0.5696037,-467.991,-1324.121,8.331,-0.0019099999,-0.00421,1.14151
154.60834,1748.25,-2775.88,93.15,0.8951752,-0.25597593,0.30002466,-0.20765999,-470.591,-1231.4109,0,5.85011,-1.27151,-0.39941,0,0.18897638,0,0,0,false,false,false,1497.0399,-3980.52,17.01,-0.004129716,-0.0025382515,0.8522175,-0.52316505,-119.40099,-247.131,8.301001,-0.00040999998,0.00030999997,0.26811,1,-1,1,-1,0,false,false,false,1867.25,-2651.0798,17.01,-0.0039732666,-0.0026893057,0.81689006,-0.5767732,-470.88098,-1324.5709,8.321,0.00051,0.0019099999,0.80581
154.625,1740.4299,-2796.3499,93.15,0.8797402,-0.27109763,0.29746744,-0.25313288,-468.63098,-1227.391,0,5.8449097,-1.2969099,-0.39271,0,0.17322835,0,0,0,false,false,false,1495.08,-3984.6099,17.01,-0.004118927,-0.002549041,0.8510622,-0.5250424,-114.58099,-239.72101,8.301001,-0.00040999998,0.00021,0.25581,1,-1,1,-1,0,false,false,false,1859.33,-2673.1199,17.01,-0.003935504,-0.002737859,0.8141029,-0.58070076,-486.891,-1317.251,8.331,0.00261,0.0076099997,-0.01261
154.64166,1732.64,-2816.75,93.15,0.86203307,-0.2854155,0.2943331,-0.29800162,-466.681,-1223.371,0,5.83981,-1.32151,-0.38611,0,0.16535433,0,0,0,false,false,false,1493.19,-3988.5798,17.01,-0.004108137,-0.0025598307,0.8499613,-0.52682275,-109.991,-232.201,8.301001,-0.00030999997,0.00010999999,0.23970999,1,-0.5234375,1,-0.5234375,0,false,false,false,1851.1699,-2695.06,17.01,-0.0038977403,-0.0027864121,0.8149137,-0.5795624,-498.051,-1312.9209,8.331,0.00251,0.00741,-0.58761
154.65834,1723.77,-2838.3699,93.22,0.8503118,-0.30069897,0.2845685,-0.3249163,-556.92096,-1314.4309,7.891,4.0781097,0.22140999,-0.68261,0,0.16535433,0,0,0,false,false,false,1491.37,-3992.41,17.01,-0.004097348,-0.0025706205,0.8489258,-0.52848977,-105.501,-224.641,8.301001,-0.00030999997,0,0.22390999,1,0.5826772,1,0.5826772,0,false,false,false,1843.0299,-2716.72,17.25,0.007911468,-0.0034337877,0.81882465,-0.5739788,-491.061,-1301.001,26.581,-0.50141,0.69291,-0.87110996
154.675,1714.49,-2860.27,93.22,0.83757824,-0.31562647,0.27446395,-0.35144264,-556.621,-1313.751,-2.9409997,4.0781097,0.22140999,-0.68261,0,-0.2109375,0,0,0,false,false,false,1489.63,-3996.1199,17.01,-0.0040865573,-0.002576015,0.8479532,-0.5300487,-101.020996,-217.071,8.301001,-0.00030999997,0,0.21111,1,1,1,1,0,false,false,false,1834.9199,-2738.43,17.55,0.013775697,-0.003164048,0.8221417,-0.56910735,-477.721,-1307.5509,24.730999,-0.26811,0.22830999,-0.27281
154.69167,1705.24,-2882.1099,93.189995,0.8235031,-0.33019784,0.2641437,-0.3782063,-552.891,-1307.471,5.001,4.23161,0.12731,-0.68261,0,-0.2109375,0,0,0,false,false,false,1487.95,-3999.7,17.01,-0.0040757684,-0.0025814099,0.84718317,-0.53127885,-100.190994,-207.301,8.311,0.00010999999,0.00061,0.08361,1,1,1,1,0,false,false,false,1827.0299,-2760.25,17.8,0.01592822,-0.0024141711,0.82257915,-0.5684222,-463.331,-1313.351,17.501,-0.08891,-0.00471,0.37471
154.70833,1696.02,-2903.89,93.14,0.8080475,-0.34438622,0.2536076,-0.40514264,-552.61096,-1306.7909,-5.8209996,4.23161,0.12731,-0.68261,0,-0.21875,0,0,0,false,false,false,1486.2899,-4003.1199,17.01,-0.0040703737,-0.0025868048,0.8469158,-0.531705,-98.190994,-198.241,8.311,0.00010999999,0.00040999998,-0.00131,1,-0.0078125,1,-0.0078125,0,false,false,false,1819.36,-2782.16,17.92,0.015836509,-0.0018207438,0.82021224,-0.5718371,-451.651,-1318.7009,9.361,0.089509994,-0.15851,0.83611
154.725,1686.86,-2925.5898,93.15,0.79097086,-0.3581214,0.24289353,-0.4325699,-549.631,-1301.731,-1.921,4.35201,0.05351,-0.68261,0,-0.21875,0,0,0,false,false,false,1484.6599,-4006.38,17.01,-0.0040703737,-0.0025868048,0.8469971,-0.53157556,-95.671,-189.501,8.311,0,0.00021,-0.06261,1,-1,1,-1,0,false,false,false,1811.7999,-2804.14,17.91,0.013915961,-0.0016966634,0.8165476,-0.5771078,-458.941,-1319.011,2.0809999,0.24040999,-0.28531,0.58951
154.74167,1677.73,-2947.23,93.119995,0.7724739,-0.37135494,0.23192045,-0.45999178,-547.79095,-1298.531,-4.2609997,4.42141,0.01091,-0.68261,0,-0.21875,0,0,0,false,false,false,1483.07,-4009.5,17.01,-0.0040703737,-0.0025868048,0.84732527,-0.53105223,-92.730995,-181.021,8.311,0,0,-0.10421,1,-1,1,-1,0,false,false,false,1804.0599,-2826.0898,17.789999,0.010619656,-0.0019394292,0.8147296,-0.57974046,-479.271,-1311.641,-1.961,0.28811002,-0.33631,-0.15201
154.75833,1668.6499,-2968.8,93.14,0.7523151,-0.38401657,0.22071005,-0.48768875,-544.74097,-1293.361,0,4.54481,-0.06471,-0.68261,0,-0.2109375,0,0,0,false,false,false,1481.5399,-4012.48,17.01,-0.004070374,-0.002586805,0.84781843,-0.5302647,-89.531,-172.711,8.311,0,-0.00021,-0.13131,1,-1,1,-1,0,false,false,false,1796.01,-2847.93,17.619999,0.0069511947,-0.0022954857,0.81616575,-0.57777137,-494.551,-1306.871,-3.281,0.27381,-0.32011,-0.67921
154.775,1659.6,-2990.3098,93.14,0.7306357,-0.3960524,0.20922443,-0.51530474,-542.48096,-1289.4609,0,4.6332097,-0.11890999,-0.68261,0,-0.203125,0,0,0,false,false,false,1480.0599,-4015.3298,17.01,-0.0040703737,-0.0025760152,0.8484183,-0.5293043,-86.101,-164.571,8.311,0,-0.00030999997,-0.14601,1,-0.703125,1,-0.703125,0,false,false,false,1787.71,-2869.69,17.43,0.0035632628,-0.0026407526,0.81992984,-0.5724467,-509.981,-1302.241,-2.6009998,0.22711,-0.27291,-1.06571
154.79167,1650.59,-3011.75,93.14,0.7073569,-0.40740308,0.19745299,-0.5428453,-540.22095,-1285.5609,0,4.72161,-0.17311,-0.68261,0,-0.1953125,0,0,0,false,false,false,1478.64,-4018.0398,17.01,-0.004075768,-0.0025652254,0.84907025,-0.52825767,-82.510994,-156.521,8.311,0,-0.00040999998,-0.15221,1,0.15748031,1,0.15748031,0,false,false,false,1779.1599,-2891.38,17.26,0.00075796887,-0.0028943082,0.82511365,-0.5649587,-522.18097,-1299.781,-0.80099994,0.16971,-0.21541,-1.17321
154.80833,1641.62,-3033.13,93.14,0.6824603,-0.4179985,0.18539014,-0.57022405,-537.96094,-1281.6609,0,4.81001,-0.22730999,-0.68261,0,-0.1953125,0,0,0,false,false,false,1477.2799,-4020.6099,17.01,-0.004086558,-0.002554436,0.8497407,-0.52717876,-78.800995,-148.561,8.311,0,-0.00040999998,-0.15231,1,1,1,1,0,false,false,false,1770.47,-2913.0598,17.119999,-0.0013891598,-0.003023783,0.8300341,-0.55770254,-520.78094,-1302.611,1.401,0.11410999,-0.16101,-0.73631
154.825,1632.69,-3054.44,93.14,0.65592545,-0.42778465,0.17301987,-0.59734917,-535.701,-1277.771,0,4.89841,-0.28151,-0.68261,0,-0.1875,0,0,0,false,false,false,1475.98,-4023.0498,17.01,-0.004091953,-0.0025436466,0.85040575,-0.5261053,-75.050995,-140.621,8.311,0,-0.00021,-0.14990999,1,1,1,1,0,false,false,false,1761.86,-2934.79,17.01,-0.002905098,-0.0030291781,0.8324186,-0.5541313,-507.10098,-1307.491,3.7009997,0.065809995,-0.11441,0.058809996
154.84166,1623.7899,-3075.69,93.14,0.6277451,-0.43669155,0.16033123,-0.62412363,-533.441,-1273.891,0,4.9868097,-0.33571002,-0.68261,0,-0.1796875,0,0,0,false,false,false,1474.74,-4025.3599,17.01,-0.0040919525,-0.0025328568,0.8510557,-0.5250532,-71.211,-132.741,8.311,0,-0.00021,-0.14411,1,0.44094488,1,0.44094488,0,false,false,false,1753.44,-2956.5999,16.94,-0.0038815557,-0.0029428613,0.83143985,-0.55559325,-497.511,-1311.641,5.791,0.02951,-0.07311,0.62231
154.85834,1614.9199,-3096.8699,93.14,-0.5979156,0.44465968,-0.14731894,0.6504396,-531.18097,-1270.011,0,5.07521,-0.38991,-0.68261,0,-0.171875,0,0,0,false,false,false,1473.57,-4027.5398,17.01,-0.0040919525,-0.0025220672,0.8516773,-0.5240444,-67.291,-124.90099,8.311,0,-0.00021,-0.13600999,1,-0.546875,1,-0.546875,0,false,false,false,1745.13,-2978.46,16.91,-0.0044102455,-0.0028295706,0.82844985,-0.5600386,-498.471,-1313.1809,7.4309998,0.00701,-0.036909997,0.69911
154.875,1606.09,-3117.99,93.14,-0.5664368,0.45161894,-0.13397756,0.67619485,-528.92096,-1266.131,0,5.16361,-0.44411,-0.68261,0,-0.1640625,0,0,0,false,false,false,1472.47,-4029.5898,17.01,-0.0040919525,-0.0025166722,0.8522575,-0.5231003,-63.321,-117.101,8.311,0.00021,-0.00021,-0.12641,1,-1,1,-1,0,false,false,false,1736.75,-3000.3098,16.9,-0.004609853,-0.0027432537,0.82587993,-0.56382036,-514.371,-1307.2109,8.571,-0.00321,-0.00691,0.16130999
154.89166,1597.2999,-3139.04,93.14,-0.53331274,0.45750478,-0.12030173,0.7012805,-526.66095,-1262.251,0,5.25201,-0.49851,-0.68261,0,-0.15625,0,0,0,false,false,false,1471.4299,-4031.51,17.01,-0.0040919525,-0.0025166722,0.8527966,-0.52222097,-59.301,-109.321,8.311,0.00021,-0.00030999997,-0.11611,1,-1,1,-1,0,false,false,false,1728.09,-3022.0598,16.91,-0.004604459,-0.0027108851,0.82593536,-0.5637395,-532.42096,-1298.991,9.1710005,-0.00551,0.00991,-0.46891
154.90834,1588.5499,-3160.03,93.14,-0.4985647,0.46225217,-0.10629139,0.7255744,-524.40094,-1258.371,0,5.3404098,-0.55291,-0.68261,0,-0.15625,0,0,0,false,false,false,1470.46,-4033.2998,17.01,-0.0041027423,-0.0025166722,0.8532883,-0.5214171,-55.240997,-101.561,8.311,0.00010999999,-0.00030999997,-0.105409995,1,-0.1328125,1,-0.1328125,0,false,false,false,1719.1499,-3043.68,16.93,-0.004512747,-0.0027000955,0.8286976,-0.55967176,-548.18097,-1292.361,9.301001,-0.00561,0.014109999,-0.91820997
154.925,1579.84,-3180.95,93.14,-0.46221444,0.46580738,-0.091951944,0.74895,-522.141,-1254.491,0,5.4288096,-0.60731,-0.68261,0,-0.1484375,0,0,0,false,false,false,1469.5599,-4034.96,17.01,-0.0041027423,-0.0025166722,0.85373294,-0.5206888,-51.181,-93.800995,8.311,0,-0.00030999997,-0.095809996,1,1,1,1,0,false,false,false,1710.02,-3065.23,16.949999,-0.0044156406,-0.002683911,0.8327147,-0.5536781,-548.34094,-1294.0509,9.211,-0.0068099997,0.00931,-0.72601
154.94167,1571.1699,-3201.8098,93.14,-0.42428884,0.46809474,-0.07728344,0.77129334,-519.881,-1250.611,0,5.51721,-0.66171,-0.68261,0,-0.140625,0,0,0,false,false,false,1468.72,-4036.49,17.01,-0.0041027423,-0.0025166722,0.85413724,-0.52002525,-47.060997,-86.081,8.311,0,-0.00030999997,-0.08581,1,1,1,1,0,false,false,false,1700.97,-3086.8198,16.97,-0.0043455083,-0.0026461475,0.83501834,-0.55019844,-529.501,-1300.3109,9.071,-0.008409999,0.0019099999,0.07561
154.95833,1562.5399,-3222.6099,93.14,-0.38483116,0.46906582,-0.06229127,0.7924657,-517.621,-1246.731,0,5.60561,-0.71611,-0.68261,0,-0.140625,0,0,0,false,false,false,1467.96,-4037.89,17.01,-0.0041027423,-0.0025166722,0.85449827,-0.5194318,-42.920998,-78.381,8.311,0,-0.00040999998,-0.07581,1,0.96850395,1,0.96850395,0,false,false,false,1692.2,-3108.52,16.99,-0.00429156,-0.002602989,0.83397865,-0.5517737,-516.621,-1305.351,8.861,-0.00721,0.00030999997,0.63361
154.975,1553.95,-3243.3398,93.14,-0.3438845,0.4686612,-0.04699154,0.8123372,-515.36096,-1242.861,0,5.69401,-0.77051,-0.68261,0,-0.1328125,0,0,0,false,false,false,1467.26,-4039.16,17.01,-0.0041027423,-0.0025166722,0.85481614,-0.5189085,-38.771,-70.681,8.311,0,-0.00040999998,-0.06681,1,-0.0546875,1,-0.0546875,0,false,false,false,1683.63,-3130.3,17.01,-0.004237612,-0.0025868046,0.830569,-0.55689335,-504.091,-1310.631,8.641,-0.00531,0.00081,1.01921
154.99167,1545.38,-3264,93.14,-0.30151358,0.46682158,-0.031389747,0.83077174,-513.10095,-1239.001,0,5.7824097,-0.82491,-0.68261,0,-0.1328125,0,0,0,false,false,false,1466.63,-4040.3098,17.01,-0.004102742,-0.002516672,0.85509425,-0.5184499,-34.591,-62.981,8.311,0,-0.00051,-0.057709996,1,-1,1,-1,0,false,false,false,1675.2,-3152.13,17.01,-0.0041782693,-0.002602989,0.826236,-0.56330246,-509.951,-1309.8109,8.441,-0.0016099999,0.00601,0.68511
155.00833,1536.85,-3284.5999,93.14,-0.2577886,0.46349838,-0.015501989,0.84762836,-510.841,-1235.141,0,5.87081,-0.87931,-0.68261,0,-0.125,0,0,0,false,false,false,1466.07,-4041.3198,17.01,-0.0041027423,-0.0025166722,0.855333,-0.51805615,-30.390999,-55.301,8.311,0,-0.00051,-0.049409997,1,-1,1,-1,0,false,false,false,1666.62,-3173.91,17.01,-0.0041135317,-0.0026515422,0.8240386,-0.56651235,-527.43097,-1301.3309,8.371,0.00111,0.010809999,-0.09861
155.025,1528.08,-3305.5,93.14,-0.21638343,0.46378973,-0.0018531126,0.8591122,-581.27094,-1296.5809,9.541,4.74621,0.39261,-1.09561,0,-0.125,0,0,0,false,false,false,1465.58,-4042.21,17.01,-0.0041027423,-0.0025166722,0.8555387,-0.5177163,-26.171,-47.621,8.311,0,-0.00061,-0.041109998,1,-1,1,-1,0,false,false,false,1657.83,-3195.49,17.1,0.00076875853,-0.0030561523,0.8255634,-0.56430054,-532.251,-1286.521,18.130999,-0.44381002,0.82631,-0.77581
155.04167,1518.4,-3327.0999,93.159996,-0.17801008,0.4682674,0.009351879,0.86541927,-580.97095,-1295.9209,-1.291,4.74621,0.39261,-1.09561,0,-0.2734375,0,0,0,false,false,false,1465.1599,-4042.97,17.01,-0.004102742,-0.002516672,0.85570836,-0.51743567,-21.950998,-39.940998,8.311,0,-0.00061,-0.033409998,1,0.09448819,1,0.09448819,0,false,false,false,1648.8999,-3216.91,17.279999,0.0071130386,-0.003687343,0.8296393,-0.5582421,-546.80096,-1281.841,19.370998,-0.18790999,0.30261,-1.13751
155.05833,1508.75,-3348.66,93.13,-0.13888687,0.47162834,0.020729588,0.87054425,-577.381,-1290.6609,4.0109997,4.8720098,0.30261,-1.09561,0,-0.2734375,0,0,0,false,false,false,1464.8099,-4043.5999,17.01,-0.0041027423,-0.0025166722,0.85584867,-0.51720375,-17.821,-32.181,8.311,0,-0.00061,-0.02961,1,1,1,1,0,false,false,false,1639.7999,-3238.29,17.44,0.009281746,-0.003827608,0.83440405,-0.55106163,-544.16095,-1285.8109,13.731,-0.00401,0.03041,-0.75281
155.075,1499.14,-3370.14,93.13,-0.09884653,0.47366217,0.032360766,0.8745434,-575.691,-1288.0609,0,4.92511,0.26441002,-1.09561,0,-0.2734375,0,0,0,false,false,false,1464.5299,-4044.1099,17.01,-0.0041027423,-0.0025166722,0.8559693,-0.51700413,-13.571,-24.501,8.311,0,-0.00061,-0.02241,1,1,1,1,0,false,false,false,1630.8099,-3259.74,17.51,0.008985032,-0.00402182,0.8368458,-0.54735,-529.561,-1292.031,7.2809997,0.12011,-0.15061,0.037109997
155.09166,1489.57,-3391.5598,93.13,-0.05802934,0.4743851,0.04421862,0.877289,-573.191,-1284.3209,0,5.00951,0.20380999,-1.09561,0,-0.2734375,0,0,0,false,false,false,1464.32,-4044.48,17.01,-0.004102742,-0.002516672,0.8560571,-0.51685846,3.8109999,4.121,8.311,0.0010099999,-0.0018099999,0.036409996,1,1,1,1,0,false,false,false,1622.0299,-3281.2998,17.47,0.007134618,-0.0041459007,0.83599705,-0.5486717,-520.03094,-1296.981,3.4009998,0.16641,-0.23450999,0.59641
155.10834,1480.0399,-3412.92,93.13,-0.01651621,0.4737593,0.05629765,0.87869775,-570.691,-1280.5809,0,5.0939097,0.14321,-1.09561,0,-0.2734375,0,0,0,false,false,false,1464.35,-4044.47,17.01,-0.004118927,-0.0025112776,0.85598224,-0.51698256,0.80099994,-0.011,8.311,-0.00040999998,-0.00071,0.00271,1,-0.203125,1,-0.203125,0,false,false,false,1613.4099,-3302.94,17.38,0.0047123544,-0.0041728746,0.83276063,-0.5535972,-509.63098,-1302.5409,1.701,0.16341,-0.24960999,1.00411
155.125,1470.5599,-3434.22,93.13,0.025622668,0.471747,0.06859778,0.8786879,-568.191,-1276.841,0,5.17831,0.082609996,-1.09561,0,-0.2734375,0,0,0,false,false,false,1464.36,-4044.47,17.01,-0.004118927,-0.002500488,0.85597575,-0.51699334,0.40099996,-0.211,8.311,-0.00061,-0.00021,0,1,-1,1,-1,0,false,false,false,1604.86,-3324.63,17.279999,0.0023278545,-0.004086558,0.82862806,-0.55977964,-520.391,-1300.7009,1.741,0.12951,-0.22660999,0.59041
155.14166,1461.13,-3455.45,93.13,0.06829028,0.46832132,0.081103005,0.8771737,-565.691,-1273.101,0,5.26271,0.02201,-1.09561,0,-0.2734375,0,0,0,false,false,false,1464.36,-4044.47,17.01,-0.004118927,-0.002500488,0.85597575,-0.51699334,0.251,-0.151,8.311,-0.00051,0,-0.00010999999,1,-1,1,-1,0,false,false,false,1596.1,-3346.27,17.18,0.00028862158,-0.0038923454,0.8268403,-0.5624231,-538.91095,-1292.861,2.6309998,0.091709994,-0.18581,-0.16160999
155.15834,1451.74,-3476.6199,93.13,0.11139487,0.46344984,0.09380775,0.87407404,-563.191,-1269.361,0,5.34711,-0.038409997,-1.09561,0,-0.2734375,0,0,0,false,false,false,1464.36,-4044.47,17.01,-0.004118927,-0.002500488,0.85597575,-0.51699334,0.161,-0.091,8.311,-0.00051,0,0,1,-1,1,-1,0,false,false,false,1587.0599,-3367.79,17.09,-0.0013190276,-0.0036495796,0.82826763,-0.5603191,-552.891,-1287.6909,3.9109998,0.060209997,-0.14251,-0.69550997
