time,ball_loc_x,ball_loc_y,ball_loc_z,ball_rot_x,ball_rot_y,ball_rot_z,ball_rot_w,ball_vel_x,ball_vel_y,ball_vel_z,ball_ang_x,ball_ang_y,ball_ang_z,player0_throttle,player0_steer,player0_pitch,player0_yaw,player0_roll,player0_jump,player0_boost,player0_handbrake,player0_loc_x,player0_loc_y,player0_loc_z,player0_rot_x,player0_rot_y,player0_rot_z,player0_rot_w,player0_vel_x,player0_vel_y,player0_vel_z,player0_ang_x,player0_ang_y,player0_ang_z,player1_throttle,player1_steer,player1_pitch,player1_yaw,player1_roll,player1_jump,player1_boost,player1_handbrake,player1_loc_x,player1_loc_y,player1_loc_z,player1_rot_x,player1_rot_y,player1_rot_z,player1_rot_w,player1_vel_x,player1_vel_y,player1_vel_z,player1_ang_x,player1_ang_y,player1_ang_z
187,-1567.97,-5011.35,731.76,0.02200276,0.45152184,0.89159167,-0.026609916,354.841,20.261,502.731,5.61621,1.13541,-1.77981,0,-0.1640625,0,0,0,false,false,false,328.46,-5496.36,22.619999,-0.008968892,0.020308796,0.9759098,0.2170416,-146.731,74.311,5.1809998,-0.00040999998,-0.00631,-0.15340999,1,-0.1484375,0,0,0,false,false,false,-2381.68,-3784.48,17.01,0.0015563988,0.0044857734,-0.3286334,0.9444456,331.781,-270.931,8.301001,0,-0.00010999999,-0.38221002
187.00833,-1565.01,-5011.1797,735.89996,0.02894047,0.43022853,0.9019719,-0.022639347,354.751,20.251,497.181,5.61621,1.13541,-1.77981,0,-0.1640625,0,0,0,false,false,false,327.24,-5495.7397,22.6,-0.008979681,0.020308796,0.97577035,0.2176674,-142.841,72.541,5.311,-0.00030999997,-0.00621,-0.14771,1,-0.1484375,0,0,0,false,false,false,-2378.91,-3786.74,17.01,0.0015617935,0.0044803782,-0.3301385,0.9439205,338.801,-277.621,8.301001,0,-0.00021,-0.37031
187.01666,-1562.0499,-5011.01,740,0.03585668,0.40866542,0.9117887,-0.018657986,354.661,20.241,491.63098,5.61621,1.13541,-1.77981,0,-0.1640625,0,0,0,false,false,false,326.05,-5495.1396,22.58,-0.008990469,0.020308794,0.9756364,0.2182662,-138.951,70.770996,5.401,-0.00021,-0.00601,-0.14241,1,-0.1484375,0,0,0,false,false,false,-2376.0898,-3789.0498,17.01,0.0015671884,0.0044749836,-0.33159512,0.94340986,345.671,-284.351,8.301001,0,-0.00021,-0.36081
187.025,-1559.1,-5010.84,744.05,0.042751234,0.3868489,0.9210348,-0.014665796,354.571,20.230999,486.081,5.61621,1.13541,-1.77981,0,-0.15625,0,0,0,false,false,false,324.88998,-5494.55,22.56,-0.009001259,0.020308794,0.975507,0.21884345,-135.071,68.971,5.4709997,-0.00010999999,-0.00581,-0.13651,1,-0.1328125,0,0,0,false,false,false,-2373.21,-3791.42,17.01,0.0015725831,0.0044695884,-0.33301392,0.94290996,352.531,-290.961,8.301001,0.00010999999,-0.00021,-0.34771
187.03334,-1556.15,-5010.67,748.05,0.049618807,0.36478946,0.92970574,-0.0106628565,354.481,20.220999,480.541,5.61621,1.13541,-1.77981,0,-0.15625,0,0,0,false,false,false,323.75998,-5493.98,22.539999,-0.009012049,0.020308794,0.9753821,0.21939911,-131.19101,67.171,5.521,-0.00010999999,-0.00561,-0.13101,1,-0.1171875,0,0,0,false,false,false,-2370.27,-3793.8398,17.01,0.0015779779,0.0044641937,-0.3343788,0.9424268,359.251,-297.621,8.301001,0.00021,-0.00010999999,-0.33711
187.04167,-1553.2,-5010.5,752.01,0.056454096,0.34250337,0.9377953,-0.0066545233,354.391,20.210999,475.001,5.61621,1.13541,-1.77981,0,-0.15625,0,0,0,false,false,false,322.66998,-5493.42,22.519999,-0.009022839,0.020308796,0.97526175,0.21993321,-127.311,65.370995,5.5709996,-0.00010999999,-0.0054099998,-0.12591,1,-0.1171875,0,0,0,false,false,false,-2367.28,-3796.3198,17.01,0.0015833726,0.0044641932,-0.3357005,0.9419567,365.971,-304.151,8.301001,0.00030999997,-0.00010999999,-0.32301
187.05,-1550.25,-5010.33,755.92,0.06325694,0.32000163,0.94529915,-0.0026407528,354.301,20.200998,469.461,5.61621,1.13541,-1.77981,0,-0.15625,0,0,0,false,false,false,321.61,-5492.88,22.5,-0.009033628,0.020308794,0.9751459,0.2204457,-123.431,63.560997,5.621,-0.00010999999,-0.00521,-0.12110999,1,-0.1015625,0,0,0,false,false,false,-2364.23,-3798.8499,17.01,0.0015887675,0.0044641937,-0.3369683,0.941504,372.551,-310.721,8.301001,0.00030999997,-0.00010999999,-0.31141
187.05833,-1547.2999,-5010.1597,759.79,0.07002202,0.29730025,0.9522119,0.0013783706,354.211,20.190998,463.921,5.61621,1.13541,-1.77981,0,-0.1484375,0,0,0,false,false,false,320.58,-5492.35,22.48,-0.009044416,0.020308793,0.9750346,0.2209366,-119.571,61.720997,5.671,-0.00010999999,-0.00501,-0.11571,1,-0.1015625,0,0,0,false,false,false,-2361.13,-3801.44,17.01,0.0015941623,0.004464194,-0.3381876,0.94106674,379.131,-317.151,8.301001,0.00030999997,-0.00010999999,-0.29641
187.06667,-1544.35,-5009.9897,763.61,0.07674393,0.27441543,0.95852876,0.0053920993,354.121,20.181,458.381,5.61621,1.13541,-1.77981,0,-0.1484375,0,0,0,false,false,false,319.58,-5491.84,22.46,-0.009055208,0.020308796,0.97492814,0.22140598,-115.711,59.880997,5.731,-0.00010999999,-0.00481,-0.110709995,-1,0,0,0,0,false,false,false,-2357.97,-3804.0798,17.01,0.001599557,0.0044641937,-0.33934745,0.9406491,385.581,-323.611,8.301001,0.00030999997,-0.00010999999,-0.28401
187.075,-1541.4,-5009.82,767.38,0.08341737,0.25135794,0.9642469,0.009405827,354.031,20.171,452.841,5.61621,1.13541,-1.77981,0,-0.1484375,0,0,0,false,false,false,318.62,-5491.34,22.439999,-0.009065997,0.020308794,0.9748262,0.22185375,-111.851,58.040997,5.791,-0.00010999999,-0.00461,-0.10601,-1,0,0,0,0,false,false,false,-2354.76,-3806.78,17.01,0.0016049518,0.0044641937,-0.34045878,0.9402474,363.421,-304.641,8.301001,0.00211,0.0014099999,-0.23730999
187.08333,-1538.45,-5009.65,771.11,0.090036795,0.2281441,0.9693625,0.013414246,353.941,20.161,447.301,5.61621,1.13541,-1.77981,0,-0.1484375,0,0,0,false,false,false,317.69,-5490.86,22.42,-0.009076786,0.020308794,0.9747278,0.22228533,-107.991,56.200996,5.851,-0.00010999999,-0.00441,-0.101509996,0.77952754,-0.078125,0,0,0,false,false,false,-2351.73,-3809.3198,17.01,0.0016157414,0.0044695884,-0.3413867,0.9399108,341.131,-285.821,8.301001,0.00301,0.00221,-0.19901
187.09166,-1535.5,-5009.48,774.79,0.096602246,0.20478451,0.9738726,0.017411787,353.851,20.151,441.771,5.61621,1.13541,-1.77981,0,-0.140625,0,0,0,false,false,false,316.78998,-5490.3896,22.4,-0.009087576,0.020308794,0.9746341,0.22269534,-104.141,54.350998,5.921,0,-0.00421,-0.09721,0.77952754,-0.078125,0,0,0,false,false,false,-2348.89,-3811.7,17.01,0.001626531,0.0044803782,-0.34216356,0.93962824,346.191,-291.321,8.301001,0.0017099999,0.0010099999,-0.19310999
187.1,-1532.5499,-5009.31,778.43,0.10310306,0.18130088,0.9777738,0.02139854,353.761,20.140999,436.241,5.61621,1.13541,-1.77981,0,-0.140625,0,0,0,false,false,false,315.91998,-5489.94,22.38,-0.009098366,0.020308794,0.9745439,0.22308914,-100.300995,52.470997,6.001,0,-0.00391,-0.09241,1,-0.0625,0,0,0,false,false,false,-2346.01,-3814.13,17.01,0.0016373207,0.0044857734,-0.34291884,0.93935287,351.221,-296.771,8.301001,0.00091,0.00030999997,-0.18831
187.10834,-1529.6,-5009.1396,782.01996,0.10953907,0.15770398,0.9810641,0.02537451,353.671,20.130999,430.711,5.61621,1.13541,-1.77981,0,-0.140625,0,0,0,false,false,false,315.08,-5489.5,22.359999,-0.00910376,0.020308794,0.9744574,0.22346678,-96.461,50.591,6.0909996,0,-0.00371,-0.08791,1,-0.0625,0,0,0,false,false,false,-2343.0798,-3816.5999,17.01,0.0016427154,0.004485773,-0.3436579,0.9390827,357.921,-303.391,8.301001,0.00030999997,-0.00010999999,-0.17961
187.11667,-1526.65,-5008.9697,785.56,0.115910314,0.13400453,0.98374134,0.029334288,353.581,20.120998,425.181,5.61621,1.13541,-1.77981,0,-0.140625,0,0,0,false,false,false,314.28,-5489.08,22.34,-0.009109156,0.020308796,0.9743756,0.22382286,-92.620995,48.711,6.1809998,0,-0.00351,-0.08361,1,-0.0625,0,0,0,false,false,false,-2340.0999,-3819.13,17.01,0.0016481103,0.0044857734,-0.34435925,0.9388257,364.541,-309.971,8.301001,0,-0.00030999997,-0.17241
187.125,-1523.7,-5008.8,789.06,0.12220614,0.11022421,0.98580384,0.033272576,353.491,20.110998,419.651,5.61621,1.13541,-1.77981,0,-0.140625,0,0,0,false,false,false,313.50998,-5488.67,22.32,-0.00911455,0.020308796,0.97429746,0.22416273,-88.791,46.821,6.2809997,0,-0.00331,-0.079509996,1,-0.0546875,0,0,0,false,false,false,-2337.06,-3821.71,17.01,0.001653505,0.004485773,-0.3450336,0.93857807,371.161,-316.431,8.301001,-0.00010999999,-0.00051,-0.16371
187.13333,-1520.75,-5008.63,792.51,0.12842631,0.08637372,0.98725027,0.037189193,353.401,20.101,414.121,5.61621,1.13541,-1.77981,0,-0.1328125,0,0,0,false,false,false,312.77,-5488.28,22.3,-0.009119945,0.020308794,0.97422284,0.22448641,-84.961,44.931,6.391,0,-0.00311,-0.075509995,1,-0.046875,0,0,0,false,false,false,-2333.97,-3824.3499,17.01,0.0016588998,0.0044803782,-0.34567556,0.93834186,377.701,-322.861,8.301001,-0.00021,-0.00061,-0.15641
187.14166,-1517.8099,-5008.46,795.92,0.13456559,0.062469296,0.9880798,0.041084237,353.311,20.091,408.591,5.61621,1.13541,-1.77981,0,-0.1328125,0,0,0,false,false,false,312.06,-5487.9097,22.289999,-0.009125341,0.020308796,0.9741519,0.22479393,-81.141,43.021,6.5109997,0,-0.00291,-0.071109995,1,-0.046875,0,0,0,false,false,false,-2330.82,-3827.0398,17.01,0.0016642946,0.004474983,-0.34628516,0.9381171,384.241,-329.171,8.301001,-0.00030999997,-0.00061,-0.14761
187.15,-1514.87,-5008.29,799.27997,0.14062396,0.038527105,0.9882913,0.044952307,353.221,20.081,403.07098,5.61621,1.13541,-1.77981,0,-0.1328125,0,0,0,false,false,false,311.38,-5487.55,22.279999,-0.009130734,0.020308794,0.97408456,0.22508523,-77.321,41.100998,6.601,0,-0.00271,-0.06691,1,-0.0390625,0,0,0,false,false,false,-2327.6199,-3829.78,17.01,0.0016642944,0.004469588,-0.34686238,0.93790376,390.761,-335.381,8.301001,-0.00030999997,-0.00051,-0.13751
187.15834,-1511.9299,-5008.12,802.58997,0.1465907,0.014557943,0.98788583,0.048793405,353.131,20.071,397.551,5.61621,1.13541,-1.77981,0,-0.1328125,0,0,0,false,false,false,310.74,-5487.21,22.269999,-0.00913613,0.020308796,0.97402215,0.22535498,-73.501,39.181,6.661,0,-0.00261,-0.06291,1,-0.0390625,0,0,0,false,false,false,-2324.3599,-3832.5698,17.01,0.0016642946,0.0044641937,-0.3474019,0.9377042,397.201,-341.561,8.301001,-0.00030999997,-0.00040999998,-0.12921
187.16667,-1508.99,-5007.9497,805.86,0.15246561,-0.009416658,0.98686296,0.052602127,353.041,20.060999,392.031,5.61621,1.13541,-1.77981,0,-0.1328125,0,0,0,false,false,false,310.13,-5486.88,22.26,-0.009141524,0.020308794,0.9739634,0.22560853,-69.690994,37.251,6.711,0,-0.00241,-0.05901,0.6062992,-0.03125,0,0,0,false,false,false,-2321.05,-3835.42,17.01,0.0016642946,0.004458799,-0.347909,0.93751615,403.561,-347.711,8.301001,-0.00030999997,-0.00030999997,-0.12231
187.175,-1506.0499,-5007.78,809.07996,0.15824884,-0.03338582,0.9852228,0.05637857,352.951,20.050999,386.511,5.61621,1.13541,-1.77981,0,-0.1328125,0,0,0,false,false,false,309.55,-5486.57,22.25,-0.0091469195,0.020308796,0.97390836,0.2258459,-65.881,35.321,6.7609997,0,-0.0023100001,-0.055209998,0.6062992,-0.03125,0,0,0,false,false,false,-2317.69,-3838.3198,17.01,0.0016642947,0.0044587995,-0.3483892,0.9373379,407.32098,-351.481,8.301001,-0.00010999999,-0.00010999999,-0.113309994
187.18333,-1503.11,-5007.61,812.25,0.16392958,-0.05733341,0.98296756,0.060122564,352.861,20.040998,380.991,5.61621,1.13541,-1.77981,0,-0.1328125,0,0,0,false,false,false,309,-5486.28,22.24,-0.009152314,0.020308794,0.9738557,0.22607248,-62.071,33.381,6.811,0,-0.00211,-0.05151,0.32283464,-0.0234375,0,0,0,false,false,false,-2314.3,-3841.25,17.01,0.0016642946,0.004458799,-0.34883156,0.9371733,409.241,-353.561,8.301001,0.00010999999,0,-0.102809995
187.19167,-1500.1699,-5007.44,815.38,0.16950786,-0.08124862,0.9800977,0.06382878,352.771,20.030998,375.471,5.61621,1.13541,-1.77981,0,-0.1328125,0,0,0,false,false,false,308.47998,-5486,22.23,-0.009157708,0.020308794,0.97380674,0.22628286,-58.260998,31.440998,6.871,0,-0.00201,-0.047909997,0.32283464,-0.0234375,0,0,0,false,false,false,-2310.89,-3844.2,17.01,0.0016642946,0.004458799,-0.34923077,0.9370246,411.131,-355.661,8.301001,0.00021,0.00010999999,-0.09411
187.2,-1497.23,-5007.27,818.45996,0.17498358,-0.10510993,0.97661525,0.067491844,352.681,20.021,369.951,5.61621,1.13541,-1.77981,0,-0.125,0,0,0,false,false,false,307.99,-5485.7397,22.22,-0.009163104,0.020308796,0.9737616,0.2264771,-54.450996,29.501,6.9309998,0,-0.0018099999,-0.044409998,0.18110237,-0.015625,0,0,0,false,false,false,-2307.46,-3847.16,17.01,0.0016642947,0.0044587995,-0.34959766,0.9368878,413.001,-357.771,8.301001,0.00030999997,0.00010999999,-0.086909994
187.20833,-1494.2899,-5007.1,821.5,0.180346,-0.12890644,0.97252274,0.07111714,352.591,20.011,364.441,5.61621,1.13541,-1.77981,0,-0.125,0,0,0,false,false,false,307.53998,-5485.4897,22.21,-0.009168497,0.020308793,0.97372,0.22665508,-50.650997,27.540998,6.9909997,0,-0.0016099999,-0.040609997,0.18110237,-0.015625,0,0,0,false,false,false,-2304.02,-3850.14,17.01,0.0016696895,0.0044587995,-0.34993753,0.9367609,414.001,-359.001,8.301001,0.00040999998,0.00021,-0.078109995
187.21666,-1491.35,-5006.9297,824.49,0.18560053,-0.15262206,0.96782213,0.0746939,352.501,20.001,358.931,5.61621,1.13541,-1.77981,0,-0.125,0,0,0,false,false,false,307.12,-5485.26,22.199999,-0.009173892,0.020308794,0.9736811,0.22682235,-46.850998,25.581,7.0509996,0,-0.0014099999,-0.03701,0.12598425,-0.015625,0,0,0,false,false,false,-2300.57,-3853.13,17.01,0.0016750843,0.0044587995,-0.35024503,0.936646,414.991,-360.241,8.301001,0.00040999998,0.00021,-0.070709996
187.225,-1488.4099,-5006.76,827.44,0.19073649,-0.17624058,0.96251714,0.07822759,352.411,19.991,353.421,5.61621,1.13541,-1.77981,0,-0.125,0,0,0,false,false,false,306.72998,-5485.05,22.189999,-0.009173893,0.020308796,0.9736459,0.22697341,-43.051,23.620998,7.121,0,-0.0012099999,-0.033409998,0.12598425,-0.015625,0,0,0,false,false,false,-2297.1099,-3856.13,17.01,0.0016750843,0.0044587995,-0.35052016,0.93654305,415.611,-361.171,8.301001,0.00040999998,0.00030999997,-0.064509995
187.23334,-1485.47,-5006.59,830.33997,0.19575365,-0.1997512,0.95661014,0.081712626,352.321,19.980999,347.911,5.61621,1.13541,-1.77981,0,-0.125,0,0,0,false,false,false,306.37,-5484.85,22.18,-0.009173892,0.020308794,0.97361445,0.22710827,-39.260998,21.651,7.2009997,0,-0.00111,-0.02991,0.09448819,-0.0078125,0,0,0,false,false,false,-2293.65,-3859.14,17.01,0.0016750843,0.0044587995,-0.35077372,0.9364481,416.091,-361.851,8.301001,0.00040999998,0.00030999997,-0.056709997
187.24167,-1482.5299,-5006.42,833.19,0.20064671,-0.2231377,0.9501057,0.08514371,352.231,19.970999,342.401,5.61621,1.13541,-1.77981,0,-0.125,0,0,0,false,false,false,306.03998,-5484.67,22.17,-0.009173892,0.020308794,0.9735855,0.22723235,-35.470997,19.681,7.291,0,-0.0010099999,-0.02641,0.09448819,-0.0078125,0,0,0,false,false,false,-2290.18,-3862.16,17.01,0.0016750842,0.004458799,-0.35099488,0.9363652,416.561,-362.541,8.301001,0.00040999998,0.00030999997,-0.05021
187.25,-1479.6,-5006.25,836,0.2054157,-0.24638394,0.94300747,0.08852084,352.141,19.960999,336.891,5.61621,1.13541,-1.77981,0,-0.125,0,0,0,false,false,false,305.74,-5484.51,22.16,-0.009173893,0.020308796,0.97356033,0.22734027,-31.680998,17.710999,7.391,0,-0.00091,-0.02301,0.11811024,-0.0078125,0,0,0,false,false,false,-2286.71,-3865.18,17.01,0.0016750843,0.0044587995,-0.3511891,0.9362924,417.021,-363.241,8.301001,0.00040999998,0.00030999997,-0.04471
187.25833,-1476.6699,-5006.08,838.76,0.21005534,-0.2694738,0.935321,0.09184405,352.051,19.950998,331.381,5.61621,1.13541,-1.77981,0,-0.125,0,0,0,false,false,false,305.47998,-5484.36,22.15,-0.009173892,0.020308794,0.9735389,0.22743197,-27.890999,15.741,7.501,0,-0.00081,-0.01961,0.14173228,-0.0078125,0,0,0,false,false,false,-2283.23,-3868.21,17.01,0.0016750843,0.0044587995,-0.35136175,0.9362276,417.631,-364.07098,8.301001,0.00040999998,0.00030999997,-0.04011
187.26666,-1473.74,-5005.9097,841.48,0.21456538,-0.29239637,0.9270488,0.0951133,351.961,19.940998,325.881,5.61621,1.13541,-1.77981,0,-0.125,0,0,0,false,false,false,305.25,-5484.23,22.14,-0.009173892,0.020308794,0.97352,0.22751288,-24.101,13.771,7.621,0,-0.00071,-0.016210001,0.14173228,-0.0078125,0,0,0,false,false,false,-2279.75,-3871.24,17.01,0.0016750843,0.0044587995,-0.35151818,0.9361689,418.401,-365.031,8.301001,0.00040999998,0.00030999997,-0.03631
187.275,-1470.8099,-5005.7397,844.14996,0.21894056,-0.31513554,0.9181983,0.0983178,351.871,19.931,320.381,5.61621,1.13541,-1.77981,0,-0.125,0,0,0,false,false,false,305.05,-5484.12,22.14,-0.009173892,0.020308794,0.97350484,0.22757763,-20.310999,11.791,7.7409997,0,-0.00061,-0.012909999,0.14173228,-0.0078125,0,0,0,false,false,false,-2276.26,-3874.28,17.01,0.0016750843,0.0044587995,-0.35165846,0.9361162,419.171,-365.981,8.301001,0.00040999998,0.00030999997,-0.033109996
187.28334,-1467.88,-5005.57,846.76996,0.22318083,-0.33768043,0.90877235,0.10146304,351.781,19.921,314.881,5.61621,1.13541,-1.77981,0,-0.125,0,0,0,false,false,false,304.88,-5484.02,22.14,-0.009173892,0.020308794,0.9734922,0.22763157,5.251,-1.8610001,8.291,-0.00091,-0.00091,0.013309999,0.1496063,0,0,0,0,false,false,false,-2272.77,-3877.3298,17.01,0.0016750843,0.0044587995,-0.35178792,0.9360676,420.061,-366.901,8.301001,0.00040999998,0.00030999997,-0.02781
187.29167,-1464.95,-5005.4,849.35,0.22728088,-0.36001495,0.8987786,0.10454346,351.691,19.911,309.381,5.61621,1.13541,-1.77981,0,-0.125,0,0,0,false,false,false,304.91998,-5484.04,22.14,-0.0091792885,0.020308796,0.97350484,0.22757764,-1.031,1.591,8.151,-0.00021,-0.00030999997,-0.0016099999,0.15748031,0,0,0,0,false,false,false,-2269.27,-3880.39,17.01,0.0016750842,0.004458799,-0.3518958,0.936027,420.951,-367.82098,8.301001,0.00040999998,0.00030999997,-0.02331
187.3,-1462.02,-5005.23,851.88,0.23124066,-0.3821229,0.88822323,0.10755915,351.601,19.901,303.881,5.61621,1.13541,-1.77981,0,-0.125,0,0,0,false,false,false,304.91,-5484.03,22.14,-0.009179288,0.020308794,0.97350353,0.22758302,0.681,0.72099996,8.181,0,0,0.00131,0.15748031,0,0,0,0,false,false,false,-2265.76,-3883.45,17.01,0.0016750842,0.004458799,-0.3519875,0.9359925,421.881,-368.791,8.301001,0.00040999998,0.00030999997,-0.01961
187.30833,-1459.09,-5005.06,854.37,0.23505491,-0.40399355,0.8771122,0.11051013,351.511,19.890999,298.381,5.61621,1.13541,-1.77981,0,-0.125,0,0,0,false,false,false,304.91998,-5484.02,22.14,-0.0091792885,0.020308796,0.97350484,0.22757764,0.26099998,0.99099994,8.1710005,0.00010999999,0.00010999999,0.00021,0.15748031,0,0,0,0,false,false,false,-2262.24,-3886.52,17.01,0.0016750842,0.004458799,-0.35206303,0.9359641,422.811,-369.751,8.301001,0.00040999998,0.00030999997,-0.01651
187.31667,-1456.1599,-5004.8896,856.81,0.23871796,-0.42561054,0.8654547,0.113390945,351.421,19.880999,292.881,5.61621,1.13541,-1.77981,0,-0.125,0,0,0,false,false,false,304.91998,-5484.01,22.14,-0.0091792885,0.020308796,0.97350484,0.22757764,0.39099997,0.951,8.1710005,0.00010999999,0.00021,0.00040999998,0.17322835,0,0,0,0,false,false,false,-2258.72,-3889.5999,17.01,0.0016750842,0.004458799,-0.3521278,0.9359397,423.85098,-370.801,8.301001,0.00040999998,0.00030999997,-0.013909999
187.325,-1453.23,-5004.7197,859.19995,0.24223536,-0.44696325,0.8532543,0.11620163,351.331,19.870998,287.391,5.61621,1.13541,-1.77981,0,-0.125,0,0,0,false,false,false,304.91998,-5484,22.14,-0.0091792885,0.020308796,0.97350484,0.22757764,0.371,0.98099995,8.1710005,0.00010999999,0.00021,0.00030999997,0.17322835,0,0,0,0,false,false,false,-2255.19,-3892.69,17.01,0.0016750842,0.004458799,-0.35218173,0.93591946,424.891,-371.841,8.301001,0.00040999998,0.00030999997,-0.011709999
187.33333,-1450.2999,-5004.55,861.55,0.24560173,-0.4680354,0.84052163,0.11893679,351.241,19.860998,281.901,5.61621,1.13541,-1.77981,0,-0.125,0,0,0,false,false,false,304.91998,-5483.9897,22.14,-0.0091792885,0.020308796,0.97350484,0.22757764,0.39099997,0.99099994,8.161,0.00010999999,0.00021,0.00030999997,0.17322835,0,0,0,0,false,false,false,-2251.65,-3895.7898,17.01,0.0016750843,0.0044587995,-0.35222492,0.93590325,425.931,-372.881,8.301001,0.00040999998,0.00030999997,-0.00981
187.34166,-1447.37,-5004.38,863.85,0.24881165,-0.48881626,0.8272632,0.12160192,351.151,19.851,276.411,5.61621,1.13541,-1.77981,0,-0.125,0,0,0,false,false,false,304.91998,-5483.98,22.14,-0.0091792885,0.020308796,0.97350484,0.22757764,0.39099997,1.011,8.161,0.00010999999,0.00021,0.00030999997,0.17322835,0,0,0,0,false,false,false,-2248.0999,-3898.9,17.01,0.0016750842,0.004458799,-0.35226265,0.935889,426.981,-373.911,8.301001,0.00040999998,0.00030999997,-0.00821
187.35,-1444.44,-5004.21,866.11,0.25187048,-0.5092896,0.81348825,0.124186024,351.061,19.841,270.921,5.61621,1.13541,-1.77981,0,-0.125,0,0,0,false,false,false,304.91998,-5483.9697,22.14,-0.0091792885,0.020308796,0.97350484,0.22757764,0.40099996,1.021,8.151,0.00010999999,0.00021,0.00040999998,0.17322835,0,0,0,0,false,false,false,-2244.54,-3902.02,17.01,0.0016750843,0.0044587995,-0.35229504,0.93587685,428.031,-374.931,8.301001,0.00040999998,0.00030999997,-0.00691
187.35834,-1441.52,-5004.04,868.32,0.25476757,-0.52944463,0.799206,0.1266946,350.971,19.831,265.431,5.61621,1.13541,-1.77981,0,-0.125,0,0,0,false,false,false,304.91998,-5483.96,22.14,-0.0091792885,0.020308796,0.97350484,0.22757764,0.41099998,1.031,8.151,0.00010999999,0.00021,0.00040999998,0.19685039,0,0,0,0,false,false,false,-2240.97,-3905.14,17.01,0.0016750842,0.004458799,-0.35232198,0.93586665,429.081,-375.951,8.301001,0.00040999998,0.00030999997,-0.00581
187.36667,-1438.6,-5003.87,870.49,0.25750807,-0.5492705,0.7844225,0.12912223,350.881,19.821,259.941,5.61621,1.13541,-1.77981,0,-0.125,0,0,0,false,false,false,304.91998,-5483.9497,22.14,-0.0091792885,0.020308796,0.97350484,0.22757764,0.41099998,1.041,8.141,0.00010999999,0.00021,0.00040999998,0.19685039,0,0,0,0,false,false,false,-2237.39,-3908.27,17.01,0.0016750842,0.004458799,-0.35234356,0.93585855,430.281,-377.091,8.301001,0.00040999998,0.00030999997,-0.00491
187.375,-1435.6799,-5003.6997,872.61,0.26008683,-0.56875134,0.76915056,0.131469,350.791,19.810999,254.451,5.61621,1.13541,-1.77981,0,-0.125,0,0,0,false,false,false,304.91998,-5483.94,22.14,-0.0091792885,0.020308796,0.97350484,0.22757764,0.42099997,1.051,8.141,0.00010999999,0.00021,0.00040999998,0.19685039,0.007874016,0,0,0,false,false,false,-2233.8,-3911.41,17.01,0.001675084,0.0044587986,-0.3523651,0.9358503,431.491,-378.221,8.301001,0.00040999998,0.00030999997,-0.00411
187.38333,-1432.76,-5003.53,874.68,0.26250368,-0.58787584,0.75339806,0.13373479,350.701,19.800999,248.961,5.61621,1.13541,-1.77981,0,-0.125,0,0,0,false,false,false,304.91998,-5483.9297,22.14,-0.0091792885,0.020308796,0.97350484,0.22757764,0.42099997,1.061,8.1310005,0.00010999999,0.00021,0.00040999998,0.19685039,0.007874016,0,0,0,false,false,false,-2230.2,-3914.5598,17.01,0.0016750842,0.004458799,-0.35238135,0.9358443,432.761,-379.271,8.301001,0.00040999998,0.00030999997,-0.00071
187.39166,-1429.84,-5003.36,876.70996,0.2647533,-0.60663366,0.737175,0.13591969,350.611,19.790998,243.481,5.61621,1.13541,-1.77981,0,-0.125,0,0,0,false,false,false,304.91998,-5483.92,22.14,-0.0091792885,0.020308796,0.97350484,0.22757764,0.42099997,1.061,8.1310005,0.00010999999,0.00021,0.00040999998,0.16535433,0.007874016,0,0,0,false,false,false,-2226.5898,-3917.72,17.01,0.0016750842,0.004458799,-0.35238674,0.9358423,434.021,-380.331,8.301001,0.00040999998,0.00030999997,0.00201
187.4,-1426.9199,-5003.19,878.69,0.2668411,-0.62501377,0.720489,0.13801827,350.521,19.780998,238.001,5.61621,1.13541,-1.77981,0,-0.125,0,0,0,false,false,false,304.91998,-5483.9097,22.14,-0.0091792885,0.020308796,0.97350484,0.22757764,0.42099997,1.061,8.121,0.00010999999,0.00021,0.00040999998,0.18897638,0.007874016,0,0,0,false,false,false,-2222.97,-3920.89,17.01,0.0016750842,0.004458799,-0.35238135,0.9358443,435.081,-381.221,8.301001,0.00040999998,0.00030999997,0.0043099998
187.40834,-1424,-5003.02,880.63,0.26876166,-0.64300007,0.7033558,0.14003053,350.431,19.771,232.521,5.61621,1.13541,-1.77981,0,-0.125,0,0,0,false,false,false,304.91998,-5483.9,22.14,-0.0091792885,0.020308796,0.97350484,0.22757764,0.42099997,1.061,8.121,0.00010999999,0.00021,0.00040999998,0.18897638,0.007874016,0,0,0,false,false,false,-2219.3398,-3924.0698,17.01,0.001675084,0.0044587986,-0.3523651,0.9358503,436.291,-382.241,8.301001,0.00040999998,0.00030999997,0.00621
187.41667,-1421.08,-5002.86,882.51996,0.27051497,-0.6605872,0.6857801,0.14195646,350.341,19.761,227.041,5.61621,1.13541,-1.77981,0,-0.125,0,0,0,false,false,false,304.91998,-5483.8896,22.14,-0.0091792885,0.020308796,0.97350484,0.22757764,0.42099997,1.061,8.121,0.00010999999,0.00021,0.00040999998,0.18897638,0.007874016,0,0,0,false,false,false,-2215.7,-3927.25,17.01,0.0016750842,0.004458799,-0.35234356,0.93585855,437.491,-383.261,8.301001,0.00040999998,0.00030999997,0.00781
187.425,-1418.1599,-5002.6997,884.37,-0.27209568,0.67776096,-0.6677785,-0.14379074,350.251,19.751,221.561,5.61621,1.13541,-1.77981,0,-0.125,0,0,0,false,false,false,304.91998,-5483.88,22.14,-0.0091792885,0.020308796,0.97350484,0.22757764,0.42099997,1.061,8.111,0.00010999999,0.00021,0.00040999998,0.17322835,0.007874016,0,0,0,false,false,false,-2212.05,-3930.44,17.01,0.0016750843,0.0044587995,-0.35231122,0.93587077,438.691,-384.271,8.301001,0.00040999998,0.00030999997,0.00921
187.43333,-1415.24,-5002.53,886.17,-0.27350911,0.6945084,-0.6493606,-0.14553866,350.161,19.741,216.08101,5.61621,1.13541,-1.77981,0,-0.125,0,0,0,false,false,false,304.91998,-5483.87,22.14,-0.0091792885,0.020308796,0.97350484,0.22757764,0.42099997,1.061,8.111,0.00010999999,0.00021,0.00040999998,0.17322835,0.007874016,0,0,0,false,false,false,-2208.39,-3933.64,17.01,0.0016750842,0.004458799,-0.35227343,0.93588495,439.791,-385.191,8.301001,0.00040999998,0.00030999997,0.01041
187.44167,-1412.32,-5002.37,887.93,-0.2747499,0.71082664,-0.6305327,-0.14719486,350.071,19.730999,210.601,5.61621,1.13541,-1.77981,0,-0.125,0,0,0,false,false,false,304.91998,-5483.86,22.14,-0.0091792885,0.020308796,0.97350484,0.22757764,0.42099997,1.061,8.101,0.00010999999,0.00021,0.00040999998,0.18897638,0.007874016,0,0,0,false,false,false,-2204.72,-3936.8499,17.01,0.0016750842,0.004458799,-0.35223028,0.93590117,440.891,-386.111,8.301001,0.00040999998,0.00030999997,0.011409999
187.45,-1409.4,-5002.21,889.63995,-0.27581808,0.72670066,-0.6113109,-0.14875935,349.981,19.720999,205.131,5.61621,1.13541,-1.77981,0,-0.125,0,0,0,false,false,false,304.91998,-5483.85,22.14,-0.0091792885,0.020308796,0.97350484,0.22757764,0.43099996,1.061,8.101,0.00010999999,0.00021,0.00040999998,0.18897638,0.007874016,0,0,0,false,false,false,-2201.05,-3940.0698,17.01,0.0016750842,0.004458799,-0.35218713,0.93591744,442.091,-387.111,8.301001,0.00040999998,0.00030999997,0.012209999
187.45833,-1406.48,-5002.05,891.3,-0.2767136,0.7421209,-0.5917062,-0.15023217,349.891,19.710999,199.661,5.61621,1.13541,-1.77981,0,-0.125,0,0,0,false,false,false,304.91998,-5483.84,22.14,-0.0091792885,0.020308796,0.97350484,0.22757764,0.42099997,1.071,8.091001,0.00010999999,0.00021,0.00040999998,0.18897638,0.007874016,0,0,0,false,false,false,-2197.3699,-3943.2998,17.01,0.0016750842,0.004458799,-0.35213858,0.9359357,443.291,-388.111,8.301001,0.00040999998,0.00030999997,0.012909999
187.46666,-1403.5599,-5001.8896,892.92,-0.27743652,0.7570756,-0.57173455,-0.15160784,349.801,19.700998,194.19101,5.61621,1.13541,-1.77981,0,-0.125,0,0,0,false,false,false,304.91998,-5483.83,22.14,-0.0091792885,0.020308796,0.97350484,0.22757764,0.43099996,1.071,8.091001,0.00010999999,0.00021,0.00040999998,0.18897638,0.007874016,0,0,0,false,false,false,-2193.68,-3946.53,17.01,0.0016750843,0.0044587995,-0.35209006,0.935954,444.491,-389.101,8.301001,0.00040999998,0.00030999997,0.013509999
187.475,-1400.65,-5001.73,894.49,-0.2779868,0.7715553,-0.5514069,-0.1528918,349.711,19.690998,188.72101,5.61621,1.13541,-1.77981,0,-0.125,0,0,0,false,false,false,304.91998,-5483.82,22.14,-0.0091792885,0.020308796,0.97350484,0.22757764,0.43099996,1.071,8.081,0.00010999999,0.00021,0.00040999998,0.18897638,0.007874016,0,0,0,false,false,false,-2189.98,-3949.77,17.01,0.0016750842,0.004458799,-0.35203606,0.93597424,445.691,-390.091,8.301001,0.00040999998,0.00030999997,0.014009999
187.48334,-1397.74,-5001.57,896.01996,-0.27836445,0.7855536,-0.530734,-0.15407868,349.621,19.681,183.251,5.61621,1.13541,-1.77981,0,-0.125,0,0,0,false,false,false,304.91998,-5483.81,22.14,-0.0091792885,0.020308796,0.97350484,0.22757764,0.43099996,1.071,8.081,0.00010999999,0.00021,0.00040999998,0.22047244,0,0,0,0,false,false,false,-2186.27,-3953.02,17.01,0.0016750843,0.0044587995,-0.35198215,0.93599457,446.901,-391.07098,8.301001,0.00040999998,0.00030999997,0.014409999
187.49167,-1394.83,-5001.4097,897.5,-0.2785694,0.79906225,-0.50972646,-0.1551684,349.531,19.671,177.781,5.61621,1.13541,-1.77981,0,-0.125,0,0,0,false,false,false,304.91998,-5483.8,22.14,-0.0091792885,0.020308796,0.97350484,0.22757764,0.43099996,1.071,8.071,0.00010999999,0.00021,0.00040999998,0.22047244,0,0,0,0,false,false,false,-2182.55,-3956.28,17.01,0.0016750842,0.004458799,-0.35192817,0.93601483,448.231,-392.301,8.301001,0.00030999997,0.00030999997,0.01201
187.5,-1391.9199,-5001.25,898.94,-0.2785964,0.8120728,-0.48840085,-0.15616105,349.441,19.661,172.311,5.61621,1.13541,-1.77981,0,-0.125,0,0,0,false,false,false,304.91998,-5483.79,22.14,-0.0091792885,0.020308796,0.97350484,0.22757764,0.43099996,1.071,8.071,0.00010999999,0.00021,0.00040999998,0.22834645,0,0,0,0,false,false,false,-2178.81,-3959.5498,17.01,0.0016750842,0.004458799,-0.35187963,0.93603307,449.57098,-393.511,8.301001,0.00030999997,0.00030999997,0.010009999
187.50833,-1389.01,-5001.09,900.32996,-0.27845076,0.82457334,-0.46677303,-0.15705658,349.351,19.651,166.851,5.61621,1.13541,-1.77981,0,-0.125,0,0,0,false,false,false,304.91998,-5483.78,22.14,-0.0091792885,0.020308796,0.97350484,0.22757764,0.43099996,1.071,8.061,0.00010999999,0.00021,0.00040999998,0.22834645,0,0,0,0,false,false,false,-2175.06,-3962.8298,17.01,0.0016750842,0.004458799,-0.35184187,0.93604726,450.971,-394.751,8.301001,0.00030999997,0.00030999997,0.0083099995
187.51666,-1386.1,-5000.9297,901.67,-0.2781325,0.83655787,-0.4448539,-0.15785503,349.261,19.640999,161.391,5.61621,1.13541,-1.77981,0,-0.125,0,0,0,false,false,false,304.91998,-5483.77,22.14,-0.0091792885,0.020308796,0.97350484,0.22757764,0.43099996,1.071,8.051001,0.00010999999,0.00021,0.00040999998,0.22834645,0,0,0,0,false,false,false,-2171.3,-3966.1199,17.01,0.0016750842,0.004458799,-0.3518095,0.9360594,452.371,-395.981,8.301001,0.00030999997,0.00030999997,0.00691
187.525,-1383.19,-5000.77,902.97,-0.27764153,0.84802026,-0.4226542,-0.15855634,349.171,19.630999,155.931,5.61621,1.13541,-1.77981,0,-0.125,0,0,0,false,false,false,304.91998,-5483.76,22.14,-0.0091792885,0.020308796,0.97350484,0.22757764,0.43099996,1.071,8.051001,0.00010999999,0.00021,0.00040999998,0.22834645,0,0,0,0,false,false,false,-2167.53,-3969.42,17.01,0.0016750843,0.0044587995,-0.35178253,0.9360696,453.771,-397.201,8.301001,0.00030999997,0.00030999997,0.0057099997
187.53334,-1380.28,-5000.61,904.22,-0.27697793,0.85895306,-0.40019017,-0.15915515,349.081,19.620998,150.47101,5.61621,1.13541,-1.77981,0,-0.125,0,0,0,false,false,false,304.91998,-5483.75,22.14,-0.0091792885,0.020308796,0.97350484,0.22757764,0.43099996,1.071,8.041,0.00010999999,0.00021,0.00040999998,0.22834645,0,0,0,0,false,false,false,-2163.75,-3972.73,17.01,0.0016750843,0.0044587995,-0.35176095,0.9360777,455.181,-398.421,8.301001,0.00030999997,0.00030999997,0.00471
187.54167,-1377.37,-5000.4497,905.43,-0.27614176,0.8693478,-0.377478,-0.15965688,348.991,19.610998,145.011,5.61621,1.13541,-1.77981,0,-0.125,0,0,0,false,false,false,304.91998,-5483.7397,22.14,-0.0091792885,0.020308796,0.97350484,0.22757764,0.43099996,1.071,8.031,0.00010999999,0.00021,0.00040999998,0.22834645,0,0,0,0,false,false,false,-2159.96,-3976.0498,17.01,0.0016750843,0.0044587995,-0.35174477,0.9360838,456.581,-399.631,8.301001,0.00030999997,0.00030999997,0.00391
187.55,-1374.46,-5000.29,906.58997,-0.27513295,0.8792004,-0.35452846,-0.1600561,348.901,19.601,139.55101,5.61621,1.13541,-1.77981,0,-0.125,0,0,0,false,false,false,304.91998,-5483.73,22.14,-0.0091792885,0.020308796,0.97350484,0.22757764,0.43099996,1.071,8.031,0.00010999999,0.00021,0.00040999998,0.22834645,0,0,0,0,false,false,false,-2156.16,-3979.38,17.01,0.0016750843,0.0044587995,-0.3517286,0.9360899,457.981,-400.841,8.301001,0.00030999997,0.00030999997,0.00321
187.55833,-1371.5499,-5000.13,907.70996,-0.2739515,0.8885031,-0.33135772,-0.16035825,348.811,19.591,134.091,5.61621,1.13541,-1.77981,0,-0.125,0,0,0,false,false,false,304.91998,-5483.7197,22.14,-0.0091792885,0.020308796,0.97350484,0.22757764,0.43099996,1.071,8.021,0.00010999999,0.00021,0.00040999998,0.23622048,0,0,0,0,false,false,false,-2152.3398,-3982.72,17.01,0.0016750842,0.004458799,-0.35171777,0.9360939,459.431,-402.091,8.301001,0.00030999997,0.00030999997,0.00271
187.56667,-1368.64,-4999.9697,908.77997,-0.2725974,0.8972507,-0.307982,-0.16055785,348.721,19.581,128.641,5.61621,1.13541,-1.77981,0,-0.125,0,0,0,false,false,false,304.91998,-5483.71,22.14,-0.0091792885,0.020308796,0.97350484,0.22757764,0.43099996,1.071,8.011001,0.00010999999,0.00021,0.00040999998,0.22834645,0,0,0,0,false,false,false,-2148.51,-3986.0698,17.01,0.0016750843,0.0044587995,-0.351707,0.936098,460.881,-403.341,8.301001,0.00030999997,0.00030999997,0.00221
187.575,-1365.73,-4999.81,909.81,-0.27107066,0.9054393,-0.28441203,-0.16065496,348.631,19.571,123.190994,5.61621,1.13541,-1.77981,0,-0.125,0,0,0,false,false,false,304.91998,-5483.6997,22.14,-0.0091792885,0.020308796,0.97350484,0.22757764,0.43099996,1.071,8.011001,0.00010999999,0.00021,0.00040999998,0.22834645,0,0,0,0,false,false,false,-2144.67,-3989.43,17.01,0.0016750843,0.0044587995,-0.35169622,0.93610203,462.271,-404.541,8.301001,0.00030999997,0.00030999997,0.0018099999
187.58333,-1362.83,-4999.65,910.79,-0.26937664,0.91306084,-0.26066405,-0.16065495,348.541,19.560999,117.741,5.61621,1.13541,-1.77981,0,-0.125,0,0,0,false,false,false,304.91998,-5483.69,22.14,-0.0091792885,0.020308796,0.97350484,0.22757764,0.43099996,1.071,8.001,0.00010999999,0.00021,0.00040999998,0.23622048,0,0,0,0,false,false,false,-2140.82,-3992.7998,17.01,0.0016750843,0.0044587995,-0.35169083,0.93610406,463.661,-405.741,8.301001,0.00030999997,0.00030999997,0.00151
187.59166,-1359.9299,-4999.4897,911.73,-0.26751545,0.9201118,-0.23675421,-0.16055246,348.451,19.550999,112.291,5.61621,1.13541,-1.77981,0,-0.125,0,0,0,false,false,false,304.91998,-5483.6797,22.14,-0.0091792885,0.020308796,0.97350484,0.22757764,0.43099996,1.071,7.9909997,0.00010999999,0.00021,0.00040999998,0.23622048,0,0,0,0,false,false,false,-2136.96,-3996.18,17.01,0.0016750843,0.0044587995,-0.35168543,0.9361061,465.10098,-406.981,8.301001,0.00030999997,0.00030999997,0.0012099999
187.6,-1357.03,-4999.33,912.62,-0.26548705,0.9265879,-0.21269335,-0.16035287,348.361,19.540998,106.840996,5.61621,1.13541,-1.77981,1,-0.125,0,0,0,false,false,false,304.91998,-5483.67,22.14,-0.0091792885,0.020308796,0.97350484,0.22757764,0.43099996,1.071,7.9909997,0.00010999999,0.00021,0.00040999998,0.23622048,0,0,0,0,false,false,false,-2133.0798,-3999.5698,17.01,0.0016750843,0.0044587995,-0.35168004,0.9361081,466.531,-408.221,8.301001,0.00030999997,0.00030999997,0.0010099999
187.60834,-1354.13,-4999.17,913.45996,-0.26329136,0.93248487,-0.188503,-0.16005072,348.271,19.530998,101.391,5.61621,1.13541,-1.77981,1,-0.125,0,0,0,false,false,false,304.91998,-5483.6597,22.14,-0.0091792885,0.020308796,0.97350484,0.22757764,-11.391,7.4209995,7.731,0.00061,0.00051,-0.011809999,0.2519685,0,0,0,0,false,false,false,-2129.19,-4002.97,17.01,0.0016750843,0.0044587995,-0.35167465,0.93611014,468.051,-409.541,8.301001,0.00030999997,0.00030999997,0.00081
187.61667,-1351.23,-4999.01,914.26,-0.26093382,0.937798,-0.16419394,-0.15965149,348.181,19.521,95.940994,5.61621,1.13541,-1.77981,1,-0.125,0,0,0,false,false,false,304.83,-5483.6,22.14,-0.0091738915,0.020308793,0.9734934,0.22762614,-23.120998,13.701,7.4709997,0.0010099999,0.00051,-0.02351,0.25984251,0,0,0,0,false,false,false,-2125.29,-4006.38,17.01,0.001675084,0.0044587986,-0.3516692,0.93611205,469.57098,-410.861,8.301001,0.00030999997,0.00030999997,0.00061
187.625,-1348.33,-4998.85,915.01,-0.258409,0.9425269,-0.13978241,-0.15914977,348.091,19.511,90.491,5.61621,1.13541,-1.77981,1,-0.125,0,0,0,false,false,false,304.63998,-5483.4897,22.13,-0.009168497,0.020308793,0.97347075,0.22772326,-34.760998,19.911,7.211,0.0012099999,0.00030999997,-0.034709997,0.25984251,0,0,0,0,false,false,false,-2121.38,-4009.7998,17.01,0.001675084,0.0044587986,-0.3516692,0.93611205,471.13098,-412.211,8.301001,0.00030999997,0.00030999997,0.00051
187.63333,-1345.4299,-4998.69,915.72,-0.25572237,0.9466663,-0.11528452,-0.15855095,348.001,19.501,85.050995,5.61621,1.13541,-1.77981,1,-0.125,0,0,0,false,false,false,304.35,-5483.32,22.119999,-0.009163102,0.020303397,0.9734381,0.22786352,-46.301,26.060999,6.981,0.00131,0,-0.045409996,0.28346455,0,0,0,0,false,false,false,-2117.45,-4013.23,17.01,0.001675084,0.0044587986,-0.3516692,0.93611205,472.691,-413.561,8.301001,0.00030999997,0.00030999997,0.00040999998
187.64166,-1342.53,-4998.53,916.38,-0.25287932,0.9502141,-0.09071114,-0.15784962,347.911,19.491,79.611,5.61621,1.13541,-1.77981,1,-0.1171875,0,0,0,false,false,false,303.96,-5483.1,22.109999,-0.009157708,0.020298004,0.9733954,0.22804697,-57.751,32.150997,6.7609997,0.00131,-0.00030999997,-0.05571,0.28346455,0,0,0,0,false,false,false,-2113.51,-4016.68,17.01,0.001675084,0.0044587986,-0.3516692,0.93611205,474.391,-415.031,8.301001,0.00030999997,0.00030999997,0.00030999997
187.65,-1339.63,-4998.37,917,-0.24987444,0.9531687,-0.066083804,-0.15705119,347.821,19.480999,74.171,5.61621,1.13541,-1.77981,1,-0.1171875,0,0,0,false,false,false,303.47998,-5482.83,22.1,-0.009152315,0.020292612,0.9733425,0.22827357,-69.120995,38.141,6.5509996,0.0012099999,-0.00071,-0.06431,0.2992126,0,0,0,0,false,false,false,-2109.56,-4020.14,17.01,0.001675084,0.0044587986,-0.3516692,0.93611205,476.081,-416.501,8.301001,0.00030999997,0.00030999997,0.00021
187.65834,-1336.73,-4998.21,917.57,-0.24671845,0.9555262,-0.041413322,-0.15615566,347.731,19.470999,68.730995,5.61621,1.13541,-1.77981,1,-0.1171875,0,0,0,false,false,false,302.9,-5482.51,22.09,-0.009146919,0.020287214,0.9732818,0.22853251,-80.401,44.080997,6.331,0.00111,-0.0012099999,-0.07271,0.2992126,0,0,0,0,false,false,false,-2105.5898,-4023.6099,17.01,0.001675084,0.0044587986,-0.3516692,0.93611205,477.861,-418.051,8.301001,0.00030999997,0.00030999997,0.00010999999
187.66667,-1333.83,-4998.05,918.1,-0.24340606,0.957287,-0.016715862,-0.15516303,347.641,19.460999,63.290997,5.61621,1.13541,-1.77981,1,-0.1171875,0,0,0,false,false,false,302.22998,-5482.1396,22.08,-0.009146919,0.02028182,0.97321224,0.22882922,-91.58099,49.981,6.0909996,0.00091,-0.0017099999,-0.080809996,0.2992126,0,0,0,0,false,false,false,-2101.6099,-4027.0898,17.01,0.001675084,0.0044587986,-0.3516692,0.93611205,479.63098,-419.60098,8.301001,0.00030999997,0.00030999997,0
187.675,-1330.9299,-4997.8896,918.57996,-0.2399426,0.9584493,0.0079923915,-0.15407328,347.551,19.450998,57.850998,5.61621,1.13541,-1.77981,1,-0.1171875,0,0,0,false,false,false,301.47,-5481.7197,22.06,-0.009146919,0.02028182,0.9731348,0.2291583,-102.660995,55.841,5.8409996,0.00071,-0.00221,-0.088709995,0.2992126,0,0,0,0,false,false,false,-2097.6099,-4030.5898,17.01,0.001675084,0.0044587986,-0.3516692,0.93611205,481.401,-421.141,8.301001,0.00030999997,0.00030999997,0
187.68333,-1328.03,-4997.73,919.01996,-0.23632802,0.9590129,0.032695245,-0.1528864,347.461,19.440998,52.411,5.61621,1.13541,-1.77981,1,-0.1171875,0,0,0,false,false,false,300.61,-5481.25,22.039999,-0.009146918,0.020281818,0.9730495,0.22951972,-113.631,61.661,5.6109996,0.00061,-0.00271,-0.09641,0.28346455,0,0,0,0,false,false,false,-2093.5999,-4034.0999,17.01,0.001675084,0.0044587986,-0.3516692,0.93611205,483.171,-422.681,8.301001,0.00030999997,0.00030999997,0
187.69167,-1325.14,-4997.57,919.41,-0.23256786,0.9589769,0.057376612,-0.15160246,347.371,19.431,46.981,5.61621,1.13541,-1.77981,1,-0.1171875,0,0,0,false,false,false,299.66,-5480.7397,22.02,-0.009146919,0.02028182,0.97295666,0.22991356,-124.501,67.440994,5.391,0.00051,-0.00321,-0.10381,0.28346455,0,0,0,0,false,false,false,-2089.57,-4037.6199,17.01,0.001675084,0.0044587986,-0.3516692,0.93611205,484.841,-424.141,8.301001,0.00030999997,0.00030999997,0
187.7,-1322.25,-4997.4097,919.76,-0.22866201,0.95834136,0.08202012,-0.15022677,347.281,19.421,41.551,5.61621,1.13541,-1.77981,1,-0.109375,0,0,0,false,false,false,298.62,-5480.1797,22,-0.009152314,0.02028182,0.97285706,0.23033436,-135.27101,73.190994,5.171,0.00040999998,-0.00371,-0.11100999,0.28346455,0,0,0,0,false,false,false,-2085.53,-4041.15,17.01,0.001675084,0.0044587986,-0.3516692,0.93611205,486.501,-425.591,8.301001,0.00030999997,0.00030999997,0
187.70833,-1319.36,-4997.25,920.06,-0.22461048,0.9571079,0.10661508,-0.14875396,347.191,19.411,36.121,5.61621,1.13541,-1.77981,1,-0.109375,0,0,0,false,false,false,297.49,-5479.57,21.98,-0.009157708,0.02028182,0.9727509,0.23078214,-145.97101,78.851,4.941,0.00030999997,-0.00401,-0.11621,0.30708662,0.007874016,0,0,0,false,false,false,-2081.48,-4044.7,17.01,0.001675084,0.0044587986,-0.3516692,0.93611205,488.371,-427.081,8.301001,0.00030999997,0.00030999997,0.00291
187.71666,-1316.47,-4997.09,920.32,-0.22041872,0.9552764,0.1311399,-0.14718947,347.101,19.401,30.690998,5.61621,1.13541,-1.77981,1,-0.109375,0,0,0,false,false,false,296.27,-5478.9097,21.949999,-0.009163103,0.02028182,0.9726394,0.23125148,-156.571,84.480995,4.7009997,0.00021,-0.0043099998,-0.12151,0.30708662,0.007874016,0,0,0,false,false,false,-2077.41,-4048.26,17.01,0.0016750843,0.0044587995,-0.35165846,0.9361162,490.221,-428.581,8.301001,0.00030999997,0.00030999997,0.00531
187.725,-1313.58,-4996.9297,920.52997,-0.21609211,0.95284724,0.15558383,-0.14553328,347.011,19.390999,25.261,5.61621,1.13541,-1.77981,1,-0.109375,0,0,0,false,false,false,294.97,-5478.21,21.92,-0.009168497,0.020281818,0.9725224,0.23174238,-167.061,90.090996,4.481,0.00010999999,-0.00461,-0.12671,0.2992126,0.007874016,0,0,0,false,false,false,-2073.32,-4051.8298,17.01,0.0016750843,0.0044587995,-0.3516369,0.9361243,492.061,-430.091,8.301001,0.00030999997,0.00030999997,0.00731
187.73334,-1310.69,-4996.77,920.69995,-0.21163057,0.94982266,0.17993061,-0.14378534,346.921,19.380999,19.831,5.61621,1.13541,-1.77981,1,-0.1015625,0,0,0,false,false,false,293.58,-5477.46,21.89,-0.009173892,0.02028182,0.9724001,0.232255,-177.481,95.620995,4.271,0,-0.00491,-0.12990999,0.30708662,0.007874016,0,0,0,false,false,false,-2069.22,-4055.41,17.01,0.0016750842,0.004458799,-0.3516099,0.93613446,493.841,-431.561,8.301001,0.00030999997,0.00030999997,0.008909999
187.74167,-1307.7999,-4996.61,920.82,-0.20703422,0.9462057,0.20416413,-0.14194573,346.831,19.370998,14.401,5.61621,1.13541,-1.77981,1,-0.1015625,0,0,0,false,false,false,292.1,-5476.6597,21.859999,-0.009184683,0.02028182,0.9722736,0.23278369,-187.80101,101.141,4.061,0,-0.00521,-0.13340999,0.30708662,0.007874016,0,0,0,false,false,false,-2065.0999,-4059.01,17.01,0.001675084,0.0044587986,-0.3515775,0.9361465,495.661,-433.061,8.301001,0.00030999997,0.00030999997,0.01031
187.75,-1304.9099,-4996.4497,920.88995,-0.20230831,0.9419962,0.22827356,-0.14001977,346.741,19.360998,8.981,5.61621,1.13541,-1.77981,1,-0.1015625,0,0,0,false,false,false,290.54,-5475.82,21.83,-0.009195473,0.020281821,0.9721442,0.23332319,-198.011,106.641,3.8409998,0,-0.0054099998,-0.13701,0.30708662,0.007874016,0,0,0,false,false,false,-2060.97,-4062.6199,17.01,0.0016750842,0.004458799,-0.35153976,0.93616074,497.481,-434.561,8.301001,0.00030999997,0.00030999997,0.01151
187.75833,-1302.02,-4996.29,920.92,-0.19745839,0.9371981,0.25223732,-0.13800748,346.651,19.351,3.5609999,5.61621,1.13541,-1.77981,1,-0.1015625,0,0,0,false,false,false,288.88998,-5474.9297,21.789999,-0.0092062615,0.02028182,0.97201055,0.23387882,-208.121,112.131,3.6109998,0,-0.00561,-0.14071,0.31496063,0.007874016,0,0,0,false,false,false,-2056.82,-4066.24,17.01,0.0016750843,0.0044587995,-0.3514966,0.936177,499.341,-436.10098,8.301001,0.00030999997,0.00030999997,0.012509999
187.76666,-1299.13,-4996.13,920.89996,-0.19248436,0.93181425,0.27604467,-0.13590892,346.561,19.341,-1.851,5.61621,1.13541,-1.77981,1,-0.09375,0,0,0,false,false,false,287.16,-5474,21.75,-0.00921705,0.020281818,0.97187257,0.23445065,-218.121,117.601,3.4009998,0,-0.00581,-0.14441,0.31496063,0.007874016,0,0,0,false,false,false,-2052.66,-4069.8699,17.01,0.0016750842,0.004458799,-0.35144803,0.9361952,501.191,-437.631,8.301001,0.00030999997,0.00030999997,0.013309999
187.775,-1296.24,-4995.9697,920.83997,-0.18738626,0.925849,0.2996794,-0.133724,346.471,19.331,-7.2609997,5.61621,1.13541,-1.77981,1,-0.09375,0,0,0,false,false,false,285.34,-5473.02,21.71,-0.009227841,0.020281821,0.97173184,0.23503333,-228.061,122.991,3.211,0,-0.00591,-0.14591,0.32283464,0.007874016,0,0,0,false,false,false,-2048.48,-4073.52,17.01,0.0016750842,0.004458799,-0.3513941,0.93621546,503.081,-439.201,8.301001,0.00030999997,0.00030999997,0.014009999
187.78334,-1293.35,-4995.81,920.73,-0.18217485,0.9193054,0.32312527,-0.1314528,346.381,19.321,-12.6710005,5.61621,1.13541,-1.77981,1,-0.09375,0,0,0,false,false,false,283.44,-5472,21.67,-0.009238631,0.020281821,0.971588,0.23562676,-237.891,128.371,3.021,0,-0.00601,-0.14771,0.37795275,0,0,0,0,false,false,false,-2044.2899,-4077.18,17.01,0.0016750843,0.0044587995,-0.35134017,0.9362357,504.971,-440.761,8.301001,0.00030999997,0.00030999997,0.014609999
187.79167,-1290.46,-4995.65,920.57996,-0.17685018,0.9121862,0.34637153,-0.12910067,346.291,19.310999,-18.081,5.61621,1.13541,-1.77981,1,-0.09375,0,0,0,false,false,false,281.46,-5470.9297,21.63,-0.00924942,0.02028182,0.97144246,0.23622556,-247.621,133.741,2.8209999,0,-0.00611,-0.14981,0.37795275,0,0,0,0,false,false,false,-2040.08,-4080.8499,17.01,0.0016750842,0.004458799,-0.3512808,0.93625796,507.10098,-442.671,8.301001,0.00021,0.00030999997,0.01211
187.8,-1287.57,-4995.4897,920.38,-0.17141223,0.9044972,0.369402,-0.12666757,346.201,19.300999,-23.491,5.61621,1.13541,-1.77981,1,-0.0859375,0,0,0,false,false,false,279.4,-5469.82,21.59,-0.009260209,0.02028182,0.97129524,0.23682979,-257.241,139.101,2.6109998,0,-0.00621,-0.15201,0.37795275,0,0,0,0,false,false,false,-2035.85,-4084.5398,17.01,0.0016750842,0.004458799,-0.35123223,0.9362762,509.241,-444.561,8.301001,0.00021,0.00030999997,0.010109999
187.80833,-1284.69,-4995.33,920.13995,-0.16586635,0.89624304,0.39220053,-0.12415901,346.111,19.290998,-28.901,5.61621,1.13541,-1.77981,1,-0.0859375,0,0,0,false,false,false,277.25998,-5468.6597,21.539999,-0.009270999,0.02028182,0.971145,0.23744479,-266.801,144.381,2.3909998,0,-0.00621,-0.15201,0.36220473,0,0,0,0,false,false,false,-2031.61,-4088.24,17.01,0.0016750843,0.0044587995,-0.3511945,0.9362904,511.291,-446.35098,8.301001,0.00021,0.00030999997,0.008409999
187.81667,-1281.8099,-4995.17,919.85,-0.16021799,0.88742787,0.41475624,-0.1215695,346.021,19.280998,-34.310997,5.61621,1.13541,-1.77981,1,-0.0859375,0,0,0,false,false,false,275.04,-5467.46,21.49,-0.009281789,0.02028182,0.9709943,0.23805979,-276.261,149.66101,2.191,0,-0.00631,-0.15241,0.38582677,0,0,0,0,false,false,false,-2027.35,-4091.96,17.01,0.0016750843,0.0044587995,-0.35116214,0.93630254,513.34094,-448.131,8.301001,0.00021,0.00030999997,0.00701
187.825,-1278.9299,-4995.01,919.51996,-0.15447249,0.87805724,0.437053,-0.11890447,345.931,19.271,-39.711,5.61621,1.13541,-1.77981,1,-0.078125,0,0,0,false,false,false,272.74,-5466.21,21.439999,-0.009292578,0.02028182,0.9708432,0.2386748,-285.621,154.931,2.001,0,-0.00641,-0.15321,0.38582677,0,0,0,0,false,false,false,-2023.07,-4095.69,17.01,0.0016750842,0.004458799,-0.35113513,0.9363126,515.52094,-450.021,8.301001,0.00021,0.00030999997,0.00581
187.83333,-1276.0499,-4994.85,919.13995,-0.14862989,0.8681391,0.45907468,-0.11616392,345.841,19.261,-45.111,5.61621,1.13541,-1.77981,1,-0.078125,0,0,0,false,false,false,270.36,-5464.92,21.39,-0.009303369,0.020281821,0.9706904,0.23929521,-294.921,160.121,1.811,0,-0.00641,-0.15180999,0.42519686,0,0,0,0,false,false,false,-2018.7699,-4099.44,17.01,0.0016750843,0.0044587995,-0.3511136,0.9363207,517.701,-451.901,8.301001,0.00021,0.00030999997,0.00481
187.84166,-1273.1699,-4994.69,918.72,-0.1426902,0.8576782,0.48081037,-0.11335318,345.751,19.251,-50.510998,5.61621,1.13541,-1.77981,1,-0.078125,0,0,0,false,false,false,267.9,-5463.59,21.34,-0.009314157,0.02028182,0.97053844,0.23991022,-304.111,165.311,1.6110001,0,-0.00631,-0.15100999,0.42519686,0,0,0,0,false,false,false,-2014.46,-4103.21,17.01,0.0016750843,0.0044587995,-0.3510974,0.9363268,520.09094,-453.961,8.301001,0.00010999999,0.00030999997,0.00401
187.85,-1270.2899,-4994.53,918.25,-0.13666417,0.84668154,0.50224394,-0.11047236,345.661,19.241,-55.911,5.61621,1.13541,-1.77981,1,-0.0703125,0,0,0,false,false,false,265.37,-5462.21,21.289999,-0.009324947,0.02028182,0.97038746,0.24051982,-313.201,170.501,1.401,0,-0.00631,-0.15061,0.42519686,0,0,0,0,false,false,false,-2010.13,-4106.9897,17.01,0.0016750843,0.0044587995,-0.35108122,0.9363329,522.47095,-456.021,8.301001,0.00010999999,0.00030999997,0.00331
187.85834,-1267.4099,-4994.37,917.74,-0.13055189,0.8351555,0.5233647,-0.107521415,345.571,19.230999,-61.310997,5.61621,1.13541,-1.77981,1,-0.0703125,0,0,0,false,false,false,262.75998,-5460.79,21.23,-0.009335736,0.020281818,0.97023594,0.2411294,-322.241,175.601,1.181,-0.00010999999,-0.00621,-0.14811,0.37795275,0,0,0,0,false,false,false,-2005.7799,-4110.79,17.01,0.0016750842,0.004458799,-0.3510704,0.9363369,524.85095,-458.07098,8.301001,0.00010999999,0.00030999997,0.00271
187.86667,-1264.53,-4994.21,917.18,-0.12435861,0.823109,0.5441563,-0.10450028,345.481,19.220999,-66.711,5.61621,1.13541,-1.77981,1,-0.0703125,0,0,0,false,false,false,260.07,-5459.33,21.17,-0.009346527,0.020281821,0.97008693,0.24172828,-331.171,180.701,0.98099995,-0.00010999999,-0.00621,-0.14631,0.3464567,0,0,0,0,false,false,false,-2001.4099,-4114.61,17.01,0.0016750842,0.004458799,-0.35105962,0.9363409,526.951,-459.881,8.301001,0.00010999999,0.00030999997,0.00221
187.875,-1261.65,-4994.05,916.57996,-0.118089855,0.81054765,0.56460804,-0.10141446,345.391,19.210999,-72.111,5.61621,1.13541,-1.77981,1,-0.0625,0,0,0,false,false,false,257.31,-5457.82,21.109999,-0.0093573155,0.02028182,0.96993876,0.24232168,-340.001,185.80101,0.79099995,-0.00010999999,-0.00621,-0.14501,0.3464567,0,0,0,0,false,false,false,-1997.0199,-4118.44,17.01,0.0016750842,0.004458799,-0.35104883,0.936345,528.871,-461.541,8.301001,0.00010999999,0.00030999997,0.0018099999
187.88333,-1258.77,-4993.8896,915.93,-0.11174553,0.7974781,0.58470905,-0.09826929,345.301,19.200998,-77.501,5.61621,1.13541,-1.77981,1,-0.0625,0,0,0,false,false,false,254.48,-5456.27,21.05,-0.009368105,0.020281818,0.9697915,0.24290968,-348.781,190.821,0.60099995,-0.00010999999,-0.00611,-0.14151,0.3464567,0,0,0,0,false,false,false,-1992.61,-4122.29,17.01,0.0016750843,0.0044587995,-0.35104346,0.936347,530.79095,-463.191,8.301001,0.00010999999,0.00030999997,0.00151
187.89166,-1255.89,-4993.73,915.24,-0.105331115,0.78391147,0.6044433,-0.09505939,345.211,19.190998,-82.891,5.61621,1.13541,-1.77981,1,-0.0625,0,0,0,false,false,false,251.56999,-5454.6797,20.99,-0.009378894,0.020281818,0.96964794,0.24348153,-357.461,195.841,0.40099996,-0.00010999999,-0.00601,-0.13881,0.37007874,0,0,0,0,false,false,false,-1988.19,-4126.15,17.01,0.0016750842,0.004458799,-0.35103804,0.93634903,532.831,-464.951,8.301001,0.00010999999,0.00030999997,0.0012099999
187.9,-1253.01,-4993.57,914.5,-0.09885193,0.7698548,0.6237999,-0.091790095,345.121,19.181,-88.281,5.61621,1.13541,-1.77981,1,-0.0625,0,0,0,false,false,false,248.59,-5453.05,20.93,-0.009389684,0.020281818,0.9695068,0.24404259,-366.041,200.86101,0.191,-0.00010999999,-0.00591,-0.13680999,0.37007874,0,0,0,0,false,false,false,-1983.75,-4130.02,17.01,0.0016750843,0.0044587995,-0.35103267,0.93635106,534.86096,-466.701,8.301001,0.00010999999,0.00030999997,0.0010099999
187.90834,-1250.13,-4993.4097,913.72,-0.092307985,0.7553157,0.642768,-0.08846689,345.031,19.171,-93.671,5.61621,1.13541,-1.77981,1,-0.0546875,0,0,0,false,false,false,245.54,-5451.38,20.859999,-0.009400474,0.02028182,0.9693667,0.24459828,-374.581,205.781,-0.021,-0.00021,-0.0057099997,-0.13261,0.41732284,0,0,0,0,false,false,false,-1979.2899,-4133.9097,17.01,0.0016750843,0.0044587995,-0.35102728,0.9363531,537.141,-468.681,8.301001,0.00010999999,0.00030999997,0.00081
187.91667,-1247.26,-4993.25,912.88995,-0.08571016,0.7403071,0.6613317,-0.085084364,344.941,19.161,-99.061,5.61621,1.13541,-1.77981,1,-0.0546875,0,0,0,false,false,false,242.42,-5449.67,20.789999,-0.009411263,0.02028182,0.9692317,0.24513237,-383.021,210.711,-0.211,-0.00021,-0.00561,-0.12921,0.43307087,0,0,0,0,false,false,false,-1974.8099,-4137.81,17.01,0.001675084,0.0044587986,-0.35102183,0.936355,539.42096,-470.651,8.301001,0.00010999999,0.00030999997,0.00061
187.925,-1244.39,-4993.09,912.01996,-0.07905833,0.7248331,0.6794852,-0.08164783,344.851,19.151,-104.451,5.61621,1.13541,-1.77981,1,-0.0546875,0,0,0,false,false,false,239.23,-5447.9097,20.72,-0.009422054,0.02028182,0.9690991,0.24565567,-391.361,215.631,-0.39099997,-0.00021,-0.00551,-0.12661,0.43307087,0,0,0,0,false,false,false,-1970.3099,-4141.73,17.01,0.001675084,0.0044587986,-0.35102183,0.936355,541.77094,-472.691,8.301001,0.00010999999,0.00030999997,0.00051
187.93333,-1241.52,-4992.9297,911.1,-0.072352596,0.7089076,0.6972126,-0.07816279,344.761,19.140999,-109.840996,5.61621,1.13541,-1.77981,1,-0.0546875,0,0,0,false,false,false,235.97,-5446.11,20.65,-0.009432843,0.02028182,0.9689689,0.24616818,-399.611,220.541,-0.571,-0.00021,-0.0054099998,-0.12451,0.44094488,0,0,0,0,false,false,false,-1965.7999,-4145.67,17.01,0.001675084,0.0044587986,-0.35102183,0.936355,544.11096,-474.721,8.301001,0.00010999999,0.00030999997,0.00040999998
187.94167,-1238.65,-4992.77,910.13995,-0.06560366,0.6925406,0.7145026,-0.074629195,344.671,19.130999,-115.221,5.61621,1.13541,-1.77981,1,-0.046875,0,0,0,false,false,false,232.64,-5444.27,20.58,-0.009443631,0.020281818,0.96884114,0.24666986,-407.781,225.44101,-0.761,-0.00021,-0.00531,-0.12290999,0.44094488,0,0,0,0,false,false,false,-1961.2699,-4149.63,17.01,0.001675084,0.0044587986,-0.35102183,0.936355,546.49097,-476.781,8.301001,0.00010999999,0.00030999997,0.00030999997
187.95,-1235.78,-4992.61,909.13,-0.058811583,0.67574126,0.7313461,-0.071047015,344.581,19.120998,-120.601,5.61621,1.13541,-1.77981,0,-0.046875,0,0,0,false,false,false,229.23999,-5442.3896,20.51,-0.009454423,0.020281821,0.96871465,0.24716623,-415.911,230.241,-0.96099997,-0.00021,-0.00511,-0.11890999,0.496063,0,0,0,0,false,false,false,-1956.72,-4153.6,17.01,0.001675084,0.0044587986,-0.35102183,0.936355,548.85095,-478.831,8.301001,0.00010999999,0.00030999997,0.00021
187.95833,-1232.9099,-4992.4497,908.07996,-0.051987164,0.65851563,0.7477357,-0.06742171,344.491,19.110998,-125.980995,5.61621,1.13541,-1.77981,0,-0.046875,0,0,0,false,false,false,225.76999,-5440.4697,20.43,-0.009465213,0.020281821,0.9685919,0.24764636,-412.051,228.401,-0.91099995,-0.00061,-0.00561,-0.11271,0.496063,0,0,0,0,false,false,false,-1952.1499,-4157.59,17.01,0.001675084,0.0044587986,-0.35102183,0.936355,551.501,-481.13098,8.301001,0.00010999999,0.00030999997,0.00010999999
187.96666,-1230.0399,-4992.29,906.99,-0.04513034,0.64088,0.7636567,-0.06375326,344.401,19.101,-131.36101,5.61621,1.13541,-1.77981,0,-0.046875,0,0,0,false,false,false,222.34,-5438.57,20.35,-0.009481396,0.020281818,0.96847564,0.24809948,-408.171,226.591,-0.84099996,-0.00091,-0.00581,-0.10750999,0.496063,0,0,0,0,false,false,false,-1947.5499,-4161.6,17.01,0.001675084,0.0044587986,-0.35102183,0.936355,554.141,-483.431,8.301001,0.00010999999,0.00030999997,0
187.975,-1227.1699,-4992.13,905.85,-0.03824114,0.6228451,0.7790994,-0.060046993,344.311,19.091,-136.741,5.61621,1.13541,-1.77981,0,-0.046875,0,0,0,false,false,false,218.94,-5436.6797,20.279999,-0.009497579,0.020281818,0.96836346,0.24853647,-404.281,224.801,-0.751,-0.0010099999,-0.00591,-0.10310999,0.43307087,0.007874016,0,0,0,false,false,false,-1942.9299,-4165.63,17.01,0.001675084,0.0044587986,-0.35102183,0.936355,556.501,-485.341,8.301001,0.00010999999,0.00030999997,0.00301
187.98334,-1224.2999,-4991.9697,904.67,-0.0313304,0.6044217,0.7940545,-0.056302994,344.221,19.081,-142.121,5.61621,1.13541,-1.77981,0,-0.046875,0,0,0,false,false,false,215.56999,-5434.81,20.21,-0.009513766,0.020281821,0.9682567,0.24895191,-400.391,223.021,-0.691,-0.00111,-0.00581,-0.09941,0.48031497,0.007874016,0,0,0,false,false,false,-1938.2899,-4169.67,17.01,0.0016750843,0.0044587995,-0.3510111,0.93635917,558.84094,-487.261,8.301001,0.00010999999,0.00030999997,0.00551
187.99167,-1221.4299,-4991.81,903.44,-0.02439805,0.5856209,0.8085136,-0.052521247,344.131,19.071,-147.501,5.61621,1.13541,-1.77981,1,-0.0390625,0,0,0,false,false,false,212.23,-5432.9497,20.14,-0.009529949,0.02028182,0.9681538,0.2493511,-396.491,221.241,-0.641,-0.00111,-0.00561,-0.096209995,0.48031497,0.007874016,0,0,0,false,false,false,-1933.63,-4173.73,17.01,0.0016750842,0.004458799,-0.3509895,0.9363672,561.42096,-489.401,8.301001,0.00010999999,0.00021,0.0076099997
188,-1218.5599,-4991.65,902.17,-0.017454946,0.56645304,0.8224681,-0.048707087,344.041,19.060999,-152.881,5.61621,1.13541,-1.77981,1,-0.0390625,0,0,0,false,false,false,208.93,-5431.11,20.07,-0.009546134,0.02028182,0.9680535,0.24973953,-404.671,226.151,-0.86099994,-0.00071,-0.00471,-0.09381,0.48031497,0.007874016,0,0,0,false,false,false,-1928.95,-4177.81,17.01,0.0016750843,0.0044587995,-0.35095713,0.9363794,563.98096,-491.531,8.301001,0.00010999999,0.00021,0.00931
188.00833,-1215.69,-4991.4897,900.85,-0.010495618,0.54692924,0.8359098,-0.044865992,343.951,19.050999,-158.251,5.61621,1.13541,-1.77981,1,-0.0390625,0,0,0,false,false,false,205.56,-5429.23,20,-0.009556923,0.02028182,0.9679559,0.25011715,-412.771,231.031,-1.081,-0.00040999998,-0.00401,-0.09191,-1,0,0,0,0,false,false,false,-1924.25,-4181.9097,17.01,0.0016750842,0.004458799,-0.35091934,0.9363935,566.53094,-493.651,8.301001,0.00010999999,0.00021,0.010709999
188.01666,-1212.82,-4991.33,899.49,-0.0035308944,0.5270656,0.848828,-0.04099253,343.861,19.040998,-163.621,5.61621,1.13541,-1.77981,1,-0.0390625,0,0,0,false,false,false,202.12,-5427.3,19.92,-0.0095677115,0.020281818,0.96785945,0.25048935,-420.801,235.881,-1.311,-0.00021,-0.00351,-0.090409994,-1,0,0,0,0,false,false,false,-1919.5299,-4186.02,17.01,0.0016750843,0.0044587995,-0.3508762,0.9364097,544.52094,-474.511,8.301001,0.0014099999,0.0017099999,0.008909999
188.025,-1209.96,-4991.17,898.07996,0.003433788,0.5068727,0.8612154,-0.037097443,343.771,19.030998,-168.991,5.61621,1.13541,-1.77981,1,-0.0390625,0,0,0,false,false,false,198.61,-5425.33,19.84,-0.009573108,0.02028182,0.96776444,0.25085625,-428.751,240.711,-1.521,0,-0.00311,-0.089209996,-1,0,0,0,0,false,false,false,-1914.99,-4189.9697,17.01,0.001680479,0.0044695884,-0.35084382,0.93642175,522.52094,-455.361,8.301001,0.00211,0.00251,0.00741
188.03334,-1207.1,-4991.01,896.63,0.010398469,0.48636162,0.8730656,-0.033175424,343.681,19.021,-174.36101,5.61621,1.13541,-1.77981,1,-0.03125,0,0,0,false,false,false,195.04,-5423.32,19.76,-0.009578503,0.02028182,0.9676706,0.2512177,-436.681,245.421,-1.711,0,-0.00271,-0.08541,-1,0,0,0,0,false,false,false,-1910.64,-4193.76,17.01,0.001685874,0.0044803787,-0.35081688,0.9364318,500.521,-436.201,8.301001,0.00241,0.00291,0.00611
188.04167,-1204.24,-4990.85,895.13,0.017357843,0.46554843,0.884369,-0.029237226,343.591,19.011,-179.731,5.61621,1.13541,-1.77981,1,-0.03125,0,0,0,false,false,false,191.4,-5421.28,19.68,-0.009583896,0.020281818,0.9675808,0.25156292,-444.521,250.11101,-1.891,0,-0.00241,-0.08231,-1,0,0,0,0,false,false,false,-1906.47,-4197.39,17.01,0.0016912688,0.0044965628,-0.3507953,0.9364398,478.531,-417.031,8.301001,0.00251,0.00301,0.00511
188.05,-1201.38,-4990.69,893.58997,0.024306338,0.44444388,0.89511997,-0.025277402,343.501,19.001,-185.101,5.61621,1.13541,-1.77981,1,-0.03125,0,0,0,false,false,false,187.7,-5419.1997,19.6,-0.009589291,0.020281818,0.9674937,0.2518974,-452.281,254.791,-2.0809999,0,-0.00221,-0.07980999,-1,0,0,0,0,false,false,false,-1902.48,-4200.87,17.01,0.0016966636,0.0045127473,-0.35077372,0.9364478,456.541,-397.861,8.301001,0.00241,0.00291,0.00421
