time,ball_loc_x,ball_loc_y,ball_loc_z,ball_rot_x,ball_rot_y,ball_rot_z,ball_rot_w,ball_vel_x,ball_vel_y,ball_vel_z,ball_ang_x,ball_ang_y,ball_ang_z,player0_throttle,player0_steer,player0_pitch,player0_yaw,player0_roll,player0_jump,player0_boost,player0_handbrake,player0_loc_x,player0_loc_y,player0_loc_z,player0_rot_x,player0_rot_y,player0_rot_z,player0_rot_w,player0_vel_x,player0_vel_y,player0_vel_z,player0_ang_x,player0_ang_y,player0_ang_z,player1_throttle,player1_steer,player1_pitch,player1_yaw,player1_roll,player1_jump,player1_boost,player1_handbrake,player1_loc_x,player1_loc_y,player1_loc_z,player1_rot_x,player1_rot_y,player1_rot_z,player1_rot_w,player1_vel_x,player1_vel_y,player1_vel_z,player1_ang_x,player1_ang_y,player1_ang_z
107,-1675.7999,1223.83,107.479996,0.114491485,-0.5496158,0.4911576,0.6660167,48.871,758.33093,79.440994,-5.7076097,0.36861,1.81291,1,0,-0.109375,0.48031497,-0.2578125,false,false,false,-540.07,1271.7999,60.76,0.09270721,-0.023248957,0.14605659,0.9846483,1216.981,1068.241,-214.161,-2.66671,-0.59621,0.94421,1,-0.1796875,0,0,0,false,false,false,-2163.55,4719.6597,17.01,0.0007903376,0.0047285384,-0.15194772,0.98837686,1315.841,-374.661,8.321,-0.00010999999,0,-0.67461
107.00833,-1675.39,1230.15,108.1,0.10352387,-0.53587526,0.5089282,0.665667,48.850998,758.131,74.001,-5.7076097,0.36861,1.81291,1,0,-0.0703125,0.44094488,-0.265625,false,false,false,-529.92,1280.7,58.93,0.08225749,-0.02358883,0.15053968,0.9848934,1217.511,1068.391,-219.531,-2.48811,-0.54501,0.98531,1,-0.1640625,0,0,0,false,false,false,-2152.5798,4716.54,17.01,0.0008011272,0.004728538,-0.15472603,0.9879456,1314.401,-384.181,8.321,-0.00021,0,-0.63711
107.01667,-1674.98,1236.47,108.67,0.09249142,-0.5218001,0.52638036,0.66490114,48.830997,757.93097,68.561,-5.7076097,0.36861,1.81291,1,0,-0.03125,0.4015748,-0.2734375,false,false,false,-519.76996,1289.6,57.059998,0.07254677,-0.0238262,0.15511985,0.9849401,1218.0409,1068.5509,-224.901,-2.31341,-0.49661002,1.02131,1,-0.15625,0,0,0,false,false,false,-2141.63,4713.34,17.01,0.00081191683,0.0047285384,-0.1573479,0.98753154,1313.0809,-393.191,8.321,-0.00021,0,-0.59961
107.025,-1674.57,1242.78,109.2,0.08139971,-0.5074013,0.54350346,0.66371804,48.810997,757.73096,63.121,-5.7076097,0.36861,1.81291,1,0,-0.0078125,0.37007874,-0.2734375,false,false,false,-509.62,1298.51,55.14,0.063564435,-0.023971861,0.15978096,0.9848121,1218.5609,1068.7109,-230.271,-2.14251,-0.45101,1.05221,1,-0.1484375,0,0,0,false,false,false,-2130.69,4710.06,17.01,0.00082270644,0.0047285384,-0.15981333,0.9871355,1311.841,-401.791,8.321,-0.00030999997,0,-0.56491
107.03333,-1674.1599,1249.09,109.68,0.07025938,-0.4926843,0.56028676,0.6621211,48.790997,757.53094,57.681,-5.7076097,0.36861,1.81291,1,0,0.015748031,0.33070865,-0.28125,false,false,false,-499.46,1307.4199,53.18,0.055283427,-0.024041994,0.16450681,0.98453194,1219.0809,1068.881,-235.651,-1.9779099,-0.40751,1.07901,1,-0.140625,0,0,0,false,false,false,-2119.76,4706.71,17.01,0.000833496,0.0047285384,-0.16213854,0.98675627,1310.6909,-409.981,8.321,-0.00030999997,0,-0.53251
107.041664,-1673.75,1255.4,110.119995,0.059075974,-0.4776598,0.5767194,0.6601105,48.771,757.33093,52.240997,-5.7076097,0.36861,1.81291,1,0,0.03937008,0.2992126,-0.2734375,false,false,false,-489.3,1316.33,51.17,0.04768747,-0.024041995,0.1692867,0.9841188,1219.601,1069.0509,-241.031,-1.81711,-0.36511,1.10131,1,-0.125,0,0,0,false,false,false,-2108.8398,4703.29,17.01,0.0008442856,0.0047285384,-0.16432881,0.98639387,1309.631,-417.771,8.321,-0.00040999998,0,-0.50211
107.05,-1673.34,1261.71,110.509995,0.04785471,-0.46233854,0.5927906,0.65768707,48.751,757.131,46.810997,-5.7076097,0.36861,1.81291,1,0,0.05511811,0.26771653,-0.2734375,false,false,false,-479.12997,1325.24,49.12,0.040744364,-0.023977255,0.17410423,0.9835917,1220.121,1069.231,-246.411,-1.66461,-0.32551,1.11961,1,-0.1171875,0,0,0,false,false,false,-2097.93,4699.81,17.01,0.0008550751,0.004728538,-0.16638961,0.9860482,1308.6909,-425.081,8.321,-0.00040999998,0,-0.47081
107.058334,-1672.9299,1268.02,110.85,0.036601167,-0.4467259,0.60849494,0.65485126,48.731,756.93097,41.380997,-5.7076097,0.36861,1.81291,1,0,0.062992126,0.23622048,-0.265625,false,false,false,-468.96,1334.15,47.02,0.034427058,-0.02385857,0.17894876,0.9829663,1220.641,1069.4209,-251.791,-1.51801,-0.28721002,1.13411,1,-0.109375,0,0,0,false,false,false,-2087.02,4696.27,17.01,0.0008604699,0.004728538,-0.16832095,0.9857204,1307.841,-432.031,8.321,-0.00040999998,0,-0.44141
107.066666,-1672.52,1274.33,111.149994,0.025325954,-0.43083277,0.62381613,0.6516095,48.711,756.73096,35.951,-5.7076097,0.36861,1.81291,1,0,0.07086614,0.2047244,-0.2578125,false,false,false,-458.78,1343.0599,44.879997,0.0287031,-0.023691334,0.1838041,0.982258,1221.1609,1069.611,-257.171,-1.3795099,-0.25051,1.14491,1,-0.109375,0,0,0,false,false,false,-2076.1199,4692.67,17.01,0.0008658648,0.0047285384,-0.17013362,0.9854092,1307.091,-438.621,8.321,-0.00040999998,-0.00010999999,-0.41371
107.075,-1672.11,1280.63,111.399994,0.014034647,-0.4146699,0.638749,0.6479594,48.690998,756.53094,30.520998,-5.7076097,0.36861,1.81291,1,0,0.07874016,0.17322835,-0.25,false,false,false,-448.59998,1351.98,42.69,0.023540277,-0.023480935,0.18866487,0.98147845,1221.6709,1069.8109,-262.551,-1.2488099,-0.21551,1.15201,1,-0.1015625,0,0,0,false,false,false,-2065.23,4689.01,17.01,0.0008712596,0.0047285384,-0.17183302,0.9851143,1306.401,-444.941,8.321,-0.00040999998,-0.00010999999,-0.39001
107.083336,-1671.7,1286.9299,111.61,0.002737859,-0.39824808,0.65328574,0.64390105,48.670998,756.33093,25.091,-5.7076097,0.36861,1.81291,1,0,0.08661418,0.1496063,-0.2421875,false,false,false,-438.41998,1360.9,40.46,0.018906148,-0.02322738,0.19351481,0.9806401,1222.1809,1070.011,-267.931,-1.12541,-0.18240999,1.15561,1,-0.09375,0,0,0,false,false,false,-2054.3398,4685.3,17.01,0.00087665435,0.0047285384,-0.17343527,0.9848335,1305.8009,-450.911,8.321,-0.00040999998,-0.00010999999,-0.36701
107.09167,-1671.2899,1293.23,111.77,-0.00856428,-0.38157806,0.66741425,0.6394395,48.650997,756.131,19.661,-5.7076097,0.36861,1.81291,1,0,0.08661418,0.12598425,-0.2265625,false,false,false,-428.22998,1369.82,38.18,0.014773734,-0.022941455,0.19834313,0.97975266,1222.6909,1070.221,-273.311,-1.00911,-0.15121,1.15641,1,-0.0859375,0,0,0,false,false,false,-2043.46,4681.54,17.01,0.00088204915,0.0047285384,-0.17494042,0.9845672,1305.3009,-456.551,8.321,-0.00040999998,-0.00010999999,-0.34471
107.1,-1670.88,1299.53,111.89,-0.019861026,-0.36467072,0.6811243,0.6345788,48.630997,755.93097,14.231,-5.7076097,0.36861,1.81291,1,0,0.08661418,0.1023622,-0.21875,false,false,false,-418.03998,1378.74,35.86,0.011099877,-0.02262316,0.2031445,0.9788244,1223.2009,1070.4309,-278.691,-0.90221,-0.12231,1.15441,1,-0.0859375,0,0,0,false,false,false,-2032.58,4677.7397,17.01,0.00088744395,0.0047285384,-0.17635386,0.98431504,1304.891,-461.871,8.321,-0.00040999998,-0.00021,-0.32301
107.10833,-1670.47,1305.83,111.96,-0.031141588,-0.3475368,0.69440573,0.62932426,48.611,755.73096,8.811,-5.7076097,0.36861,1.81291,1,0,0.08661418,0.07874016,-0.2109375,false,false,false,-407.84,1387.6599,33.489998,0.00785752,-0.022277895,0.20790811,0.977863,1223.7109,1070.651,-284.081,-0.80191,-0.09471,1.14991,1,-0.078125,0,0,0,false,false,false,-2021.71,4673.89,17.01,0.00089283875,0.0047285384,-0.17768098,0.9840763,1304.531,-466.981,8.321,-0.00040999998,-0.00021,-0.30451
107.11667,-1670.0599,1312.13,111.99,-0.042405963,-0.33018705,0.7072528,0.6236758,48.591,755.53094,3.3909998,-5.7076097,0.36861,1.81291,1,0,0.07874016,0.05511811,-0.1953125,false,false,false,-397.63998,1396.58,31.08,0.005019858,-0.021905655,0.21262866,0.9768746,1231.3109,1055.341,-279.911,-0.72921,0.17661,1.45901,1,-0.078125,0,0,0,false,false,false,-2010.84,4670,17.01,0.00089823356,0.0047285384,-0.17892718,0.9838505,1304.261,-471.781,8.321,-0.00040999998,-0.00021,-0.28601
107.125,-1669.6599,1318.4199,111.97,-0.053643364,-0.3126269,0.7196587,0.61763906,48.571,755.33093,-2.021,-5.7076097,0.36861,1.81291,1,0,0.2913386,-0.2109375,-0.15625,false,false,false,-387.38,1405.37,28.67,0.0023386441,-0.020503007,0.21862766,0.97559005,1238.5609,1039.9609,-274.571,-0.80421,0.52821,1.77301,1,-0.078125,0,0,0,false,false,false,-1999.97,4666.07,17.01,0.00090362836,0.0047285384,-0.18009785,0.98363686,1304.0409,-476.391,8.321,-0.00040999998,-0.00021,-0.27021
107.13333,-1669.26,1324.71,111.909996,-0.0648484,-0.29487258,0.7316162,0.61121386,48.551,755.131,-7.4309998,-5.7076097,0.36861,1.81291,1,0,0.61417323,-0.4921875,-0.140625,false,false,false,-377.06,1414.0399,26.31,-0.00029401635,-0.017600603,0.22588903,0.97399384,1252.9109,1010.66095,-254.631,-0.67321,0.58331,1.62711,1,-0.078125,0,0,0,false,false,false,-1989.1,4662.1,17.01,0.00090902316,0.0047285384,-0.18120378,0.9834337,1303.871,-480.801,8.321,-0.00051,-0.00021,-0.25661
107.15,-1668.46,1337.2899,111.649994,-0.087123595,-0.2588244,0.7541537,0.5972197,48.510998,754.73096,-18.251,-5.7076097,0.36861,1.81291,1,0,0.61417323,-0.4921875,-0.140625,false,false,false,-356.06,1430.65,22.14,-0.003924714,-0.011660893,0.23855612,0.97105074,1280.521,956.99097,-200.501,-0.43871,0.58461,1.32741,1,-0.078125,0,0,0,false,false,false,-1967.37,4654.05,17.01,0.00091981265,0.004728538,-0.18325923,0.9830527,1303.6909,-489.061,8.321,-0.00061,-0.00021,-0.23501
107.15833,-1668.0599,1343.58,111.45,-0.098182976,-0.2405522,0.7647182,0.5896616,48.490997,754.53094,-23.661,-5.7076097,0.36861,1.81291,1,-1,0,0,0,false,false,true,-345.38998,1438.62,20.4,-0.0050522266,-0.008882574,0.24395092,0.96973366,1293.0709,933.60095,-170.681,-0.33801,0.55331,1.18011,1,-0.078125,0,0,0,false,false,false,-1956.51,4649.9697,17.01,0.00091981277,0.0047285384,-0.18421951,0.98287326,1303.6709,-492.931,8.321,-0.00061,-0.00021,-0.22631
107.166664,-1667.6599,1349.87,111.21,-0.10918301,-0.2221289,0.7748034,0.58173656,48.470997,754.33093,-29.071,-5.7076097,0.36861,1.81291,1,-1,0,0,0,false,false,true,-334.61,1446.4,18.91,-0.005812935,-0.0063254405,0.2487415,0.9685317,1305.7109,904.7009,-140.821,-0.24510999,0.50841,0.78811,1,-0.078125,0,0,0,false,false,false,-1945.6499,4645.86,17.01,0.00091981265,0.004728538,-0.1851474,0.9826988,1303.6909,-496.651,8.321,-0.00061,-0.00021,-0.21880999
107.175,-1667.26,1356.15,110.92,-0.1201129,-0.2035653,0.7844035,0.57345015,48.451,754.131,-34.481,-5.7076097,0.36861,1.81291,1,-1,0,0,0,false,false,true,-323.72998,1453.94,17.67,-0.006255308,-0.0040380047,0.25194058,0.967714,1316.0609,881.24097,-112.101,-0.16631,0.45751,0.46921,1,-0.078125,0,0,0,false,false,false,-1934.7899,4641.7197,17.01,0.00091981265,0.004728538,-0.18604293,0.98252964,1303.751,-500.221,8.321,-0.00061,-0.00030999997,-0.21240999
107.183334,-1666.86,1362.4299,110.59,-0.13096727,-0.18487768,0.79351497,0.5648023,48.431,753.93097,-39.880997,-5.7076097,0.36861,1.81291,1,-1,0,0,0,false,false,true,-312.75998,1461.2799,16.67,-0.0064387317,-0.002031141,0.25384498,0.9672213,1325.241,860.36096,-76.211,0.094909996,0.77571,0.17460999,1,-1,0,0,0,false,false,false,-1923.9299,4637.55,17.01,0.00091981277,0.0047285384,-0.18691152,0.9823649,1303.841,-503.661,8.321,-0.00061,-0.00030999997,-0.20681
107.191666,-1666.46,1368.71,110.21,-0.14174072,-0.16607134,0.8021297,0.55580366,48.411,753.73096,-45.281,-5.7076097,0.36861,1.81291,1,-1,0,0,0,false,false,true,-301.72,1468.45,15.969999,-0.005235649,0.0009899449,0.25456792,0.96704006,1333.0609,842.321,-26.690998,0.15780999,0.30511,-0.09501,1,-1,0,0,0,false,false,false,-1913.0599,4633.35,17.01,0.00091981277,0.0047285384,-0.1877585,0.98220336,1298.4609,-516.831,8.331,-0.00331,0.00071,-0.51281
107.2,-1666.0599,1374.99,109.79,-0.15242784,-0.14716248,0.81024456,0.5464544,48.391,753.53094,-50.681,-5.7076097,0.36861,1.81291,1,-1,0,0,0,false,false,true,-290.61,1475.47,15.679999,-0.004275376,0.00205272,0.2541903,0.9671425,1339.781,826.54095,-0.41099998,0.13420999,0.14631,-0.33931,1,-1,0,0,0,false,false,false,-1902.24,4629.04,17.01,0.000914418,0.004728539,-0.1898571,0.9817999,1294.111,-528.061,8.331,-0.0043099998,0.00111,-0.74841
107.208336,-1665.6599,1381.27,109.32,-0.16301788,-0.12816198,0.8178524,0.53676534,48.371,753.33093,-56.080997,-5.7076097,0.36861,1.81291,1,-1,0,0,0,false,false,true,-279.44998,1482.36,15.61,-0.003574052,0.0025058824,0.25282532,0.96750194,1345.6609,812.441,13.011,0.09780999,0.09381,-0.55881,1,-1,0,0,0,false,false,false,-1891.46,4624.64,17.01,0.00090902305,0.004728538,-0.19291592,0.9812033,1289.971,-538.871,8.331,-0.00451,0.00111,-0.94980997
107.21667,-1665.26,1387.5499,108.81,-0.17350541,-0.1090805,0.8249486,0.5267418,48.350998,753.131,-61.481,-5.7076097,0.36861,1.81291,1,-1,0,0,0,false,false,true,-268.24,1489.13,15.65,-0.0030777312,0.002791807,0.25057572,0.96808803,1350.891,799.61096,18.681,0.055809997,0.062409997,-0.75531,1,-1,0,0,0,false,false,false,-1880.71,4620.15,17.01,0.00090902316,0.0047285384,-0.19680022,0.98043174,1285.841,-549.631,8.331,-0.00421,0.0010099999,-1.12141
107.225,-1664.86,1393.82,108.25,-0.18388504,-0.08992889,0.83152944,0.51638913,48.330997,752.93097,-66.881,-5.7076097,0.36861,1.81291,1,-1,0,0,0,false,false,true,-256.97998,1495.7899,15.74,-0.0027810175,0.0029968093,0.24752766,0.96887213,1355.631,787.71094,20.591,0.044609997,0.056409996,-0.93101,1,-1,0,0,0,false,false,false,-1869.99,4615.57,17.01,0.00091441796,0.0047231438,-0.2013804,0.97950125,1281.5509,-560.61096,8.331,-0.00361,0.00081,-1.2675099
107.24167,-1664.0599,1406.36,107,-0.2042936,-0.051474657,0.84313005,0.49471816,48.290997,752.53094,-77.671,-5.7076097,0.36861,1.81291,1,-1,0,0,0,false,false,true,-234.34999,1508.82,15.95,-0.0023224594,0.0033690496,0.2393707,0.9709195,1363.9409,765.941,21.511,0.02981,0.044509996,-1.22761,1,-1,0,0,0,false,false,false,-1848.6699,4606.13,17.01,0.0009413919,0.0047123544,-0.2122186,0.97721034,1272.031,-583.91095,8.331,-0.00221,0.00040999998,-1.4980099
107.25,-1663.6599,1412.63,106.31,-0.21431175,-0.032193568,0.8481407,0.483416,48.271,752.34094,-83.061,-5.7076097,0.36861,1.81291,1,-1,0,0,0,false,false,true,-222.98,1515.2,16.06,-0.0021390365,0.0035308942,0.23440212,0.9721309,1367.601,755.881,21.110998,0.02481,0.039109997,-1.35161,1,-1,0,0,0,false,false,false,-1838.07,4601.26,17.01,0.0009629712,0.00470696,-0.21831477,0.97586656,1266.631,-596.41095,8.331,-0.00151,0.00021,-1.5885099
107.25833,-1663.26,1418.9,105.57,-0.2241951,-0.012890909,0.85262185,0.4718118,48.251,752.15094,-88.451,-5.7076097,0.36861,1.81291,1,-1,0,0,0,false,false,true,-211.58,1521.5,16.17,-0.0019825874,0.0036765535,0.22892632,0.97343475,1370.9509,746.33093,20.390999,0.02091,0.034209996,-1.46111,1,-1,0,0,0,false,false,false,-1827.51,4596.29,17.01,0.000989945,0.0047015646,-0.22476694,0.97440064,1260.721,-609.53094,8.331,-0.00091,0,-1.66591
107.26667,-1662.86,1425.1699,104.79,-0.23393814,0.0064171106,0.8565709,0.45991087,48.231,751.96094,-93.840996,-5.7076097,0.36861,1.81291,1,-1,0,0,0,false,false,true,-200.15999,1527.72,16.27,-0.0018423226,0.0038060283,0.22299741,0.9748097,1373.971,737.34094,19.470999,0.01781,0.02991,-1.5570099,1,-1,0,0,0,false,false,false,-1817,4591.21,17.01,0.001016919,0.00469617,-0.23152666,0.97281665,1254.261,-623.261,8.331,-0.00040999998,-0.00010999999,-1.7323099
107.275,-1662.46,1431.4299,103.96,-0.24353552,0.02572517,0.8599836,0.44772393,48.211,751.77094,-99.230995,-5.7076097,0.36861,1.81291,1,-1,0,0,0,false,false,true,-188.70999,1533.86,16.359999,-0.0017182425,0.003924714,0.21666934,0.97623557,1376.6609,728.97095,18.470999,0.015309999,0.026109999,-1.64001,1,-1,0,0,0,false,false,false,-1806.5499,4586.02,17.01,0.0010492879,0.0046853805,-0.23853993,0.9711208,1247.2109,-637.571,8.331,0,-0.00030999997,-1.78941
107.28333,-1662.0599,1437.69,103.09,-0.25298184,0.045017045,0.8628588,0.43525654,48.190998,751.58093,-104.620995,-5.7076097,0.36861,1.81291,1,-1,0,0,0,false,false,true,-177.23999,1539.9299,16.449999,-0.0016049517,0.004027215,0.20999596,0.9776925,1379.001,721.321,17.460999,0.013309999,0.02271,-1.7107099,1,-1,0,0,0,false,false,false,-1796.1599,4580.71,17.01,0.0010870514,0.0046745907,-0.24577436,0.9693151,1239.5709,-652.43097,8.331,0.00021,-0.00040999998,-1.8386099
107.291664,-1661.6599,1443.95,102.17,-0.26226634,0.06427655,0.8651949,0.42251936,48.170998,751.3909,-110.010994,-5.7076097,0.36861,1.81291,1,-1,0,0,0,false,false,true,-165.75,1545.94,16.529999,-0.0015024508,0.0041189273,0.20302044,0.97916466,1380.9609,714.53094,16.441,0.011709999,0.01971,-1.76931,1,-1,0,0,0,false,false,false,-1785.83,4575.27,17.01,0.001124815,0.0046638013,-0.25319222,0.967404,1231.341,-667.80096,8.331,0.00040999998,-0.00051,-1.88121
107.3,-1661.26,1450.21,101.21,-0.27138898,0.0834983,0.8669897,0.4095179,48.150997,751.201,-115.391,-5.7076097,0.36861,1.81291,1,-1,0,0,0,false,false,true,-154.23999,1551.89,16.6,-0.0014053443,0.0041998485,0.19579679,0.98063445,1382.531,708.751,15.461,0.01041,0.01711,-1.81601,1,-1,0,0,0,false,false,false,-1775.57,4569.71,17.01,0.0011625786,0.0046530114,-0.26076657,0.9653899,1222.521,-683.631,8.331,0.00051,-0.00051,-1.9182099
107.308334,-1660.86,1456.47,100.2,-0.28033888,0.10266608,0.8682451,0.39625734,48.130997,751.011,-120.770996,-5.7076097,0.36861,1.81291,1,-1,0,0,0,false,false,true,-142.72,1557.7999,16.66,-0.0013190277,0.0042699813,0.18837357,0.98208725,1383.7009,704.16095,14.551,0.00931,0.014909999,-1.8508099,1,-1,0,0,0,false,false,false,-1765.38,4564.01,17.01,0.0012003421,0.004642222,-0.26847574,0.9632744,1213.101,-699.871,8.331,0.00061,-0.00051,-1.9505099
107.316666,-1660.46,1462.73,99.15,-0.2891163,0.121769145,0.86895525,0.38275412,48.111,750.821,-126.15099,-5.7076097,0.36861,1.81291,1,-1,0,0,0,false,false,true,-131.19,1563.6699,16.71,-0.0012381057,0.0043347185,0.18079378,0.9835106,1384.781,699.641,13.721,0.0083099995,0.013009999,-1.88251,1,-1,0,0,0,false,false,false,-1755.27,4558.1797,17.01,0.0012435005,0.0046314322,-0.27629283,0.9610615,1203.091,-716.46094,8.341001,0.00071,-0.00061,-1.9787099
107.325,-1660.0599,1468.99,98.049995,-0.29771024,0.14079657,0.8691246,0.36900815,48.091,750.631,-131.531,-5.7076097,0.36861,1.81291,1,-1,0,0,0,false,false,true,-119.649994,1569.5,16.76,-0.0011625787,0.004394062,0.17307384,0.9848983,1385.861,694.86096,12.991,0.00741,0.011309999,-1.91341,1,-1,0,0,0,false,false,false,-1745.24,4552.21,17.01,0.0012866589,0.0046206433,-0.28420708,0.9587509,1192.491,-733.34094,8.341001,0.00081,-0.00061,-2.0034099
107.333336,-1659.6599,1475.24,96.909996,-0.30612078,0.1597378,0.86874825,0.35503557,48.071,750.441,-136.91101,-5.7076097,0.36861,1.81291,1,-1,0,0,0,false,false,true,-108.1,1575.2899,16.8,-0.0010870514,0.0044426145,0.16521892,0.9862462,1386.9209,689.83093,12.321,0.00671,0.009709999,-1.94361,1,-1,0,0,0,false,false,false,-1735.2999,4546.1,17.01,0.0013298173,0.0046098535,-0.29220214,0.9563445,1181.3109,-750.46094,8.341001,0.00081,-0.00061,-2.02511
107.34167,-1659.26,1481.49,95.72,-0.31434247,0.17857651,0.86783046,0.34083638,48.051,750.251,-142.291,-5.7076097,0.36861,1.81291,1,-1,0,0,0,false,false,true,-96.54,1581.0399,16.83,-0.001016919,0.004485773,0.15722921,0.9875514,1387.9609,684.55096,11.731,0.00601,0.008409999,-1.97311,1,-1,0,0,0,false,false,false,-1725.46,4539.85,17.01,0.0013729756,0.0045990637,-0.300262,0.9538446,1169.5609,-767.77094,8.341001,0.00081,-0.00061,-2.0443099
107.35,-1658.86,1487.74,94.49,-0.32236457,0.19730733,0.8663696,0.3264269,48.031,750.061,-147.671,-5.7076097,0.36861,1.81291,1,-1,0,0,0,false,false,true,-84.97,1586.74,16.859999,-0.0009521814,0.0045235357,0.14910464,0.9888105,1388.9609,679.02094,11.231,0.00531,0.00731,-2.00191,1,-1,0,0,0,false,false,false,-1715.71,4533.4497,17.01,0.0014161341,0.0045882743,-0.30837584,0.95125246,1157.251,-785.22095,8.341001,0.00071,-0.00071,-2.06131
107.35833,-1658.46,1493.99,93.21,-0.33018702,0.21591404,0.86436707,0.31181228,48.010998,749.871,-153.05101,-5.7076097,0.36861,1.81291,1,-1,0,0,0,false,false,true,-73.4,1592.4,16.89,-0.00088744395,0.0045559052,0.14085053,0.9900199,1389.9109,673.251,10.791,0.00471,0.00631,-2.03011,1,-1,0,0,0,false,false,false,-1706.07,4526.9097,17.01,0.0014592924,0.0045720898,-0.3165328,0.94856936,1144.401,-802.77094,8.341001,0.00071,-0.00071,-2.07641
107.36667,-1658.0599,1500.24,91.89,-0.33780456,0.23438594,0.8618237,0.2970035,47.990997,749.68097,-158.421,-5.7076097,0.36861,1.81291,1,-1,0,0,0,false,false,true,-61.82,1598.01,16.91,-0.00082810124,0.0045882743,0.13247243,0.9911757,1390.8109,667.24097,10.391,0.00421,0.00551,-2.05761,1,-1,0,0,0,false,false,false,-1696.5299,4520.2197,17.01,0.0015024506,0.004555905,-0.32472745,0.9457953,1131.021,-820.381,8.341001,0.00061,-0.00071,-2.08981
107.375,-1657.69,1505.94,92.68,-0.34694877,0.25922906,0.8569758,0.27931938,43.880997,684.15094,95.020996,-5.82061,0.37331,1.40741,1,-1,0,0,0,false,false,true,-50.23,1603.57,16.93,-0.00076875853,0.0046152486,0.12397023,0.9922749,1391.641,660.99097,10.051001,0.00381,0.00471,-2.0845098,1,-1,0,0,0,false,false,false,-1687.1,4513.38,17.01,0.0015456092,0.004539721,-0.33294922,0.94293255,1117.121,-838.001,8.341001,0.00061,-0.00071,-2.10181
107.38333,-1657.32,1511.64,93.43,-0.35380018,0.2783321,0.8525988,0.2653899,43.861,683.97095,89.58099,-5.82061,0.37331,1.40741,1,-1,0,0,0,false,false,true,-38.629997,1609.08,16.949999,-0.00070941565,0.0046368265,0.11534924,0.9933138,1392.391,654.511,9.751,0.00341,0.00401,-2.11081,1,-1,0,0,0,false,false,false,-1677.7899,4506.4,17.01,0.0015887675,0.004523536,-0.34119248,0.93998116,1102.721,-855.60095,8.341001,0.00061,-0.00061,-2.11251
107.39167,-1656.95,1517.34,94.13,-0.36043033,0.29725704,0.84769076,0.25129318,43.841,683.79095,84.141,-5.82061,0.37331,1.40741,1,-1,0,0,0,false,false,true,-27.029999,1614.5299,16.96,-0.00065007294,0.004658406,0.10660969,0.99428976,1393.0509,647.80096,9.481,0.00301,0.00351,-2.13651,1,-1,0,0,0,false,false,false,-1668.6,4499.27,17.01,0.0016319259,0.0045073526,-0.349452,0.936942,1087.8309,-873.15094,8.341001,0.00051,-0.00061,-2.12211
107.4,-1656.58,1523.0399,94.79,-0.36683407,0.3159987,0.8422526,0.23704019,43.821,683.61096,78.701,-5.82061,0.37331,1.40741,1,-1,0,0,0,false,false,true,-15.42,1619.9299,16.97,-0.0005961249,0.00467459,0.097756736,0.995199,1393.621,640.871,9.271,0.00271,0.00301,-2.16151,1,-1,0,0,0,false,false,false,-1659.5299,4491.9897,17.01,0.0016750842,0.0044911676,-0.3577222,0.9338157,1072.471,-890.61096,8.341001,0.00051,-0.00061,-2.13081
107.40833,-1656.21,1528.74,95.4,-0.37301114,0.3345407,0.836287,0.2226414,43.801,683.43097,73.261,-5.82061,0.37331,1.40741,1,-1,0,0,0,false,false,true,-3.81,1625.27,16.98,-0.00054217706,0.0046907756,0.088790596,0.9960391,1394.0809,633.73096,9.091001,0.00241,0.00261,-2.18591,1,-1,0,0,0,false,false,false,-1650.59,4484.57,17.01,0.0017182427,0.0044749836,-0.36599788,0.9306033,1056.651,-907.9509,8.341001,0.00040999998,-0.00051,-2.13861
107.416664,-1655.85,1534.4299,95.97,-0.3789562,0.35287765,0.82979685,0.20810232,43.781,683.251,67.821,-5.82061,0.37331,1.40741,1,-1,0,0,0,false,false,true,7.81,1630.5499,16.99,-0.0004882291,0.00470696,0.07971655,0.9968063,1394.4209,626.381,8.941,0.00211,0.0023100001,-2.20971,1,-1,0,0,0,false,false,false,-1641.7799,4477,17.01,0.0017614011,0.0044587995,-0.37427354,0.92730594,1040.381,-925.15094,8.341001,0.00040999998,-0.00051,-2.14571
107.425,-1655.49,1540.12,96.49,-0.3846639,0.37099347,0.8227884,0.19343387,43.760998,683.071,62.380997,-5.82061,0.37331,1.40741,1,-1,0,0,0,false,false,true,19.43,1635.77,17,-0.0004342811,0.004717749,0.07053451,0.99749804,1394.631,618.83093,8.801001,0.0019099999,0.00201,-2.23291,1,-1,0,0,0,false,false,false,-1633.11,4469.29,17.01,0.0018045594,0.0044426145,-0.3825491,0.92392266,1023.68097,-942.18097,8.341001,0.00030999997,-0.00051,-2.15221
107.433334,-1655.13,1545.8099,96.96,-0.39012885,0.38887727,0.81526744,0.17864124,43.740997,682.891,56.940998,-5.82061,0.37331,1.40741,1,-1,0,0,0,false,false,true,31.05,1640.9299,17.01,-0.00038033313,0.0047285384,0.061250072,0.9981111,1394.7109,611.09094,8.6710005,0.0017099999,0.0017099999,-2.2555099,1,-1,0,0,0,false,false,false,-1624.58,4461.44,17.01,0.0018477177,0.00442643,-0.39081943,0.9204548,1006.571,-959.02094,8.341001,0.00030999997,-0.00051,-2.15811
107.441666,-1654.77,1551.5,97.39,-0.39535105,0.40651828,0.80723554,0.16374074,43.720997,682.71094,51.501,-5.82061,0.37331,1.40741,1,-1,0,0,0,false,false,true,42.67,1646.02,17.01,-0.00032638517,0.0047393283,0.051868435,0.99864256,1394.641,603.16095,8.551001,0.00151,0.00151,-2.27751,1,-1,0,0,0,false,false,false,-1616.19,4453.4497,17.01,0.0018908761,0.0044102455,-0.39907888,0.916904,989.05096,-975.66095,8.341001,0.00021,-0.00040999998,-2.1635098
107.45,-1654.4099,1557.19,97.77,-0.4003251,0.42390582,0.7986994,0.14873783,43.701,682.53094,46.071,-5.82061,0.37331,1.40741,1,-1,0,0,0,false,false,true,54.289997,1651.0499,17.01,-0.0002724372,0.0047501177,0.04238978,0.9990898,1394.4209,595.05096,8.471001,0.00131,0.00131,-2.29891,1,-1,0,0,0,false,false,false,-1607.95,4445.32,17.01,0.0019340345,0.004394062,-0.4073276,0.91326946,971.1409,-992.061,8.341001,0.00010999999,-0.00040999998,-2.16851
107.458336,-1654.0499,1562.88,98.11,-0.4050509,0.4410236,0.78966534,0.13364309,43.681,682.35095,40.641,-5.82061,0.37331,1.40741,1,-1,0,0,0,false,false,false,65.909996,1656.01,17.01,-0.00022388404,0.004755513,0.032819327,0.9994499,1394.0409,586.77094,8.4210005,0.00111,0.00111,-2.31971,1,-1,0,0,0,false,false,false,-1599.86,4437.05,17.01,0.0019771927,0.004372482,-0.41556004,0.909553,952.85095,-1008.22095,8.341001,0,-0.00040999998,-2.17311
107.46667,-1653.69,1568.5599,98.4,-0.4095232,0.45786616,0.7801383,0.11846204,43.661,682.17096,35.211,-5.82061,0.37331,1.40741,1,-1,0,0,0,false,false,false,77.53,1660.8999,17.01,-0.00017533089,0.004760908,0.023157248,0.99972045,1393.4209,577.09094,8.391,0.0010099999,0.00091,-2.34251,1,-1,0,0,0,false,false,false,-1591.9199,4428.65,17.01,0.0020149562,0.004350903,-0.42377633,0.9057541,934.191,-1024.111,8.341001,0,-0.00030999997,-2.17731
107.475,-1653.33,1574.24,98.65,-0.4137366,0.47442284,0.7701256,0.10320557,43.641,681.99097,29.780998,-5.82061,0.37331,1.40741,1,-1,0,0,0,false,false,false,89.14,1665.71,17.01,-0.00012677771,0.0047663026,0.0133980615,0.99989885,1392.641,565.97095,8.371,0.00091,0.00081,-2.36761,1,-1,0,0,0,false,false,false,-1584.13,4420.12,17.01,0.0020527202,0.0043293242,-0.4319765,0.9018721,915.18097,-1039.721,8.341001,0,-0.00030999997,-2.18121
107.48333,-1652.97,1579.9199,98.85,-0.41769633,0.49068278,0.759629,0.087884255,43.621,681.811,24.351,-5.82061,0.37331,1.40741,1,-1,0,0,0,false,false,false,100.75,1670.4299,17.01,-0.00007822455,0.0047716973,0.0035308944,0.99998236,1392.241,553.321,8.361,0.00081,0.00061,-2.39671,1,-1,0,0,0,false,false,false,-1576.5,4411.46,17.01,0.0020904834,0.0043077446,-0.440155,0.897909,895.821,-1055.0409,8.341001,0,-0.00021,-2.18481
107.49167,-1652.61,1585.6,99.009995,-0.42139176,0.50663525,0.74866,0.072509,43.600998,681.631,18.921,-5.82061,0.37331,1.40741,1,-1,0,0,0,false,false,false,112.35,1675.0399,17.01,-0.000029671379,0.004777092,-0.0064549157,0.9999677,1391.501,539.201,8.361,0.00071,0.00051,-2.42741,1,-1,0,0,0,false,false,false,-1569.0299,4402.67,17.01,0.002128247,0.0042861653,-0.44831195,0.8938643,876.131,-1070.0509,8.341001,0,-0.00021,-2.18821
107.5,-1652.25,1591.2799,99.119995,-0.42482293,0.5222749,0.73722106,0.057090685,43.580997,681.451,13.491,-5.82061,0.37331,1.40741,1,-1,0,0,0,false,false,false,123.95,1679.5299,17.01,0.000024276584,0.0047770925,-0.016570201,0.9998513,1390.371,523.621,8.361,0.00061,0.00040999998,-2.4595098,1,-1,0,0,0,false,false,false,-1561.73,4393.75,17.01,0.0021660107,0.004264586,-0.456442,0.8897402,856.121,-1084.741,8.341001,0.00010999999,-0.00021,-2.19141
107.50833,-1651.89,1596.96,99.189995,-0.4279896,0.53758526,0.72532284,0.041634504,43.560997,681.27094,8.071,-5.82061,0.37331,1.40741,1,-1,0,0,0,false,false,false,135.54,1683.89,17.01,0.00007822454,0.004777092,-0.026814919,0.99962896,1388.781,506.591,8.361,0.00051,0.00030999997,-2.4927099,1,-1,0,0,0,false,false,false,-1554.6,4384.71,17.01,0.0022037742,0.004243007,-0.46454498,0.88553655,835.80096,-1099.101,8.341001,0.00010999999,-0.00021,-2.1944098
107.51667,-1651.5299,1602.64,99.21,-0.43089214,0.55256146,0.71296835,0.026151361,43.541,681.09094,2.6509998,-5.82061,0.37331,1.40741,1,-1,0,0,0,false,false,false,147.11,1688.11,17.01,0.00013217251,0.0047770925,-0.03719455,0.9992966,1386.6709,488.121,8.361,0.00040999998,0.00021,-2.52691,1,-1,0,0,0,false,false,false,-1547.63,4375.55,17.01,0.0022415377,0.0042214277,-0.47262102,0.88125277,815.18097,-1113.121,8.341001,0.00021,-0.00010999999,-2.19721
107.525,-1651.1699,1608.3099,99.189995,-0.43352476,0.56719214,0.7001684,0.010652025,43.521,680.91095,-2.761,-5.82061,0.37331,1.40741,1,-1,0,0,0,false,false,false,158.67,1692.1799,17.01,0.00018612047,0.004777092,-0.047714442,0.9988495,1383.991,468.241,8.361,0.00030999997,0.00021,-2.56181,1,-1,0,0,0,false,false,false,-1540.84,4366.27,17.01,0.0022793012,0.004199848,-0.48067003,0.87688833,794.27094,-1126.7909,8.341001,0.00021,-0.00010999999,-2.19981
107.53333,-1650.8099,1613.98,99.119995,-0.43588233,0.5814668,0.68693465,-0.004852619,43.501,680.73096,-8.1710005,-5.82061,0.37331,1.40741,1,-1,0,0,0,false,false,false,170.2,1696.08,17.01,0.00024006845,0.0047770925,-0.058374606,0.99828327,1380.6809,446.991,8.361,0.00021,0.00010999999,-2.59721,1,-1,0,0,0,false,false,false,-1534.22,4356.88,17.01,0.0023170647,0.004178269,-0.4886867,0.87244606,773.08093,-1140.111,8.341001,0.00021,-0.00010999999,-2.2023098
107.541664,-1650.45,1619.65,99.009995,-0.43797013,0.59538007,0.67326844,-0.020351952,43.481,680.55096,-13.581,-5.82061,0.37331,1.40741,1,-1,0,0,0,false,false,false,181.70999,1699.7999,17.01,0.0002940164,0.0047770925,-0.069175035,0.99759305,1376.6809,424.411,8.371,0.00010999999,0.00010999999,-2.63291,1,-1,0,0,0,false,false,false,-1527.7799,4347.38,17.01,0.0023548284,0.00415669,-0.4966711,0.8679256,751.621,-1153.0609,8.341001,0.00021,-0.00010999999,-2.2046099
107.55,-1650.09,1625.32,98.85,-0.43978277,0.60892105,0.6591825,-0.03584045,43.461,680.371,-18.991,-5.82061,0.37331,1.40741,1,-1,0,0,0,false,false,false,193.18,1703.34,17.01,0.00034796435,0.004771697,-0.08011571,0.996774,1371.9409,400.551,8.371,0,0,-2.66871,1,-1,0,0,0,false,false,false,-1521.52,4337.77,17.01,0.002392592,0.004135111,-0.50462306,0.8633265,729.90094,-1165.631,8.341001,0.00021,-0.00010999999,-2.20681
107.558334,-1649.73,1630.99,98.65,-0.4413203,0.62207896,0.6446872,-0.051307417,43.440998,680.191,-24.401,-5.82061,0.37331,1.40741,1,-1,0,0,0,false,false,false,204.61,1706.6799,17.01,0.00040191232,0.004766302,-0.09119667,0.99582136,1366.401,375.461,8.371,0,0,-2.7044098,1,-1,0,0,0,false,false,false,-1515.44,4328.06,17.01,0.0024303556,0.0041135317,-0.51253724,0.85865164,707.93097,-1177.8209,8.341001,0.00021,-0.00010999999,-2.20891
107.566666,-1649.37,1636.6599,98.4,-0.44258267,0.6348486,0.6297882,-0.06674197,43.420998,680.011,-29.810999,-5.82061,0.37331,1.40741,1,-1,0,0,0,false,false,false,216,1709.8099,17.01,0.00045586028,0.0047609075,-0.10241249,0.9947305,1360.021,349.201,8.3810005,0,0,-2.73991,1,-1,0,0,0,false,false,false,-1509.5399,4318.25,17.01,0.0024681191,0.0040919525,-0.52041906,0.8538976,685.73096,-1189.621,8.341001,0.00021,-0.00010999999,-2.2109098
107.575,-1649.01,1642.33,98.11,-0.44356996,0.64722246,0.61449397,-0.082133375,43.400997,679.83093,-35.220997,-5.82061,0.37331,1.40741,1,-1,0,0,0,false,false,false,227.33,1712.72,17.01,0.00050980813,0.0047555123,-0.11376317,0.99349624,1352.751,321.841,8.3810005,0,0,-2.7750099,1,-1,0,0,0,false,false,false,-1503.83,4308.34,17.01,0.0025058826,0.0040703737,-0.52826315,0.84906715,663.29095,-1201.031,8.341001,0.00021,-0.00010999999,-2.21291
107.583336,-1648.6499,1647.99,97.77,-0.44427663,0.6591929,0.5988165,-0.09747625,43.380997,679.65094,-40.621,-5.82061,0.37331,1.40741,1,-1,0,0,0,false,false,false,238.59999,1715.3999,17.01,0.0005637562,0.004750118,-0.12524337,0.9921145,1344.5409,293.461,8.3810005,0,0,-2.80951,1,-1,0,0,0,false,false,false,-1498.2999,4298.33,17.01,0.0025436464,0.0040487945,-0.5360694,0.84416026,640.641,-1212.031,8.341001,0.00021,-0.00010999999,-2.21481
107.59167,-1648.2899,1653.6499,97.39,-0.44470826,0.67075324,0.5827616,-0.11275437,43.361,679.47095,-46.021,-5.82061,0.37331,1.40741,1,-1,0,0,0,false,false,false,249.79999,1717.85,17.01,0.0006177041,0.004744723,-0.1368476,0.9905805,1335.361,264.131,8.3810005,0,0,-2.8433099,1,-1,0,0,0,false,false,false,-1492.96,4288.23,17.01,0.0025814099,0.0040272153,-0.54383796,0.83917654,617.77094,-1222.631,8.341001,0.00021,-0.00021,-2.21661
107.6,-1647.9299,1659.3099,96.96,-0.4448593,0.6818936,0.5663452,-0.12796238,43.341,679.29095,-51.420998,-5.82061,0.37331,1.40741,1,-1,0,0,0,false,false,false,260.93,1720.0499,17.01,0.0006716521,0.0047393283,-0.14857054,0.9888902,1325.1709,233.941,8.391,0,0,-2.8763099,1,-1,0,0,0,false,false,false,-1487.8099,4278.04,17.01,0.0026191734,0.004005636,-0.5515633,0.8341192,594.701,-1232.8209,8.341001,0.00021,-0.00021,-2.2183099
107.60833,-1647.57,1664.97,96.49,-0.4447352,0.69260794,0.54957265,-0.14308941,43.330997,679.11096,-56.821,-5.82061,0.37331,1.40741,1,-1,0,0,0,false,false,false,271.97,1722,17.01,0.00073099486,0.0047285384,-0.16041219,0.98703843,1313.9409,202.961,8.391,0,0,-2.90831,1,-1,0,0,0,false,false,false,-1482.85,4267.77,17.01,0.002656937,0.003978662,-0.55925095,0.8289845,571.441,-1242.591,8.341001,0.00021,-0.00030999997,-2.22001
107.61667,-1647.21,1670.63,95.97,-0.4443306,0.7028877,0.53246033,-0.15813017,43.321,678.93097,-62.220997,-5.82061,0.37331,1.40741,1,-1,0,0,0,false,false,false,282.91998,1723.69,17.01,0.0007903376,0.004717749,-0.17236172,0.98502207,1301.651,171.291,8.391,0,0,-2.93921,1,-1,0,0,0,false,false,false,-1478.09,4257.42,17.01,0.0026947006,0.003951688,-0.5668954,0.82377577,548.001,-1251.9409,8.341001,0.00021,-0.00030999997,-2.22161
107.625,-1646.85,1676.2899,95.409996,-0.44365084,0.71272874,0.51501346,-0.17306843,43.310997,678.751,-67.620995,-5.82061,0.37331,1.40741,1,-1,0,0,0,false,false,false,293.77,1725.12,17.01,0.00084968045,0.00470696,-0.18441375,0.982837,1288.271,139.02101,8.401,0,0,-2.96891,1,-1,0,0,0,false,false,false,-1473.52,4246.9897,17.01,0.002732464,0.003924714,-0.5744967,0.8184929,524.381,-1260.861,8.341001,0.00021,-0.00030999997,-2.2232099
107.63333,-1646.49,1681.94,94.799995,-0.44269598,0.72212434,0.497243,-0.18789877,43.301,678.571,-73.020996,-5.82061,0.37331,1.40741,1,-1,0,0,0,false,false,false,304.50998,1726.2799,17.01,0.0009090232,0.0046961703,-0.19655748,0.9804806,1273.8009,106.251,8.401,0,0,-2.99731,1,-1,0,0,0,false,false,false,-1469.15,4236.48,17.01,0.002770228,0.0038977405,-0.5820549,0.8131354,500.60098,-1269.351,8.341001,0.00021,-0.00030999997,-2.22471
107.64167,-1646.13,1687.59,94.15,-0.44146055,0.73106784,0.47916496,-0.20261581,43.291,678.391,-78.410995,-5.82061,0.37331,1.40741,1,-1,0,0,0,false,false,false,315.13,1727.1699,17.01,0.00096836593,0.0046853805,-0.2087875,0.97794926,1258.221,73.071,8.401,0,0,-3.0243099,1,-1,0,0,0,false,false,false,-1464.98,4225.9,17.01,0.0028079913,0.0038707664,-0.5895698,0.8077032,476.661,-1277.4109,8.341001,0.00021,-0.00021,-2.2262099
107.65,-1645.77,1693.24,93.45,-0.43995005,0.7395566,0.46078482,-0.21720344,43.281,678.21094,-83.800995,-5.82061,0.37331,1.40741,1,-1,0,0,0,false,false,false,325.62,1727.7799,17.01,0.0010277086,0.0046745907,-0.22109307,0.9752409,1241.5409,39.580997,8.401,0,0,-3.0499098,1,-1,0,0,0,false,false,false,-1461.01,4215.26,17.01,0.0028457548,0.0038437922,-0.59703624,0.8021999,452.57098,-1285.031,8.341001,0.00021,-0.00021,-2.2276099
107.65833,-1645.4099,1698.89,92.71,-0.43816426,0.74758166,0.44211864,-0.2316561,43.271,678.03094,-89.190994,-5.82061,0.37331,1.40741,1,-1,0,0,0,false,false,false,335.97,1728.11,17.01,0.0010870514,0.0046638013,-0.23346879,0.97235245,1223.761,5.871,8.401,0,0,-3.07391,1,-1,0,0,0,false,false,false,-1457.24,4204.55,17.01,0.0028835186,0.0038168184,-0.60445416,0.7966255,428.35098,-1292.2109,8.341001,0.00010999999,-0.00021,-2.2290099
107.666664,-1645.07,1704.19,93.159996,-0.4348087,0.7570908,0.41967082,-0.24825594,40.630997,635.93097,53.501,-5.86971,0.37501,1.18531,1,-1,0,0,0,false,false,false,346.16998,1728.1599,17.01,0.0011463942,0.0046476168,-0.24590383,0.9692824,1204.881,-27.950998,8.401,0,-0.00010999999,-3.09631,1,-1,0,0,0,false,false,false,-1453.6699,4193.78,17.01,0.0029212823,0.0037898445,-0.6118289,0.79097563,404.001,-1298.9509,8.341001,0.00010999999,-0.00010999999,-2.2304099
107.675,-1644.73,1709.49,93.56,-0.43168515,0.76458335,0.40047613,-0.26206672,40.621,635.761,48.071,-5.86971,0.37501,1.18531,1,-1,0,0,0,false,false,false,356.21,1727.9299,17.01,0.0012057369,0.0046314322,-0.25838742,0.96602947,1184.9309,-61.801,8.401,0,-0.00010999999,-3.1170099,1,-1,0,0,0,false,false,false,-1450.2999,4182.96,17.01,0.0029590456,0.0037628703,-0.619155,0.7852541,379.531,-1305.241,8.341001,0.00010999999,-0.00010999999,-2.23171
107.683334,-1644.39,1714.7899,93.92,-0.4282918,0.77159613,0.38103318,-0.2757156,40.611,635.59094,42.641,-5.86971,0.37501,1.18531,1,-1,0,0,0,false,false,false,366.08,1727.4099,17.01,0.0012650797,0.004615248,-0.27091423,0.9625915,1163.9209,-95.590996,8.411,0,-0.00010999999,-3.13591,1,-1,0,0,0,false,false,false,-1447.14,4172.08,17.01,0.0029968093,0.0037358964,-0.62642723,0.7794651,354.941,-1311.0809,8.341001,0,-0.00010999999,-2.23301
107.691666,-1644.0499,1720.09,94.229996,-0.4246287,0.77812755,0.3613529,-0.28919184,40.600998,635.42096,37.211,-5.86971,0.37501,1.18531,1,-1,0,0,0,false,false,false,375.78,1726.61,17.01,0.0013244224,0.0045990637,-0.28346795,0.9589697,1141.891,-129.22101,8.411,0,-0.00010999999,-3.15301,1,-1,0,0,0,false,false,false,-1444.1799,4161.15,17.01,0.003029178,0.0037089223,-0.63365084,0.7736042,330.251,-1316.471,8.341001,0,0,-2.23431
107.7,-1643.71,1725.38,94.49,-0.42070132,0.7841734,0.34144604,-0.3024847,40.591,635.251,31.780998,-5.86971,0.37501,1.18531,1,-1,0,0,0,false,false,false,385.3,1725.5299,17.01,0.0013837651,0.004582879,-0.29604328,0.95516247,1118.861,-162.61101,8.411,0,-0.00021,-3.16821,1,-1,0,0,0,false,false,false,-1441.4299,4150.1797,17.01,0.0030615467,0.0036819484,-0.640826,0.76767117,305.471,-1321.4109,8.341001,0,0,-2.2355099
107.708336,-1643.37,1730.6699,94.71,-0.41650954,0.7897286,0.3213288,-0.31558868,40.580997,635.08093,26.350998,-5.86971,0.37501,1.18531,1,-1,0,0,0,false,false,false,394.62,1724.1699,17.01,0.0014431078,0.0045612995,-0.30862394,0.95117193,1094.881,-195.671,8.411,0,-0.00030999997,-3.18151,1,-1,0,0,0,false,false,false,-1438.88,4139.17,17.01,0.0030939158,0.0036549747,-0.6479472,0.7616702,280.601,-1325.891,8.341001,0,0,-2.23671
107.71667,-1643.0299,1735.96,94.88,-0.41205883,0.79478997,0.30100653,-0.32849848,40.571,634.91095,20.921,-5.86971,0.37501,1.18531,1,-1,0,0,0,false,false,false,403.74,1722.5399,17.01,0.0015024507,0.0045397207,-0.3212047,0.94699764,1069.9609,-228.321,8.411,0,-0.00030999997,-3.19331,1,-1,0,0,0,false,false,false,-1436.5399,4128.12,17.01,0.0031262843,0.0036280004,-0.65501976,0.75559646,255.661,-1329.9109,8.341001,0,0,-2.23791
107.725,-1642.69,1741.25,95.009995,-0.40734917,0.7993555,0.28049543,-0.3412033,40.560997,634.74097,15.491,-5.86971,0.37501,1.18531,1,-1,0,0,0,false,false,false,412.66,1720.64,17.01,0.0015617935,0.0045181415,-0.3337746,0.9426407,1044.151,-260.491,8.411,0.00010999999,-0.00030999997,-3.20351,1,-1,0,0,0,false,false,false,-1434.4099,4117.04,17.01,0.0031586532,0.0036010265,-0.6620384,0.7494545,230.651,-1333.471,8.341001,0,-0.00010999999,-2.23911
107.73333,-1642.35,1746.5399,95.09,-0.40238586,0.8034209,0.2598117,-0.35369226,40.551,634.571,10.071,-5.86971,0.37501,1.18531,1,-1,0,0,0,false,false,false,421.36,1718.47,17.01,0.0016211363,0.0044965628,-0.34632835,0.9381012,1017.501,-292.101,8.411,0.00010999999,-0.00030999997,-3.21211,1,-1,0,0,0,false,false,false,-1432.49,4105.9297,17.01,0.003191022,0.0035686577,-0.6690031,0.74324405,205.58101,-1336.5709,8.341001,0,-0.00010999999,-2.24031
107.74167,-1642.01,1751.83,95.13,-0.3971745,0.80698246,0.23896612,-0.3659601,40.541,634.40094,4.651,-5.86971,0.37501,1.18531,1,-1,0,0,0,false,false,false,429.84,1716.0399,17.01,0.001680479,0.004474983,-0.3588497,0.93338305,990.071,-323.081,8.411,0.00021,-0.00030999997,-3.2190099,1,-1,0,0,0,false,false,false,-1430.7799,4094.7898,17.01,0.0032233908,0.0035362889,-0.6759139,0.736965,180.461,-1339.2109,8.341001,0,-0.00010999999,-2.24141
107.75,-1641.6699,1757.12,95.119995,-0.39171496,0.8100392,0.21796949,-0.3780013,40.531,634.23096,-0.761,-5.86971,0.37501,1.18531,1,-1,0,0,0,false,false,false,438.09,1713.35,17.01,0.0017398219,0.0044534043,-0.37133875,0.9284851,961.92096,-353.361,8.411,0.00021,-0.00040999998,-3.22421,1,-1,0,0,0,false,false,false,-1429.2799,4083.63,17.01,0.0032557594,0.00350392,-0.6827653,0.730622,155.30101,-1341.391,8.341001,0,-0.00010999999,-2.2425098
107.75833,-1641.33,1762.3999,95.07,-0.3860072,0.8125915,0.19683798,-0.38980517,40.521,634.061,-6.171,-5.86971,0.37501,1.18531,1,-1,0,0,0,false,false,false,446.11,1710.4099,17.01,0.0017991647,0.0044264304,-0.38377917,0.9234125,933.11096,-382.891,8.411,0.00021,-0.00051,-3.22771,1,-1,0,0,0,false,false,false,-1427.99,4072.45,17.01,0.0032881282,0.0034715512,-0.68956274,0.7242101,130.11101,-1343.101,8.341001,0,-0.00010999999,-2.24361
107.76667,-1640.99,1767.6799,94.97,-0.38005674,0.8146365,0.17558241,-0.40136626,40.510998,633.90094,-11.581,-5.86971,0.37501,1.18531,1,-1,0,0,0,false,false,false,453.88998,1707.22,17.01,0.0018585074,0.0043994565,-0.3961603,0.9181689,903.71094,-411.621,8.411,0.00021,-0.00051,-3.22941,1,-1,0,0,0,false,false,false,-1426.9099,4061.26,17.01,0.0033204965,0.0034391822,-0.6963008,0.717734,104.90099,-1344.351,8.341001,0,-0.00010999999,-2.24471
107.775,-1640.6499,1772.96,94.829994,-0.3738689,0.81617326,0.15421894,-0.41267386,40.501,633.74097,-16.991,-5.86971,0.37501,1.18531,1,-1,0,0,0,false,false,false,461.41998,1703.7899,17.01,0.00191785,0.004372482,-0.40847665,0.9127562,873.79095,-439.501,8.411,0.00030999997,-0.00051,-3.22931,1,-1,0,0,0,false,false,false,-1426.0399,4050.0598,17.01,0.003352866,0.003406814,-0.70298517,0.7111884,79.671,-1345.141,8.341001,0,-0.00010999999,-2.24581
107.78333,-1640.3099,1778.24,94.64,-0.3674491,0.8171999,0.13275835,-0.42372242,40.490997,633.58093,-22.401,-5.86971,0.37501,1.18531,1,-1,0,0,0,false,false,false,468.69998,1700.13,17.01,0.0019771927,0.0043455083,-0.42072287,0.90717655,843.41095,-466.481,8.411,0.00030999997,-0.00051,-3.2274098,1,-1,0,0,0,false,false,false,-1425.38,4038.8499,17.01,-0.0033852346,-0.003374445,0.7096118,-0.70457655,54.440998,-1345.4609,8.341001,0,-0.00010999999,-2.24681
107.791664,-1639.97,1783.52,94.409996,-0.36080262,0.8177139,0.11121684,-0.43450665,40.481,633.42096,-27.810999,-5.86971,0.37501,1.18531,1,-1,0,0,0,false,false,false,475.72998,1696.24,17.01,0.0020365356,0.0043185344,-0.43288282,0.9014375,812.65094,-492.541,8.411,0.00030999997,-0.00051,-3.2237098,1,-1,0,0,0,false,false,false,-1424.9299,4027.64,17.01,-0.0034176034,-0.0033420762,0.7161761,-0.69790316,29.210999,-1345.3109,8.341001,0,-0.00010999999,-2.24781
107.8,-1639.63,1788.7999,94.13,-0.35392964,0.81771684,0.089605205,-0.44502112,40.470997,633.261,-33.220997,-5.86971,0.37501,1.18531,1,-1,0,0,0,false,false,false,482.5,1692.14,17.01,0.0020958781,0.00429156,-0.444951,0.8955421,781.58093,-517.641,8.411,0.00030999997,-0.00061,-3.21821,1,-1,0,0,0,false,false,false,-1424.69,4016.43,17.01,-0.0034499723,-0.0033097074,0.72268105,-0.69116503,3.991,-1344.7009,8.341001,0,-0.00010999999,-2.24881
107.808334,-1639.2899,1794.08,93.81,-0.3468354,0.8172103,0.067934215,-0.45525503,40.461,633.10095,-38.621,-5.86971,0.37501,1.18531,1,-1,0,0,0,false,false,false,489.00998,1687.83,17.01,0.002155221,0.0042591915,-0.45691672,0.8894966,750.261,-541.77094,8.411,0.00030999997,-0.00061,-3.2109098,1,-1,0,0,0,false,false,false,-1424.6599,4005.22,17.01,-0.0034823408,-0.0032773386,0.72912645,-0.6843622,-21.200998,-1343.621,8.341001,0,-0.00010999999,-2.24981
107.816666,-1638.95,1799.35,93.439995,-0.3395255,0.81619054,0.046220083,-0.46520853,40.451,632.941,-44.021,-5.86971,0.37501,1.18531,1,-1,0,0,0,false,false,false,495.25998,1683.32,17.01,0.0022145638,0.0042268224,-0.4687745,0.8833049,718.77094,-564.90094,8.411,0.00030999997,-0.00061,-3.20171,1,-1,0,0,0,false,false,false,-1424.84,3994.02,17.01,-0.0035147096,-0.0032449698,0.73551214,-0.6774945,-46.361,-1342.0809,8.341001,0,-0.00010999999,-2.25081
107.825,-1638.61,1804.62,93.03,-0.33199972,0.81466234,0.024478972,-0.47487065,40.440998,632.78094,-49.420998,-5.86971,0.37501,1.18531,1,-1,0,0,0,false,false,false,501.25,1678.61,17.01,0.0022739063,0.0041944534,-0.4805136,0.8769741,687.18097,-587.03094,8.411,0.00030999997,-0.00061,-3.1907098,1,-1,0,0,0,false,false,false,-1425.23,3982.8398,17.01,-0.0035470785,-0.0032126012,0.74183285,-0.67056763,-71.491,-1340.0709,8.341001,0,-0.00010999999,-2.25181
107.833336,-1638.2899,1809.6599,93.28,-0.3227314,0.8125388,0.00021309445,-0.48541212,38.650997,604.90094,29.640999,-5.89461,0.37661,1.05391,1,-1,0,0,0,false,false,false,506.97998,1673.72,17.01,0.0023332492,0.0041620852,-0.49212864,0.8705093,655.561,-608.15094,8.411,0.00030999997,-0.00061,-3.17781,1,-1,0,0,0,false,false,false,-1425.83,3971.67,17.01,-0.0035794473,-0.0031802324,0.7480935,-0.66357595,-96.571,-1337.601,8.341001,0,0,-2.25281
107.84167,-1637.97,1814.7,93.479996,-0.3142777,0.8101096,-0.021366173,-0.49446464,38.641,604.74097,24.210999,-5.89461,0.37661,1.05391,1,-1,0,0,0,false,false,false,512.44,1668.6499,17.01,0.0023925921,0.0041297167,-0.5036089,0.86391854,623.97095,-628.261,8.411,0.00030999997,-0.00061,-3.16311,1,-0.984375,0,0,0,false,false,false,-1426.63,3960.52,17.01,-0.003611816,-0.0031478636,0.75428903,-0.6565249,-121.601,-1334.6709,8.341001,0,0,-2.25371
107.85,-1637.65,1819.74,93.64,-0.30562443,0.80717754,-0.04293465,-0.50320417,38.630997,604.58093,18.780998,-5.89461,0.37661,1.05391,1,-1,0,0,0,false,false,false,517.64,1663.4099,17.01,0.0024519349,0.0040973476,-0.51494867,0.8572076,592.48096,-647.371,8.411,0.00021,-0.00061,-3.14671,1,-0.984375,0,0,0,false,false,false,-1427.64,3949.4,17.01,-0.00363879,-0.0031154947,0.7604194,-0.64941454,-146.381,-1331.351,8.341001,0,0,-2.24951
107.85833,-1637.33,1824.7799,93.75,-0.29678234,0.8037392,-0.064476155,-0.5116309,38.621,604.42096,13.351,-5.89461,0.37661,1.05391,1,-1,0,0,0,false,false,false,522.58,1658.02,17.01,0.0025058826,0.0040649786,-0.52614295,0.8503826,561.141,-665.49097,8.401,0.00010999999,-0.00061,-3.12861,1,-0.890625,0,0,0,false,false,false,-1428.86,3938.3098,17.01,-0.0036657634,-0.0030831257,0.7664709,-0.64226097,-171.131,-1327.5609,8.341001,0,0,-2.24651
107.86667,-1637.01,1829.82,93.82,-0.2877568,0.799797,-0.08597451,-0.51973933,38.611,604.261,7.9309998,-5.89461,0.37661,1.05391,1,-1,0,0,0,false,false,false,527.26,1652.47,17.01,0.0025598307,0.00403261,-0.5371807,0.8434535,530.011,-682.631,8.401,0.00010999999,-0.00061,-3.10881,1,-0.84375,0,0,0,false,false,false,-1430.2899,3927.25,17.01,-0.003692738,-0.003050757,0.7724487,-0.63505894,-194.761,-1323.781,8.341001,-0.00010999999,-0.00030999997,-2.21341
107.875,-1636.69,1834.85,93.84,-0.27854788,0.7953556,-0.10741891,-0.5275241,38.600998,604.10095,2.511,-5.89461,0.37661,1.05391,1,-1,0,0,0,false,false,false,531.68,1646.7799,17.01,0.0026137787,0.0039948463,-0.54806215,0.8364239,499.151,-698.821,8.401,0,-0.00061,-3.0875099,1,-0.796875,0,0,0,false,false,false,-1431.9099,3916.22,17.01,-0.003719712,-0.0030129936,0.77827483,-0.6279054,-217.97101,-1319.731,8.341001,-0.00021,-0.00061,-2.17181
107.88333,-1636.37,1839.88,93.82,-0.26916626,0.7904194,-0.12879856,-0.5349743,38.591,603.941,-2.9009998,-5.89461,0.37661,1.05391,1,-1,0,0,0,false,false,false,535.83997,1640.96,17.01,0.0026677267,0.003957083,-0.5587762,0.82930464,468.591,-714.071,8.401,0,-0.00061,-3.06471,1,-0.75,0,0,0,false,false,false,-1433.73,3905.22,17.01,-0.0037466863,-0.0029752303,0.78392404,-0.6208382,-240.72101,-1315.4509,8.341001,-0.00021,-0.00091,-2.12181
107.89167,-1636.0499,1844.9099,93.75,-0.25961742,0.78498906,-0.1500973,-0.54209006,38.580997,603.78094,-8.311,-5.89461,0.37661,1.05391,1,-1,0,0,0,false,false,false,539.74,1635.01,17.01,0.0027216745,0.0039193192,-0.5693177,0.8221037,438.381,-728.42096,8.391,0,-0.00051,-3.04051,1,-0.703125,0,0,0,false,true,false,-1435.74,3894.26,17.01,-0.00377366,-0.0029374664,0.78938144,-0.61388427,-262.981,-1310.9609,8.341001,-0.00021,-0.00111,-2.0645099
107.9,-1635.73,1849.94,93.64,-0.24990681,0.7790657,-0.17129894,-0.54887134,38.571,603.621,-13.721,-5.89461,0.37661,1.05391,1,-1,0,0,0,false,false,false,543.39,1628.94,17.01,0.002770228,0.003881556,-0.5796866,0.81482553,408.561,-741.8909,8.391,0,-0.00051,-3.0150099,1,-0.65625,0,0,0,false,true,false,-1437.95,3883.27,17.01,-0.0038006338,-0.0028997029,0.79463345,-0.6070706,-286.731,-1314.241,8.281,-0.00021,-0.00131,-1.99981
107.90833,-1635.4099,1854.97,93.479996,-0.24003969,0.7726562,-0.19239803,-0.5553073,38.560997,603.46094,-19.130999,-5.89461,0.37661,1.05391,1,-1,0,0,0,false,false,false,546.79,1622.76,17.01,0.002818781,0.0038437922,-0.58987737,0.80747867,379.161,-754.511,8.391,0,-0.00051,-2.98841,1,-0.609375,0,0,0,false,true,false,-1440.36,3872.25,17.01,-0.003827608,-0.0028619394,0.79966325,-0.6004296,-310.081,-1317.271,8.251,-0.00021,-0.0014099999,-1.9290099
107.916664,-1635.09,1860,93.28,-0.23002148,0.7657637,-0.21337305,-0.561398,38.551,603.30096,-24.540998,-5.89461,0.37661,1.05391,1,-1,0,0,0,false,false,false,549.95,1616.47,17.01,0.002867334,0.0038060287,-0.5998847,0.8000722,350.201,-766.321,8.391,0,-0.00040999998,-2.96081,1,-0.5703125,0,0,0,false,true,false,-1442.96,3861.21,17.01,-0.003854582,-0.0028241759,0.80446345,-0.5939829,-332.991,-1320.0709,8.231,-0.00021,-0.00151,-1.8529099
107.925,-1634.77,1865.0299,93.03,-0.21985766,0.7583919,-0.23421866,-0.5671382,38.541,603.141,-29.950998,-5.89461,0.37661,1.05391,1,-1,0,0,0,false,false,false,552.87,1610.08,17.01,0.0029158874,0.0037682652,-0.60970867,0.7926112,321.711,-777.35095,8.3810005,0,-0.00040999998,-2.93241,1,-0.5234375,0,0,0,false,true,false,-1445.76,3850.14,17.01,-0.0038815557,-0.002791807,0.8090271,-0.58775175,-355.521,-1322.641,8.211,-0.00021,-0.00151,-1.77481
107.933334,-1634.46,1869.8999,93.18,-0.2083721,0.74993175,-0.25648305,-0.5730617,37.341,584.381,17.960999,-5.90861,0.37751,0.97231,1,-1,0,0,0,false,false,false,555.55,1603.6,17.01,0.0029644405,0.0037305015,-0.61934924,0.78510106,293.701,-787.6409,8.3810005,0,-0.00040999998,-2.90321,1,-0.4765625,0,0,0,false,true,false,-1448.74,3839.0498,17.01,-0.0039085294,-0.0027594382,0.8133515,-0.5817528,-377.531,-1325.0609,8.201,-0.00021,-0.00151,-1.69231
107.941666,-1634.15,1874.7699,93.28,-0.1976418,0.74163604,-0.27685928,-0.5781544,37.330997,584.23096,12.531,-5.90861,0.37751,0.97231,1,-1,0,0,0,false,false,false,558,1597.0399,17.01,0.0030129938,0.0036927382,-0.628801,0.77755165,266.181,-797.22095,8.3810005,0,-0.00030999997,-2.87351,1,-0.4375,0,0,0,false,true,false,-1451.9099,3827.94,17.01,-0.003930109,-0.0027270697,0.8174343,-0.57600194,-398.991,-1327.361,8.191,-0.00030999997,-0.00151,-1.60631
107.95,-1633.84,1879.64,93.34,-0.18678744,0.73287666,-0.29706287,-0.5828857,37.321,584.081,7.1109996,-5.90861,0.37751,0.97231,1,-1,0,0,0,false,false,false,560.22,1590.4,17.01,0.003056152,0.0036549745,-0.63806385,0.7699686,239.151,-806.131,8.371,0,-0.00030999997,-2.8433099,1,-0.3984375,0,0,0,false,true,false,-1455.26,3816.8098,17.01,-0.003951688,-0.0026947006,0.8212729,-0.57051533,-419.951,-1329.5509,8.181,-0.00030999997,-0.00151,-1.51981
107.958336,-1633.5299,1884.51,93.35,-0.17581438,0.7236631,-0.31707767,-0.58725005,37.310997,583.93097,1.691,-5.90861,0.37751,0.97231,1,-1,0,0,0,false,false,false,562.20996,1583.6799,17.01,0.0030993104,0.0036172108,-0.64714336,0.76235336,212.621,-814.40094,8.371,0,-0.00030999997,-2.81281,1,-0.359375,0,0,0,false,true,false,-1458.7799,3805.67,17.01,-0.0039732675,-0.002662332,0.82486874,-0.565304,-440.35098,-1331.6609,8.1710005,-0.00030999997,-0.00151,-1.43281
107.96667,-1633.22,1889.37,93.32,-0.16473342,0.71399736,-0.33689278,-0.5912476,37.301,583.78094,-3.721,-5.90861,0.37751,0.97231,1,-1,0,0,0,false,false,false,563.98,1576.89,17.01,0.0031424689,0.0035794475,-0.656034,0.7547163,186.901,-821.97095,8.371,0,-0.00021,-2.78461,1,-0.3203125,0,0,0,false,true,false,-1462.47,3794.51,17.01,-0.0039948463,-0.002635358,0.82823,-0.5603677,-459.761,-1332.8109,8.1710005,-0.00021,-0.00151,-1.34481
107.975,-1632.9099,1894.23,93.24,-0.15354997,0.7038832,-0.35649756,-0.5948783,37.291,583.631,-9.1310005,-5.90861,0.37751,0.97231,1,-1,0,0,0,false,false,false,565.54,1570.0399,17.01,0.0031856268,0.0035416833,-0.6647465,0.7470536,161.91101,-828.90094,8.371,0,-0.00010999999,-2.7585099,1,-0.28125,0,0,0,false,true,false,-1466.33,3783.3398,17.01,-0.004016426,-0.002608384,0.8313574,-0.5557174,-478.461,-1333.8109,8.1710005,-0.00021,-0.0014099999,-1.25661
107.98333,-1632.6,1899.09,93.119995,-0.1422694,0.6933289,-0.37588117,-0.5981368,37.281,583.48096,-14.541,-5.90861,0.37751,0.97231,1,-1,0,0,0,false,false,false,566.89,1563.13,17.01,0.0032287855,0.00350392,-0.6732866,0.7393661,137.58101,-835.23096,8.371,0,0,-2.73431,1,-0.28125,0,0,0,false,true,false,-1470.34,3772.16,17.01,-0.00403261,-0.0025814099,0.8342547,-0.55135834,-496.511,-1334.9309,8.1710005,-0.00021,-0.00131,-1.16851
107.99167,-1632.2899,1903.87,93.189995,-0.13023897,0.6818464,-0.39580423,-0.6012172,36.631,573.311,8.721001,-5.91531,0.37791002,0.93021,1,-1,0,0,0,false,false,false,568.04,1556.1699,17.01,0.003266549,0.0034661565,-0.68166476,0.73164904,113.851,-840.99097,8.361,0,0,-2.71201,1,-0.203125,0,0,0,false,true,false,-1474.5,3760.97,17.01,-0.0040487945,-0.0025598307,0.8369288,-0.5472907,-514.28094,-1336.001,8.1710005,-0.00010999999,-0.00111,-1.09311
108,-1631.98,1908.6499,93.22,-0.11864552,0.6704261,-0.41461056,-0.6037798,36.621,573.16095,3.3009999,-5.91531,0.37791002,0.93021,1,-1,0,0,0,false,false,false,568.99,1549.1599,17.01,0.0033043122,0.0034283926,-0.6898864,0.7239018,90.651,-846.22095,8.361,0,0,-2.69141,1,-0.171875,0,0,0,false,true,false,-1478.8099,3749.77,17.01,-0.0040649786,-0.0025382515,0.8394141,-0.5434711,-530.881,-1337.511,8.1710005,-0.00010999999,-0.0010099999,-1.00281
108.00833,-1631.6699,1913.4299,93.2,-0.106981926,0.65858614,-0.43315792,-0.60596466,36.611,573.011,-2.1109998,-5.91531,0.37791002,0.93021,1,-1,0,0,0,false,false,false,569.75,1542.11,17.01,0.0033420762,0.0033906293,-0.69796246,0.7161184,67.921,-850.941,8.361,0,0,-2.67241,1,-0.140625,0,0,0,false,true,false,-1483.26,3738.5598,17.01,-0.004081163,-0.0025166722,0.84167755,-0.5399591,-546.871,-1339.1809,8.161,-0.00010999999,-0.00091,-0.91600996
108.01667,-1631.36,1918.2,93.14,-0.0952482,0.6463334,-0.45143557,-0.60777193,36.600998,572.86096,-7.521,-5.91531,0.37791002,0.93021,1,-1,0,0,0,false,false,false,570.32,1535.02,17.01,0.0033798397,0.0033528658,-0.70589286,0.7083025,45.611,-855.17096,8.361,0,0,-2.65501,1,-0.109375,0,0,0,false,true,false,-1487.85,3727.3398,17.01,-0.0040919525,-0.002500488,0.8437316,-0.53674376,-562.191,-1341.0709,8.161,-0.00010999999,-0.00071,-0.83171
108.025,-1631.0599,1922.9199,93.18,-0.08305053,0.6333284,-0.46986425,-0.6092825,36.201,566.621,4.5109997,-5.91921,0.37811,0.90521,1,-1,0,0,0,false,false,false,570.7,1527.89,17.01,-0.0034176034,-0.0033151023,0.713686,-0.70044947,23.671,-858.93097,8.361,0,0,-2.63901,1,-0.078125,0,0,0,false,true,false,-1492.5599,3716.0999,17.01,-0.0041027423,-0.0024843037,0.84558797,-0.5338144,-576.811,-1343.2109,8.161,0,-0.00051,-0.74961
108.03333,-1630.76,1927.64,93.17,-0.07112794,0.62026733,-0.48750532,-0.6103668,36.190998,566.47095,-0.90099996,-5.91921,0.37811,0.90521,1,-1,0,0,0,false,false,false,570.89996,1520.73,17.01,-0.003455367,-0.0032773386,0.7213474,-0.6925569,2.0609999,-862.24097,8.361,0,0,-2.62431,1,0.88188976,0,0,0,false,false,false,-1497.4,3704.8398,17.01,-0.0041135317,-0.0024681191,0.84725106,-0.5311709,-590.72095,-1345.631,8.161,0,-0.00030999997,-0.66941
108.041664,-1630.46,1932.36,93.119995,0.059162285,-0.60682243,0.5048388,0.6110679,36.181,566.321,-6.311,-5.91921,0.37811,0.90521,1,-1,0,0,0,false,false,false,570.92,1513.5399,17.01,-0.0034931304,-0.003239575,0.7288783,-0.6846265,-19.251,-865.10095,8.361,0,0.00010999999,-2.61081,1,0.9055118,0,0,0,false,false,false,-1502.32,3693.63,17.01,-0.004118927,-0.0024573295,0.8487278,-0.528808,-590.42096,-1344.891,8.221001,-0.0012099999,-0.00261,-0.29551
108.05,-1630.1599,1937.0299,93.15,0.046797328,-0.5926503,0.52222097,0.6114415,35.821,560.751,3.781,-5.9225097,0.37831,0.88351,1,-1,0,0,0,false,false,false,570.76,1506.33,17.01,-0.0035254995,-0.0032018118,0.73628163,-0.6766584,-40.301,-867.53094,8.361,0,0.00021,-2.59841,1,0.9212598,0,0,0,false,false,false,-1507.24,3682.42,17.01,-0.004129716,-0.0024411452,0.84937906,-0.5277614,-590.79095,-1343.971,8.261001,-0.0017099999,-0.00351,0.02011
108.058334,-1629.86,1941.7,93.15,0.03466443,-0.57840794,0.53889626,0.611419,35.771,560.03094,0,-5.92281,0.37831,0.88120997,1,-1,0,0,0,false,false,false,570.42,1499.1,17.01,-0.003557868,-0.0031640478,0.7435646,-0.66864705,-61.130997,-869.53094,8.361,0,0.00021,-2.58701,1,0.9212598,0,0,0,false,false,false,-1512.1599,3671.22,17.01,-0.004140506,-0.0024303556,0.8493354,-0.52783155,-590.93097,-1343.241,8.281,-0.0018099999,-0.00361,0.29331002
108.066666,-1629.5599,1946.35,93.15,0.022412764,-0.5637125,0.55531275,0.6110266,35.641,557.99097,0,-5.9239097,0.37831,0.87371,1,-1,0,0,0,false,false,false,569.91,1491.85,17.01,-0.003590237,-0.0031262843,0.7507294,-0.6605926,-81.751,-871.10095,8.361,0,0.00021,-2.5766098,1,0.92913383,0,0,0,false,false,false,-1517.08,3660.03,17.01,-0.0041459007,-0.002419566,0.8486908,-0.52886736,-590.571,-1342.8309,8.301001,-0.0017099999,-0.00321,0.52551
108.075,-1629.26,1950.98,93.15,0.01012873,-0.54865557,0.57135695,0.61026675,35.510998,555.951,0,-5.9250097,0.37841,0.86621,1,-1,0,0,0,false,false,false,569.23,1484.59,17.01,-0.0036226057,-0.0030885208,0.757778,-0.65249497,-102.201,-872.261,8.361,0,0.00021,-2.56701,1,0.92913383,0,0,0,false,false,false,-1522,3648.8398,17.01,-0.0041459007,-0.0024141711,0.84753156,-0.53072315,-589.261,-1342.9109,8.311,-0.0014099999,-0.00261,0.72551
108.083336,-1628.97,1955.6,93.15,-0.002182195,-0.53324795,0.5870235,0.6091347,35.381,553.91095,0,-5.92611,0.37841,0.85881,1,-1,0,0,0,false,false,false,568.38,1477.32,17.01,-0.0036549747,-0.0030507573,0.76471233,-0.6443542,-122.480995,-873.001,8.361,0,0.00021,-2.55811,1,0.92913383,0,0,0,false,false,false,-1526.9099,3637.65,17.01,-0.0041459007,-0.0024141711,0.8459249,-0.5332803,-586.85095,-1343.521,8.311,-0.0010099999,-0.0018099999,0.89551
108.09167,-1628.6799,1960.2,93.15,-0.014509346,-0.5174951,0.6023016,0.6076355,35.240997,551.871,0,-5.9271097,0.37851,0.85151,1,-1,0,0,0,false,false,false,567.36,1470.0499,17.01,-0.003687343,-0.0030129936,0.7715383,-0.6361649,-142.621,-873.33093,8.361,0,0.00021,-2.5499098,1,0.9212598,0,0,0,false,false,false,-1531.7999,3626.45,17.01,-0.004140506,-0.002419566,0.84393054,-0.53643084,-583.191,-1344.7009,8.321,-0.00061,-0.0010099999,1.03991
108.1,-1628.39,1964.7799,93.15,-0.026847288,-0.50141317,0.6171811,0.60576504,35.111,549.831,0,-5.92821,0.37851,0.84420997,1,-1,0,0,0,false,false,false,566.17,1462.77,17.01,-0.003719712,-0.00297523,0.7782532,-0.62793237,-162.631,-873.24097,8.361,0,0.00021,-2.54231,1,0.9055118,0,0,0,false,false,false,-1536.6599,3615.24,17.01,-0.0041297157,-0.00243575,0.8415978,-0.5400831,-578.28094,-1346.4209,8.321,-0.00021,-0.00030999997,1.15991
108.10833,-1628.1,1969.34,93.15,-0.03918527,-0.48500752,0.63165,0.6035316,34.981,547.79095,0,-5.9292097,0.37861001,0.83700997,1,-1,0,0,0,false,false,false,564.81,1455.49,17.01,-0.0037520807,-0.0029374664,0.78486264,-0.6196513,-182.521,-872.74097,8.351,0,0.00021,-2.53531,1,0.8897638,0,0,0,false,false,false,-1541.48,3604.02,17.01,-0.004118927,-0.0024519349,0.8389771,-0.54414546,-572.15094,-1348.631,8.321,0.00010999999,0.00030999997,1.2567099
108.11667,-1627.8099,1973.89,93.15,-0.051517818,-0.46828896,0.6457033,0.6009313,34.850998,545.761,0,-5.9302096,0.37861001,0.82991,1,-1,0,0,0,false,false,false,563.29,1448.22,17.01,-0.0037844495,-0.0028997029,0.79136354,-0.6113271,-202.30101,-871.83093,8.351,0,0.00021,-2.52871,1,0.8897638,0,0,0,false,false,false,-1546.25,3592.78,17.01,-0.004102742,-0.0024735138,0.836116,-0.5485314,-564.831,-1351.2909,8.321,0.00040999998,0.00091,1.33451
