time,ball_loc_x,ball_loc_y,ball_loc_z,ball_rot_x,ball_rot_y,ball_rot_z,ball_rot_w,ball_vel_x,ball_vel_y,ball_vel_z,ball_ang_x,ball_ang_y,ball_ang_z,player0_throttle,player0_steer,player0_pitch,player0_yaw,player0_roll,player0_jump,player0_boost,player0_handbrake,player0_loc_x,player0_loc_y,player0_loc_z,player0_rot_x,player0_rot_y,player0_rot_z,player0_rot_w,player0_vel_x,player0_vel_y,player0_vel_z,player0_ang_x,player0_ang_y,player0_ang_z,player1_throttle,player1_steer,player1_pitch,player1_yaw,player1_roll,player1_jump,player1_boost,player1_handbrake,player1_loc_x,player1_loc_y,player1_loc_z,player1_rot_x,player1_rot_y,player1_rot_z,player1_rot_w,player1_vel_x,player1_vel_y,player1_vel_z,player1_ang_x,player1_ang_y,player1_ang_z
29.408333,2907.5999,-618.74,954.89996,-0.12525414,0.076959714,0.7511765,0.6435234,-550.451,-838.60095,-211.981,3.98991,3.28471,3.04811,0,0,0,0,0,false,false,false,590.24,-1005.42,70.61,-0.2273565,-0.108298264,-0.5866297,0.7697052,236.431,-2213.1409,-226.431,2.05601,0.24320999,-0.36881,1,-0.0078125,0.03937008,-0.0234375,0,true,false,false,3160.0999,1704.97,32.71,-0.0038114234,-0.002867334,0.8024207,-0.59673953,-406.271,-1353.8309,324.091,0.00030999997,-0.00051,-0.00881
29.425,2898.43,-632.70996,951.23,-0.085111335,0.06632657,0.7725612,0.6257043,-550.17096,-838.16095,-222.701,3.98991,3.28471,3.04811,0,0,0,0,0,false,false,false,594.18,-1042.2999,66.7,-0.21610828,-0.09638651,-0.5901741,0.77181685,236.431,-2213.1409,-237.251,1.95651,0.23761,-0.35421002,1,-0.0703125,0.031496063,-0.0390625,0,false,false,false,3153.3198,1682.39,38.28,-0.00377366,-0.0028349652,0.8024731,-0.59666944,-406.651,-1355.111,337.551,-0.00741,0.0018099999,-0.01201
29.441668,2889.27,-646.67,947.38,-0.0447527,0.055526193,0.79201585,0.6063207,-549.891,-837.72095,-233.411,3.98991,3.28471,3.04811,0,0,0,0,0,false,false,false,598.12,-1079.1799,62.609997,-0.205378,-0.08498725,-0.5934002,0.7736104,236.431,-2213.1409,-248.071,1.86191,0.23180999,-0.33991,1,-0.0703125,0.03937008,-0.0390625,0,false,false,false,3146.54,1659.7899,43.77,-0.003698133,-0.002770228,0.802554,-0.59656155,-406.971,-1356.1709,326.691,-0.01311,0.00361,-0.01741
29.458334,2880.1099,-660.63,943.36,-0.0042861653,0.04458546,0.8094871,0.58542657,-549.61096,-837.28094,-244.11101,3.98991,3.28471,3.04811,0,0,0,0,0,false,false,false,602.06,-1116.0599,58.34,-0.19514403,-0.07407354,-0.5963403,0.77511936,236.431,-2213.1409,-258.891,1.77201,0.22601,-0.32591,1,-0.0625,0.03937008,-0.0390625,0,false,false,false,3139.76,1637.1699,49.079998,-0.0035686577,-0.0026731214,0.8026591,-0.59642124,-407.291,-1357.231,315.831,-0.02021,0.00581,-0.02271
29.475,2870.95,-674.57996,939.16,0.036196552,0.03353692,0.824938,0.56306505,-549.331,-836.84094,-254.811,3.98991,3.28471,3.04811,0,0,0,0,0,false,false,false,606,-1152.94,53.89,-0.18539019,-0.06363457,-0.59900534,0.77638495,236.431,-2213.1409,-269.711,1.68651,0.22020999,-0.31221,1,-0.0546875,0.047244094,-0.046875,0,false,false,false,3132.96,1614.5399,54.21,-0.0033960238,-0.0025382512,0.80279255,-0.59624314,-407.611,-1358.2909,304.971,-0.02691,0.00781,-0.02781
29.491667,2861.79,-688.51996,934.77997,0.076587476,0.022401975,0.8383273,0.5392955,-549.05096,-836.40094,-265.511,3.98991,3.28471,3.04811,0,0,0,0,0,false,false,false,609.94,-1189.82,49.26,-0.1760949,-0.053648762,-0.6014276,0.77742976,236.431,-2213.1409,-280.531,1.6051099,0.21420999,-0.29891,1,-0.046875,0.05511811,-0.0546875,0,false,false,false,3126.16,1591.89,59.16,-0.003169443,-0.0023656182,0.80295426,-0.5960275,-407.931,-1359.351,294.111,-0.03481,0.010209999,-0.03391
29.508333,2852.65,-702.45996,930.22,0.11678426,0.011213167,0.84961855,0.51418257,-548.77094,-835.96094,-276.201,3.98991,3.28471,3.04811,0,0,0,0,0,false,false,false,613.88,-1226.7,44.45,-0.16723661,-0.04411072,-0.60362875,0.77827907,241.881,-2210.781,-291.491,1.55241,0.14491,-0.36771,1,-0.0390625,-0.9921875,-0.0078125,0,true,false,false,3119.3599,1569.22,63.93,-0.0028835186,-0.0021498261,0.8031481,-0.59576845,-408.251,-1360.4109,283.261,-0.043909997,0.013009999,-0.041009996
29.525,2843.51,-716.38,925.48,0.15668973,-0.0000026973978,0.85878885,0.4877804,-548.49097,-835.52094,-286.881,3.98991,3.28471,3.04811,0,0,0,0,0,false,false,false,617.95996,-1263.52,39.41,-0.15732093,-0.034977287,-0.606666,0.77844906,252.521,-2206.1409,-298.411,1.84841,-0.20391,-0.49621,1,-0.03125,0.07086614,-0.0625,0,false,false,false,3110.14,1538.5599,68.52,-0.021301437,-0.015550543,0.8030791,-0.59528834,-553.71094,-1839.9209,272.411,3.4783099,-1.08941,-0.041109998
29.541666,2834.3699,-730.3,920.56,0.1962014,-0.011218521,0.8658162,0.4601536,-548.21094,-835.08093,-297.561,3.98991,3.28471,3.04811,0,0,0,0,0,false,false,false,622.20996,-1300.27,34.309998,-0.14293297,-0.02649123,-0.61096025,0.7782003,262.29102,-2201.711,-296.171,2.4072099,-0.78371,-0.58611,1,0.007874016,1,0.047244094,0.023622047,false,false,false,3100.9,1507.88,72.92,-0.06363457,-0.046365745,0.80109936,-0.59333,-554.03094,-1840.971,261.491,5.2484097,-1.6439099,-0.038009997
29.558332,2825.23,-744.22,915.47,0.23522213,-0.02240737,0.87067616,0.43138307,-547.93097,-834.6409,-308.241,3.98991,3.28471,3.04811,1,0,1,0.015748031,-0.203125,false,false,false,626.62,-1336.95,29.26,-0.121429235,-0.01884141,-0.61640906,0.7777786,274.111,-2195.751,-283.621,3.1744099,-1.20321,-0.77090997,1,0.007874016,1,0.047244094,0.047244094,false,false,false,3091.66,1477.1799,77.14,-0.10583824,-0.077105425,0.7968126,-0.58986664,-554.34094,-1842.001,250.441,5.12121,-1.60911,-0.02291
29.575,2816.1099,-758.12,910.19995,0.2736547,-0.033542268,0.8733605,0.40153345,-547.65094,-834.2009,-318.901,3.98991,3.28471,3.04811,1,0,1,0.16535433,0.031496063,false,false,false,631.25,-1373.53,24.47,-0.092982344,-0.008272962,-0.62337375,0.77633166,290.191,-2192.311,-240.97101,4.18611,-1.86641,-0.90641,1,0.007874016,0,0,0,false,false,false,3082.42,1446.47,81.17,-0.14033268,-0.102158934,0.7916142,-0.5858474,-554.641,-1843.011,239.291,4.87751,-1.5361099,-0.01571
29.591667,2806.99,-772.01996,904.75,0.3114077,-0.044590857,0.8738608,0.37068057,-547.371,-833.761,-329.561,3.98991,3.28471,3.04811,-1,1,0,0,0,false,false,false,636.14996,-1410.0599,20.51,-0.05430153,0.0014053443,-0.6305704,0.77422875,308.301,-2188.571,-181.501,3.7355099,-2.06231,-0.81161,1,0.007874016,0,0,0,false,false,false,3073.18,1415.74,85.02,-0.18684678,-0.13594666,0.78212935,-0.57868844,-554.93097,-1843.991,228.041,5.24601,-1.65201,-0.009709999
29.608334,2797.8699,-785.91,899.12,0.34838378,-0.055531546,0.8721765,0.33889964,-547.09094,-833.321,-340.221,3.98991,3.28471,3.04811,-1,1,0,0,0,false,false,false,641.39,-1446.26,17.619999,-0.022062102,0.00708067,-0.63527477,0.77193844,331.781,-2122.541,-117.961,2.47011,-1.5929099,-0.20961,1,0.015748031,0,0,0,false,false,false,3063.92,1385,88.68,-0.23393275,-0.1701606,0.76955605,-0.5693016,-555.21094,-1844.9209,216.671,5.24581,-1.65241,-0.00591
29.625,2788.75,-799.79,893.32,0.38448584,-0.06632657,0.8683138,0.30627185,-546.811,-832.881,-350.871,3.98991,3.28471,3.04811,-1,1,0,0,0,false,false,false,646.99,-1481.37,15.86,-0.00006743495,0.006638297,-0.63576025,0.7718579,352.031,-2057.3909,-26.390999,0.50431,-0.97481,0.31131,1,0.023622047,0,0,0,false,false,false,3054.66,1354.24,92.15,-0.2801663,-0.2037595,0.7541724,-0.5578645,-555.46094,-1845.7809,205.181,5.24571,-1.65291,-0.00381
29.641666,2779.64,-813.67,887.33997,0.41962773,-0.07695976,0.8622803,0.27287787,-546.53094,-832.441,-361.511,3.98991,3.28471,3.04811,-1,1,0,0,0,false,false,false,652.94,-1515.38,15.509999,0.005780524,0.0036549745,-0.63304126,0.7740877,372.971,-1992.0309,13.821,-0.00351,-0.19030999,0.70340997,1,0.03937008,0,0,0,false,false,false,3045.4,1323.47,95.42,-0.32538027,-0.23661934,0.7360373,-0.5444152,-555.691,-1846.5609,193.591,5.2456098,-1.65331,-0.00281
29.658333,2770.54,-827.54,881.18,0.45371762,-0.08739873,0.8540926,0.23880428,-546.251,-832.001,-372.151,3.98991,3.28471,3.04811,-1,1,0,0,0,false,false,false,659.24,-1548.3099,15.66,0.0062444764,0.0028565445,-0.6279971,0.7781853,391.951,-1926.841,21.950998,-0.035509996,0.00151,0.98241,1,0.07086614,0,0,0,false,false,false,3036.14,1292.69,98.5,-0.36941275,-0.26861596,0.7152215,-0.52899677,-555.891,-1847.251,181.911,5.24551,-1.65361,-0.0023100001
29.675,2761.44,-841.39996,874.83997,0.48667455,-0.09762192,0.84377015,0.20413177,-545.97095,-831.561,-382.791,3.98991,3.28471,3.04811,-1,1,0,0,0,false,false,false,665.85,-1580.15,15.9,0.0059261834,0.0027972017,-0.621259,0.7835778,409.961,-1861.4109,22.620998,-0.03651,0.03571,1.17961,1,0.15748031,0,0,0,false,false,false,3026.88,1261.89,100,-0.41210738,-0.2996362,0.6918032,-0.5116579,-556.061,-1847.841,67.151,5.24541,-1.65381,-0.00201
29.691668,2752.3398,-855.26,868.32996,0.51841754,-0.10760233,0.83133733,0.1689468,-545.691,-831.131,-393.421,3.98991,3.28471,3.04811,-1,1,0,0,0,false,false,false,672.76,-1610.9,16.14,0.0054568364,0.0029266768,-0.61328006,0.7898412,428.021,-1795.3109,21.241,-0.033609997,0.046409998,1.31891,1,0.39370078,0,0,0,false,false,false,3017.6199,1231.09,100.47,-0.45330217,-0.32956126,0.6658727,-0.49246314,-556.191,-1848.3109,18.610998,5.24541,-1.6540099,-0.0019099999
29.708334,2743.25,-869.1,861.63995,0.548866,-0.11730761,0.8168262,0.13334098,-545.41095,-830.71094,-404.041,3.98991,3.28471,3.04811,-1,1,0,0,0,false,false,false,679.97,-1640.5399,16.35,0.0049713044,0.0031262843,-0.6043894,0.7966673,446.311,-1728.341,19.081,-0.02931,0.045609996,1.41671,1,1,0,0,0,false,false,false,3008.3398,1200.28,100.5,-0.49285156,-0.35829404,0.63752,-0.47147727,-556.28094,-1848.6609,-1.931,5.24531,-1.6540099,-0.0018099999
29.725,2734.17,-882.94,854.76996,0.57793856,-0.1267269,0.8002744,0.097406074,-545.131,-830.29095,-414.661,3.98991,3.28471,3.04811,-1,1,0,0,0,false,false,false,687.49,-1669.0599,16.52,0.004523536,0.0033366815,-0.5948244,0.8038359,464.551,-1660.4509,16.851,-0.02481,0.040009998,1.48401,1,1,0,0,0,false,false,false,2999.0598,1169.46,100.35,-0.5306045,-0.3857267,0.6068517,-0.44878128,-556.331,-1848.891,-10.641,5.24531,-1.6540099,-0.0018099999
29.741667,2725.0898,-896.77997,847.73,0.6055654,-0.13582797,0.7817242,0.061223097,-544.85095,-829.871,-425.281,3.98991,3.28471,3.04811,-1,1,0,0,0,false,false,false,695.31,-1696.45,16.65,0.004129716,0.0035362889,-0.58474684,0.8111975,482.57098,-1591.5309,14.871,-0.02051,0.03281,1.53791,1,1,0,0,0,false,false,false,2989.78,1138.64,100.119995,-0.56643146,-0.41175672,0.5739802,-0.42445067,-556.34094,-1849.001,-14.341001,5.24531,-1.6540099,-0.0018099999
29.758333,2716.01,-910.6,840.51,0.6316818,-0.14458917,0.7612177,0.024888976,-544.571,-829.4509,-435.881,3.98991,3.28471,3.04811,-1,1,0,0,0,false,false,false,703.42,-1722.6799,16.76,0.0038006338,0.0037035276,-0.57422155,0.8186827,499.88098,-1521.6709,13.211,-0.01681,0.02581,1.58321,1,1,0,0,0,false,false,false,2980.5,1107.82,99.86,0.600202,0.436287,-0.5390205,0.39858258,-556.311,-1848.991,-15.911,5.24531,-1.6540099,-0.0018099999
29.775,2706.93,-924.42,833.11,0.65621746,-0.15298893,0.7388102,-0.01150984,-544.29095,-829.03094,-446.481,3.98991,3.28471,3.04811,-1,1,0,0,0,false,false,false,711.82,-1747.75,16.84,0.0035254995,0.0038437925,-0.56330794,0.8262305,515.92096,-1451.0409,11.871,-0.013509999,0.01971,1.61991,1,1,0,0,0,false,false,false,2971.22,1077,99.579994,0.6317932,0.4592365,-0.50209826,0.3712632,-556.24097,-1848.841,-16.560999,5.24531,-1.6540099,-0.0018099999
29.791666,2697.8699,-938.23,825.54,0.67911303,-0.16100562,0.71455604,-0.047876287,-544.011,-828.61096,-457.081,3.98991,3.28471,3.04811,0,1,0,0,0,false,false,false,720.48,-1771.64,16.9,0.003298918,0.0039570834,-0.55205435,0.83379215,530.191,-1379.841,10.821,-0.010809999,0.01481,1.64801,1,1,0,0,0,false,false,false,2961.95,1046.19,99.299995,0.6610818,0.4805191,-0.46335813,0.3425952,-556.141,-1848.5709,-16.810999,5.24531,-1.6540099,-0.0018099999
29.808332,2688.81,-952.02997,817.79,0.7003118,-0.16861768,0.68851614,-0.08412409,-543.73096,-828.191,-467.681,3.98991,3.28471,3.04811,0,1,0,0,0,false,false,false,729.47,-1794.52,16.94,0.0031101,0.0040433994,-0.5403637,0.841416,565.21094,-1352.151,10.031,-0.010609999,0.0094099995,1.7459099,1,1,0,0,0,false,false,false,2952.69,1015.38995,99.02,0.6879702,0.50005364,-0.42293474,0.31268087,-556.011,-1848.1809,-16.880999,5.24531,-1.6540099,-0.0018099999
29.825,2679.75,-965.82996,809.86,0.71975964,-0.17581438,0.66075444,-0.12016146,-543.451,-827.77094,-478.261,3.98991,3.28471,3.04811,0,1,0,0,0,false,false,false,739.02997,-1816.94,16.97,0.002942861,0.004102742,-0.5279232,0.8492769,599.311,-1323.521,9.431,-0.00921,0.00631,1.8213099,1,1,0,0,0,false,false,false,2943.43,984.58997,98.74,0.71236104,0.5177701,-0.38097382,0.2816283,-555.84094,-1847.6709,-16.870998,5.24531,-1.6540099,-0.0018099999
29.841667,2670.69,-979.62,801.76,0.7374137,-0.18256871,0.6313365,-0.15589671,-543.17096,-827.35095,-488.841,3.98991,3.28471,3.04811,1,1,0,0,0,false,false,false,749.14996,-1838.88,16.99,0.0027918073,0.004151296,-0.5148624,0.8572582,632.821,-1293.7009,9.031,-0.0076099997,0.0043099998,1.88111,1,1,0,0,0,false,false,false,2934.17,953.81,98.46,0.734164,0.533604,-0.33762655,0.24955612,-555.631,-1847.0609,-16.800999,5.24541,-1.6540099,-0.0018099999
29.858334,2661.64,-993.39996,793.48,0.75322235,-0.18886444,0.6003433,-0.19124354,-542.891,-826.93097,-499.421,3.98991,3.28471,3.04811,1,1,0,0,0,false,false,false,759.85,-1860.34,17.01,0.0026569369,0.0041944534,-0.50124586,0.86529046,670.501,-1269.9409,8.721001,-0.00641,0.00271,1.94161,1,1,0,0,0,false,false,false,2924.91,923.02997,98.18,0.7533025,0.5474957,-0.2930492,0.21657765,-555.391,-1846.341,-16.710999,5.24541,-1.6539099,-0.0018099999
29.875,2652.5999,-1007.18,785.01996,0.76714605,-0.19469085,0.5678503,-0.22611563,-542.61096,-826.511,-509.991,3.98991,3.28471,3.04811,1,1,0,0,0,false,false,false,771.18,-1881.3999,17.01,0.0025328568,0.0042268224,-0.4870899,0.87333786,707.871,-1244.6909,8.501,-0.00521,0.0017099999,1.98781,1,1,0,0,0,false,false,false,2915.65,892.26996,97.9,0.76969993,0.559402,-0.24740897,0.18281144,-555.121,-1845.5409,-16.591,5.24541,-1.6539099,-0.0018099999
29.891666,2643.56,-1020.94995,776.38995,0.7791532,-0.20002632,0.53393847,-0.2604213,-542.331,-826.09094,-520.55096,3.98991,3.28471,3.04811,1,1,0,0,0,false,false,false,783.13,-1902.0299,17.01,0.002419566,0.0042591915,-0.47248617,0.8813244,744.93097,-1217.841,8.411,-0.00411,0.00111,2.02381,1,1,0,0,0,false,false,false,2906.41,861.51996,97.619995,0.78330016,0.56927454,-0.2008733,0.14838175,-554.831,-1844.6609,-16.450998,5.24541,-1.6539099,-0.0018099999
29.908333,2634.52,-1034.71,767.57996,0.7892147,-0.20486549,0.49868882,-0.29407418,-542.05096,-825.67096,-531.11096,3.98991,3.28471,3.04811,1,1,0,0,0,false,false,false,795.7,-1922.21,17.01,0.00231167,0.00429156,-0.45749936,0.8891965,781.621,-1189.3309,8.3810005,-0.00321,0.00071,2.05241,1,1,0,0,0,false,false,false,2897.17,830.79,97.34,0.7940535,0.5770808,-0.15360391,0.11341251,-554.52094,-1843.7109,-16.290998,5.24541,-1.6539099,-0.0018099999
29.925,2625.49,-1048.47,758.6,0.7972996,-0.20919211,0.46219823,-0.32699335,-541.77094,-825.251,-541.67096,3.98991,3.28471,3.04811,1,1,0,0,0,false,false,false,808.87,-1941.9099,17.01,0.0022145638,0.004323929,-0.44217807,0.89691406,817.80096,-1159.1809,8.361,-0.00251,0.00040999998,2.07541,1,1,0,0,0,false,false,false,2887.93,800.07,97.07,0.8019228,0.5827885,-0.10577349,0.078033365,-554.191,-1842.721,-16.130999,5.24541,-1.65381,-0.0018099999
29.941668,2616.47,-1062.22,749.44,0.8033956,-0.21299544,0.4245478,-0.35909247,-541.49097,-824.83093,-552.22095,3.98991,3.28471,3.04811,1,1,0,0,0,false,false,false,822.64996,-1961.1,17.01,0.002117457,0.004356297,-0.42655998,0.9044461,853.34094,-1127.401,8.361,-0.0019099999,0.00021,2.09431,1,1,0,0,0,false,false,false,2878.69,769.37,96.81,0.80687946,0.58637613,-0.057565384,0.042362805,-553.85095,-1841.6909,-15.951,5.24541,-1.65381,-0.0018099999
29.958334,2607.45,-1075.96,740.1,0.80747974,-0.21627013,0.38583994,-0.39029613,-541.21094,-824.41095,-562.761,3.98991,3.28471,3.04811,1,1,0,0,0,false,false,false,837.01996,-1979.75,17.01,0.0020311407,0.0043886667,-0.41067773,0.91176766,888.2009,-1094.151,8.351,-0.00151,0.00010999999,2.11041,1,1,0,0,0,false,false,false,2869.47,738.69,96.549995,0.8089003,0.5878381,-0.009146919,0.00654119,-553.501,-1840.631,-15.771,5.24541,-1.65381,-0.0018099999
29.975,2598.43,-1089.7,730.58997,0.80954796,-0.21899989,0.34616652,-0.42052326,-540.93097,-823.99097,-573.30096,3.98991,3.28471,3.04811,1,1,0,0,0,false,false,false,851.97,-1997.85,17.01,0.001944824,0.0044210353,-0.39455262,0.9188606,922.90094,-1060.101,8.351,-0.00131,0,2.1256099,1,1,0,0,0,false,false,false,2860.25,708.02997,96.29,0.80798215,0.5871638,0.039303955,-0.029301962,-553.141,-1839.5709,-15.581,5.24541,-1.65381,-0.0018099999
29.991667,2589.41,-1103.4199,720.89996,0.8095918,-0.22118479,0.30562985,-0.44969842,-540.65094,-823.571,-583.84094,3.98991,3.28471,3.04811,1,1,0,0,0,false,false,false,867.49,-2015.37,17.01,0.0018585074,0.0044534043,-0.37819016,0.9257153,957.29095,-1025.231,8.351,-0.00111,0,2.13971,1,1,0,0,0,false,false,false,2851.03,677.38,96.03,0.8041301,0.584353,0.08761452,-0.06503721,-552.80096,-1838.511,-15.391,5.24541,-1.65371,-0.0018099999
30.008333,2580.41,-1117.14,711.04,0.80761105,-0.22281402,0.26433253,-0.47775146,-540.371,-823.15094,-594.36096,3.98991,3.28471,3.04811,1,1,0,0,0,false,false,false,883.58997,-2032.3099,17.01,0.0017721906,0.004485773,-0.36159566,0.93232244,991.04095,-989.30096,8.351,-0.00091,0,2.15201,1,1,0,0,0,false,false,false,2841.8198,646.75,95.77,0.7973548,0.5794221,0.13560139,-0.100535095,-552.46094,-1837.481,-15.201,5.24541,-1.65371,-0.0018099999
30.025,2571.41,-1130.86,701,0.8036115,-0.22388758,0.22237164,-0.50461227,-540.09094,-822.73096,-604.881,3.98991,3.28471,3.04811,1,1,0,0,0,false,true,false,900.25,-2048.64,17.01,0.0016858738,0.0045181415,-0.3448016,0.9386631,1023.66095,-952.0109,8.351,-0.00081,-0.00010999999,2.1621099,1,1,0,0,0,false,false,false,2832.6199,616.14,95.509995,0.7876826,0.572382,0.18310276,-0.13567692,-552.131,-1836.491,-15.021,5.24541,-1.65371,-0.0018099999
30.041666,2562.41,-1144.5599,690.79,0.79760677,-0.22440548,0.17985508,-0.53020525,-539.811,-822.311,-615.40094,3.98991,3.28471,3.04811,1,1,0,0,0,false,true,false,917.6,-2064.48,17.01,0.0015995571,0.004539721,-0.32782418,0.94472647,1066.271,-922.99097,8.271,-0.00071,0,2.16341,1,1,0,0,0,false,false,false,2823.42,585.54,95.27,0.775147,0.5632647,0.22993517,-0.17032245,-551.821,-1835.5509,-14.841,5.24541,-1.65371,-0.0018099999
30.058332,2553.41,-1158.26,680.39996,0.7896072,-0.22436234,0.13688537,-0.5544766,-539.53094,-821.8909,-625.92096,3.98991,3.28471,3.04811,1,1,0,0,0,false,true,false,935.64996,-2079.81,17.01,0.0015132404,0.0045613004,-0.31074417,0.9504814,1107.261,-891.72095,8.231,-0.00051,0,2.1600099,1,1,0,0,0,false,false,false,2814.22,554.95996,95.03,0.75979745,0.55209744,0.27593133,-0.20434755,-551.53094,-1834.6709,-14.6710005,5.24541,-1.65371,-0.0018099999
30.075,2544.42,-1171.96,669.83997,0.7796343,-0.2237581,0.093575776,-0.57736135,-539.251,-821.47095,-636.42096,3.98991,3.28471,3.04811,1,1,0,0,0,false,true,false,954.38,-2094.6099,17.01,0.0014269236,0.004582879,-0.29359403,0.9559181,1147.3009,-858.761,8.211,-0.00040999998,0,2.15431,1,1,0,0,0,false,false,false,2805.03,524.39,94.79,0.74168867,0.5389233,0.32092422,-0.23762822,-551.261,-1833.871,-14.511,5.24541,-1.65371,-0.0018099999
30.091667,2535.44,-1185.64,659.1,0.7677158,-0.22259283,0.050028812,-0.59880036,-538.97095,-821.05096,-646.92096,3.98991,3.28471,3.04811,1,1,0,0,0,false,true,false,973.77997,-2108.8499,17.01,0.001340607,0.004604459,-0.27640074,0.9610305,1186.3209,-824.15094,8.211,-0.00040999998,0.00010999999,2.14671,1,1,0,0,0,false,false,false,2795.8499,493.83,94.549995,0.72088456,0.52379084,0.3647517,-0.2700456,-551.03094,-1833.1709,-14.371,5.24541,-1.65371,-0.0018099999
30.108334,2526.46,-1199.32,648.19,0.753878,-0.22086652,0.0063577676,-0.6187451,-538.691,-820.631,-657.42096,3.98991,3.28471,3.04811,1,1,0,0,0,false,true,false,993.82,-2122.5,17.01,0.0012542901,0.0046260376,-0.25918585,0.96581554,1224.231,-787.941,8.211,-0.00030999997,0.00010999999,2.13761,1,1,0,0,0,false,false,false,2786.67,463.28998,94.31,0.69745386,0.5067594,0.40725738,-0.3014866,-550.821,-1832.5709,-14.241,5.24541,-1.65371,-0.0018099999
30.125,2517.48,-1212.99,637.1,0.7381523,-0.21858989,-0.037329417,-0.6371467,-538.41095,-820.21094,-667.91095,3.98991,3.28471,3.04811,1,1,0,0,0,false,true,false,1014.5,-2135.54,17.01,0.0011679733,0.0046476163,-0.24196559,0.97027284,1260.971,-750.201,8.211,-0.00021,0.00010999999,2.12731,-1,1,0,0,0,false,false,false,2777.49,432.75,94.07,0.67149293,0.48788297,0.44827962,-0.3318325,-550.65094,-1832.0809,-14.1310005,5.24541,-1.65371,-0.0018099999
30.141666,2508.51,-1226.65,625.83997,0.7205847,-0.21576841,-0.080924936,-0.6539516,-538.131,-819.79095,-678.391,3.98991,3.28471,3.04811,1,1,0,0,0,false,true,false,1035.7899,-2147.94,17.01,0.0010816567,0.0046691964,-0.22475076,0.97440445,1296.471,-711.001,8.211,-0.00010999999,0.00010999999,2.11581,-1,1,0,0,0,false,false,false,2768.31,402.21,93.81,0.6430906,0.46723157,0.48767793,-0.36096984,-550.761,-1832.4309,-15.761,5.24551,-1.65361,-0.0018099999
30.158333,2499.55,-1240.3099,614.39996,0.70121133,-0.21240741,-0.12431545,-0.6691272,-537.85095,-819.371,-688.871,3.98991,3.28471,3.04811,1,1,0,0,0,false,true,false,1057.6699,-2159.68,17.01,0.0009953398,0.004690775,-0.20756288,0.97820985,1330.6809,-670.42096,8.211,-0.00010999999,0.00010999999,2.10341,-1,1,0,0,0,false,false,false,2759.13,371.66998,93.54,0.6123581,0.44488084,0.525296,-0.38879633,-550.831,-1832.6609,-16.480999,5.24551,-1.65361,-0.0018099999
30.175,2490.5898,-1253.96,602.79,-0.6800895,0.20851232,0.1673931,0.6826275,-537.571,-818.951,-699.35095,3.98991,3.28471,3.04811,1,1,0,0,0,false,true,false,1080.11,-2170.73,17.01,0.00090902316,0.0047123544,-0.19040735,0.9816934,1363.531,-628.52094,8.211,-0.00010999999,0,2.0903099,-1,1,1,1,0,false,false,false,2749.95,341.13,93.21,0.5837667,0.42409462,0.55651575,-0.4118862,-550.881,-1832.771,-22.640999,5.11971,-1.61401,-0.00251
30.191668,2481.63,-1267.6,591,-0.657264,0.20409939,0.21005532,0.69442356,-537.29095,-818.53094,-709.821,3.98991,3.28471,3.04811,1,1,0,0,0,false,true,false,1103.1,-2181.07,17.01,0.00082270644,0.0047231438,-0.1733058,0.98485637,1394.991,-585.28094,8.211,0,0,2.0796099,1,1,1,0.5590551,-1,false,false,false,2740.77,310.59,92.68,0.55947757,0.40558502,0.58062804,-0.4305307,-550.891,-1832.7809,-34.580997,4.92271,-1.39281,-0.00661
30.208334,2472.67,-1281.24,579.04,-0.6327985,0.19917393,0.25219414,0.7044812,-537.011,-818.11096,-720.28094,3.98991,3.28471,3.04811,1,1,0,0,0,false,true,false,1126.61,-2190.69,17.01,0.0007363896,0.004733933,-0.15623116,0.98770875,1425.011,-540.761,8.211,0,0,2.07111,1,1,1,0.31496063,-0.53125,false,false,false,2731.5898,280.05,91.979996,0.53401405,0.38904998,0.6006327,-0.45023257,-550.891,-1832.841,-44.301,4.7108097,-1.28281,0.62311
30.225,2463.73,-1294.87,566.89996,-0.60675234,0.19375217,0.2937019,0.7127768,-536.73096,-817.691,-730.74097,3.98991,3.28471,3.04811,1,1,0,0,0,false,true,false,1150.61,-2199.56,17.01,0.00065007294,0.004744723,-0.13917819,0.9902557,1453.5509,-495.021,8.211,0.00010999999,0,2.06421,1,0.54330707,1,0.28346455,-0.671875,false,false,false,2722.41,249.5,91.119995,0.50764954,0.37433285,0.61722213,-0.4703228,-550.91095,-1833.001,-54.021,4.49391,-1.21641,0.91011
30.241667,2454.79,-1308.49,554.58997,-0.57919025,0.18784487,0.33447596,0.71929044,-536.451,-817.27094,-741.201,3.98991,3.28471,3.04811,1,1,0,0,0,false,true,false,1175.08,-2207.65,17.01,0.0005745458,0.0047555133,-0.12213596,0.9925018,1480.5609,-448.131,8.211,0.00021,0,2.05851,1,-0.28125,1,-0.28125,-0.984375,false,false,false,2713.23,218.94,90.1,0.4804705,0.36145,0.63073564,-0.49058574,-550.951,-1833.241,-63.760998,4.27631,-1.19791,1.2596099
30.258333,2445.8499,-1322.11,542.11,-0.55017686,0.18146813,0.37441376,0.7240089,-536.17096,-816.85095,-751.6409,3.98991,3.28471,3.04811,1,1,0,0,0,false,true,false,1199.99,-2214.95,17.01,0.0004990186,0.0047663017,-0.10510452,0.9944495,1506.001,-400.131,8.211,0.00010999999,0,2.0536098,1,-1,-1,-0.3984375,1,false,false,false,2704.05,188.37999,88.92,0.45166752,0.35149658,0.6411662,-0.5112263,-551.011,-1833.5609,-73.520996,4.03051,-1.33951,1.74051
30.275,2436.91,-1335.72,529.45,-0.51979333,0.17463833,0.41341296,0.7269154,-535.891,-816.43097,-762.08093,3.98991,3.28471,3.04811,1,1,0,0,0,false,true,false,1225.33,-2221.44,17.01,0.00041809672,0.0047770925,-0.088078484,0.996102,1529.8309,-351.071,8.211,0,0,2.04921,1,-1,-1,-0.4453125,1,false,false,false,2694.8699,157.81999,87.58,0.42510346,0.33971426,0.6515278,-0.528576,-551.081,-1833.9409,-83.311,3.8775098,-1.08241,1.00281
30.291666,2427.99,-1349.32,516.62,-0.48810408,0.16737151,0.45138153,0.728008,-535.61096,-816.011,-772.52094,3.98991,3.28471,3.04811,1,1,0,0,0,false,true,false,1251.0599,-2227.1099,17.01,0.00033178,0.004787882,-0.07106321,0.99746025,1552.021,-300.981,8.211,0,0,2.04511,1,-1,-1,-0.4375,1,false,false,false,2685.69,127.25,86.06,0.40207836,0.32471135,0.6627992,-0.54184186,-551.16095,-1834.391,-93.131,3.7362099,-0.81241,0.33251
30.308332,2419.0698,-1362.9199,503.62,-0.45520115,0.15968385,0.4882174,0.72728026,-535.331,-815.59094,-782.96094,3.98991,3.28471,3.04811,1,1,0,0,0,false,true,false,1277.15,-2231.93,17.01,0.00024546325,0.004787882,-0.054064166,0.9985259,1572.5309,-249.921,8.211,0,0,2.04121,1,-1,-1,-0.375,0.503937,false,false,false,2676.51,96.67,84.38,0.38248438,0.30676275,0.6749111,-0.5514501,-551.261,-1834.9009,-102.980995,3.60651,-0.52781,-0.27181
30.325,2410.15,-1376.5,490.44,-0.42115444,0.15160245,0.523834,0.7247368,-535.05096,-815.17096,-793.381,3.98991,3.28471,3.04811,1,1,0,0,0,false,true,false,1303.57,-2235.89,17.01,0.0001645413,0.004787882,-0.037075866,0.99930096,1591.3209,-197.951,8.211,0.00010999999,0,2.03741,1,-1,-1,-0.2890625,-0.1953125,false,false,false,2667.3298,66.08,82.54,0.36510235,0.28740615,0.6871056,-0.558555,-551.36096,-1835.471,-112.870995,3.45691,-0.38861,-0.54691
30.341667,2401.23,-1390.08,477.09,-0.3860612,0.14313795,0.5581397,0.72038066,-534.77094,-814.751,-803.80096,3.98991,3.28471,3.04811,1,1,0,0,0,false,true,false,1330.2999,-2238.97,17.01,0.00008901414,0.0047878814,-0.020109186,0.99978626,1608.361,-145.101,8.211,0.00010999999,0,2.0336099,1,-1,-1,-0.203125,-0.5703125,false,false,false,2658.13,35.48,80.54,0.34798458,0.26905838,0.6983127,-0.5646889,-551.48096,-1836.101,-122.791,3.26931,-0.48511,-0.43111
30.358334,2392.32,-1403.6599,463.56,-0.34999683,0.13431744,0.5910534,0.7142246,-534.49097,-814.33093,-814.22095,3.98991,3.28471,3.04811,1,0.96062994,0,0,0,false,true,false,1357.3099,-2241.17,17.01,0.000013486991,0.0047878814,-0.0031748374,0.99998343,1623.611,-91.451,8.211,0,0.00010999999,2.02971,1,-1,-1,-0.1875,-0.515625,false,false,false,2648.93,4.87,78.369995,0.32986337,0.25331625,0.7079378,-0.57082826,-551.61096,-1836.771,-132.741,3.06321,-0.71291,-0.14040999
30.375,2383.42,-1417.22,449.86,-0.3130585,0.12516247,0.622489,0.7062832,-534.21094,-813.91095,-824.631,3.98991,3.28471,3.04811,1,0.9212598,0,0,0,false,true,false,1384.57,-2242.47,17.01,-0.00007282975,0.004787882,0.013683986,0.99989486,1637.2109,-37.801,8.211,-0.00010999999,0.00010999999,2.0055099,1,-1,-1,-0.2109375,-0.171875,false,false,false,2639.73,-25.75,76.03,0.31072256,0.24021772,0.71607393,-0.5770484,-551.751,-1837.481,-142.731,2.86951,-0.91181,0.089109994
30.391666,2374.52,-1430.7799,435.97998,-0.27533796,0.11568913,0.65236557,0.69658023,-533.93097,-813.49097,-835.03094,3.98991,3.28471,3.04811,1,0.88188976,0,0,0,false,true,false,1412.0399,-2242.8699,17.01,-0.00014835688,0.004787881,0.030305348,0.99952906,1649.1709,15.861,8.201,-0.00021,0.00010999999,1.96701,1,-1,-1,-0.2265625,-0.234375,false,false,false,2630.53,-56.39,73.53,0.2914954,0.22859724,0.7232389,-0.5828371,-551.90094,-1838.231,-152.761,2.7137098,-0.96001,0.13171
30.408333,2365.6199,-1444.34,421.93,-0.23693225,0.10592994,0.68061817,0.6851282,-533.65094,-813.071,-845.43097,3.98991,3.28471,3.04811,1,0.8503937,0,0,0,false,true,false,1439.71,-2242.3699,17.01,-0.00022388405,0.004787882,0.046570748,0.99890345,1659.5409,69.431,8.201,-0.00040999998,0.00010999999,1.91781,1,-1,-1,-0.25,0.36220473,false,false,false,2621.3298,-87.04,70.86,0.27233297,0.21825539,0.72960395,-0.5881132,-552.061,-1839.021,-162.83101,2.5587099,-1.03631,0.19030999
30.425,2356.72,-1457.88,407.71,-0.19793314,0.095906325,0.7071687,0.6719648,-533.371,-812.65094,-855.83093,3.98991,3.28471,3.04811,1,0.8110236,0,0,0,false,true,false,1467.5499,-2240.97,17.01,-0.0002994112,0.0047878814,0.062409952,0.998039,1668.3309,122.870995,8.201,-0.00051,0,1.86471,1,-1,-1,-0.28125,0.46456692,false,false,false,2612.13,-117.7,68.02,0.2546057,0.20747653,0.735764,-0.5922673,-552.23096,-1839.841,-172.94101,2.4709098,-0.83291,-0.00641
30.441668,2347.8398,-1471.4199,393.31,-0.15843765,0.08564542,0.73194987,0.65712374,-533.09094,-812.23096,-866.22095,3.98991,3.28471,3.04811,1,0.77952754,0,0,0,false,true,false,1495.52,-2238.69,17.01,-0.00037493836,0.004787882,0.07777442,0.9969594,1675.7009,175.80101,8.201,-0.00061,0,1.80441,1,-1,-1,-0.3125,0.28346455,false,false,false,2602.93,-148.37999,65.01,0.23892836,0.19546771,0.74201596,-0.59507793,-552.41095,-1840.6909,-183.091,2.39871,-0.59171,-0.22550999
30.458334,2338.96,-1484.95,378.74,-0.118548416,0.07516864,0.75489926,0.6406426,-532.811,-811.811,-876.60095,3.98991,3.28471,3.04811,1,0.7559055,0,0,0,false,true,false,1523.61,-2235.52,17.01,-0.00045046548,0.004777092,0.092620894,0.9956898,1681.7109,228.181,8.191,-0.00071,-0.00010999999,1.74281,1,-1,-1,-0.34375,0.031496063,false,false,false,2593.72,-179.06999,61.829998,0.22482629,0.18278447,0.74826014,-0.59678274,-552.60095,-1841.5609,-193.281,2.31001,-0.45461,-0.35921
30.475,2330.0798,-1498.47,364,-0.078362405,0.06450853,0.77596694,0.6225537,-532.53094,-811.3909,-886.98096,3.98991,3.28471,3.04811,1,0.7322835,0,0,0,false,true,false,1551.7899,-2231.48,17.01,-0.0005259926,0.004766302,0.106944166,0.9942534,1686.4309,279.951,8.191,-0.00061,-0.00010999999,1.68401,1,-1,-1,-0.3671875,-0.234375,false,false,false,2584.5,-209.76999,58.48,0.21097785,0.17002578,0.75443137,-0.59784013,-552.80096,-1842.4609,-203.491,2.35061,-0.49061,-0.39721
30.491667,2321.2,-1511.99,349.09,-0.03798219,0.053681087,0.7950935,0.6029112,-532.251,-810.97095,-897.36096,3.98991,3.28471,3.04811,1,0.7007874,0,0,0,false,true,false,1580.0499,-2226.57,17.01,-0.00060151983,0.0047555133,0.12076025,0.9926701,1689.991,330.941,8.191,-0.00051,0,1.62701,1,-1,-1,-0.40625,-0.265625,false,false,false,2575.28,-240.48999,54.96,0.19504152,0.15703501,0.76070935,-0.5988489,-553.011,-1843.381,-213.741,2.51391,-0.70230997,-0.35251
30.508333,2312.3398,-1525.5,334.00998,0.0024950933,0.04271886,0.8122315,0.5817635,-531.97095,-810.55096,-907.72095,3.98991,3.28471,3.04811,1,0.68503934,0,0,0,false,true,false,1608.36,-2220.82,17.01,-0.0006662573,0.004744723,0.13407467,0.9909596,1692.5709,380.881,8.191,-0.00030999997,0,1.56711,1,-0.515625,1,-0.4375,-0.140625,false,false,false,2566.06,-271.22998,51.27,0.17675847,0.14410907,0.7669831,-0.59977144,-553.23096,-1844.3209,-224.031,2.67361,-0.92471,-0.31661
30.525,2303.48,-1539,318.75,0.042967025,0.03164866,0.82734096,0.5591593,-531.691,-810.131,-918.08093,3.98991,3.28471,3.04811,1,0.6692913,0,0,0,false,true,false,1636.71,-2214.23,17.01,-0.0007309949,0.004733934,0.1468874,0.9891416,1694.1609,429.971,8.191,-0.00021,0,1.51331,1,-0.1484375,1,-0.4765625,0.05511811,false,false,false,2556.8398,-301.97998,47.41,0.15845923,0.13237531,0.7728592,-0.6000466,-553.47095,-1845.2809,-234.381,2.44821,-0.97100997,-0.33591
30.541666,2294.6199,-1552.5,303.32,0.083331056,0.020497613,0.840382,0.5351577,-531.41095,-809.71094,-928.441,3.98991,3.28471,3.04811,1,0.6614173,0,0,0,false,true,false,1665.08,-2206.82,17.01,-0.0007957324,0.0047231438,0.15924148,0.987228,1694.871,478.151,8.191,0,0,1.46471,1,-0.015625,1,0.51968503,0.16535433,false,false,false,2547.6199,-332.75,43.37,0.14142779,0.12160191,0.7784244,-0.59938836,-553.72095,-1846.261,-244.771,2.25251,-0.90251,-0.41661
30.558332,2285.76,-1565.99,287.72,0.12349009,0.009297931,0.8513219,0.50981826,-531.131,-809.29095,-938.80096,3.98991,3.28471,3.04811,1,0.6535433,0,0,0,false,true,false,1693.46,-2198.5999,17.01,-0.0008496804,0.0047123544,0.17119104,0.98522615,1694.7009,525.55096,8.191,0,0.00021,1.42501,1,0,1,0.5748032,0.1496063,false,false,false,2538.4,-363.53,39.129997,0.12555091,0.11075829,0.7835579,-0.59833646,-549.30096,-1847.971,-257.631,2.28211,-0.78451,-0.50161
30.575,2276.92,-1579.47,271.94,0.16333613,-0.0019232448,0.8601336,0.48320565,-530.85095,-808.871,-949.1409,3.98991,3.28471,3.04811,1,0.62992126,0,0,0,false,true,false,1721.83,-2189.5999,17.01,-0.0009036284,0.004701565,0.18280604,0.9831373,1693.741,572.15094,8.191,0,0.00021,1.3917099,1,0.023622047,1,0.5905512,0.03937008,false,false,false,2529.26,-394.34,34.66,0.1089834,0.09787003,0.78912777,-0.59650755,-545.331,-1849.0509,-261.221,2.71721,-0.70701,-0.61741
30.591667,2268.0798,-1592.95,255.98999,0.20277767,-0.013139069,0.8667949,0.45538464,-530.571,-808.451,-959.48096,3.98991,3.28471,3.04811,1,0.62992126,0,0,0,false,true,false,1750.1799,-2179.8298,17.01,-0.0009575763,0.004690775,0.19411361,0.98096734,1692.1709,617.71094,8.181,0,0.00021,1.35501,1,0.25984251,1,0.6456693,0.23622048,false,false,false,2520.18,-425.16,30.189999,0.090290345,0.081518404,0.7950541,-0.5942148,-545.001,-1849.141,-252.241,3.3670099,-0.76881,-0.64341
30.608334,2259.24,-1606.4199,239.87,0.2417067,-0.024322525,0.87128824,0.42643058,-530.29095,-808.03094,-969.821,3.98991,3.28471,3.04811,1,0.63779527,0,0,0,false,true,false,1778.51,-2169.3,17.01,-0.0010115241,0.004679985,0.20511898,0.9787252,1689.8109,662.701,8.181,0,0.00030999997,1.32821,1,0.8346457,1,0.6535433,0.37795275,false,false,false,2511.0898,-455.97998,25.89,0.0676375,0.06117994,0.80085844,-0.59186804,-548.59094,-1848.0509,-238.72101,4.10361,-0.92981,-0.58031
30.625,2250.4,-1619.88,223.58,0.28003147,-0.035446633,0.87360525,0.39640844,-530.011,-807.61096,-980.16095,3.98991,3.28471,3.04811,1,0.6456693,0,0,0,false,true,false,1806.7799,-2158.01,17.01,-0.0010654721,0.004669196,0.21590328,0.97640294,1686.611,707.251,8.181,0.00021,0.00030999997,1.31241,1,1,1,0.62992126,-0.4375,false,false,false,2501.92,-486.77,21.82,0.040113173,0.036930244,0.80577624,-0.5897047,-548.381,-1847.641,-200.741,3.8208098,-0.83921,-0.25781
30.641666,2241.57,-1633.34,207.12,0.31766024,-0.046479035,0.87373626,0.36539906,-529.73096,-807.191,-990.48096,3.98991,3.28471,3.04811,1,0.6614173,0,0,0,false,true,false,1835,-2145.98,17.01,-0.0011140254,0.004658406,0.2265526,0.9739871,1682.591,751.40094,8.181,0.00040999998,0.00040999998,1.30451,0,1,1,0.43307087,-0.4140625,false,false,false,2492.81,-517.57,18.609999,0.017832583,0.017012574,0.8073136,-0.5896076,-540.821,-1848.8309,-132.851,2.80111,-0.37521002,0.28091002
30.658333,2232.75,-1646.7799,190.48,0.35449067,-0.057398137,0.87168664,0.33347246,-529.451,-806.77094,-1000.80096,3.98991,3.28471,3.04811,1,0.68503934,0,0,0,false,true,false,1863.14,-2133.21,17.01,-0.0011571838,0.0046476168,0.2371319,0.9714656,1677.621,795.36096,8.181,0.00051,0.00040999998,1.30661,-1,0.11023622,1,0.21259843,-0.421875,false,false,false,2483.8298,-548.36,16.57,0.0022685116,0.0015671882,0.8056059,-0.5924452,-530.86096,-1841.7909,-68.020996,1.92581,-0.41901,0.70181
30.675,2223.93,-1660.22,173.67,0.3904364,-0.06817159,0.86745924,0.3007098,-529.17096,-806.35095,-1011.121,3.98991,3.28471,3.04811,1,0.7007874,0,0,0,false,true,false,1891.2,-2119.71,17.01,-0.0012003421,0.004636827,0.24772727,0.9688179,1671.5809,839.34094,8.181,0.00051,0.00051,1.3199099,-1,-0.0234375,1,-0.6484375,-0.2265625,false,false,false,2475.02,-578.82,15.7,-0.005672671,-0.005532406,0.8023276,-0.5968313,-519.91095,-1784.2009,2.511,0.10691,-0.01611,0.53731
30.691668,2215.1099,-1673.6599,156.69,0.42541096,-0.078777805,0.8610588,0.26720256,-528.891,-805.93097,-1021.43097,3.98991,3.28471,3.04811,1,0.7480315,0,0,0,false,true,false,1919.1499,-2105.47,17.01,-0.0012435006,0.004626038,0.25840905,0.9660237,1664.471,883.33093,8.181,0.00040999998,0.00051,1.33741,-1,-0.3515625,0.6771653,-0.578125,-0.046875,false,false,false,2466.41,-608.32,15.7,-0.005845303,-0.005737407,0.79989064,-0.60008967,-505.091,-1727.741,18.691,-0.076309994,0.00291,0.36081
30.708334,2206.29,-1687.08,139.54,0.45931745,-0.08918442,0.8525094,0.23302646,-528.61096,-805.511,-1031.731,3.98991,3.28471,3.04811,1,0.8110236,0,0,0,false,true,false,1946.97,-2090.49,17.01,-0.0012866588,0.004615248,0.26924178,0.9630606,1655.7809,927.93097,8.181,0.00040999998,0.00051,1.3745099,-1,-0.3671875,0.42519686,-0.40625,-0.0078125,false,false,false,2458.04,-636.88,15.889999,-0.0054406524,-0.0052680187,0.7984727,-0.60198337,-492.38098,-1670.4509,21.001,-0.06880999,0.00151,0.082509995
30.725,2197.49,-1700.5,122.21999,0.4920801,-0.09936443,0.84182763,0.19826761,-528.331,-805.09094,-1042.031,3.98991,3.28471,3.04811,1,0.8897638,0,0,0,false,false,false,1974.64,-2074.76,17.01,-0.001335212,0.0046044583,0.28038752,0.95987487,1645.2009,973.42096,8.181,0.00040999998,0.00051,1.4334099,-1,-0.15625,0.43307087,-0.1640625,-0.015625,false,false,false,2449.9,-664.48,16.109999,-0.0051007797,-0.0048364345,0.7983312,-0.6021775,-478.091,-1613.6709,20.540998,-0.05791,-0.00051,-0.11651
30.741667,2188.69,-1713.9199,104.72,0.5236128,-0.10930169,0.82904136,0.16301244,-528.05096,-804.67096,-1052.3309,3.98991,3.28471,3.04811,0,0,0,0,0,true,false,false,2001.95,-2058.38,17.01,-0.0013891598,0.0045936685,0.2920133,0.95640206,1618.471,1011.08093,8.271,0.00051,0.00040999998,1.51611,-1,-0.03125,0.42519686,-0.1015625,-0.0234375,false,false,false,2442.01,-691.14996,16.31,-0.0048364345,-0.004458799,0.79896915,-0.6013359,-460.501,-1558.021,18.901,-0.047209997,-0.00301,-0.15471
30.758333,2179.89,-1727.32,87.049995,0.55383456,-0.118963815,0.8141851,0.12734737,-527.77094,-804.251,-1062.621,3.98991,3.28471,3.04811,0,0,0,0,0,true,false,false,2028.88,-2041.4299,22.109999,-0.0014485028,0.004582879,0.30324537,0.95290035,1598.2909,1029.911,307.971,-0.00261,-0.0010099999,1.14671,0,-0.0078125,0.4094488,-0.171875,-0.0234375,false,false,false,2434.41,-716.88,16.48,-0.0046368274,-0.0041405065,0.79969794,-0.6003703,-442.291,-1502.5609,16.921,-0.037709996,-0.0043099998,-0.12101
30.775,2175.03,-1738.62,100.99,0.5437085,-0.15239549,0.8216391,0.07788231,-291.161,-678.16095,631.83093,5.1592097,-2.21511,2.1154099,0,0,0,0,0,true,false,false,2055.42,-2024.2,27.34,-0.0015186351,0.0045720898,0.3118339,0.9501243,1575.761,1046.351,316.011,-0.00461,-0.0017099999,0.92101,0,0,0.4015748,-0.1484375,-0.015625,false,false,false,2427.05,-741.88995,16.619999,-0.004485773,-0.0038707664,0.8002585,-0.59962577,-439.061,-1494.371,15.061,-0.032509997,-0.00341,-0.08791
30.791666,2170.17,-1749.9199,111.38,0.5339007,-0.17937495,0.82546705,0.037129853,-291.001,-677.80096,620.67096,5.1592097,-2.21511,2.1154099,0,0,0,0,0,true,false,false,2081.5898,-2006.7,32.71,-0.0015941622,0.0045613,0.31880397,0.94780827,1565.0309,1053.771,324.051,-0.00531,-0.0019099999,0.84221,1,0,0.4094488,-0.109375,-0.015625,false,false,false,2419.74,-766.76,16.73,-0.004350903,-0.003644185,0.80066025,-0.59909165,-436.591,-1485.9609,13.411,-0.02641,-0.00261,-0.061309997
30.808332,2165.3298,-1761.22,121.59,0.52276045,-0.20590128,0.8272316,-0.003719712,-290.841,-677.441,609.511,5.1592097,-2.21511,2.1154099,0,0,0,0,0,true,false,false,2107.67,-1989.14,38.28,-0.0016696894,0.0045505106,0.3252886,0.9456023,1565.2109,1053.911,337.511,-0.00451,-0.0014099999,0.81541,1,0,0.4094488,-0.078125,-0.015625,false,false,false,2412.46,-791.51996,16.81,-0.004248402,-0.0034607619,0.80094403,-0.5987141,-437.061,-1485.8109,12.081,-0.02111,-0.0018099999,-0.043209996
30.825,2160.49,-1772.5,131.61,0.5103091,-0.23191506,0.82693094,-0.04455309,-290.681,-677.08093,598.36096,5.1592097,-2.21511,2.1154099,0,0,0,0,0,true,false,false,2133.75,-1971.58,44.07,-0.001734427,0.0045397207,0.33155733,0.9434225,1565.391,1054.0509,350.971,-0.00381,-0.0010099999,0.78941,1,0,0.4015748,-0.0546875,-0.0078125,false,false,false,2405.18,-816.27997,16.869999,-0.0041566906,-0.0033204972,0.80114263,-0.59844977,-437.721,-1485.601,11.051001,-0.01651,-0.00111,-0.03081
30.841667,2155.65,-1783.7799,141.44,0.49658468,-0.25734618,0.82456285,-0.08527857,-290.521,-676.72095,587.22095,5.1592097,-2.21511,2.1154099,0,0,0,0,0,false,false,false,2159.8499,-1954.01,50.09,-0.0017937698,0.0045289313,0.3376103,0.9412733,1565.5709,1054.1909,364.431,-0.00321,-0.00061,0.76421,0,0,0.39370078,-0.046875,-0.0078125,false,false,false,2397.88,-841.04,16.91,-0.004086558,-0.0032126012,0.80128443,-0.5982609,-438.411,-1485.381,10.271,-0.012709999,-0.00071,-0.02221
30.858334,2150.81,-1795.0599,151.09,0.48161954,-0.2821354,0.8201329,-0.1257936,-290.361,-676.36096,576.081,5.1592097,-2.21511,2.1154099,0,0,0,0,0,false,false,false,2185.95,-1936.44,56.03,-0.0018477177,0.0045181415,0.34345296,0.9391571,1565.5709,1054.1909,353.591,-0.00261,-0.00021,0.73981,0,0,0.39370078,-0.0390625,-0.0078125,false,false,false,2390.5798,-865.76,16.949999,-0.00403261,-0.0031316793,0.8013897,-0.5981206,-436.57098,-1476.7909,9.691,-0.00931,-0.00051,-0.01611
30.875,2145.97,-1806.32,160.55,0.46545133,-0.3062179,0.81365395,-0.16599043,-290.201,-676.001,564.941,5.1592097,-2.21511,2.1154099,0,0,0,0,0,false,false,false,2212.05,-1918.86,61.789997,-0.0018908761,0.0045181415,0.3491013,0.93707216,1565.5709,1054.1909,342.751,-0.00211,0.00010999999,0.71621,0,-0.0078125,0.39370078,-0.03125,0,false,false,false,2383.31,-890.33997,16.97,-0.0039948463,-0.0030723363,0.80146265,-0.5980235,-434.641,-1468.221,9.231,-0.00691,-0.00040999998,-0.011709999
30.891666,2141.13,-1817.58,169.83,0.44811773,-0.3295397,0.8051409,-0.20577182,-290.04102,-675.641,553.821,5.1592097,-2.21511,2.1154099,0,0,0,0,0,false,false,false,2238.15,-1901.2799,67.369995,-0.0019340344,0.0045181415,0.35455543,0.935022,1565.5709,1054.1909,331.911,-0.0017099999,0.00030999997,0.69341,0,-0.0078125,0.39370078,-0.0234375,0,false,false,false,2376.0798,-914.77997,16.99,-0.0039624777,-0.0030237832,0.8015233,-0.5979426,-432.771,-1459.631,8.911,-0.00521,-0.00021,-0.013009999
30.908333,2136.29,-1828.84,178.92,0.42966205,-0.35203606,0.79461694,-0.24504066,-289.881,-675.28094,542.701,5.1592097,-2.21511,2.1154099,0,0,-0.5625,0.8267717,0,true,false,false,2264.25,-1883.7,72.77,-0.001966403,0.0045181415,0.35982075,0.9330084,1565.5709,1054.1909,321.071,-0.00131,0.00051,0.67141,0,-0.0078125,0.39370078,-0.03125,0,false,false,false,2368.8699,-939.07,17.01,-0.0039408985,-0.0029914144,0.80158794,-0.5978563,-430.811,-1451.0809,8.641,-0.00391,-0.00010999999,-0.013909999
30.925,2131.47,-1840.09,187.83,0.41013828,-0.37364772,0.78210694,-0.28369454,-289.721,-674.92096,531.581,5.1592097,-2.21511,2.1154099,0,0,-0.5625,0.8267717,0,true,false,false,2285.79,-1854.14,77.99,-0.027257292,0.0085966075,0.36570117,0.9302933,1292.241,1773.221,310.231,-3.98201,-0.84171,0.82660997,0,-0.0078125,0.39370078,-0.03125,0,false,false,false,2361.7,-963.22,17.01,-0.003924714,-0.0029644405,0.8016606,-0.5977591,-428.781,-1442.5409,8.441,-0.00291,-0.00010999999,-0.014409999
30.941668,2126.65,-1851.33,196.55,0.38958403,-0.39433146,0.7676415,-0.32164165,-289.561,-674.561,520.47095,5.1592097,-2.21511,2.1154099,0,0,-0.5625,0.8267717,0,true,false,false,2307.3298,-1824.58,83.02,-0.08191219,0.017622188,0.3713064,0.9247223,1292.241,1773.221,299.391,-5.34261,-1.12331,0.66631,0,-0.015625,0.39370078,-0.03125,0,false,false,false,2354.57,-987.23,17.01,-0.0039139246,-0.0029428613,0.80173314,-0.59766203,-426.711,-1434.021,8.361,-0.00221,0,-0.014709999
30.958334,2121.8298,-1862.57,205.08,0.3680587,-0.41402793,0.7512569,-0.35878494,-289.401,-674.201,509.371,5.1592097,-2.21511,2.1154099,0,0,-0.5625,0.8267717,0,true,false,false,2328.8699,-1795.02,87.869995,-0.14188099,0.027597165,0.37378797,0.91618264,1292.241,1773.221,288.551,-5.35941,-1.14301,0.46911,0,-0.015625,0.39370078,-0.03125,0,false,false,false,2347.46,-1011.08997,17.01,-0.003903135,-0.0029320717,0.8018136,-0.59755415,-424.771,-1425.4609,8.331,-0.0017099999,0,-0.01941
30.975,2117.01,-1873.8099,213.43,0.34561086,-0.43268856,0.7329957,-0.39503276,-289.241,-673.84094,498.271,5.1592097,-2.21511,2.1154099,0,0,-0.5625,0.8267717,0,true,false,false,2350.41,-1765.46,92.54,-0.20145054,0.037448145,0.37352362,0.9047073,1292.241,1773.221,277.711,-5.36261,-1.16671,0.36181,0,-0.015625,0.39370078,-0.0390625,0,false,false,false,2340.39,-1034.8099,17.01,-0.0038923454,-0.002921282,0.8019142,-0.59741926,-422.791,-1416.901,8.321,-0.00131,0,-0.02271
30.991667,2112.19,-1885.0299,221.59999,0.32229987,-0.4502703,0.7129004,-0.4302933,-289.081,-673.48096,487.171,5.1592097,-2.21511,2.1154099,0,0,0,0,0,false,false,false,2371.95,-1735.8999,97.03,-0.2603188,0.04709404,0.37111756,0.89010555,1292.241,1773.221,266.871,-5.36171,-1.18691,0.30461,0,-0.015625,0.39370078,-0.0390625,0,false,false,false,2333.3499,-1058.39,17.01,-0.0038869507,-0.0029104925,0.80203074,-0.59726286,-420.811,-1408.341,8.321,-0.00091,0,-0.02511
31.008333,2107.3699,-1896.25,229.58,0.29818496,-0.46672985,0.6910224,-0.46447483,-288.921,-673.141,476.091,5.1592097,-2.21511,2.1154099,0,0,0,0,0,false,false,false,2393.49,-1706.34,101.34,-0.3182807,0.05629765,0.36623526,0.87258214,1292.241,1773.221,256.031,-5.35291,-1.24671,0.20251,0,-0.0234375,0.39370078,-0.046875,0,false,false,false,2326.3398,-1081.83,17.01,-0.0038869502,-0.0028997026,0.80215937,-0.5970901,-418.85098,-1399.781,8.321,-0.00071,0,-0.02681
31.025,2102.55,-1907.47,237.37999,0.2733203,-0.48201883,0.66742116,-0.49749655,-288.761,-672.80096,465.011,5.1592097,-2.21511,2.1154099,0,0,0,0,0,false,false,false,2415.03,-1676.7799,105.47,-0.3751151,0.065048,0.35922194,0.8520663,1292.241,1773.221,245.191,-5.3456097,-1.28501,0.15190999,0,-0.0234375,0.38582677,-0.046875,0,false,false,false,2319.3699,-1105.12,17.01,-0.0038869507,-0.0028943082,0.8023039,-0.596896,-417.07098,-1391.1609,8.321,-0.00051,0,-0.032709997
31.041666,2097.73,-1918.6799,244.98999,0.24778122,-0.49610466,0.6421448,-0.5292774,-288.601,-672.46094,453.931,5.1592097,-2.21511,2.1154099,0,0,0,0,0,false,false,false,2436.5698,-1647.22,109.42,-0.43056303,0.07339915,0.3504662,0.8284934,1292.241,1773.221,234.351,-5.34051,-1.30861,0.12741,0,-0.0234375,0.39370078,-0.0546875,0,false,false,false,2312.42,-1128.27,17.01,-0.0038869507,-0.0028943082,0.8024724,-0.59666944,-415.291,-1382.5409,8.321,-0.00040999998,0,-0.036909997
31.058332,2092.93,-1929.88,252.42,0.22162177,-0.5089497,0.6152681,-0.5597311,-288.441,-672.121,442.861,5.1592097,-2.21511,2.1154099,0,0,0,0,0,false,false,false,2458.1099,-1617.6599,113.189995,-0.4844087,0.08137814,0.34017822,0.8018756,1292.241,1773.221,223.511,-5.3372097,-1.3228099,0.116009995,0,-0.0234375,0.39370078,-0.0546875,0,false,false,false,2305.51,-1151.28,17.01,-0.0038869507,-0.0028943082,0.8026609,-0.5964159,-413.541,-1373.9209,8.321,-0.00040999998,0,-0.039909996
31.075,2088.13,-1941.08,259.66,-0.19490665,0.5205216,-0.58685625,0.5887854,-288.281,-671.78094,431.801,5.1592097,-2.21511,2.1154099,0,0,0,0,0,false,false,false,2479.65,-1588.1,115.07,-0.5364309,0.088990204,0.32849312,0.772279,1292.241,1773.221,85.491,-5.33531,-1.33111,0.11091,0,-0.0234375,0.39370078,-0.0625,0,false,false,false,2298.6199,-1174.14,17.01,-0.0038869507,-0.0028943082,0.8028652,-0.59614074,-411.831,-1365.281,8.321,-0.00040999998,0,-0.042109996
31.091667,2083.3298,-1952.2799,266.72,-0.16770056,0.5307933,-0.55697435,0.6163719,-288.121,-671.441,420.741,5.1592097,-2.21511,2.1154099,0,0,0,0,0,false,false,false,2501.19,-1558.5399,115.72,-0.58643544,0.09622462,0.31551313,0.7397875,1292.241,1773.221,27.181,-5.33411,-1.33581,0.10871,0,-0.03125,0.39370078,-0.0625,0,false,false,false,2291.77,-1196.86,17.01,-0.0038869507,-0.0028943082,0.80307746,-0.5958548,-410.161,-1356.631,8.321,-0.00040999998,0,-0.04381
31.108334,2078.53,-1963.46,273.59,-0.14007913,0.5397379,-0.5257006,0.6424169,-287.961,-671.10095,409.681,5.1592097,-2.21511,2.1154099,0,0,0,0,0,false,false,false,2522.73,-1528.98,115.84,-0.6342281,0.10307609,0.30131942,0.70451146,1292.241,1773.221,2.541,-5.33351,-1.33841,0.10790999,-1,-0.03125,0.39370078,-0.0703125,0,false,false,false,2284.94,-1219.44,17.01,-0.0038869502,-0.002894308,0.8033015,-0.5955526,-408.701,-1347.9109,8.321,-0.00040999998,0,-0.049809996
31.125,2073.73,-1974.64,280.28,-0.11210699,0.5473284,-0.4931105,0.6668624,-287.801,-670.761,398.641,5.1592097,-2.21511,2.1154099,0,0,0,0,0,false,false,false,2544.27,-1499.4199,115.74,0.6796256,-0.10952288,-0.28596574,-0.6665862,1292.241,1773.221,-7.8609996,-5.33311,-1.33991,0.107609995,1,-0.0078125,0.42519686,-0.0703125,0,false,false,false,2278.19,-1241.6699,17.01,-0.0038923454,-0.0028943082,0.80355334,-0.5952128,-392.721,-1291.7909,8.321,0.0017099999,-0.00061,-0.051809996
31.141666,2068.93,-1985.82,286.79,-0.083854355,0.55355406,-0.45929047,0.6896365,-287.641,-670.42096,387.601,5.1592097,-2.21511,2.1154099,0,0,0,0,0,false,false,false,2565.81,-1469.86,115.549995,0.7224603,-0.11555426,-0.2695277,-0.6261413,1292.241,1773.221,-12.251,-5.33291,-1.3407099,0.107609995,1,-0.0078125,0.42519686,-0.0703125,0,false,false,false,2271.64,-1263.21,17.01,-0.0038977405,-0.002899703,0.803797,-0.5948838,-394.371,-1294.9409,8.321,-0.00061,0,-0.041709997
31.158333,2064.13,-1996.99,293.11,-0.05539128,0.55839854,-0.4243266,0.7106825,-287.481,-670.08093,376.561,5.1592097,-2.21511,2.1154099,0,0,0,0,0,false,false,false,2587.3499,-1440.2999,115.32,0.76256275,-0.12113792,-0.2520701,-0.5833388,1292.241,1773.221,-14.101,-5.33281,-1.34121,0.107609995,1,-0.015625,0.42519686,-0.0625,0,false,false,false,2265.06,-1284.7999,17.01,-0.0038977403,-0.0028889133,0.80399656,-0.59461397,-396.101,-1298.001,8.321,-0.0012099999,0,-0.034709997
31.175,2059.3398,-2008.1499,299.25,-0.02679334,0.56184584,-0.3882946,0.7299579,-287.321,-669.74097,365.531,5.1592097,-2.21511,2.1154099,0,0,0,0,0,false,false,false,2608.89,-1410.74,115.079994,0.7997891,-0.12626296,-0.2336576,-0.53832984,1292.241,1773.221,-14.891,-5.33281,-1.3414099,0.107609995,1,-0.015625,0.42519686,-0.0546875,0,false,false,false,2258.45,-1306.45,17.01,-0.0038923454,-0.0028781237,0.80417216,-0.5943766,-398.001,-1300.9509,8.321,-0.00131,0.00021,-0.034709997
31.191668,2054.56,-2019.3099,305.19998,0.0018746917,0.5638905,-0.3512916,0.7474075,-287.161,-669.40094,354.511,5.1592097,-2.21511,2.1154099,0,0,0,0,0,false,false,false,2630.43,-1381.1799,114.82,0.83399534,-0.13091332,-0.21436033,-0.49128705,1292.241,1773.221,-15.221,-5.33271,-1.34161,0.107609995,0,-0.015625,0.42519686,-0.0546875,0,false,false,false,2251.81,-1328.14,17.01,-0.0038815557,-0.002867334,0.8043476,-0.5941393,-399.851,-1303.861,8.321,-0.00111,0.00021,-0.034709997
31.208334,2049.78,-2030.47,310.97,0.030542724,0.56452173,-0.31341454,0.7629898,-287.001,-669.061,343.491,5.1592097,-2.21511,2.1154099,0,0,0,0,0,false,false,false,2651.97,-1351.62,114.56,0.865053,-0.13506731,-0.19424848,-0.44238845,1292.241,1773.221,-15.361,-5.33271,-1.34161,0.10771,0,-0.015625,0.42519686,-0.0546875,0,false,false,false,2245.16,-1349.84,17.01,-0.003876161,-0.0028619394,0.804519,-0.5939073,-398.101,-1295.241,8.321,-0.00021,0,-0.03431
31.225,2045,-2041.61,316.56,0.059129916,0.5637449,-0.2747553,0.7766625,-286.841,-668.72095,332.471,5.1592097,-2.21511,2.1154099,0,0,0,0,0,false,false,false,2673.51,-1322.0599,114.299995,0.8928407,-0.13871424,-0.1734029,-0.39182287,1292.241,1773.221,-15.4210005,-5.33271,-1.34161,0.10771,0,-0.0234375,0.4094488,-0.0546875,0,false,false,false,2238.53,-1371.39,17.01,-0.0038761613,-0.0028619396,0.80468625,-0.59368074,-396.311,-1286.621,8.321,0,0,-0.03411
31.241667,2040.22,-2052.75,321.96,0.08757137,0.5615599,-0.23540552,0.78839445,-286.681,-668.381,321.461,5.1592097,-2.21511,2.1154099,0,0,0,0,0,false,false,false,2695.05,-1292.5,114.04,0.917258,-0.14183243,-0.15190455,-0.33977365,1292.241,1773.221,-15.451,-5.33271,-1.34161,0.10771,0,-0.03125,0.4094488,-0.0546875,0,false,false,false,2231.93,-1392.7999,17.01,-0.0038761613,-0.0028619396,0.8048613,-0.5934434,-394.671,-1277.9609,8.321,0,0,-0.038809996
31.258333,2035.44,-2063.89,327.18,0.115791626,0.5579724,-0.19546771,0.79815495,-286.521,-668.04095,310.461,5.1592097,-2.21511,2.1154099,0,0,0,0,0,false,false,false,2716.5898,-1262.94,113.78,0.9382087,-0.14441656,-0.12983437,-0.28644592,1292.241,1773.221,-15.451,-5.33271,-1.34161,0.10771,0,-0.03125,0.4094488,-0.0625,0,false,false,false,2225.3599,-1414.0599,17.01,-0.003876161,-0.0028619394,0.8050641,-0.5931682,-393.151,-1269.251,8.321,0,0,-0.047009997
31.275,2030.6599,-2075.02,332.22,0.14372066,0.5529876,-0.15504433,0.805922,-286.361,-667.701,299.461,5.1592097,-2.21511,2.1154099,0,0,0,0,0,false,false,false,2738.13,-1233.38,113.52,0.9556168,-0.14645576,-0.10727324,-0.23203376,1292.241,1773.221,-15.451,-5.33271,-1.34161,0.10771,0,-0.03125,0.4015748,-0.0703125,0,false,false,false,2218.81,-1435.1799,17.01,-0.003876161,-0.0028619394,0.80530244,-0.5928445,-391.601,-1260.5509,8.321,0,0,-0.05281
31.291666,2025.88,-2086.14,337.07,0.17129354,0.54662174,-0.11423253,0.8116736,-286.201,-667.36096,288.461,5.1592097,-2.21511,2.1154099,0,0,0,0,0,false,false,false,2759.67,-1203.82,113.259995,0.96941465,-0.14794473,-0.084307514,-0.17674768,1292.241,1773.221,-15.451,-5.33271,-1.34161,0.10771,1,-0.0078125,0.4488189,-0.0703125,0,false,false,false,2212.29,-1456.15,17.01,-0.003876161,-0.0028619394,0.8055684,-0.59248304,-390.061,-1251.851,8.321,0,0,-0.056909997
31.308332,2021.12,-2097.26,341.74,0.19843484,0.5388909,-0.07313485,0.8153964,-286.04102,-667.02094,277.481,5.1592097,-2.21511,2.1154099,0,0,0,0,0,false,false,false,2781.21,-1174.26,113,0.979552,-0.14887264,-0.06102349,-0.12079265,1292.241,1773.221,-15.451,-5.33271,-1.34161,0.10771,0,-0.0078125,0.4488189,-0.078125,0,false,false,false,2205.78,-1477.0299,17.01,-0.003876161,-0.0028619394,0.8058302,-0.59212697,-391.901,-1255.641,8.321,-0.00051,0,-0.045209996
31.325,2016.36,-2108.38,346.22998,0.22508523,0.52981144,-0.0318537,0.8170812,-285.881,-666.68097,266.501,5.1592097,-2.21511,2.1154099,0,0,0,0,0,false,false,false,2802.75,-1144.7,112.74,0.98598987,-0.14923954,-0.03750745,-0.06437906,1292.241,1773.221,-15.451,-5.33271,-1.34161,0.10771,0,-0.015625,0.4488189,-0.0703125,0,false,false,false,2199.25,-1497.9199,17.01,-0.0038761613,-0.0028619396,0.8060402,-0.5918411,-389.971,-1247.0609,8.321,0,-0.00021,-0.03701
31.341667,2011.6,-2119.48,350.53998,0.25116917,0.51940495,0.0095083285,0.81672645,-285.721,-666.34094,255.521,5.1592097,-2.21511,2.1154099,0,0,0,0,0,false,false,false,2824.29,-1115.14,112.479996,0.98870313,-0.14904527,-0.013851182,-0.007722693,1292.241,1773.221,-15.451,-5.33271,-1.3415099,0.10771,0,-0.015625,0.44094488,-0.0625,0,false,false,false,2192.76,-1518.6699,17.01,-0.003876161,-0.0028619394,0.8062224,-0.5915929,-388.241,-1238.4209,8.321,0,-0.00021,-0.03631
31.358334,2006.84,-2130.5798,354.66,0.27662736,0.5077035,0.050843425,0.8143275,-285.561,-666.001,244.551,5.1592097,-2.21511,2.1154099,0,0,0,0,0,false,false,false,2845.8298,-1085.58,112.22,0.98768336,-0.14827922,0.009853595,0.048966035,1292.241,1773.221,-15.451,-5.33271,-1.3415099,0.10771,0,-0.015625,0.44094488,-0.0546875,0,false,false,false,2186.29,-1539.27,17.01,-0.0038761606,-0.0028619391,0.8064004,-0.5913501,-386.461,-1229.8009,8.321,0,-0.00021,-0.03571
31.375,2002.08,-2141.68,358.6,0.30139494,0.49473435,0.09204905,0.8098925,-285.401,-665.66095,233.591,5.1592097,-2.21511,2.1154099,0,0,0,0,0,false,false,false,2867.3699,-1056.02,111.96,0.9829325,-0.14695749,0.033526126,0.105465986,1292.241,1773.221,-15.451,-5.33271,-1.3415099,0.10771,0,-0.015625,0.4488189,-0.0546875,0,false,false,false,2179.8599,-1559.73,17.01,-0.0038761613,-0.0028619396,0.80657446,-0.59111285,-384.631,-1221.1909,8.321,0,-0.00021,-0.035309996
31.391666,1997.32,-2152.77,362.36,0.3254073,0.48052987,0.13302809,0.803433,-285.241,-665.321,222.631,5.1592097,-2.21511,2.1154099,0,0,0,0,0,false,false,false,2888.91,-1026.46,111.7,0.9744696,-0.1450801,0.057069104,0.16156664,1292.241,1773.221,-15.451,-5.33271,-1.3415099,0.10771,0,-0.0234375,0.44094488,-0.0546875,0,false,false,false,2173.45,-1580.0499,17.01,-0.003876161,-0.0028619394,0.8067484,-0.5908754,-382.781,-1212.591,8.321,0,-0.00021,-0.035109997
31.408333,1992.5599,-2163.8499,365.93,0.34861037,0.46512222,0.17367265,0.79496527,-285.081,-664.98096,211.671,5.1592097,-2.21511,2.1154099,0,0,0,0,0,false,false,false,2910.45,-996.89996,111.439995,0.9623246,-0.14265785,0.080396295,0.21706317,1292.241,1773.221,-15.451,-5.33271,-1.3415099,0.10771,0,-0.0234375,0.44094488,-0.0546875,0,false,false,false,2167.0798,-1600.22,17.01,-0.003876161,-0.0028619394,0.80692613,-0.5906326,-381.07098,-1203.9409,8.321,0,-0.00021,-0.039909996
31.425,1987.8099,-2174.93,369.31998,0.37093952,0.44855472,0.21388564,0.7845096,-284.921,-664.641,200.731,5.1592097,-2.21511,2.1154099,0,0,0,0,0,false,false,false,2931.99,-967.33997,111.18,0.9465444,-0.13969608,0.10342135,0.27173954,1292.241,1773.221,-15.451,-5.33281,-1.3414099,0.10771,0,-0.0234375,0.43307087,-0.0625,0,false,false,false,2160.73,-1620.25,17.01,-0.003876161,-0.0028619394,0.8071274,-0.5903575,-379.311,-1195.3009,8.321,0,-0.00021,-0.043209996
31.441668,1983.07,-2186.01,372.53,0.39234075,0.43086508,0.25356442,0.7720939,-284.761,-664.30096,189.791,5.1592097,-2.21511,2.1154099,0,0,0,0,0,false,false,false,2953.53,-937.77997,110.92,0.9271908,-0.1362002,0.12605798,0.32538566,1292.241,1773.221,-15.451,-5.33281,-1.3414099,0.10771,0,-0.0234375,0.43307087,-0.0625,0,false,false,false,2154.42,-1640.13,17.01,-0.003876161,-0.0028619394,0.8073444,-0.5900608,-377.531,-1186.6809,8.321,0,-0.00030999997,-0.045609996
31.458334,1978.33,-2197.07,375.56,0.41276017,0.41209662,0.29260677,0.75775105,-284.601,-663.96094,178.851,5.1592097,-2.21511,2.1154099,0,0,0,0,0,false,false,false,2975.0698,-908.22,110.659996,0.9043351,-0.1321919,0.14821993,0.37780172,1292.241,1773.221,-15.451,-5.33281,-1.3414099,0.10771,0,-0.03125,0.42519686,-0.0703125,0,false,false,false,2148.13,-1659.87,17.01,-0.003876161,-0.0028619394,0.807569,-0.58975327,-375.751,-1178.0509,8.321,0,-0.00030999997,-0.04731
31.475,1973.59,-2208.13,378.4,0.43214375,0.3922976,0.33092076,0.7415158,-284.441,-663.621,167.921,5.1592097,-2.21511,2.1154099,0,0,0,0,0,false,false,false,2996.6099,-878.66,110.399994,0.878062,-0.12768723,0.16982076,0.4287935,1292.241,1773.221,-15.451,-5.33281,-1.3414099,0.10771,0,-0.03125,0.42519686,-0.0703125,0,false,false,false,2141.88,-1679.47,17.01,-0.003876161,-0.0028619394,0.8078132,-0.58941877,-374.161,-1169.361,8.321,0,-0.00030999997,-0.05351
31.491667,1968.85,-2219.19,381.06,0.45044827,0.37151676,0.36840397,0.7234293,-284.281,-663.28094,157.001,5.1592097,-2.21511,2.1154099,0,0,0,0,0,false,false,false,3018.15,-849.1,110.14,0.8484755,-0.122702405,0.19077423,0.4781615,1292.241,1773.221,-15.451,-5.33281,-1.3414099,0.10771,0,-0.03125,0.41732284,-0.078125,0,false,false,false,2135.65,-1698.9199,17.01,-0.0038761606,-0.0028619391,0.80808073,-0.58905184,-372.541,-1160.6809,8.321,0,-0.00040999998,-0.05791
31.508333,1964.11,-2230.24,383.53998,0.4676308,0.349808,0.4049646,0.7035335,-284.121,-662.941,146.08101,5.1592097,-2.21511,2.1154099,0,0,0,0,0,false,false,false,3039.69,-819.54,109.88,0.8156859,-0.11724827,0.2110102,0.5257222,1292.241,1773.221,-15.451,-5.33281,-1.3414099,0.10771,0,-0.03125,0.4094488,-0.0859375,0,false,false,false,2129.45,-1718.23,17.01,-0.003876161,-0.0028619394,0.80836767,-0.5886581,-370.941,-1151.991,8.321,0,-0.00040999998,-0.061009996
31.525,1959.37,-2241.28,385.84,0.48364803,0.32722533,0.44052187,0.68187135,-283.961,-662.60095,135.16101,5.1592097,-2.21511,2.1154099,0,0,0,0,0,false,false,false,3061.23,-789.98,109.619995,0.7798156,-0.11135711,0.23044765,0.5712976,1292.241,1773.221,-15.451,-5.33281,-1.3414099,0.10771,1,-0.0078125,0.47244096,-0.078125,0,false,false,false,2123.28,-1737.39,17.01,-0.003876161,-0.0028619394,0.80867,-0.5882427,-369.351,-1143.2909,8.321,0,-0.00051,-0.063209996
