time,ball_loc_x,ball_loc_y,ball_loc_z,ball_rot_x,ball_rot_y,ball_rot_z,ball_rot_w,ball_vel_x,ball_vel_y,ball_vel_z,ball_ang_x,ball_ang_y,ball_ang_z,player0_throttle,player0_steer,player0_pitch,player0_yaw,player0_roll,player0_jump,player0_boost,player0_handbrake,player0_loc_x,player0_loc_y,player0_loc_z,player0_rot_x,player0_rot_y,player0_rot_z,player0_rot_w,player0_vel_x,player0_vel_y,player0_vel_z,player0_ang_x,player0_ang_y,player0_ang_z,player1_throttle,player1_steer,player1_pitch,player1_yaw,player1_roll,player1_jump,player1_boost,player1_handbrake,player1_loc_x,player1_loc_y,player1_loc_z,player1_rot_x,player1_rot_y,player1_rot_z,player1_rot_w,player1_vel_x,player1_vel_y,player1_vel_z,player1_ang_x,player1_ang_y,player1_ang_z
370.20834,3589.6199,1418,234.54,0.81607795,0.3311312,-0.4142168,0.22976792,-313.631,-1477.091,-411.761,2.6189098,-1.89291,4.58541,1,0.22047244,0,0,0,false,true,false,1929.38,-2605.47,17.76,0.015820323,0.012524104,0.8677968,-0.49650925,-1153.491,-1905.351,-86.300995,2.32671,-1.3141099,0.19891,1,-1,-1,-0.3203125,1,false,false,false,3953.66,2032.59,211.89,-0.20673206,0.2742589,0.72915405,-0.59192735,-422.831,-1636.341,-336.631,0.052209996,2.38621,-0.69440997
370.225,3584.4,1393.39,227.54,0.81408095,0.36735734,-0.38489586,0.23275667,-313.471,-1476.3309,-422.381,2.6189098,-1.89291,4.58541,1,0.22047244,0,0,0,false,true,false,1910.11,-2637.44,16.38,-0.001340607,0.0022199587,0.86710286,-0.49812233,-1148.641,-1927.1809,-45.521,1.43671,-0.76531,0.26251,1,-1,-0.8359375,-0.359375,1,false,false,false,3946.6099,2005.2999,206.14,-0.1902293,0.26043746,0.7372784,-0.59363747,-423.061,-1637.4209,-347.431,0.33191,2.77901,-0.60711
370.24167,3579.18,1368.7899,220.37,0.8103085,0.40277433,-0.3547335,0.23523833,-313.311,-1475.5709,-432.991,2.6189098,-1.89291,4.58541,1,0.21259843,0,0,0,false,true,false,1890.9099,-2669.77,15.7699995,-0.00860744,-0.0025436466,0.8659385,-0.5000699,-1145.141,-1948.1709,7.1109996,0.074209996,0.02441,0.30881,1,-1,-0.609375,-0.3984375,1,false,false,false,3939.5498,1978,200.20999,-0.1727933,0.24291511,0.7457974,-0.5957523,-423.301,-1638.501,-358.231,0.59121,3.1389098,-0.55201
370.25833,3573.96,1344.21,213.01999,0.80476457,0.43731737,-0.32379422,0.23720203,-313.151,-1474.8109,-443.591,2.6189098,-1.89291,4.58541,1,0.21259843,0,0,0,false,true,false,1871.76,-2702.44,15.82,-0.008283751,-0.0029158874,0.8646186,-0.5023518,-1142.271,-1968.751,18.220999,-0.056409996,0.08351,0.33751002,1,-1,-0.4375,-0.4375,1,false,false,false,3932.49,1950.6799,194.09999,-0.15433222,0.22203717,0.754567,-0.597921,-423.551,-1639.5809,-369.021,0.81561,3.4718099,-0.53541
370.275,3568.74,1319.64,205.5,0.79746133,0.47090536,-0.29214814,0.2386478,-312.991,-1474.0509,-454.191,2.6189098,-1.89291,4.58541,1,0.2047244,0,0,0,false,true,false,1852.6699,-2735.46,15.99,-0.007458348,-0.002872729,0.86318916,-0.50481725,-1139.351,-1989.2809,19.911,-0.05351,0.07301,0.35731,1,-1,-0.3125,-0.4765625,-1,false,false,false,3925.43,1923.34,187.81,-0.13473824,0.19812195,0.7634321,-0.5998038,-423.811,-1640.6509,-379.801,1.00871,3.78011,-0.54921
370.29166,3563.52,1295.08,197.8,0.7884149,0.50346315,-0.25986564,0.23957573,-312.831,-1473.2909,-464.791,2.6189098,-1.89291,4.58541,1,0.19685039,0,0,0,false,false,false,1833.63,-2768.8198,16.19,-0.0067300503,-0.002818781,0.8616789,-0.50740135,-1131.881,-2002.111,19.290998,-0.045509998,0.060009997,0.36711,1,-1,-0.21875,-0.5234375,-1,false,false,false,3918.3699,1895.98,181.34999,-0.118710265,0.17752995,0.77083045,-0.6001761,-424.07098,-1641.7109,-390.591,0.86731,2.85201,-0.54671
370.30832,3558.2998,1270.5399,189.92,0.7776458,0.5349204,-0.22701661,0.23998035,-312.671,-1472.5309,-475.371,2.6189098,-1.89291,4.58541,1,0.18110237,0,0,0,false,false,false,1814.74,-2802.3298,16.369999,-0.006125833,-0.002764833,0.86012465,-0.51003945,-1120.5509,-2008.491,17.691,-0.036909997,0.047509998,0.37031,1,-1,-0.1484375,-0.5703125,-1,false,false,false,3911.2898,1868.6,174.70999,-0.107456654,0.16214927,0.77678716,-0.59896755,-424.35098,-1642.771,-401.391,0.71961,1.99971,-0.56761
370.325,3553.0898,1246.01,181.86,0.765179,0.5652069,-0.19367124,0.23986165,-312.511,-1471.771,-485.951,2.6189098,-1.89291,4.58541,1,0.17322835,0,0,0,false,false,false,1796.11,-2835.8298,16.52,-0.005645696,-0.0027216745,0.8585583,-0.5126775,-1109.1809,-2014.5609,16.091,-0.02921,0.03681,0.36421,1,-0.90625,-0.09375,-0.625,1,false,false,false,3904.21,1841.21,167.89,-0.10054589,0.15171574,0.78177595,-0.5964051,-424.631,-1643.8309,-412.191,0.56851,1.21711,-0.60781
370.34167,3547.89,1221.49,173.62999,0.75104326,0.594258,-0.15989967,0.2392143,-312.351,-1471.011,-496.531,2.6189098,-1.89291,4.58541,1,0.16535433,0,0,0,false,false,false,1777.6699,-2869.43,16.65,-0.005273413,-0.002689306,0.8570124,-0.5152616,-1097.661,-2020.631,14.471,-0.022809999,0.02811,0.35621,1,-0.2109375,-0.0625,-0.6875,1,false,false,false,3897.13,1813.7999,160.89,-0.09288524,0.13976079,0.7872525,-0.593357,-424.931,-1644.891,-422.991,0.75601,1.70411,-0.69451
370.35834,3542.69,1196.98,165.22,0.7352615,0.6220142,-0.12578283,0.238049,-312.191,-1470.251,-507.111,2.6189098,-1.89291,4.58541,1,0.15748031,0,0,0,false,false,false,1759.4199,-2903.13,16.75,-0.0049874885,-0.0026677265,0.8554911,-0.5177863,-1086.121,-2026.631,13.021,-0.01781,0.02131,0.34661,1,-0.0078125,-0.0625,0.7559055,1,false,false,false,3890.0498,1786.37,153.70999,-0.08296961,0.12440721,0.7935099,-0.589899,-425.231,-1645.9509,-433.791,0.93161,2.15171,-0.79140997
370.375,3537.49,1172.48,156.64,0.7178731,0.6484111,-0.09139088,0.23636582,-312.031,-1469.491,-517.67096,2.6189098,-1.89291,4.58541,1,0.1496063,0,0,0,false,false,false,1741.37,-2936.93,16.83,-0.004766302,-0.0026461475,0.8540053,-0.52023566,-1074.631,-2032.5209,11.801001,-0.013909999,0.01601,0.33581,1,0.015748031,-0.078125,0.8267717,1,false,false,false,3882.95,1758.9199,146.34999,-0.07080425,0.105989285,0.79953986,-0.58693177,-425.551,-1647.011,-444.60098,1.03941,2.58371,-0.67860997
370.39166,3532.29,1148,147.87999,0.69891423,0.6733945,-0.056793932,0.23416477,-311.871,-1468.731,-528.23096,2.6189098,-1.89291,4.58541,1,0.14173228,0,0,0,false,false,false,1723.5,-2970.8298,16.89,-0.004593669,-0.002629963,0.8525623,-0.5225986,-1063.271,-2038.261,10.811,-0.010709999,0.01201,0.32411,1,0.13385826,-0.0859375,0.7322835,-1,false,false,false,3875.8499,1731.46,138.8,-0.056534976,0.0847391,0.8048179,-0.5847145,-425.881,-1648.0609,-455.421,1.14711,2.97931,-0.55401
370.40833,3527.0898,1123.53,138.94,0.6784333,0.6969012,-0.022072893,0.23145108,-311.711,-1467.971,-538.79095,2.6189098,-1.89291,4.58541,1,0.13385826,0,0,0,false,false,false,1705.83,-3004.8298,16.93,-0.0044641937,-0.0026191734,0.8511634,-0.5248752,-1052.131,-2043.8309,10.041,-0.0083099995,0.008909999,0.31161,1,0.24409449,-0.09375,0.5905512,-1,false,false,false,3868.75,1703.98,131.06999,-0.04497928,0.06719513,0.80865294,-0.5827022,-426.221,-1649.101,-466.241,0.86731,2.14961,-0.43111
370.425,3521.89,1099.07,129.83,0.65647095,0.71888494,0.012691342,0.22823039,-311.551,-1467.2109,-549.34094,2.6189098,-1.89291,4.58541,1,0.11811024,0,0,0,false,false,false,1688.34,-3038.91,16.96,-0.0043616924,-0.0026083838,0.84981275,-0.5270601,-1041.241,-2049.201,9.461,-0.00641,0.00661,0.29851002,1,0.33070865,-0.1015625,0.46456692,-1,false,false,false,3861.65,1676.48,123.159996,-0.037458893,0.05514847,0.8112631,-0.58086795,-426.561,-1650.141,-477.061,0.61161,1.3838099,-0.33061
370.44168,3516.7,1074.63,120.54,0.63307375,0.7392982,0.047428522,0.2245134,-311.391,-1466.4509,-559.881,2.6189098,-1.89291,4.58541,1,0.11023622,0,0,0,false,false,false,1671.0299,-3073.0898,16.98,-0.0042807707,-0.002602989,0.8485215,-0.5291371,-1030.8009,-2054.291,9.071,-0.00481,0.00491,0.28091002,1,0.33858266,-0.109375,0.37795275,-1,false,false,false,3854.53,1648.96,115.07,-0.03368793,0.048173,0.8130125,-0.5792711,-426.921,-1651.1809,-487.88098,0.37761,0.67711,-0.25091
370.45834,3511.52,1050.2,111.079994,0.60829526,0.75809646,0.08206328,0.22030005,-311.231,-1465.6909,-570.42096,2.6189098,-1.89291,4.58541,1,0.11023622,0,0,0,false,false,false,1653.89,-3107.3499,17,-0.0042214273,-0.0026029889,0.8473007,-0.53108996,-1020.71094,-2059.151,8.781,-0.00371,0.00361,0.26411,1,0.36220473,-0.1171875,0.30708662,1,false,false,false,3847.41,1621.4299,106.799995,-0.03339661,0.045874815,0.814128,-0.57790625,-427.281,-1652.221,-498.701,0.16291,0.02521,-0.18651
370.475,3506.3398,1025.78,101.439995,0.5821843,0.77524155,0.116514534,0.21560657,-311.071,-1464.9309,-580.96094,2.6189098,-1.89291,4.58541,1,0.1023622,0,0,0,false,false,false,1636.9199,-3141.69,17.01,-0.0041782693,-0.002602989,0.84614515,-0.53292966,-1010.8909,-2063.821,8.521,-0.00281,0.00261,0.25201002,1,0.36220473,0.12598425,0.24409449,0.37795275,false,false,false,3840.2898,1593.88,98.35,-0.031767383,0.041461874,0.81507605,-0.5769945,-427.641,-1653.261,-509.521,0.38021,0.60621,-0.13261
370.49167,3501.16,1001.38,91.619995,0.5548002,0.7906922,0.1507177,0.21044375,-310.911,-1464.1709,-591.49097,2.6189098,-1.89291,4.58541,1,0.09448819,0,0,0,false,false,false,1620.12,-3176.1099,17.01,-0.0041459007,-0.002602989,0.8450385,-0.5346829,-1001.54095,-2068.231,8.391,-0.00221,0.0019099999,0.23890999,1,0.3464567,0.1496063,0.19685039,0.6929134,false,false,false,3833.15,1566.3099,89.72,-0.028595243,0.035187725,0.8158927,-0.57642263,-428.001,-1654.3009,-520.35095,0.40691,0.78960997,-0.09461
370.50833,3496.5999,982.5,97.49,0.54328775,0.78927827,0.22236624,0.18008706,-273.441,-1132.5509,349.291,5.44061,-1.3572099,2.13481,1,0.08661418,0,0,0,false,false,false,1603.46,-3210.5898,17.01,-0.0041189273,-0.0026029893,0.8439884,-0.5363392,-992.631,-2072.3909,8.341001,-0.0017099999,0.0014099999,0.22521,1,0.31496063,0.13385826,0.15748031,0.96062994,false,false,false,3826.01,1538.73,80.909996,-0.023637384,0.02690663,0.81658345,-0.57611513,-428.361,-1655.341,-531.191,0.49301,1.14621,-0.062709995
370.525,3492.04,963.63,103.17,0.53421897,0.7858401,0.26720256,0.16021255,-273.301,-1131.971,338.271,5.44061,-1.3572099,2.13481,1,0.07874016,0,0,0,false,false,false,1586.95,-3245.15,17.01,-0.004097348,-0.0026029893,0.8429957,-0.53789836,-984.17096,-2076.291,8.321,-0.00131,0.00111,0.21111,1,0.2992126,0.11023622,0.11811024,-1,false,false,false,3818.8699,1511.13,71.92,-0.016203312,0.015582953,0.8171391,-0.5760019,-428.721,-1656.381,-542.03094,0.63161,1.63191,-0.03481
370.54166,3487.48,944.76996,108.67,0.5238179,0.7804372,0.31136996,0.13993344,-273.161,-1131.391,327.251,5.44061,-1.3572099,2.13481,1,0.07874016,0,0,0,false,false,false,1570.58,-3279.77,17.01,-0.0040757684,-0.002602989,0.842068,-0.5393495,-976.17096,-2079.951,8.321,-0.00091,0.00081,0.19670999,1,0.2519685,0.08661418,0.09448819,-1,false,false,false,3811.72,1483.51,62.75,-0.0107545685,0.0074690953,0.8174271,-0.57588315,-429.081,-1657.4209,-552.871,0.35111,0.92131,-0.02301
370.55832,3482.92,925.92,113.99,0.51211107,0.77307993,0.35476047,0.119309045,-273.021,-1130.8109,316.251,5.44061,-1.3572099,2.13481,1,0.07086614,0,0,0,false,false,false,1554.35,-3314.45,17.01,-0.0040649786,-0.002602989,0.8411958,-0.54070896,-968.52094,-2083.421,8.321,-0.00061,0.00061,0.18610999,1,0.19685039,0.07086614,0.07086614,-1,false,false,false,3804.5598,1455.87,53.399998,-0.008612835,0.0043455088,0.817551,-0.5757753,-429.441,-1658.4609,-563.71094,0.09631,0.26501,-0.014509999
370.575,3478.38,907.07996,119.119995,0.49912038,0.7637926,0.3972662,0.09838254,-272.881,-1130.231,305.251,5.44061,-1.3572099,2.13481,1,0.062992126,0,0,0,false,false,false,1538.24,-3349.18,17.01,-0.0040541897,-0.0026029893,0.84036916,-0.541993,-961.35095,-2086.6409,8.321,-0.00040999998,0.00051,0.17421,1,0.14173228,-1,0,0,true,false,false,3797.4,1428.22,43.87,-0.009546135,0.0058074985,0.81758475,-0.5756998,-429.801,-1659.501,-574.55096,-0.13600999,-0.34061,-0.0094099995
370.59167,3473.8398,888.25,124.07,0.48488343,0.7525978,0.43877393,0.07721327,-272.741,-1129.651,294.251,5.44061,-1.3572099,2.13481,1,0.062992126,0,0,0,false,false,false,1522.25,-3383.97,17.01,-0.0040433994,-0.0026083838,0.8395991,-0.5431852,-954.6409,-2089.6409,8.321,-0.00021,0.00040999998,0.16130999,1,0.11023622,0.07874016,0.03937008,0.24409449,false,true,false,3787.42,1392.7,34.16,-0.03003565,-0.005106174,0.8171465,-0.57562417,-598.79095,-2131.251,-585.40094,3.3459098,-1.55721,0.07211
370.60834,3469.2998,869.43,128.84,0.46943265,0.73952276,0.47918653,0.05584988,-272.601,-1129.0709,283.261,5.44061,-1.3572099,2.13481,1,0.05511811,0,0,0,false,false,false,1506.36,-3418.8098,17.01,-0.00403261,-0.0026191734,0.83887905,-0.5442965,-948.24097,-2092.481,8.321,-0.00010999999,0.00021,0.15190999,1,-0.171875,1,-0.0390625,0.37795275,false,true,false,3777.3098,1357,24.74,-0.067011714,-0.028730113,0.8154885,-0.57416224,-628.93097,-2138.6108,-455.141,2.93171,-1.15991,-0.10331
370.625,3464.76,850.62,133.42,0.45281124,0.7245942,0.5184068,0.03434614,-272.461,-1128.491,272.281,5.44061,-1.3572099,2.13481,1,0.05511811,0,0,0,false,false,false,1490.58,-3453.7,17.01,-0.00403261,-0.0026191734,0.83820605,-0.5453323,-942.311,-2095.0908,8.321,-0.00010999999,0.00021,0.14081,1,1,1,0.18110237,0.21259843,false,false,false,3766.5999,1321.22,18.39,-0.0721476,-0.03193462,0.81601584,-0.5726193,-671.71094,-2140.191,-194.731,-3.0269098,1.27171,-0.35181
370.64166,3460.22,831.82,137.81999,0.43505692,0.70785797,0.5563269,0.012756079,-272.321,-1127.911,261.301,5.44061,-1.3572099,2.13481,1,0.047244094,0,0,0,false,false,false,1474.9,-3488.63,17.01,-0.00403261,-0.0026191734,0.837577,-0.546298,-936.691,-2097.551,8.321,-0.00010999999,0.00021,0.13261,1,1,-1,0.25984251,0.11023622,false,false,false,3755.2998,1285.37,15.48,-0.048253924,-0.016877703,0.81827503,-0.57254916,-685.83093,-2151.8408,-96.041,-2.84321,1.27661,0.22030999
370.65833,3455.68,813.02997,142.04,0.41621286,0.6893553,0.59285533,-0.00886639,-272.181,-1127.3309,250.321,5.44061,-1.3572099,2.13481,1,0.047244094,0,0,0,false,false,false,1459.3099,-3523.5999,17.01,-0.00403261,-0.0026191734,0.8369851,-0.5472044,-931.501,-2099.801,8.321,0,0.00030999997,0.12240999,1,0.96062994,-1,-0.171875,0.25984251,false,false,false,3743.78,1249.32,14.139999,-0.027786026,-0.008558887,0.81723905,-0.5755649,-694.381,-2165.691,-2.511,-0.88491,0.89681,0.68591
370.675,3451.14,794.25,146.06999,0.39633295,0.6691238,0.6279054,-0.03046724,-272.04102,-1126.751,239.36101,5.44061,-1.3572099,2.13481,1,0.03937008,0,0,0,false,false,false,1443.8099,-3558.6099,17.01,-0.00403261,-0.0026245683,0.8364378,-0.54804057,-926.58093,-2101.931,8.321,0,0.00030999997,0.11500999,1,-1,1,-0.6328125,-0.7890625,false,false,false,3732.14,1213.03,14.16,-0.019375494,-0.007355847,0.81374156,-0.58085716,-697.451,-2181.5908,32.481,-0.36971,0.38151,0.98070997
370.69168,3446.5999,775.48,149.92,0.37546036,0.6472242,0.6613826,-0.051992558,-271.901,-1126.1709,228.401,5.44061,-1.3572099,2.13481,1,0.03937008,0,0,0,false,false,false,1428.39,-3593.65,17.01,-0.00403261,-0.002629963,0.83592474,-0.54882276,-922.071,-2103.8708,8.321,0,0.00040999998,0.105409995,1,-1,0.9448819,-1,-0.34375,true,false,false,3720.3298,1176.52,14.589999,-0.015426462,-0.0068487357,0.81019866,-0.58591217,-726.22095,-2182.021,36.841,-0.26591,0.25521,0.13291
370.70834,3442.0698,756.72,153.59,0.3536491,0.6237082,0.6932059,-0.073388405,-271.761,-1125.591,217.44101,5.44061,-1.3572099,2.13481,1,0.03937008,0,0,0,false,false,false,1413.0399,-3628.72,17.01,-0.0040326104,-0.0026299632,0.8354497,-0.54954576,-917.811,-2105.701,8.321,0,0.00040999998,0.098309994,-1,-1,0.71653545,-0.421875,-0.1875,true,false,false,3708.25,1140.5399,20.08,-0.012389191,-0.0063362303,0.8103252,-0.585815,-735.001,-2154.011,331.621,-0.25831002,0.26921,-0.40811
370.725,3437.5498,737.95996,157.08,0.33095315,0.5986278,0.7233017,-0.094600834,-271.621,-1125.011,206.491,5.44061,-1.3572099,2.13481,1,0.031496063,0,0,0,false,false,false,1397.76,-3663.8198,17.01,-0.00403261,-0.002629963,0.83500576,-0.55022,-913.79095,-2107.411,8.321,0,0.00040999998,0.093109995,-1,-1,0.68503934,-0.421875,-0.171875,true,false,false,3696.03,1104.88,25.71,-0.009346526,-0.0058830674,0.8127614,-0.5824918,-727.09094,-2094.961,339.651,-0.24670999,0.27291,-0.71491
370.74167,3433.03,719.22,160.39,0.30742636,0.57205296,0.7515894,-0.11557584,-271.481,-1124.4309,195.55101,5.44061,-1.3572099,2.13481,1,0.031496063,0,0,0,false,false,false,1382.5499,-3698.95,17.01,-0.004027215,-0.0026299627,0.8345894,-0.55085117,-910.131,-2108.971,8.321,0,0.00051,0.085109994,-1,-0.484375,0.6692913,-0.765625,-0.1640625,true,false,false,3683.94,1070.21,31.47,-0.00634702,-0.0054946,0.816518,-0.5772589,-723.3909,-2065.521,347.701,-0.24250999,0.27371,-0.82771
370.75833,3428.51,700.48,163.51,0.28313884,0.5440483,0.7779954,-0.13625956,-271.341,-1123.851,184.61101,5.44061,-1.3572099,2.13481,1,0.031496063,0,0,0,false,false,false,1367.4,-3734.0999,17.01,-0.00402182,-0.002629963,0.8342047,-0.55143386,-906.68097,-2110.431,8.321,0,0.00051,0.07921,1,-0.0390625,0.6614173,0.92913383,-0.1640625,false,false,false,3671.88,1035.7899,37.43,-0.0038491872,-0.004582879,0.8208975,-0.571044,-723.09094,-2064.8408,361.181,-0.26681,0.16140999,-0.93921
370.775,3423.99,681.76,166.45,0.25813934,0.5146844,0.80245835,-0.15660344,-271.201,-1123.271,173.671,5.44061,-1.3572099,2.13481,1,0.031496063,0,0,0,false,false,false,1352.2999,-3769.28,17.01,-0.00402182,-0.002629963,0.83384424,-0.55197877,-903.41095,-2111.801,8.321,0,0.00051,0.07491,1,0,0.6456693,0.992126,-0.078125,false,false,false,3659.8198,1001.36,43.309998,-0.0019717978,-0.0029968093,0.82485265,-0.5653363,-723.47095,-2065.8809,350.321,-0.29071,0.05501,-0.79721
370.79166,3419.47,663.04,169.20999,0.23249237,0.48403105,0.824917,-0.17655887,-271.061,-1122.6909,162.751,5.44061,-1.3572099,2.13481,1,0.023622047,0,0,0,false,false,false,1337.25,-3804.48,17.01,-0.0040218206,-0.0026299632,0.8335048,-0.5524913,-900.34094,-2113.0808,8.321,0,0.00051,0.07171,1,0.007874016,0.62204725,0.8897638,-0.0390625,false,false,false,3647.76,966.92,49.01,-0.00047204466,-0.0010600775,0.8280678,-0.5606266,-723.871,-2066.901,339.481,-0.29401,0.00771,-0.64661
370.80832,3414.95,644.33997,171.79,0.2062681,0.45216924,0.8453119,-0.19607194,-270.921,-1122.111,151.83101,5.44061,-1.3572099,2.13481,1,0.023622047,0,0,0,false,false,false,1322.26,-3839.7,17.01,-0.004016426,-0.0026299632,0.83318275,-0.55297685,-897.571,-2114.231,8.321,0,0.00061,0.06511,1,0.007874016,0.6062992,0.72440946,0.09448819,false,false,false,3635.69,932.45996,54.53,0.00082270644,0.00097376073,0.83060104,-0.5568664,-724.27094,-2067.921,328.641,-0.28791,-0.012409999,-0.50931
370.825,3410.43,625.64,174.18,0.17952599,0.4191799,0.863593,-0.21509399,-270.781,-1121.531,140.91101,5.44061,-1.3572099,2.13481,1,0.023622047,0,0,0,false,false,false,1307.3099,-3874.94,17.01,-0.004005636,-0.002629963,0.832889,-0.5534192,-894.9509,-2115.321,8.321,0.00010999999,0.00051,0.06031,1,0.007874016,0.5905512,0.5748032,0.11811024,false,false,false,3623.6099,897.98,59.87,0.0022523273,0.0026191734,0.83255845,-0.5539263,-724.691,-2068.941,317.801,-0.25021002,0.046609998,-0.39521
370.84167,3405.91,606.95996,176.39,0.15233614,0.38514403,0.8797156,-0.23357667,-270.641,-1120.9509,129.991,5.44061,-1.3572099,2.13481,1,0.023622047,0,0,0,false,false,false,1292.4,-3910.2,17.01,-0.004005636,-0.002635358,0.8326128,-0.55383456,-892.47095,-2116.3408,8.321,0.00021,0.00051,0.05681,-1,0,1,-1,0,false,false,false,3611.53,863.48,65.03,0.003951688,0.0036819484,0.83405477,-0.55165505,-725.11096,-2069.961,306.961,-0.20890999,0.114609994,-0.30341
370.85834,3401.4,588.27997,178.42,0.12476866,0.35014254,0.89364,-0.2514767,-270.501,-1120.371,119.090996,5.44061,-1.3572099,2.13481,1,0.023622047,0,0,0,false,false,false,1277.53,-3945.48,17.01,-0.004005636,-0.0026461475,0.83235073,-0.55422837,-890.131,-2117.311,8.321,0.00021,0.00040999998,0.054209996,-1,0,1,-1,0,false,false,false,3599.45,828.99,70.01,0.0056456546,0.00457209,0.8359567,-0.5487473,-724.67096,-2068.931,296.101,-0.19971,0.10641,-0.45501
370.875,3396.9,569.62,180.26999,0.09688278,0.31426692,0.90533024,-0.26875088,-270.361,-1119.7909,108.190994,5.44061,-1.3572099,2.13481,1,0.015748031,0,0,0,false,false,false,1262.7,-3980.77,17.01,-0.0040056356,-0.0026461473,0.8321027,-0.55460054,-887.92096,-2118.221,8.321,0.00010999999,0.00040999998,0.052209996,1,0,0.5511811,0.4488189,0.023622047,false,false,false,3587.3699,794.51996,74.81,0.0072533037,0.005435257,0.8385356,-0.54477125,-724.22095,-2067.911,285.241,-0.19130999,0.098009996,-0.60661
370.89166,3392.4,550.95996,181.94,0.06875963,0.2776038,0.9147568,-0.28535613,-270.221,-1119.2109,97.291,5.44061,-1.3572099,2.13481,1,0.015748031,0,0,0,false,false,false,1247.9099,-4016.0798,17.01,-0.004005636,-0.0026461475,0.8318653,-0.5549567,-885.96094,-2119.031,8.321,0.00010999999,0.00040999998,0.046509996,1,0.062992126,0.54330707,0.5984252,0.023622047,false,false,false,3575.29,760.04,79.43,0.008828583,0.006185134,0.8409983,-0.54093015,-724.66095,-2068.911,274.421,-0.17611,0.10701,-0.52831
370.90833,3387.9,532.32,183.43,0.04046384,0.2402501,0.92189556,-0.30124927,-270.081,-1118.631,86.401,5.44061,-1.3572099,2.13481,1,0.015748031,0,0,0,false,false,false,1233.15,-4051.4,17.01,-0.004005636,-0.0026461475,0.83165646,-0.5552696,-884.09094,-2119.801,8.321,0.00010999999,0.00040999998,0.04251,1,0.07086614,0.54330707,0.5669291,-0.03125,false,false,false,3563.21,725.54,83.869995,0.010393075,0.0068001407,0.84302485,-0.53773105,-725.121,-2069.911,263.601,-0.16140999,0.11581,-0.43121
370.925,3383.4,513.68,184.73,0.012070941,0.20229213,0.92673147,-0.31638712,-269.941,-1118.0509,75.520996,5.44061,-1.3572099,2.13481,1,0.015748031,0,0,0,false,false,false,1218.4199,-4086.74,17.01,-0.004005636,-0.0026461475,0.8314655,-0.5555555,-882.33093,-2120.521,8.321,0.00010999999,0.00040999998,0.03961,1,0.023622047,0.54330707,0.47244096,-0.046875,false,false,false,3551.1199,691.02997,88.13,0.012448575,0.007857519,0.8446169,-0.5351684,-725.58093,-2070.911,252.781,-0.26801002,0.14241,-0.33891
370.94168,3378.9,495.06,185.84999,-0.016359761,0.16383246,0.9292511,-0.33073193,-269.801,-1117.471,64.641,5.44061,-1.3572099,2.13481,1,0.015748031,0,0,0,false,false,false,1203.72,-4122.08,17.01,-0.0040056356,-0.0026461473,0.8312852,-0.5558252,-880.68097,-2121.191,8.321,0.00010999999,0.00040999998,0.03741,-1,0,-0.875,-0.125,0,true,false,false,3539.02,656.5,92.21,0.015124396,0.009589251,0.84582037,-0.53316706,-726.04095,-2071.911,241.981,-0.37571,0.16150999,-0.26081002
370.95834,3374.4,476.44,186.79,-0.044747304,0.12496287,0.9294496,-0.34424594,-269.661,-1116.891,53.760998,5.44061,-1.3572099,2.13481,1,0.015748031,0,0,0,false,false,false,1189.0499,-4157.44,17.01,-0.0040056356,-0.0026461473,0.8311156,-0.55607873,-879.131,-2121.821,8.321,0.00010999999,0.00040999998,0.03571,-1,-0.0078125,1,-1,0,false,false,false,3523.95,621.44,95.52,-0.003584842,0.0024087764,0.8471081,-0.5314029,-904.09094,-2103.501,195.991,2.67711,-1.9714099,-0.24901
370.975,3369.9,457.83,187.55,-0.07302156,0.0857803,0.9273243,-0.3569022,-269.521,-1116.3109,42.900997,5.44061,-1.3572099,2.13481,1,0.015748031,0,0,0,false,false,false,1174.4,-4192.8,17.01,-0.004005636,-0.0026461475,0.8309531,-0.55632156,-877.67096,-2122.411,8.321,0.00010999999,0.00040999998,0.034409996,1,-1,1,-0.3984375,0.48031497,false,false,false,3508.89,586.39,98.65,-0.049807664,-0.016451472,0.847563,-0.5280959,-903.59094,-2102.501,185.171,4.46621,-3.19571,-0.29871002
370.99167,3365.4,439.22998,188.12999,-0.10111774,0.046381928,0.92288214,-0.36866292,-269.381,-1115.731,32.041,5.44061,-1.3572099,2.13481,1,0.015748031,0,0,0,false,false,false,1159.78,-4228.1797,17.01,-0.004005636,-0.0026461475,0.8307942,-0.5565589,-876.29095,-2122.961,8.321,0.00010999999,0.00051,0.03351,1,-1,1,-0.5546875,0.9448819,false,false,false,3493.8298,551.33997,101.6,-0.09791863,-0.03695178,0.8454399,-0.5237153,-904.071,-2103.481,174.181,4.37491,-3.14041,-0.27601
371.00833,3360.92,420.63998,188.53,-0.1289604,0.006864878,0.91613144,-0.37950647,-269.241,-1115.151,21.181,5.44061,-1.3572099,2.13481,1,0.015748031,0,0,0,false,false,false,1145.1799,-4263.56,17.01,-0.004005636,-0.0026461475,0.83063877,-0.5567909,-874.96094,-2123.491,8.321,0.00010999999,0.00051,0.03281,1,-1,0,0,0,false,false,false,3478.75,516.26996,104.369995,-0.13757052,-0.053346656,0.8423412,-0.5183529,-904.54095,-2104.441,163.091,4.18771,-2.96031,-0.35081
371.025,3346.49,390.96,191.44,-0.08218193,0.025444642,0.92030865,-0.38161585,-1159.521,-1953.2709,295.741,-4.15801,4.31631,-0.28101,1,0.015748031,0,0,0,false,false,false,1130.6,-4298.96,17.01,-0.004005636,-0.0026461475,0.8304868,-0.5570175,-873.691,-2124.001,8.321,0.00010999999,0.00051,0.032209996,-1,-1,0,0,0,false,false,false,3464.51,482.55,106.84,-0.19101158,-0.064654194,0.8431947,-0.49835432,-854.441,-2023.101,145.55101,3.89871,-3.57721,-1.5009099
371.04166,3327.17,358.41998,196.23,-0.035716373,0.043760058,0.922124,-0.38274872,-1158.9209,-1952.2709,284.751,-4.15801,4.31631,-0.28101,-1,-0.921875,0,0,0,false,false,false,1116.0399,-4334.36,17.01,-0.004005636,-0.0026461475,0.8303348,-0.55724406,-872.4509,-2124.501,8.321,0.00010999999,0.00051,0.031809997,1,-1,0,0,0,false,false,false,3450.27,448.84,109.14,-0.24606028,-0.08101125,0.836559,-0.4827633,-853.96094,-2022.2009,135.16101,4.13981,-3.53421,-0.78761
371.05832,3307.8599,325.9,200.84,0.010840843,0.061962187,0.92163676,-0.3829214,-1158.3209,-1951.2709,273.771,-4.15801,4.31631,-0.28101,-1,-0.9375,0,0,0,false,false,false,1101.53,-4369.51,17.01,-0.004005636,-0.002656937,0.8307616,-0.5566075,-864.15094,-2063.791,8.321,0.00401,0.00261,-0.41391,1,-1,0,0,0,false,false,false,3436.03,415.12,111.25,-0.3004508,-0.09939141,0.8242864,-0.4694704,-854.41095,-2023.0309,123.751,4.20321,-3.52721,-0.37581
371.075,3288.5598,293.38998,205.26999,0.05737661,0.08001325,0.9188446,-0.38213912,-1157.721,-1950.2709,262.79102,-4.15801,4.31631,-0.28101,-1,-0.9375,0,0,0,false,false,false,1087.1699,-4403.6597,17.01,-0.0040164255,-0.0026785163,0.83307517,-0.5531386,-855.54095,-2003.221,8.321,0.00471,0.00251,-0.73301,1,-1,0,0,0,false,false,false,3421.79,381.38998,113.17,-0.35369766,-0.118397355,0.8075711,-0.4568466,-854.811,-2023.8009,112.230995,4.20681,-3.53981,-0.14691
371.09167,3269.27,260.9,209.51,0.10376663,0.097864635,0.91375554,-0.380402,-1157.121,-1949.2709,251.811,-4.15801,4.31631,-0.28101,-1,-0.9375,0,0,0,false,false,false,1072.94,-4436.79,17.01,-0.0040380047,-0.0026947006,0.83672374,-0.54760355,-849.34094,-1941.391,8.321,0.00411,0.0016099999,-0.96411,1,-1,0,0,0,false,false,false,3407.53,347.65,114.899994,-0.4055958,-0.13737091,0.78712165,-0.44391522,-855.16095,-2024.501,100.611,4.19411,-3.5578098,-0.022809999
371.10834,3249.99,228.42,213.56999,0.1498977,0.11547334,0.90638155,-0.37771538,-1156.521,-1948.2709,240.851,-4.15801,4.31631,-0.28101,-1,-0.9296875,0,0,0,false,false,false,1058.7999,-4468.88,17.01,-0.0040703737,-0.002689306,0.841303,-0.5405417,-846.28094,-1877.741,8.321,0.00311,0.00051,-1.13281,1,-1,0,0,0,false,false,false,3393.27,313.9,115.67,-0.45598885,-0.15598305,0.76336473,-0.43013686,-855.441,-2025.121,32.841,4.18001,-3.57421,0.04291
371.125,3230.73,195.95999,217.45,0.19565652,0.13279071,0.89674395,-0.3740793,-1155.9209,-1947.2709,229.891,-4.15801,4.31631,-0.28101,-1,-0.921875,0,0,0,false,false,false,1044.7,-4499.9097,17.01,-0.0041081375,-0.0026731216,0.84651196,-0.5323471,-845.99097,-1812.1909,8.321,0.00211,-0.00030999997,-1.2531099,-1,-1,0,0,0,false,false,false,3379.01,280.13998,115.829994,-0.5047094,-0.17406109,0.73659503,-0.4152094,-855.65094,-2025.6609,4.151,4.1687098,-3.5868099,0.07701
371.14166,3211.47,163.51999,221.14,0.24092445,0.14977363,0.88486475,-0.36950994,-1155.3209,-1946.2709,218.931,-4.15801,4.31631,-0.28101,-1,-0.90625,0,0,0,false,false,false,1030.59,-4529.83,17.01,-0.0041512954,-0.0026407526,0.85212433,-0.5233161,-847.78094,-1744.841,8.321,0.00131,-0.00081,-1.33831,-1,-1,0,0,0,false,false,false,3364.75,246.37999,115.759995,-0.5515957,-0.19150789,0.70700693,-0.39900872,-855.49097,-2025.1909,-6.351,4.16071,-3.59571,0.09430999
371.15833,3192.22,131.09999,224.65,0.28558812,0.16638428,0.8707735,-0.36401796,-1154.721,-1945.2709,207.981,-4.15801,4.31631,-0.28101,-1,-0.890625,0,0,0,false,false,false,1016.44995,-4558.62,17.01,-0.0041944543,-0.0025975946,0.8579703,-0.5136756,-850.68097,-1676.0309,8.321,0.00071,-0.00111,-1.39361,-1,-1,0,0,0,false,false,false,3350.49,212.64,115.59,-0.5964752,-0.20824262,0.6747743,-0.38148636,-855.43097,-2024.8109,-10.751,4.15541,-3.60161,0.102809995
371.175,3172.98,98.689995,227.98,0.3295343,0.18257946,0.85450566,-0.35761967,-1154.121,-1944.2709,197.041,-4.15801,4.31631,-0.28101,-1,-0.8828125,0,0,0,false,false,false,1002.25995,-4586.27,17.01,-0.0042376122,-0.002549041,0.86391443,-0.50361425,-853.85095,-1606.0809,8.321,0.00030999997,-0.0012099999,-1.42631,-1,-1,0,0,0,false,false,false,3336.23,178.9,115.39,-0.6391914,-0.22420587,0.64004105,-0.36264768,-855.4509,-2024.5309,-12.581,4.15201,-3.60531,0.106809996
371.19168,3153.75,66.299995,231.12999,0.37266046,0.19832155,0.83610296,-0.35032052,-1153.521,-1943.2709,186.101,-4.15801,4.31631,-0.28101,-1,-0.875,0,0,0,false,false,false,988.00995,-4612.7397,17.01,-0.0042807707,-0.0024950933,0.86986077,-0.49327233,-856.631,-1535.271,8.321,0,-0.0012099999,-1.4449099,-1,-1,0,0,0,false,false,false,3321.97,145.16,115.17,0.67958117,0.23934378,-0.6029598,0.34252506,-855.55096,-2024.351,-13.341001,4.15001,-3.60761,0.10861
371.20834,3134.53,33.92,234.09999,0.41485336,0.21356735,0.81560844,-0.34215277,-1152.9209,-1942.2709,175.16101,-4.15801,4.31631,-0.28101,-1,-0.859375,0,0,0,false,false,false,973.72,-4638.03,17.01,-0.004323929,-0.0024411452,0.87574565,-0.4827471,-858.42096,-1463.9109,8.321,-0.00010999999,-0.00111,-1.45451,-1,-1,0,0,0,false,false,false,3307.71,111.42,114.95,0.7175028,0.25359678,-0.5636693,0.32117775,-855.74097,-2024.2709,-13.6710005,4.14881,-3.60901,0.109409995
371.225,3115.3198,1.56,236.87999,0.4560104,0.22827356,0.7930774,-0.33312723,-1152.3209,-1941.2709,164.231,-4.15801,4.31631,-0.28101,-1,-0.8515625,0,0,0,false,false,false,959.41,-4662.13,17.01,-0.0043562977,-0.0023871972,0.88153505,-0.4720923,-858.78094,-1392.271,8.321,-0.00021,-0.00091,-1.46041,-1,-1,0,0,0,false,false,false,3293.45,77.68,114.72,0.7528124,0.26692203,-0.5223235,0.29867056,-856.02094,-2024.2909,-13.821,4.14811,-3.6098099,0.10970999
371.24167,3096.1199,-30.779999,239.48,0.49602368,0.2424134,0.7685672,-0.3232655,-1151.721,-1940.2709,153.311,-4.15801,4.31631,-0.28101,-1,-0.8359375,0,0,0,false,false,false,945.1,-4685.03,17.01,-0.004388667,-0.0023332494,0.88722044,-0.4613189,-857.33093,-1320.601,8.321,-0.00030999997,-0.00081,-1.46521,-1,-1,0,0,0,false,false,false,3279.17,43.94,114.479996,0.78538024,0.2792762,-0.47907326,0.27508435,-856.381,-2024.4109,-13.911,4.14771,-3.61021,0.109809995
371.25833,3076.93,-63.1,241.9,0.53480166,0.25594905,0.74213105,-0.31259996,-1151.121,-1939.2709,142.391,-4.15801,4.31631,-0.28101,-1,-0.8203125,0,0,0,false,false,false,930.82996,-4706.7397,17.01,-0.0044210353,-0.0022793014,0.89278585,-0.45045373,-853.631,-1249.341,8.321,-0.00040999998,-0.00081,-1.4635099,-1,-1,0,0,0,false,false,false,3264.89,10.2,114.24,0.8150929,0.29061067,-0.4340751,0.25049478,-856.821,-2024.621,-13.991,4.14751,-3.6105099,0.109809995
371.275,3057.75,-95.409996,244.14,0.57224166,0.26884258,0.713842,-0.30115214,-1150.521,-1938.2709,131.47101,-4.15801,4.31631,-0.28101,-1,-0.8125,0,0,0,false,false,false,916.63,-4727.27,17.01,-0.004453404,-0.0022145638,0.89820653,-0.4395454,-847.53094,-1178.6809,8.321,-0.00040999998,-0.00071,-1.4578099,-1,-1,0,0,0,false,false,false,3250.6099,-23.539999,114,0.84183836,0.30088243,-0.3874962,0.2249989,-857.34094,-2024.9209,-14.081,4.14731,-3.61071,0.109809995
371.29166,3038.5798,-127.7,246.18999,0.6082521,0.28106728,0.6837681,-0.28894907,-1149.9209,-1937.2709,120.571,-4.15801,4.31631,-0.28101,-1,-0.796875,0,0,0,false,false,false,902.54,-4746.62,17.01,-0.0044857734,-0.0021498264,0.90348095,-0.42859936,-839.16095,-1108.491,8.331,-0.00030999997,-0.00051,-1.46091,-1,-1,0,0,0,false,false,false,3236.3098,-57.3,113.759995,0.8655184,0.31006438,-0.3395039,0.19868301,-857.92096,-2025.3009,-14.181,4.14731,-3.61071,0.109809995
371.30832,3019.42,-159.98,248.06,0.6427411,0.29258513,0.65198606,-0.27602845,-1149.3209,-1936.2709,109.671,-4.15801,4.31631,-0.28101,-1,-0.78125,0,0,0,false,false,false,888.6,-4764.81,17.01,-0.0045181415,-0.0020958781,0.90863246,-0.41756693,-828.22095,-1039.1709,8.331,-0.00021,-0.00030999997,-1.46391,-1,-1,0,0,0,false,false,false,3222.01,-91.06,113.52,0.8860454,0.3181188,-0.2902762,0.1716496,-858.571,-2025.761,-14.291,4.14731,-3.61071,0.109809995
371.325,3000.27,-192.23999,249.75,0.67561984,0.3033748,0.6185777,-0.26241735,-1148.721,-1935.2709,98.770996,-4.15801,4.31631,-0.28101,-1,-0.7734375,0,0,0,false,false,false,874.85,-4781.84,17.01,-0.0045397207,-0.0020419303,0.9136578,-0.40645358,-814.60095,-970.98096,8.331,-0.00021,-0.00021,-1.4636099,-1,-1,0,0,0,false,false,false,3207.69,-124.829994,113.28,0.9033477,0.32501343,-0.2399911,0.14399038,-859.28094,-2026.2809,-14.4210005,4.14731,-3.61071,0.109809995
371.34167,2981.13,-224.48,251.26,0.7068161,0.31340376,0.5836193,-0.24814807,-1148.121,-1934.2709,87.881,-4.15801,4.31631,-0.28101,-1,-0.765625,0,0,0,false,false,false,861.33997,-4797.7397,17.01,-0.0045613,-0.0019879823,0.9185444,-0.39528632,-798.33093,-904.011,8.331,-0.00021,-0.00021,-1.46161,-1,-1,0,0,0,false,false,false,3193.3599,-158.61,113.04,0.9173616,0.33072114,-0.18883747,0.11580782,-860.03094,-2026.861,-14.571,4.14731,-3.61071,0.109809995
371.35834,2962,-256.69998,252.59,0.7362458,0.32264516,0.54720443,-0.2332584,-1147.521,-1933.2809,77.001,-4.15801,4.31631,-0.28101,-1,-0.75,0,0,0,false,false,false,848.11,-4812.53,17.01,-0.004582879,-0.0019340344,0.92328584,-0.38408127,-779.36096,-838.48096,8.331,-0.00030999997,-0.00021,-1.45531,-1,-1,0,0,0,false,false,false,3179.02,-192.4,112.799995,0.928037,0.3352258,-0.13699326,0.08719912,-860.821,-2027.491,-14.731,4.14731,-3.61071,0.109809995
371.375,2942.88,-288.91,253.73999,0.7638325,0.33108255,0.5094244,-0.21778603,-1146.9209,-1932.3009,66.120995,-4.15801,4.31631,-0.28101,-1,-0.7421875,0,0,0,false,false,false,835.20996,-4826.2397,17.01,-0.0046044583,-0.0018746917,0.92786336,-0.37288705,-757.60095,-774.72095,8.331,-0.00040999998,-0.00030999997,-1.4392099,-1,-1,0,0,0,false,false,false,3164.66,-226.2,112.56,0.9353337,0.33851123,-0.08464739,0.058272142,-861.6409,-2028.1609,-14.901,4.14731,-3.61071,0.109809995
371.39166,2923.77,-321.1,254.70999,0.7895099,0.33869466,0.47037137,-0.20176883,-1146.3209,-1931.3209,55.240997,-4.15801,4.31631,-0.28101,-1,-0.7265625,0,0,0,false,false,false,822.69,-4838.9,17.01,-0.0046260376,-0.0018099541,0.93225265,-0.36177367,-733.17096,-712.77094,8.331,-0.00040999998,-0.00040999998,-1.41721,-1,-1,0,0,0,false,false,false,3150.29,-260.00998,112.31,0.93922406,0.34056664,-0.031993963,0.029134681,-862.48096,-2028.851,-15.081,4.14731,-3.61071,0.10970999
371.40833,2904.67,-353.28,255.5,0.81321716,0.34545982,0.4301368,-0.18524992,-1145.731,-1930.341,44.380997,-4.15801,4.31631,-0.28101,-1,-0.71875,0,0,0,false,false,false,810.57996,-4850.53,17.01,-0.004647617,-0.0017560063,0.93643695,-0.3508007,-706.05096,-652.90094,8.331,-0.00040999998,-0.00040999998,-1.38561,-1,-1,0,0,0,false,false,false,3135.91,-293.83,112.049995,0.93969715,0.34137583,0.020772744,-0.00010519851,-863.321,-2029.5509,-15.261,4.14731,-3.61071,0.10970999
371.425,2885.5798,-385.44,256.1,0.83489114,0.35136172,0.38882875,-0.16826701,-1145.151,-1929.361,33.521,-4.15801,4.31631,-0.28101,-1,-0.703125,0,0,0,false,false,false,798.94,-4861.17,17.01,-0.004669196,-0.0017020581,0.94040436,-0.34002182,-676.52094,-594.811,8.331,-0.00040999998,-0.00040999998,-1.35781,1,-1,0,0,0,false,false,false,3121.51,-327.66998,111.79,0.9367487,0.34094432,0.07346929,-0.029345121,-864.16095,-2030.251,-15.441,4.14731,-3.61071,0.10970999
371.44168,2866.5,-417.58,256.52,0.85447866,0.35638428,0.34654957,-0.15086336,-1144.5709,-1928.381,22.661,-4.15801,4.31631,-0.28101,0,-0.703125,0,0,0,false,false,false,787.79,-4870.85,17.01,-0.004690775,-0.0016481102,0.9441681,-0.32942638,-644.52094,-538.86096,8.331,-0.00040999998,-0.00040999998,-1.32601,1,-1,0,0,0,false,false,false,3107.1199,-361.5,111.53,0.9303902,0.33927193,0.12589078,-0.0584825,-863.321,-2029.5409,-15.281,4.14731,-3.61071,0.10970999
371.45834,2847.43,-449.71,256.75998,0.87193125,0.36051673,0.30340183,-0.13308205,-1143.991,-1927.4009,11.801001,-4.15801,4.31631,-0.28101,0,-0.6953125,0,0,0,false,false,false,777.01996,-4879.7197,17.01,-0.00470696,-0.0015941623,0.9478022,-0.3188202,-651.641,-512.001,8.331,-0.0012099999,0.0019099999,-1.39781,1,-1,0,0,0,false,false,false,3092.74,-395.31998,111.27,0.9206452,0.33636406,0.1778536,-0.08740412,-862.501,-2028.851,-15.101,4.14731,-3.61071,0.10970999
371.475,2828.3699,-481.81998,256.82,0.8872014,0.3637536,0.2594988,-0.114966236,-1143.411,-1926.4209,0.96099997,-4.15801,4.31631,-0.28101,0,-0.671875,0,0,0,false,false,false,766.13995,-4888.15,17.01,-0.0047069597,-0.0015294247,0.95148396,-0.3076583,-657.131,-486.691,8.331,-0.0014099999,0.00241,-1.44431,1,-1,0,0,0,false,false,false,3078.38,-429.12,111.02,0.90754855,0.33223167,0.22916906,-0.11601284,-861.71094,-2028.2009,-14.9210005,4.14731,-3.61071,0.10970999
371.49167,2809.3198,-513.92,256.69998,0.9002569,0.36607337,0.21494837,-0.096564524,-1142.8309,-1925.4409,-9.861,-4.15801,4.31631,-0.28101,0,-0.640625,0,0,0,false,false,false,755.17,-4896.17,17.01,-0.0047069597,-0.0014646872,0.95513,-0.29614577,-661.251,-462.761,8.331,-0.00131,0.00221,-1.46331,1,-1,0,0,0,false,false,false,3064.03,-462.91998,110.78,0.89114743,0.32689086,0.27965385,-0.14419536,-860.96094,-2027.591,-14.761,4.14731,-3.61071,0.10961
371.50833,2790.28,-546,256.4,0.91106194,0.36748147,0.16985855,-0.07792004,-1142.251,-1924.4609,-20.681,-4.15801,4.31631,-0.28101,0,-0.625,0,0,0,false,false,false,744.13995,-4903.79,17.01,-0.0047069597,-0.0013999495,0.9586655,-0.28449297,-664.22095,-440.011,8.331,-0.0012099999,0.0018099999,-1.45751,1,-1,0,0,0,false,false,false,3049.69,-496.69998,110.54,0.87150306,0.32035765,0.32911888,-0.1718546,-860.27094,-2027.0409,-14.601,4.14731,-3.61071,0.10961
371.525,2771.25,-578.06,255.92,0.91958934,0.36797237,0.124342464,-0.05908132,-1141.6709,-1923.481,-31.501,-4.15801,4.31631,-0.28101,0,-0.59375,0,0,0,false,false,false,733.06,-4911.03,17.01,-0.00470696,-0.0013352121,0.9620408,-0.27286178,-666.33093,-417.85098,8.331,-0.00111,0.0014099999,-1.44331,1,-1,0,0,0,false,false,false,3035.3599,-530.48,110.299995,0.84868556,0.3126593,0.3773863,-0.198888,-859.631,-2026.5609,-14.451,4.14731,-3.61071,0.10961
371.54166,2752.23,-610.1,255.26,0.9258189,0.36754084,0.078518905,-0.040096994,-1141.091,-1922.501,-42.301,-4.15801,4.31631,-0.28101,0,-0.5546875,0,0,0,false,false,false,721.95,-4917.9,17.01,-0.00470696,-0.0012704746,0.9652349,-0.26133844,-667.53094,-396.611,8.331,-0.0010099999,0.00111,-1.41291,1,-1,0,0,0,false,false,false,3021.04,-564.25,110.06,0.82278055,0.30382258,0.424278,-0.2251931,-859.061,-2026.141,-14.311,4.14731,-3.61071,0.10961
371.55832,2733.22,-642.13,254.42,0.9297343,0.3661921,0.032495636,-0.021010118,-1140.511,-1921.5209,-53.100998,-4.15801,4.31631,-0.28101,0,-0.546875,0,0,0,false,false,false,710.82996,-4924.42,17.01,-0.0047069597,-0.0012057369,0.9682186,-0.25005785,-667.85095,-376.361,8.331,-0.00091,0.00071,-1.36611,1,-1,1,-1,0,false,false,false,3006.73,-598.01,109.82,0.79388,0.2938799,0.46962687,-0.25067824,-858.561,-2025.8109,-14.191,4.14731,-3.61071,0.10961
371.575,2714.22,-674.14,253.4,0.9313265,0.3639262,-0.01360302,-0.0018746917,-1139.9309,-1920.5409,-63.900997,-4.15801,4.31631,-0.28101,0,-0.515625,0,0,0,false,false,false,699.7,-4930.61,17.01,-0.004717749,-0.0011463942,0.9709812,-0.23910639,-667.571,-356.361,8.331,-0.00061,0.00051,-1.32691,1,-1,1,-1,0,false,false,false,2992.43,-631.76996,109.579994,0.76965314,0.2883826,0.50092757,-0.27118394,-858.1409,-2025.5609,-14.101,4.07441,-3.41831,0.68801
371.59167,2695.23,-706.14,252.2,0.9305896,0.3607541,-0.05967475,0.017271526,-1139.351,-1919.5609,-74.701,-4.15801,4.31631,-0.28101,0,-0.5,0,0,0,false,false,false,688.57996,-4936.4697,17.01,-0.004728538,-0.001092446,0.9735405,-0.22846238,-666.52094,-337.291,8.331,-0.00051,0.00040999998,-1.27791,1,-1,1,-1,0,false,false,false,2978.13,-665.52997,109.34,0.7434299,0.28594956,0.52877563,-0.29315704,-857.78094,-2025.381,-14.031,3.9618099,-3.2815099,1.23211
371.60834,2676.25,-738.12,250.81999,0.9275263,0.356681,-0.10559546,0.03637458,-1138.771,-1918.5809,-85.480995,-4.15801,4.31631,-0.28101,0,-0.4765625,0,0,0,false,false,false,677.48,-4942.01,17.01,-0.0047393288,-0.0010384984,0.9758953,-0.21818529,-664.86096,-318.751,8.331,-0.00040999998,0.00040999998,-1.23211,1,-1,1,-1,0,false,false,false,2963.8298,-699.29,109.06,0.7157054,0.28583628,0.5537698,-0.31528118,-857.48096,-2025.261,-18.880999,3.73821,-3.22171,1.44091
371.625,2657.28,-770.07996,249.26,0.9221465,0.35171238,-0.1512518,0.055380534,-1138.1909,-1917.601,-96.260994,-4.15801,4.31631,-0.28101,0,-0.4453125,0,0,0,false,false,false,666.41,-4947.25,17.01,-0.0047501177,-0.0009845502,0.9780605,-0.2082642,-662.55096,-301.011,8.321,-0.00030999997,0.00040999998,-1.18331,1,-1,1,-1,0,false,false,false,2949.55,-733.05,108.619995,0.68780285,0.28595492,0.5772156,-0.33463234,-857.24097,-2025.2009,-28.620998,3.44201,-3.20621,1.3400099
371.64166,2638.3198,-802.02997,247.51999,0.9144628,0.34586442,-0.19652508,0.074251525,-1137.611,-1916.621,-107.041,-4.15801,4.31631,-0.28101,0,-0.421875,0,0,0,false,false,false,655.38,-4952.1997,17.01,-0.004755513,-0.0009359971,0.98004085,-0.19873695,-659.61096,-284.251,8.321,-0.00021,0.00040999998,-1.12761,1,-1,1,-1,0,false,false,false,2935.27,-766.81,108.02,0.6598745,0.28635415,0.5992751,-0.35133475,-857.061,-2025.2009,-38.350998,3.16151,-3.19751,1.23521
371.65833,2619.3599,-833.95996,245.59999,0.9044918,0.3391532,-0.24131286,0.09293918,-1137.031,-1915.641,-117.811,-4.15801,4.31631,-0.28101,0,-0.421875,0,0,0,false,false,false,644.39996,-4956.87,17.01,-0.0047555123,-0.00089283864,0.9818414,-0.18964127,-656.121,-268.271,8.321,-0.00021,0.00030999997,-1.07201,1,-1,1,-1,0,false,false,false,2920.99,-800.57,107.259995,0.6320323,0.28707168,0.6201045,-0.36550692,-856.93097,-2025.251,-48.071,2.89601,-3.1951098,1.12641
371.675,2600.42,-865.88,243.5,0.8922605,0.3315951,-0.28549638,0.11138947,-1136.4509,-1914.6609,-128.571,-4.15801,4.31631,-0.28101,0,-0.3984375,0,0,0,false,false,false,633.48,-4961.28,17.01,-0.004755513,-0.0008496804,0.9834793,-0.18095562,-652.24097,-252.58101,8.321,0,0.00021,-1.03091,1,-1,1,-1,0,false,false,false,2906.71,-834.32996,106.34,0.6043678,0.28812906,0.63983923,-0.37726223,-856.86096,-2025.361,-57.790997,2.64511,-3.19851,1.01331
371.69168,2581.48,-897.77997,241.22,0.87779766,0.32321158,-0.32896784,0.12955923,-1135.871,-1913.6809,-139.33101,-4.15801,4.31631,-0.28101,0,-0.375,0,0,0,false,false,false,622.62,-4965.42,17.01,-0.0047663026,-0.0008065221,0.98497933,-0.17260449,-647.84094,-237.83101,8.321,0,0.00010999999,-0.98531,1,-1,1,-1,0,false,false,false,2892.43,-868.08997,105.259995,0.5769459,0.28954786,0.6586046,-0.38669774,-856.85095,-2025.511,-67.511,2.40821,-3.2072098,0.89581
371.70834,2562.56,-929.66,238.76,0.8611447,0.31401336,-0.37161386,0.1474053,-1135.2909,-1912.7009,-150.091,-4.15801,4.31631,-0.28101,0,-0.3515625,0,0,0,false,false,false,611.83997,-4969.32,17.01,-0.0047716973,-0.0007633637,0.9863452,-0.16462015,-642.99097,-223.97101,8.321,0,0.00010999999,-0.93691,1,-1,1,-1,0,false,false,false,2878.15,-901.85,104.02,0.54981,0.29133353,0.6765115,-0.39391062,-856.90094,-2025.7009,-77.251,2.18501,-3.22071,0.77391
371.725,2543.64,-961.52997,236.12,0.8423382,0.30403304,-0.41333202,0.16488445,-1134.7109,-1911.721,-160.83101,-4.15801,4.31631,-0.28101,0,-0.328125,0,0,0,false,false,false,601.14,-4973,17.01,-0.0047716964,-0.0007309948,0.9875828,-0.1570242,-637.72095,-210.961,8.321,0,0.00010999999,-0.88661,1,-1,1,-1,0,false,false,false,2863.8699,-935.61,102.61,0.5229925,0.29348612,0.6936619,-0.398971,-857.001,-2025.9309,-87.001,1.9751099,-3.23851,0.64761
371.74167,2524.74,-993.38,233.29999,0.82142484,0.29329187,-0.4540197,0.18195365,-1134.131,-1910.741,-171.571,-4.15801,4.31631,-0.28101,0,-0.3125,0,0,0,false,false,false,590.54,-4976.4697,17.01,-0.0047716964,-0.00069862604,0.9886986,-0.14983834,-632.08093,-198.761,8.321,0,0,-0.83501,1,-1,1,-1,0,false,false,false,2849.5898,-969.38,101.03,0.49650386,0.2960055,0.710139,-0.40195432,-857.15094,-2026.2009,-96.760994,1.77811,-3.26021,0.51691
371.75833,2505.8398,-1025.21,230.31,0.7984601,0.28181714,-0.49356905,0.19856972,-1133.5509,-1909.761,-182.311,-4.15801,4.31631,-0.28101,0,-0.296875,0,0,0,false,false,false,580.02997,-4979.7397,17.01,-0.0047716973,-0.00066625734,0.9897019,-0.14306246,-626.141,-187.201,8.321,0,0,-0.78741,1,-1,1,-1,0,false,false,false,2835.31,-1003.16,99.29,0.47034976,0.29887557,0.7260134,-0.40292534,-857.36096,-2026.511,-106.541,1.59381,-3.28521,0.38201
371.775,2486.96,-1057.03,227.14,0.7734983,0.26963562,-0.5318884,0.21468945,-1132.971,-1908.7809,-193.05101,-4.15801,4.31631,-0.28101,0,-0.28125,0,0,0,false,false,false,569.62,-4982.81,17.01,-0.004771697,-0.0006338885,0.99060565,-0.13666417,-619.91095,-176.30101,8.321,0,0,-0.74261,1,-1,1,-1,0,false,false,false,2821.01,-1036.94,97.39,0.4445248,0.3020747,0.7413491,-0.40193272,-857.631,-2026.841,-116.351,1.4219099,-3.31331,0.24301
371.79166,2468.0798,-1088.83,223.79,0.7466043,0.25678524,-0.5688754,0.23026964,-1132.391,-1907.8009,-203.771,-4.15801,4.31631,-0.28101,0,-0.265625,0,0,0,false,false,false,559.31,-4985.71,17.01,-0.0047716973,-0.00060151983,0.99141985,-0.13062741,-613.41095,-166.05101,8.321,0,-0.00010999999,-0.69991,1,-1,1,-1,0,false,false,false,2806.71,-1070.72,95.329994,0.41901815,0.30558133,0.75619256,-0.39901954,-857.9509,-2027.2009,-126.181,1.26231,-3.34391,0.10031
371.80832,2449.22,-1120.61,220.26,0.7178454,0.24329275,-0.60443795,0.24527803,-1131.8109,-1906.8209,-214.491,-4.15801,4.31631,-0.28101,0,-0.21875,0,0,0,false,false,false,549.12,-4988.4297,17.01,-0.0047716973,-0.000569151,0.99215317,-0.12493586,-606.67096,-156.451,8.321,0.00010999999,-0.00021,-0.65881,1,-1,1,-1,0,false,false,false,2792.41,-1104.51,93.11,0.39380816,0.30936846,0.7705775,-0.39422894,-858.321,-2027.5809,-136.041,1.11461,-3.37691,-0.045909997
371.825,2430.3599,-1152.38,216.54999,0.6872938,0.22919068,-0.6384901,0.25967145,-1131.231,-1905.841,-225.211,-4.15801,4.31631,-0.28101,0,-0.203125,0,0,0,false,false,false,539.02997,-4991,17.01,-0.004777092,-0.0005475718,0.99280846,-0.11961658,-599.61096,-148.16101,8.321,0,-0.00030999997,-0.60001,1,-1,1,-1,0,false,false,false,2778.0999,-1138.3099,90.72,0.36886793,0.3134038,0.7845318,-0.38758793,-858.751,-2027.981,-145.931,0.97850996,-3.41201,-0.19531
371.84167,2411.52,-1184.13,212.65999,-0.6550251,-0.21451677,0.6709474,-0.27341202,-1130.651,-1904.861,-235.921,-4.15801,4.31631,-0.28101,0,-0.1875,0,0,0,false,false,false,529.06,-4993.4297,17.01,-0.004777092,-0.0005259926,0.9933808,-0.11476662,-592.381,-140.321,8.321,0,-0.00030999997,-0.54811,1,-1,1,-1,0,false,false,false,2763.78,-1172.11,88.159996,0.34417585,0.31764945,0.798062,-0.3791288,-859.23096,-2028.4009,-155.851,0.85390997,-3.4488099,-0.34761
371.85834,2392.68,-1215.87,208.59,-0.6211133,-0.1993034,0.7017333,-0.28647286,-1130.0709,-1903.881,-246.621,-4.15801,4.31631,-0.28101,0,-0.1796875,0,0,0,false,false,false,519.20996,-4995.7397,17.01,-0.004777092,-0.00050441345,0.99388313,-0.110332094,-584.99097,-133.001,8.321,0,-0.00030999997,-0.50101,1,-1,1,-1,0,false,false,false,2749.46,-1205.9299,85.439995,0.3196995,0.3220571,0.81117433,-0.3688733,-859.761,-2028.8209,-165.80101,0.74061,-3.48731,-0.50261
371.875,2373.8499,-1247.59,204.34999,-0.5856479,-0.18359374,0.7307658,-0.29881623,-1129.491,-1902.9009,-257.321,-4.15801,4.31631,-0.28101,0,-0.171875,0,0,0,false,false,false,509.5,-4997.9297,17.01,-0.0047770925,-0.0004828343,0.9943263,-0.10626443,-577.47095,-126.050995,8.321,0,-0.00030999997,-0.46211,1,-1,1,-1,0,false,false,false,2735.1199,-1239.75,82.56,0.2954066,0.3265887,0.8238554,-0.35684282,-860.35095,-2029.241,-175.791,0.63831,-3.52731,-0.65971
371.89166,2355.03,-1279.2899,199.93,-0.5487257,-0.16742544,0.7579652,-0.3104151,-1128.911,-1901.9209,-268.021,-4.15801,4.31631,-0.28101,0,-0.1640625,0,0,0,false,false,false,499.91,-5000,17.01,-0.0047770925,-0.0004612551,0.9947204,-0.1025096,-569.831,-119.510994,8.321,0.00021,-0.00030999997,-0.42891002,1,-1,1,-1,0,false,false,false,2720.78,-1273.57,79.5,0.27127025,0.3311959,0.8360858,-0.3430483,-860.99097,-2029.6809,-185.821,0.54681,-3.5687099,-0.81870997
371.90833,2336.23,-1310.98,195.33,-0.51042783,-0.15084179,0.7832731,-0.32123706,-1128.3309,-1900.9409,-278.701,-4.15801,4.31631,-0.28101,0,-0.125,0,0,0,false,false,false,490.44,-5001.9697,17.01,-0.004777092,-0.00045046548,0.99507445,-0.09901377,-562.071,-113.40099,8.321,0.00021,-0.00030999997,-0.39981002,1,-1,1,-1,0,false,false,false,2706.42,-1307.4099,76.28,0.24745214,0.33590555,0.84778017,-0.32741952,-861.68097,-2030.101,-195.901,0.42471,-3.58061,-1.00081
371.925,2317.43,-1342.65,190.55,-0.47085688,-0.13388045,0.8066202,-0.33126062,-1127.751,-1899.9609,-289.381,-4.15801,4.31631,-0.28101,0,-0.1171875,0,0,0,false,false,false,481.11,-5003.83,17.01,-0.0047770916,-0.00043967582,0.99538904,-0.09579846,-554.121,-108.351,8.321,0.00010999999,-0.00040999998,-0.35551,1,-1,1,1,0,false,false,false,2692.05,-1341.25,72.89,0.22454035,0.34090114,0.85873663,-0.3097407,-862.42096,-2030.5209,-206.031,0.27221,-3.5599098,-1.21021
371.94168,2298.64,-1374.2999,185.59,-0.43010446,-0.1165847,0.827955,-0.3404534,-1127.1709,-1898.981,-300.061,-4.15801,4.31631,-0.28101,0,-0.109375,0,0,0,false,false,false,471.91,-5005.61,17.01,-0.004777092,-0.0004288863,0.99566066,-0.09293379,-546.09094,-103.531,8.321,0,-0.00040999998,-0.31911,1,-1,1,1,0,false,false,false,2677.67,-1375.09,69.33,0.20320922,0.34572414,0.86839706,-0.2916626,-863.21094,-2030.9309,-216.201,0.18170999,-3.31691,-1.22301
371.95834,2279.8599,-1405.94,180.45,-0.38827845,-0.09899759,0.84722024,-0.34879383,-1126.591,-1898.001,-310.741,-4.15801,4.31631,-0.28101,0,-0.0703125,0,0,0,false,false,false,462.84,-5007.31,17.01,-0.004777092,-0.0004180967,0.995898,-0.090355076,-538.001,-99.001,8.321,0,-0.00051,-0.28841,1,-1,1,1,1,false,false,false,2663.27,-1408.95,65.6,0.18372315,0.35027736,0.8766947,-0.27378425,-864.04095,-2031.3309,-226.421,0.09511,-3.0731099,-1.23851
371.975,2261.0898,-1437.5599,175.14,-0.34548137,-0.08116231,0.8643669,-0.3562656,-1126.011,-1897.0209,-321.401,-4.15801,4.31631,-0.28101,0,-0.0703125,0,0,0,false,false,false,453.91,-5008.9497,17.01,-0.004777092,-0.00040730712,0.99610335,-0.088062294,-529.74097,-95.421,8.321,0,-0.00051,-0.24351,1,-1,1,1,1,false,false,false,2648.8599,-1442.8099,61.699997,0.1671989,0.35113513,0.8851511,-0.25545263,-864.91095,-2031.7109,-236.691,0.50771,-2.61061,-1.57231
371.99167,2242.3298,-1469.1599,169.65,-0.30182108,-0.063122064,0.8793528,-0.36284727,-1125.4309,-1896.0409,-332.061,-4.15801,4.31631,-0.28101,0,-0.0625,0,0,0,false,false,false,445.12,-5010.52,17.01,-0.004777092,-0.0003965175,0.99627364,-0.08611477,-521.47095,-91.821,8.321,0,-0.00051,-0.21160999,1,-1,1,1,0.97637796,false,false,false,2634.43,-1476.6699,57.62,0.15385208,0.3474505,0.8942184,-0.23660316,-865.821,-2032.0709,-247.001,0.90421,-2.17351,-1.85971
372.00833,2223.5798,-1500.75,163.98,-0.25741094,-0.044925332,0.89213914,-0.36852264,-1124.851,-1895.0609,-342.721,-4.15801,4.31631,-0.28101,0,-0.0625,0,0,0,false,false,false,436.46,-5012.03,17.01,-0.0047770925,-0.00038572794,0.99641865,-0.08442081,-513.15094,-88.480995,8.321,0,-0.00051,-0.18430999,1,-1,1,1,1,false,false,false,2619.99,-1510.5499,53.379997,0.14349937,0.33961177,0.90377015,-0.21741922,-866.751,-2032.4109,-257.351,1.27161,-1.76431,-2.09911
372.025,2204.8398,-1532.32,158.14,-0.21235347,-0.02661531,0.90269756,-0.37327546,-1124.271,-1894.091,-353.371,-4.15801,4.31631,-0.28101,0,-0.03125,0,0,0,false,false,false,427.94,-5013.4897,17.01,-0.004777092,-0.00037493833,0.99654365,-0.08293184,-504.801,-85.251,8.321,0.00021,-0.00051,-0.16471,1,-1,1,1,1,false,false,false,2605.44,-1544.2999,48.84,0.13554204,0.32768923,0.9134556,-0.1996163,-888.8909,-2000.4309,-286.881,1.8773099,-1.09801,-1.58841
372.04166,2186.1099,-1563.88,152.12,-0.16676727,-0.008240593,0.9109995,-0.37709498,-1123.6909,-1893.131,-364.011,-4.15801,4.31631,-0.28101,0,-0.03125,0,0,0,false,false,false,419.56,-5014.9,17.01,-0.004777092,-0.00037493833,0.996651,-0.08163165,-496.341,-82.781,8.321,0.00021,-0.00051,-0.13311,1,-1,1,-1,1,false,false,false,2590.53,-1577.48,43.82,0.12778972,0.310237,0.9229861,-0.18846521,-912.58093,-1961.2009,-303.671,2.90341,-0.76151,-0.87621
372.05832,2167.39,-1595.4199,145.92,-0.12076567,0.010155704,0.917025,-0.3799704,-1123.111,-1892.1709,-374.651,-4.15801,4.31631,-0.28101,0,-0.03125,0,0,0,false,false,false,411.31998,-5016.27,17.01,-0.004777092,-0.00037493833,0.9967366,-0.08057967,-487.871,-80.291,8.321,0.00010999999,-0.00051,-0.110709995,1,-1,1,-1,1,false,false,false,2575.22,-1609.98,38.57,0.11869403,0.28426638,0.9332344,-0.18487228,-938.501,-1914.2909,-277.631,5.20931,-0.79671,-0.11711
372.075,2148.68,-1626.94,139.54,-0.07446196,0.028525066,0.9207587,-0.38189632,-1122.531,-1891.2109,-385.291,-4.15801,4.31631,-0.28101,0,0.007874016,0,0,0,false,false,false,403.22,-5017.6,17.01,-0.004777092,-0.00037493833,0.99680775,-0.07969492,-479.391,-77.870995,8.321,0.00010999999,-0.00051,-0.094809994,1,-1,1,-0.8046875,-1,false,false,false,2559.47,-1641.6699,33.92,0.10408493,0.24271552,0.94585127,-0.18873498,-966.02094,-1860.721,-252.191,5.44001,-0.56911,0.57561
372.09167,2129.98,-1658.45,132.98,-0.027969448,0.046824303,0.92219174,-0.38286743,-1121.9509,-1890.251,-395.911,-4.15801,4.31631,-0.28101,0,0.007874016,0,0,0,false,false,false,395.27,-5018.8896,17.01,-0.0047770916,-0.0003749383,0.9968643,-0.0789828,-470.771,-76.291,8.321,0,-0.00061,-0.062409997,1,-1,1,-1,-1,false,false,false,2543.25,-1672.44,29.64,0.0897131,0.2003554,0.95532316,-0.19790615,-995.11096,-1801.7809,-235.291,5.37221,-0.34971002,1.1252099
372.10834,2111.28,-1689.94,126.25,0.018593248,0.06500485,0.921319,-0.3828836,-1121.371,-1889.2909,-406.531,-4.15801,4.31631,-0.28101,0,0.015748031,0,0,0,false,false,false,387.46,-5020.1597,17.01,-0.0047770925,-0.00037493836,0.9969015,-0.078513466,-462.171,-74.611,8.321,0,-0.00061,-0.039809998,1,-1,1,-1,-1,false,false,false,2526.54,-1702.21,25.63,0.07610734,0.15847541,0.96153265,-0.2110641,-1035.001,-1721.5709,-215.701,5.1104097,-0.42721,1.98771
372.125,2092.5999,-1721.4199,119.34,0.06511274,0.08302355,0.9181424,-0.3819449,-1120.7909,-1888.3309,-417.151,-4.15801,4.31631,-0.28101,0,0.05511811,0,0,0,false,false,false,379.78998,-5021.3896,17.01,-0.004777092,-0.00037493833,0.996924,-0.078227535,-453.551,-73.071,8.321,0,-0.00061,-0.01981,1,1,1,1,-1,false,false,false,2509.03,-1730.35,21.99,0.059976898,0.11961654,0.9639693,-0.22990821,-1099.751,-1589.111,-189.731,4.9499097,-0.78381,2.2657099
372.14166,2073.92,-1752.88,112.259995,0.111465,0.10083186,0.9126738,-0.38004595,-1120.2109,-1887.371,-427.771,-4.15801,4.31631,-0.28101,0,0.05511811,0,0,0,false,false,false,372.27,-5022.61,17.01,-0.004777092,-0.00037493833,0.9969307,-0.07814122,-444.791,-72.261,8.321,-0.00010999999,-0.00061,0.014509999,1,1,1,-1,-1,false,true,false,2490.43,-1756.35,18.82,0.041618325,0.08276461,0.96368515,-0.2504571,-1173.471,-1465.4509,-147.011,4.56851,-0.84431,2.57201
372.15833,2055.26,-1784.32,105,0.15753673,0.11839192,0.90492404,-0.37719747,-1119.631,-1886.4109,-438.371,-4.15801,4.31631,-0.28101,0,0.05511811,0,0,0,false,false,false,364.88998,-5023.81,17.01,-0.004777092,-0.00037493833,0.9969172,-0.07831385,-436.061,-71.281,8.321,-0.00010999999,-0.00061,0.038209997,1,1,1,-1,-1,false,true,false,2470.3699,-1780.37,16.47,0.0242416,0.050508946,0.96070653,-0.2718529,-1261.611,-1360.651,-84.671,3.2950099,-1.15801,2.56401
372.175,2036.6,-1815.75,97.56,0.20321463,0.13565534,0.89491117,-0.37341034,-1119.0509,-1885.4509,-448.971,-4.15801,4.31631,-0.28101,0,0.08661418,0,0,0,false,false,false,357.66,-5024.9897,17.01,-0.004777092,-0.00037493833,0.9968896,-0.07866451,-427.341,-70.241,8.321,0,-0.00061,0.054509997,1,1,1,-1,-1,false,true,false,2448.91,-1802.7799,15.15,0.0070914584,0.029943896,0.95590574,-0.29205644,-1332.7909,-1289.141,-26.100998,2.15391,-0.51031,2.38341
372.19168,2017.96,-1847.1599,89.939995,0.24839082,0.1525789,0.8826603,-0.3686899,-1118.471,-1884.491,-459.57098,-4.15801,4.31631,-0.28101,0,0.08661418,0,0,0,false,false,false,350.58,-5026.15,17.01,-0.004777092,-0.00037493833,0.996849,-0.07917702,-418.511,-69.751,8.321,0,-0.00061,0.08151,1,1,1,-1,-1,false,true,true,2426.3599,-1824.1599,14.7699995,-0.000914418,0.015502032,0.9504231,-0.31057152,-1381.6809,-1252.9309,17.960999,0.97420996,0.057709996,2.19221
372.20834,2001.72,-1874.96,95.53,0.24608727,0.13799131,0.884877,-0.37066442,-973.96094,-1668.0509,270.181,1.74671,0.37171,-0.28101,0,0.08661418,0,0,0,false,false,false,343.63998,-5027.31,17.01,-0.0047770916,-0.0003749383,0.99679166,-0.07989452,-409.721,-69.111,8.321,0,-0.00061,0.099709995,1,-0.421875,1,-1,-1,false,true,true,2403.0898,-1845.07,15.009999,-0.0026191736,0.00896885,0.9447524,-0.32765153,-1408.501,-1246.5709,30.251,0.44001,0.08801,2.10791
372.225,1985.5,-1902.75,99.9,0.24372973,0.1233714,0.8868888,-0.37256336,-973.46094,-1667.1909,259.201,1.74671,0.37171,-0.28101,0,0.08661418,0,0,0,false,false,false,336.85,-5028.46,17.01,-0.004777092,-0.00037493833,0.99672264,-0.0807523,-400.941,-68.421,8.321,0,-0.00061,0.11211,1,-1,0.43307087,-1,-0.4921875,false,true,false,2379.38,-1865.87,15.38,-0.0032018116,0.0056186803,0.93951786,-0.3424387,-1435.9609,-1237.5509,29.870998,0.28501,0.058809996,1.31251
372.24167,1969.2799,-1930.5299,104.079994,0.24131827,0.10872445,0.88869965,-0.37437603,-972.96094,-1666.3309,248.22101,1.74671,0.37171,-0.28101,0,0.11811024,0,0,0,false,false,false,330.21,-5029.6,17.01,-0.004777092,-0.00037493833,0.9966453,-0.081701785,-392.161,-67.701,8.321,0.00010999999,-0.00061,0.12020999,1,-1,0.32283464,-1,-0.3046875,false,true,false,2355.24,-1886.5599,15.73,-0.0035794473,0.0033906293,0.936429,-0.35082224,-1458.131,-1233.371,27.120998,0.19821,0.04071,0.42751
372.25833,1953.07,-1958.2899,108.079994,0.23884743,0.094055906,0.8903102,-0.37610233,-972.46094,-1665.471,237.261,1.74671,0.37171,-0.28101,0,0.11811024,0,0,0,false,false,false,323.71,-5030.7197,17.01,-0.004777092,-0.00038033313,0.9965589,-0.082748376,-383.271,-67.501,8.321,0.00010999999,-0.00061,0.14051,1,-1,0.2992126,-0.6875,-0.203125,false,false,false,2330.76,-1907.21,16.029999,-0.003822213,0.0018531125,0.9356984,-0.35277516,-1475.351,-1236.351,23.780998,0.13811,0.02991,-0.23141
372.275,1936.87,-1986.0399,111.899994,0.23632264,0.07936587,0.89171916,-0.37774232,-971.96094,-1664.611,226.301,1.74671,0.37171,-0.28101,0,0.11811024,0,0,0,false,false,false,317.36,-5031.84,17.01,-0.0047770925,-0.00039112274,0.99645877,-0.08394607,-374.411,-67.131,8.321,0.00010999999,-0.00061,0.15371,-1,-0.1171875,0.25984251,0.18110237,-0.140625,false,false,false,2306.16,-1927.7799,16.279999,-0.0039786627,0.0007957325,0.9367602,-0.34994832,-1479.9609,-1229.241,20.581,0.09671,0.02141,-0.71231
372.29166,1920.6699,-2013.7699,115.53,0.23374397,0.06465419,0.89292663,-0.37929606,-971.46094,-1663.751,215.341,1.74671,0.37171,-0.28101,0,0.14173228,0,0,0,false,false,false,311.16,-5032.96,17.01,-0.0047770916,-0.0004019123,0.9963487,-0.0852408,-365.57098,-66.660995,8.321,0.00010999999,-0.00061,0.16230999,-1,0.21259843,0.23622048,0.71653545,-0.09375,false,false,false,2281.7,-1948.14,16.47,-0.004086558,0.000072829745,0.93870425,-0.3446991,-1432.5809,-1196.8009,17.771,0.066309996,0.011809999,-0.55931
372.30832,1904.49,-2041.49,118.979996,0.23111123,0.049926315,0.8939318,-0.38076347,-970.96094,-1662.891,204.391,1.74671,0.37171,-0.28101,0,0.14173228,0,0,0,false,false,false,305.1,-5034.06,17.01,-0.004777092,-0.0004127019,0.9962292,-0.086627275,-356.651,-66.501,8.321,0,-0.00061,0.17830999,1,1,0.18110237,0.77165353,0.062992126,false,true,false,2258.02,-1967.95,16.619999,-0.0041836645,-0.0004127019,0.9400916,-0.34089577,-1384.8009,-1163.131,15.441,0.045609996,0.00521,-0.28941
