time,ball_loc_x,ball_loc_y,ball_loc_z,ball_rot_x,ball_rot_y,ball_rot_z,ball_rot_w,ball_vel_x,ball_vel_y,ball_vel_z,ball_ang_x,ball_ang_y,ball_ang_z,player0_throttle,player0_steer,player0_pitch,player0_yaw,player0_roll,player0_jump,player0_boost,player0_handbrake,player0_loc_x,player0_loc_y,player0_loc_z,player0_rot_x,player0_rot_y,player0_rot_z,player0_rot_w,player0_vel_x,player0_vel_y,player0_vel_z,player0_ang_x,player0_ang_y,player0_ang_z,player1_throttle,player1_steer,player1_pitch,player1_yaw,player1_roll,player1_jump,player1_boost,player1_handbrake,player1_loc_x,player1_loc_y,player1_loc_z,player1_rot_x,player1_rot_y,player1_rot_z,player1_rot_w,player1_vel_x,player1_vel_y,player1_vel_z,player1_ang_x,player1_ang_y,player1_ang_z
300,1321.0599,-19.05,95.159996,0.22075321,0.36387765,0.74858534,0.5084102,99.671,-1026.261,238.951,2.9488099,3.39271,-0.68781,1,-1,0,0,0,false,false,false,147.98,-741.86,17.01,-0.0032287855,0.0034877358,0.67972803,0.73344874,58.240997,489.681,8.341001,0,0,-2.22951,1,-1,1,-1,0,false,false,false,540.02997,301.97,81.259995,0.60493964,-0.01191445,0.66909206,0.43153414,-1115.871,-803.11096,-150.97101,0.48151,-2.79251,-1.36631
300.00833,1321.89,-27.599998,97.11,0.23858309,0.36116946,0.74834275,0.5026108,99.641,-1026.001,233.47101,2.9488099,3.39271,-0.68781,1,-1,0,0,0,false,false,false,148.47,-737.77997,17.01,-0.0031964167,0.0035201046,0.6728873,0.7397296,68.961,496.651,8.341001,0,0,-2.23211,1,-1,1,-1,0,false,false,false,530.73,295.28,79.96,0.5981476,-0.021269068,0.67342085,0.43390244,-1115.8109,-802.79095,-155.931,0.44281,-2.68051,-1.30951
300.01666,1322.72,-36.149998,99.009995,0.25632665,0.3583318,0.7478339,0.4966279,99.611,-1025.741,227.991,2.9488099,3.39271,-0.68781,1,-1,0,0,0,false,false,false,149.04,-733.63995,17.01,-0.0031640478,0.0035470785,0.6659766,0.7459574,79.741,503.371,8.341001,0,0,-2.23501,1,-1,1,-1,0,false,false,false,521.43,288.59,78.619995,0.59150666,-0.030181315,0.6774739,0.4361629,-1115.751,-802.48096,-160.881,0.40341002,-2.5710099,-1.25641
300.025,1323.5499,-44.7,100.86,0.27397844,0.35536468,0.7470567,0.49046707,99.58099,-1025.481,222.511,2.9488099,3.39271,-0.68781,1,-1,0,0,0,false,false,false,149.7,-729.45,17.01,-0.0031316795,0.0035740526,0.6590012,0.7521269,90.651,509.811,8.341001,0,0,-2.23941,1,-1,1,-1,0,false,false,false,512.13,281.91,77.24,0.585022,-0.038656536,0.6812602,0.43833697,-1115.7009,-802.17096,-165.83101,0.36341,-2.46371,-1.20691
300.03333,1324.38,-53.239998,102.67,0.29153317,0.35226804,0.746013,0.48412818,99.550995,-1025.221,217.031,2.9488099,3.39271,-0.68781,1,-1,0,0,0,false,false,false,150.45999,-725.2,17.01,-0.0030993104,0.0036010265,0.65195554,0.7582422,101.690994,515.96094,8.341001,0,0,-2.24491,1,-1,1,-1,0,false,false,false,502.83,275.22998,75.82,0.57869387,-0.04671101,0.6847942,0.44044092,-1115.661,-801.86096,-170.781,0.32301,-2.35861,-1.16091
300.04166,1325.21,-61.78,104.43,0.3089854,0.34904736,0.7446987,0.47761664,99.520996,-1024.9609,211.551,2.9488099,3.39271,-0.68781,1,-1,0,0,0,false,false,false,151.31,-720.89996,17.01,-0.0030669416,0.0036280004,0.64483434,0.7643075,112.881,521.821,8.341001,0,0,-2.25141,1,-1,1,-1,0,false,false,false,493.53,268.55,74.36,0.5725276,-0.054350086,0.68808764,0.44248557,-1115.621,-801.55096,-175.731,0.28221,-2.2555099,-1.11841
300.05,1326.0399,-70.32,106.149994,0.32632437,0.3457026,0.74311817,0.47093242,99.491,-1024.7009,206.08101,2.9488099,3.39271,-0.68781,1,-1,0,0,0,false,false,false,152.25,-716.55,17.01,-0.0030345728,0.0036549745,0.6376377,0.77032167,124.230995,527.381,8.341001,0,0,-2.25861,1,-1,1,-1,0,false,false,false,484.22998,261.87,72.85,0.5665232,-0.061584547,0.6911477,0.44449243,-1115.591,-801.24097,-180.681,0.24111,-2.15441,-1.07921
300.05832,1326.87,-78.86,107.82,0.3435447,0.34223366,0.7412704,0.46408105,99.461,-1024.4409,200.61101,2.9488099,3.39271,-0.68781,1,-1,0,0,0,false,false,false,153.29,-712.16,17.01,-0.003002204,0.0036819484,0.63036007,0.7762883,135.741,532.641,8.341001,0,0,-2.2664099,1,-1,1,-1,0,false,false,false,474.93,255.2,71.299995,0.56068057,-0.06842515,0.69398326,0.4464777,-1115.5709,-800.93097,-185.631,0.19981,-2.05511,-1.04321
300.06668,1327.7,-87.39,109.45,0.36064616,0.3386407,0.73915535,0.4570624,99.431,-1024.1809,195.141,2.9488099,3.39271,-0.68781,1,-1,0,0,0,false,false,false,154.42,-707.72,17.01,-0.0029698354,0.0037089225,0.6230016,0.7822061,147.421,537.59094,8.341001,0,0,-2.27471,1,-1,1,-1,0,false,false,false,465.62997,248.53,69.71,0.55500525,-0.07488276,0.69660044,0.4484522,-1115.5509,-800.621,-190.58101,0.15841,-1.95751,-1.01041
300.075,1328.53,-95.92,111.03,0.37761292,0.3349237,0.7367773,0.44988185,99.401,-1023.92096,189.671,2.9488099,3.39271,-0.68781,1,-1,0,0,0,false,false,false,155.65,-703.24,17.01,-0.0029320717,0.0037358964,0.6155621,0.788074,159.271,542.22095,8.341001,0,0,-2.28331,1,-1,1,-1,0,false,false,false,456.33,241.86,68.08,0.5494918,-0.0809681,0.6990091,0.45043212,-1115.5409,-800.321,-195.531,0.11701,-1.8615099,-0.98070997
300.08334,1329.36,-104.45,112.57,0.39444473,0.33108798,0.734134,0.4425395,99.370995,-1023.66095,184.201,2.9488099,3.39271,-0.68781,1,-1,0,0,0,false,false,false,156.98,-698.72,17.01,-0.0028943082,0.0037628703,0.60803634,0.7938949,171.30101,546.52094,8.341001,0,0,-2.29211,1,-1,1,-1,0,false,false,false,447.03,235.18999,66.409996,0.5444044,-0.08685385,0.7010122,0.45239574,-1115.531,-800.02094,-200.481,0.13950999,-1.71541,-0.98791
300.09167,1330.19,-112.979996,114.06,0.41113633,0.3271336,0.7312282,0.43503535,99.340996,-1023.40094,178.731,2.9488099,3.39271,-0.68781,1,-1,0,0,0,false,false,false,158.41,-694.17,17.01,-0.0028565445,0.0037898442,0.6004242,0.7996675,183.501,550.48096,8.341001,0,0,-2.30111,1,-1,1,-1,0,false,false,false,437.72998,228.53,64.7,0.5397487,-0.09255077,0.702615,0.45435423,-1115.521,-799.72095,-205.421,0.16330999,-1.57111,-0.99701
300.1,1331.02,-121.509995,115.5,0.42768216,0.32306054,0.7280595,0.42737466,99.311,-1023.1409,173.261,2.9488099,3.39271,-0.68781,1,-1,0,0,0,false,false,false,159.94,-689.57996,17.01,-0.002818781,0.0038168184,0.5927312,0.8053863,195.871,554.10095,8.341001,0,0,-2.31021,1,-1,1,-1,0,false,false,false,428.43,221.87,62.949997,0.5355191,-0.09806968,0.70382905,0.4563179,-1115.521,-799.42096,-210.36101,0.18851,-1.42851,-1.00801
300.10834,1331.85,-130.03,116.899994,0.44407162,0.3188741,0.7246285,0.419563,99.281,-1022.881,167.80101,2.9488099,3.39271,-0.68781,1,-1,0,0,0,false,false,false,161.56999,-684.95996,17.01,-0.0027810175,0.0038437922,0.5849518,0.81105405,208.411,557.371,8.341001,-0.00010999999,0,-2.31931,1,-1,1,-1,0,false,false,false,419.13,215.20999,61.16,0.5317212,-0.103421316,0.70465916,0.4582924,-1115.521,-799.121,-215.301,0.21500999,-1.28751,-1.02071
300.11667,1332.6799,-138.55,118.25,0.46030465,0.31457442,0.7209353,0.41160026,99.251,-1022.621,162.341,2.9488099,3.39271,-0.68781,1,-1,0,0,0,false,false,false,163.31,-680.32,17.01,-0.0027432535,0.003870766,0.57708615,0.81666934,221.121,560.28094,8.341001,-0.00010999999,0,-2.32831,1,-1,1,-1,0,false,false,false,409.83,208.54999,59.32,0.52835476,-0.10861654,0.70510846,0.4602884,-1115.521,-798.821,-220.241,0.24291,-1.14811,-1.03511
300.125,1333.51,-147.06999,119.56,0.4763704,0.31016147,0.71698344,0.40349177,99.221,-1022.36096,156.881,2.9488099,3.39271,-0.68781,1,-1,0,0,0,false,false,false,165.15,-675.64996,17.01,-0.0027054904,0.0038977405,0.56913435,0.8222308,234.001,562.821,8.341001,-0.00010999999,0,-2.33721,1,-1,1,-1,0,false,false,false,400.53,201.9,57.44,0.5254255,-0.11366608,0.70517796,0.46231154,-1115.531,-798.52094,-225.181,0.27221,-1.0103099,-1.05101
300.13333,1334.34,-155.59,120.82,0.49226353,0.30563524,0.7127767,0.39523777,99.190994,-1022.10095,151.421,2.9488099,3.39271,-0.68781,1,-1,0,0,0,false,false,false,167.09999,-670.95996,17.01,-0.0026677267,0.003924714,0.5611013,0.82773346,247.031,564.99097,8.341001,-0.00010999999,0,-2.34601,1,-1,1,-1,0,false,false,false,391.22998,195.25,55.52,0.52292776,-0.118575394,0.70487565,0.46436697,-1115.5409,-798.22095,-230.121,0.30291,-0.87400997,-1.06841
300.14166,1335.1699,-164.11,122.04,0.507984,0.30100113,0.70830965,0.38684347,99.160995,-1021.84094,145.961,2.9488099,3.39271,-0.68781,1,-1,0,0,0,false,false,false,169.16,-666.25,17.01,-0.002629963,0.003951688,0.55298215,0.8331795,260.211,566.78094,8.341001,-0.00010999999,0,-2.35461,1,-1,1,-1,0,false,false,false,381.93,188.59999,53.559998,0.5208615,-0.12335518,0.70420283,0.46646017,-1115.5509,-797.92096,-235.061,0.33491,-0.73911,-1.08711
300.15,1336,-172.62,123.21,0.5235211,0.29625902,0.70358974,0.3783088,99.131,-1021.58093,140.501,2.9488099,3.39271,-0.68781,1,-1,0,0,0,false,false,false,171.33,-661.52997,17.01,-0.0025921995,0.003978662,0.5447821,0.8385641,273.54102,568.191,8.341001,-0.00010999999,0,-2.36301,1,-1,1,-1,0,false,false,false,372.87,182.12999,52.57,0.50559413,-0.13900556,0.7108106,0.46882844,-1086.611,-775.821,-119.201,0.44291002,-5.0781097,-2.06541
300.15833,1336.83,-181.12999,124.34,0.5388694,0.29140913,0.69861805,0.3696394,99.101,-1021.321,135.041,2.9488099,3.39271,-0.68781,1,-1,0,0,0,false,false,false,173.61,-656.8,17.01,-0.002554436,0.004005636,0.536501,0.84388626,287.001,569.201,8.341001,-0.00010999999,0,-2.3712099,1,-1,1,-1,0,false,false,false,363.81,175.67,51.53,0.48863822,-0.15420814,0.717549,0.4717794,-1086.631,-775.52094,-124.97099,0.09901,-5.09691,-2.06421
300.16666,1337.6599,-189.64,125.42,0.5540234,0.28645667,0.6933964,0.360835,99.071,-1021.061,129.591,2.9488099,3.39271,-0.68781,1,-1,0,0,0,false,false,false,176,-652.06,17.01,-0.0025166725,0.0040326104,0.5281391,0.8491445,300.591,569.821,8.341001,-0.00010999999,0,-2.37921,1,-1,1,-1,0,false,false,false,354.75,169.20999,50.44,0.47072196,-0.16830477,0.72409964,0.47515655,-1086.6709,-775.22095,-130.751,-0.22900999,-5.09341,-2.06271
300.175,1338.49,-198.15,126.45,0.56897783,0.28140175,0.6879263,0.3519012,99.041,-1020.80096,124.141,2.9488099,3.39271,-0.68781,1,-1,0,0,0,false,false,false,178.5,-647.31,17.01,-0.0024789087,0.004059584,0.5196962,0.8543378,314.301,570.04095,8.341001,0,0,-2.3870099,1,-1,1,-1,0,false,false,false,345.69,162.75,49.309998,0.45405748,-0.18122536,0.7297614,0.47795114,-1079.971,-762.85095,-137.72101,0.04141,-4.8888097,-1.65011
300.18332,1339.32,-206.65,127.439995,0.5837272,0.2762443,0.6822096,0.34284332,99.010994,-1020.54095,118.690994,2.9488099,3.39271,-0.68781,1,-1,0,0,0,false,false,false,181.12,-642.56,17.01,-0.0024357506,0.0040865582,0.5111724,0.859465,328.121,569.85095,8.341001,0,0,-2.39451,1,-1,1,-1,0,false,false,false,336.69,156.39,48.09,0.4358554,-0.19419995,0.7361349,0.48002276,-1072.4209,-750.60095,-148.33101,-0.08770999,-5.28821,-1.4995099
300.19168,1340.14,-215.15,128.37999,0.59827167,0.27098432,0.67624587,0.33366132,98.980995,-1020.28094,113.241,2.9488099,3.39271,-0.68781,1,-1,0,0,0,false,false,false,183.84999,-637.81,17.01,-0.002392592,0.004108137,0.502573,0.8645216,342.041,569.251,8.341001,0,0,-2.40171,1,-1,1,-1,0,false,false,false,327.75,150.12999,46.78,0.4161049,-0.20718525,0.74316937,0.4812797,-1064.231,-738.261,-158.481,-0.20951,-5.3495097,-1.2603099
300.2,1340.96,-223.65,129.28,0.6126004,0.2656273,0.67003953,0.3243607,98.951,-1020.02094,107.791,2.9488099,3.39271,-0.68781,1,-1,0,0,0,false,false,false,186.7,-633.07,17.01,-0.0023494337,0.004129716,0.49389815,0.8695067,356.051,568.23096,8.341001,0,0,-2.4086099,1,-1,1,-1,0,false,false,false,318.88,143.98,45.379997,0.39594987,-0.21938293,0.75039357,0.48166814,-1055.491,-725.85095,-168.131,-0.32741,-5.39361,-1.0254099
300.20834,1341.78,-232.15,130.12999,0.62670773,0.26017854,0.66359353,0.3149413,98.921,-1019.7609,102.340996,2.9488099,3.39271,-0.68781,1,-1,0,0,0,false,false,false,189.67,-628.32996,17.01,-0.0023062753,0.0041512954,0.48514777,0.8744192,370.131,566.79095,8.341001,0,0,-2.41531,1,-1,1,-1,0,false,false,false,310.08,137.93,43.899998,0.37547114,-0.23079297,0.7577725,0.4811826,-1038.471,-701.571,-162.761,-0.35221002,-5.43771,-0.74631
300.21667,1342.6,-240.65,130.94,0.64058864,0.25463268,0.65691227,0.3054087,98.891,-1019.501,96.891,2.9488099,3.39271,-0.68781,1,-1,0,0,0,false,false,false,192.75,-623.61,17.01,-0.0022631169,0.0041728746,0.4763219,0.8792581,384.281,564.93097,8.341001,-0.00010999999,0,-2.42171,1,-1,1,-1,0,false,false,false,301.43,132.08,42.469997,0.35493308,-0.24166352,0.7652978,0.479521,-1019.8909,-676.78094,-150.931,-0.48071,-5.46461,-0.39501
300.225,1343.4199,-249.14,131.7,0.6542425,0.24899505,0.64999175,0.29576808,98.861,-1019.24097,91.440994,2.9488099,3.39271,-0.68781,1,-1,0,0,0,false,false,false,195.95,-618.89996,17.01,-0.0022199585,0.004194454,0.4674258,0.8840195,398.481,562.65094,8.341001,-0.00010999999,0,-2.42781,1,-1,1,-1,0,false,false,false,292.93,126.439995,41.14,0.33526894,-0.24998234,0.7737064,0.4759011,-1000.04095,-651.42096,-135.61101,-0.84371,-5.32191,0.38071
300.23334,1344.24,-257.63,132.42,0.66766065,0.24327119,0.6428383,0.2860197,98.83099,-1018.98096,86.001,2.9488099,3.39271,-0.68781,1,-1,0,0,0,false,false,false,199.26999,-614.20996,17.01,-0.0021768003,0.004216033,0.45845965,0.8887025,412.731,559.941,8.341001,-0.00010999999,0,-2.43361,1,-1,1,-1,0,false,false,false,284.6,121.009995,39.94,0.31598246,-0.2557062,0.78334326,0.47025806,-980.0109,-625.751,-118.340996,-1.28441,-5.20021,1.15521
300.24167,1345.0599,-266.12,133.09,0.6808398,0.23746099,0.6354528,0.27616873,98.800995,-1018.72095,80.561,2.9488099,3.39271,-0.68781,1,-1,0,0,0,false,false,false,202.70999,-609.54,17.01,-0.0021336419,0.0042376122,0.44942328,0.89330626,427.011,556.80096,8.341001,-0.00021,0,-2.43911,1,-1,1,-1,0,false,false,false,276.43,115.799995,38.879997,0.29689023,-0.25868416,0.7943156,0.46260288,-960.46094,-599.85095,-72.821,-2.2620099,-4.53931,2.12761
300.25,1345.88,-274.61,133.72,0.6937726,0.23156437,0.62784064,0.2662207,98.770996,-1018.46094,75.120995,2.9488099,3.39271,-0.68781,1,-1,0,0,0,false,false,false,206.26999,-604.89996,17.01,-0.0020904834,0.0042591915,0.44032225,0.8978272,441.311,553.23096,8.341001,-0.00021,0,-2.4444098,1,-1,1,1,0,false,false,false,268.46,110.84,38.379997,0.27909815,-0.25222656,0.80795276,0.45353958,-932.34094,-580.59094,-35.791,-3.1484098,-3.61691,2.69351
300.25833,1346.7,-283.09,134.3,0.70645905,0.22558154,0.620002,0.25617558,98.741,-1018.2009,69.681,2.9488099,3.39271,-0.68781,1,-1,0,0,0,false,false,false,209.95,-600.29,17.01,-0.002047325,0.0042807707,0.4311565,0.90226465,455.611,549.23096,8.341001,-0.00021,0,-2.44941,1,-1,1,1,0,false,false,false,260.69,106,38.01,0.26304314,-0.24404259,0.8208781,0.44430894,-911.47095,-566.92096,-29.630999,-3.2490098,-3.37181,2.88521
300.26666,1347.52,-291.57,134.84,0.7188904,0.2195178,0.6119422,0.2460387,98.711,-1017.941,64.241,2.9488099,3.39271,-0.68781,1,-1,0,0,0,false,false,false,213.75,-595.70996,17.01,-0.0020041666,0.00430235,0.4219259,0.9066178,469.911,544.80096,8.341001,-0.00021,0,-2.45411,1,-1,1,1,0,false,false,false,253.09,101.28,37.69,0.24771109,-0.23483366,0.8334647,0.4345444,-891.2009,-552.73096,-29.640999,-3.22611,-3.26531,3.02971
300.275,1348.34,-300.05,135.33,0.7310635,0.21337852,0.60366106,0.23581555,98.681,-1017.68097,58.801,2.9488099,3.39271,-0.68781,1,-1,0,0,0,false,false,false,217.67,-591.17,17.01,-0.0019610084,0.004323929,0.41263068,0.910886,484.191,539.93097,8.341001,-0.00021,0,-2.45851,1,-1,1,1,0,false,false,false,245.65999,96.67,37.37,0.23282684,-0.22534958,0.8456536,0.4241216,-871.91095,-538.24097,-31.470999,-3.16781,-3.20221,3.15601
300.28333,1349.1599,-308.53,135.77,0.74297357,0.20716365,0.5951643,0.22550604,98.651,-1017.42096,53.361,2.9488099,3.39271,-0.68781,1,-1,0,0,0,false,false,false,221.7,-586.67,17.01,-0.0019178501,0.0043455088,0.40327606,0.915066,498.431,534.631,8.341001,-0.00021,0,-2.46271,1,-1,1,1,0,false,false,false,238.39,92.18,37.03,0.21828778,-0.21582775,0.8574235,0.41302988,-853.85095,-523.65094,-34.560997,-3.08911,-3.16461,3.2699099
300.29166,1349.98,-317.00998,136.17,0.7546188,0.20087332,0.5864517,0.21511565,98.620995,-1017.16095,47.931,2.9488099,3.39271,-0.68781,1,-1,0,0,0,false,false,false,225.84999,-582.20996,17.01,-0.0018746917,0.0043670875,0.3938675,0.9191549,512.631,528.90094,8.341001,-0.00021,0,-2.46661,1,-1,1,1,0,false,false,false,231.26999,87.82,36.67,0.20403464,-0.206403,0.8687663,0.40126374,-837.22095,-509.161,-38.641,-2.9983099,-3.14241,3.37421
300.3,1350.7999,-325.47998,136.52,0.7659935,0.19451283,0.5775286,0.20464426,98.590996,-1016.90094,42.501,2.9488099,3.39271,-0.68781,1,-1,0,0,0,false,false,false,230.12,-577.8,17.01,-0.0018315333,0.0043886667,0.38439953,0.92315453,526.77094,522.74097,8.341001,-0.00010999999,0,-2.47031,1,-1,1,1,0,false,false,false,224.29,83.58,36.27,0.19002976,-0.19717246,0.8796654,0.38884494,-822.18097,-494.981,-43.411,-2.90461,-3.1261098,3.46981
300.30832,1351.62,-333.94998,136.83,0.7770906,0.18808225,0.5684006,0.19410284,98.561,-1016.6409,37.071,2.9488099,3.39271,-0.68781,1,-1,0,0,0,false,false,false,234.51,-573.44,17.01,-0.0017883751,0.0044048512,0.37487775,0.92706203,540.84094,516.15094,8.341001,-0.00010999999,0,-2.47371,1,-1,1,1,0,false,false,false,217.44,79.46,35.829998,0.17624596,-0.18816851,0.89011234,0.37580562,-807.311,-479.991,-48.010998,-2.8006098,-3.1082098,3.57001
300.31668,1352.44,-342.41998,137.09,0.7879102,0.18158142,0.5590675,0.18349117,98.531,-1016.381,31.640999,2.9488099,3.39271,-0.68781,1,-1,0,0,0,false,false,false,239.01999,-569.14,17.01,-0.0017452165,0.0044210353,0.36530197,0.93087685,554.831,509.141,8.341001,0,0,-2.4769099,1,-1,1,1,0,false,false,false,210.70999,75.46,35.36,0.16271032,-0.17942888,0.90010905,0.3621243,-792.001,-463.541,-52.271,-2.67911,-3.08691,3.6800098
300.325,1353.26,-350.88998,137.31,0.7984458,0.17501597,0.549535,0.17281489,98.501,-1016.121,26.210999,2.9488099,3.39271,-0.68781,1,-1,0,0,0,false,false,false,243.64,-564.89996,17.01,-0.0017020581,0.00443722,0.35567755,0.9345966,568.73096,501.701,8.341001,0,0,-2.47981,1,-1,1,1,0,false,false,false,204.11,71.6,34.85,0.1494715,-0.17102376,0.9096515,0.34776878,-776.61096,-445.82098,-56.260998,-2.5457098,-3.05961,3.7957098
300.33334,1354.08,-359.36,137.48,0.80869734,0.16838574,0.5398026,0.16207375,98.471,-1015.86096,20.780998,2.9488099,3.39271,-0.68781,1,-1,0,0,0,false,false,false,248.37999,-560.72,17.01,-0.0016535051,0.0044534043,0.34599933,0.9382227,582.52094,493.841,8.341001,0,0.00010999999,-2.4825099,1,-1,1,1,0,false,false,false,197.64,67.88,34.309998,0.13656709,-0.16299093,0.9187377,0.33272263,-761.43097,-427.021,-60.071,-2.40541,-3.02461,3.91341
300.34167,1354.9,-367.81998,137.61,0.81865853,0.16169612,0.5298762,0.15127337,98.440994,-1015.60095,15.351,2.9488099,3.39271,-0.68781,1,-1,0,0,0,false,false,false,253.23,-556.6,17.01,-0.0016049518,0.0044695884,0.33627778,0.9417508,596.191,485.561,8.341001,0,0.00010999999,-2.48501,1,-1,1,1,0,false,false,false,191.29,64.32,33.73,0.12402958,-0.15535724,0.92736036,0.31699133,-754.17096,-417.291,-66.431,-2.36811,-3.00681,3.94971
300.35,1355.72,-376.28,137.69,0.82832503,0.15494722,0.5197609,0.14041895,98.410995,-1015.34094,9.931,2.9488099,3.39271,-0.68781,1,-1,0,0,0,false,false,false,258.19998,-552.55,17.01,-0.0015563987,0.004485773,0.3265078,0.9451825,609.73096,476.871,8.341001,0,0.00010999999,-2.48731,1,-1,1,1,0,false,false,false,185.01,60.84,33.1,0.11159987,-0.14779907,0.93548644,0.3009418,-746.98096,-406.881,-72.681,-2.31981,-2.98491,3.99471
300.35834,1356.5399,-384.74,137.73,0.8376914,0.14814438,0.5094622,0.12951607,98.381,-1015.08093,4.5109997,2.9488099,3.39271,-0.68781,1,-1,0,0,0,false,false,false,263.28,-548.58,17.01,-0.0015078456,0.004501958,0.31669462,0.94851565,623.121,467.771,8.341001,0,0.00010999999,-2.48941,1,-1,1,1,0,false,false,false,178.79,57.449997,32.42,0.09931583,-0.14034885,0.94311786,0.28454688,-739.99097,-395.901,-78.870995,-2.26361,-2.95821,4.0465097
300.36667,1357.36,-393.19998,137.72,0.84675795,0.14128754,0.49898016,0.11856456,98.351,-1014.821,-0.90099996,2.9488099,3.39271,-0.68781,1,-1,0,0,0,false,false,false,268.47,-544.68,17.01,-0.0014592924,0.0045181415,0.3068383,0.95174974,636.36096,458.271,8.341001,0,0.00010999999,-2.49131,1,-1,1,1,0,false,false,false,172.62,54.149998,31.689999,0.08720991,-0.13303886,0.95025426,0.2677906,-733.311,-384.471,-85.041,-2.20211,-2.9263098,4.10331
300.375,1358.1799,-401.65,137.67,0.8555188,0.13438217,0.48831993,0.10757536,98.321,-1014.561,-6.311,2.9488099,3.39271,-0.68781,1,-1,0,0,0,false,false,false,273.77,-540.86,17.01,-0.0014107391,0.004534326,0.29694414,0.954883,649.43097,448.361,8.341001,0,0.00010999999,-2.49291,1,-1,1,1,0,false,false,false,166.51,50.95,30.91,0.07530891,-0.12588534,0.956896,0.25066206,-721.311,-361.841,-88.690994,-2.04921,-2.84791,4.23551
300.38333,1359,-410.09998,137.56999,0.8639748,0.12742828,0.47748178,0.09654291,98.291,-1014.30096,-11.721,2.9488099,3.39271,-0.68781,1,-1,0,0,0,false,false,false,279.18,-537.12,17.01,-0.0013621859,0.00455051,0.2870123,0.95791495,662.321,438.061,8.341001,0,0.00010999999,-2.49441,1,-1,1,1,0,false,false,false,160.5,47.93,30.099998,0.06393128,-0.119185,0.96305853,0.2328646,-710.58093,-339.401,-92.58099,-1.90911,-2.76471,4.3544097
300.39166,1359.82,-418.55,137.43,0.8721215,0.12042577,0.46647096,0.085478194,98.260994,-1014.04095,-17.130999,2.9488099,3.39271,-0.68781,1,-1,0,0,0,false,false,false,284.69998,-533.47,17.01,-0.0013136328,0.0045666946,0.27704275,0.96084577,675.02094,427.371,8.341001,0,0.00010999999,-2.49571,1,-1,1,1,0,false,false,false,154.58,45.1,29.25,0.05307147,-0.112900004,0.96873,0.21447363,-701.191,-317.391,-96.760994,-1.78271,-2.67911,4.46021
300.4,1360.64,-427,137.23999,0.87995493,0.11338016,0.45529288,0.074381,98.230995,-1013.78094,-22.540998,2.9488099,3.39271,-0.68781,1,-1,0,0,0,false,false,false,290.33,-529.91,17.01,-0.0012650797,0.004582879,0.2670353,0.96367496,687.511,416.291,8.341001,0,0.00010999999,-2.49681,1,-1,1,1,0,false,false,false,148.73999,42.46,28.369999,0.042708073,-0.10698732,0.9739036,0.19555402,-693.16095,-296.051,-101.270996,-1.67061,-2.59321,4.55341
300.40833,1361.46,-435.44998,137.01,0.88747126,0.10629679,0.44395298,0.06325694,98.201,-1013.52094,-27.950998,2.9488099,3.39271,-0.68781,1,-1,0,0,0,false,false,false,296.06,-526.44,17.01,-0.0012165266,0.0045936694,0.25699562,0.96640086,699.79095,404.831,8.341001,0,0.00010999999,-2.49771,1,-1,1,1,0,false,false,false,142.95999,39.989998,27.449999,0.032813925,-0.10140365,0.97857255,0.17617042,-684.951,-265.191,-101.800995,-1.6877099,-2.46891,4.61581
300.41666,1362.28,-443.88998,136.73,0.89467,0.09917557,0.43245125,0.0521112,98.171,-1013.2609,-33.361,2.9488099,3.39271,-0.68781,1,-1,0,0,0,false,false,false,301.88998,-523.07,17.01,-0.0011679734,0.0046044583,0.24692345,0.9690233,711.85095,393.001,8.341001,0,0.00010999999,-2.49841,1,-1,1,1,0,false,false,false,137.25,37.78,26.529999,0.023432381,-0.09560965,0.9827608,0.15649553,-677.99097,-234.871,-101.541,-1.74261,-2.30281,4.68071
300.425,1363.1,-452.33,136.41,0.9015457,0.092016675,0.4207984,0.040949367,98.141,-1013.001,-38.760998,2.9488099,3.39271,-0.68781,1,-1,0,0,0,false,false,false,307.82,-519.79,17.01,-0.0011194202,0.004615248,0.2368244,0.9715408,723.67096,380.811,8.341001,-0.00010999999,0.00010999999,-2.4990098,-1,1,1,1,0,false,false,false,131.59999,35.82,25.609999,0.014719784,-0.089437954,0.9864789,0.13654009,-672.371,-205.491,-100.811,-1.82951,-2.09531,4.71721
300.43332,1363.9199,-460.77,136.04,0.9080978,0.08482541,0.4089946,0.029771267,98.111,-1012.74097,-44.161,2.9488099,3.39271,-0.68781,1,-1,0,0,0,false,false,false,313.85,-516.62,17.01,-0.001070867,0.0046260376,0.22669826,0.9739534,735.24097,368.261,8.341001,-0.00010999999,0.00010999999,-2.49941,-1,1,1,1,0,false,false,false,126,34.11,24.699999,0.0068217204,-0.08275378,0.9897195,0.1164498,-647.55096,-186.791,-100.681,-1.9219099,-1.8688099,4.80241
300.44168,1364.74,-469.21,135.62999,0.9143261,0.07760179,0.39703965,0.018582461,98.08099,-1012.48096,-49.560997,2.9488099,3.39271,-0.68781,1,-1,0,0,0,false,false,false,319.97998,-513.55,17.01,-0.0010223138,0.004636827,0.21654527,0.97626096,746.561,355.361,8.341001,-0.00010999999,0.00010999999,-2.4997098,1,1,1,1,0,false,false,false,120.6,32.55,23.789999,-0.00015914647,-0.075540915,0.9925082,0.096025005,-618.121,-155.72101,-96.101,-1.93391,-1.49251,4.42821
300.45,1365.5599,-477.65,135.17,0.9202249,0.070351094,0.38494444,0.0073881736,98.050995,-1012.22095,-54.961,2.9488099,3.39271,-0.68781,1,-1,0,0,0,false,false,false,326.19998,-510.59,17.01,-0.00097376073,0.0046476168,0.2063652,0.9784635,757.61096,342.111,8.341001,-0.00010999999,0.00010999999,-2.49981,1,1,1,1,0,false,false,false,115.45,31.25,22.92,-0.005710434,-0.068128444,0.99466693,0.07722407,-627.09094,-128.041,-91.230995,-1.92381,-1.11241,4.22231
300.45834,1366.38,-486.08,134.67,0.92579395,0.06307891,0.37270904,-0.0038114237,98.020996,-1011.96094,-60.360996,2.9488099,3.39271,-0.68781,1,-1,0,0,0,false,false,false,332.50998,-507.74,17.01,-0.00092520745,0.0046584057,0.19616362,0.9805595,768.3909,328.521,8.341001,-0.00010999999,0.00010999999,-2.49981,1,1,1,1,0,false,false,true,110.22,30.179998,22.09,-0.009740346,-0.060602654,0.9963482,0.0593511,-636.53094,-106.061,-86.910995,-1.92091,-0.74981,4.02941
300.46667,1367.2,-494.50998,134.12,0.9310292,0.055779748,0.36034405,-0.015011063,97.991,-1011.7009,-65.761,2.9488099,3.39271,-0.68781,1,-1,0,0,0,false,false,false,338.91,-505,17.01,-0.00087665435,0.004669196,0.18594041,0.9825495,778.881,314.611,8.341001,-0.00010999999,0.00010999999,-2.49961,1,1,1,1,0,false,false,true,104.92,29.3,21.3,-0.01230827,-0.052969016,0.9976219,0.04234662,-646.04095,-89.671,-82.851,-1.92231,-0.42231,3.85411
300.475,1368.02,-502.94,133.53,0.9359299,0.048464317,0.34784967,-0.026205303,97.961,-1011.441,-71.160995,2.9488099,3.39271,-0.68781,1,-1,0,0,0,false,false,false,345.4,-502.37997,17.01,-0.0008281012,0.0046799853,0.1756957,0.984433,789.08093,300.371,8.341001,-0.00010999999,0.00010999999,-2.49931,1,1,1,1,0,false,false,true,99.54,28.55,20.539999,-0.013549073,-0.045243625,0.9985422,0.026129778,-655.29095,-78.821,-77.190994,-1.85781,-0.18610999,3.69401
300.48334,1368.84,-511.37,132.89,0.9404967,0.04112739,0.33522576,-0.037388757,97.931,-1011.18097,-76.550995,2.9488099,3.39271,-0.68781,1,-1,0,0,0,false,false,false,351.97998,-499.87997,17.01,-0.000779548,0.004690775,0.1654347,0.9862092,798.98096,285.821,8.341001,-0.00010999999,0.00010999999,-2.49891,0.47244096,1,0.5826772,1,0,false,false,true,94.079994,27.89,19.83,-0.013829602,-0.037734028,0.9991356,0.010619656,-664.011,-72.870995,-70.281,-1.74671,-0.02401,3.55371
300.49167,1369.6599,-519.79,132.20999,0.9447252,0.03377969,0.32248333,-0.048556034,97.901,-1010.92096,-81.940994,2.9488099,3.39271,-0.68781,1,-1,0,0,0,false,false,false,358.63998,-497.5,17.01,-0.00073099486,0.0047015646,0.15515763,0.9878782,808.571,270.971,8.341001,-0.00010999999,0.00010999999,-2.4983099,0.21259843,1,0.2047244,1,0,false,false,true,88.549995,27.279999,19.18,-0.013446571,-0.03066145,0.9994302,-0.0042807707,-666.871,-70.270996,-62.470997,-1.60381,0.078609996,3.41591
300.5,1370.48,-528.20996,131.48,0.94861364,0.0264157,0.30962738,-0.05970711,97.870995,-1010.66095,-87.331,2.9488099,3.39271,-0.68781,1,-1,0,0,0,false,false,false,365.38,-495.24,17.01,-0.0006824417,0.0047069597,0.14486435,0.98944,817.84094,255.821,8.341001,-0.00010999999,0.00010999999,-2.4976099,0.21259843,1,0.2047244,1,0,false,false,true,82.99,26.689999,18.59,-0.012653536,-0.024171468,0.999455,-0.01858246,-668.93097,-70.980995,-54.091,-1.44181,0.13791,3.3029099
300.50833,1371.2999,-536.63,130.70999,0.95216227,0.019046409,0.2966582,-0.07083661,97.840996,-1010.40094,-92.721,2.9488099,3.39271,-0.68781,1,-1,0,0,0,false,false,false,372.19998,-493.11,17.01,-0.0006338886,0.004712355,0.13456021,0.99089396,826.78094,240.391,8.341001,-0.00010999999,0.00010999999,-2.49681,0.007874016,1,0.31496063,1,0,false,false,true,77.42,26.099998,18.07,-0.0116339205,-0.018350484,0.9992388,-0.032398578,-670.311,-74.281,-44.411,-1.30661,0.20231,3.2130098
300.51666,1372.12,-545.05,129.89,0.9553698,0.0116663305,0.28358126,-0.08193915,97.811,-1010.1409,-98.111,2.9488099,3.39271,-0.68781,1,-1,0,0,0,false,false,false,379.09,-491.11,17.01,-0.00058533537,0.004717749,0.12424536,0.9922401,835.381,224.681,8.341001,-0.00010999999,0.00010999999,-2.49591,0,1,0.41732284,1,0,false,false,true,71.83,25.48,17.63,-0.010366143,-0.013090515,0.99881005,-0.04582087,-669.78094,-79.260994,-35.661,-1.13511,0.20861,3.13651
300.525,1372.94,-553.47,129.03,0.9582341,0.004286165,0.27040163,-0.09301471,97.781,-1009.881,-103.501,2.9488099,3.39271,-0.68781,1,-1,0,0,0,false,false,false,386.05,-489.24,17.01,-0.0005367822,0.0047231438,0.11391964,0.99347854,843.6409,208.711,8.341001,-0.00010999999,0.00010999999,-2.49491,0.4094488,1,0.47244096,1,0,false,false,true,66.25,24.82,17.27,-0.009109155,-0.008542702,0.9981852,-0.058908686,-668.61096,-85.681,-27.591,-0.95041,0.18610999,3.0750098
300.53333,1373.75,-561.88,128.12,0.96075433,-0.0030993104,0.25712508,-0.10405791,97.751,-1009.621,-108.891,2.9488099,3.39271,-0.68781,1,-1,0,0,0,false,false,false,393.08,-487.5,17.01,-0.00048822907,0.0047285384,0.103588596,0.9946088,851.55096,192.481,8.341001,-0.00010999999,0.00010999999,-2.49381,0.4094488,1,0.47244096,1,0,false,false,true,60.68,24.109999,16.97,-0.007992433,-0.004750118,0.9973813,-0.071721375,-669.30096,-93.800995,-20.030998,-0.77311,0.15700999,3.0348098
300.54166,1374.5599,-570.29,127.17,0.9629295,-0.010479433,0.2437567,-0.11506333,97.721,-1009.36096,-114.281,2.9488099,3.39271,-0.68781,1,-1,0,0,0,false,false,false,400.18,-485.9,17.01,-0.00043967587,0.0047339336,0.09324669,0.99563164,859.10095,176.001,8.341001,-0.00010999999,0.00010999999,-2.49261,0.31496063,1,0.38582677,1,0,false,false,true,55.1,23.33,16.74,-0.0070483433,-0.0016858738,0.9964097,-0.08435067,-667.17096,-101.83099,-13.071,-0.60761,0.12620999,2.99311
300.55,1375.37,-578.7,126.17,0.9647588,-0.017859558,0.230302,-0.1260256,97.690994,-1009.10095,-119.660995,2.9488099,3.39271,-0.68781,1,-1,0,0,0,false,false,false,407.34,-484.43,17.01,-0.0003911227,0.0047393283,0.08289947,0.9965465,866.29095,159.281,8.341001,-0.00010999999,0.00010999999,-2.49131,0,1,0.3464567,1,0,false,false,true,49.539997,22.48,16.56,-0.0062876767,0.00070402084,0.995285,-0.09678571,-666.34094,-110.90099,-5.1809998,-0.41421,0.17030999,2.96681
300.55832,1376.1799,-587.11,125.13,0.966241,-0.025234245,0.21676646,-0.13694471,97.660995,-1008.84094,-125.041,2.9488099,3.39271,-0.68781,1,-1,0,0,0,false,false,false,414.56,-483.09998,17.01,-0.00034256955,0.004744723,0.07255217,0.9973532,873.11096,142.33101,8.341001,0,0.00010999999,-2.48991,0.31496063,1,0.26771653,1,0,false,false,true,43.989998,21.56,16.449999,-0.005424468,0.0022739067,0.9940143,-0.1090913,-663.42096,-119.620995,3.521,-0.14171,0.110209994,2.93891
300.56668,1376.99,-595.51,124.04,0.9673769,-0.03259818,0.2031499,-0.14781526,97.631,-1008.58093,-130.421,2.9488099,3.39271,-0.68781,1,-1,0,0,0,false,false,false,421.84,-481.91,17.01,-0.00029401635,0.004750117,0.062199548,0.99805224,879.561,125.160995,8.341001,0,0.00010999999,-2.48841,0.31496063,1,0.26771653,1,0,false,false,true,38.46,20.56,16.41,-0.004933541,0.0027432537,0.9926051,-0.1212566,-661.85095,-128.931,8.491,-0.012709999,0.067509994,2.92221
300.575,1377.7999,-603.91,122.909996,0.968165,-0.039951336,0.18946332,-0.15863189,97.601,-1008.321,-135.80101,2.9488099,3.39271,-0.68781,1,-1,0,0,0,false,false,false,429.16998,-480.87,17.01,-0.00024546322,0.004755513,0.051846858,0.99864364,885.631,107.791,8.341001,0,0.00010999999,-2.48681,0,1,0.26771653,1,0,false,false,true,32.94,19.49,16.41,-0.0046799853,0.0027000955,0.99105614,-0.13333559,-660.071,-137.97101,11.281,0.04011,0.037709996,2.90891
300.58334,1378.61,-612.31,121.729996,0.96860635,-0.047288254,0.17570649,-0.16938913,97.571,-1008.061,-141.181,2.9488099,3.39271,-0.68781,1,-1,0,0,0,false,false,false,436.55,-479.97,17.01,-0.00019691006,0.0047609075,0.041494243,0.9991273,891.311,90.221,8.341001,0,0.00010999999,-2.48511,0,1,0.07086614,1,0,false,false,true,27.439999,18.34,16.44,-0.0045774844,0.0024573295,0.9893682,-0.14533904,-658.23096,-146.651,12.751,0.053409997,0.02351,2.89921
300.59167,1379.4199,-620.70996,120.509995,0.9686991,-0.054609034,0.16189033,-0.18008706,97.541,-1007.80096,-146.561,2.9488099,3.39271,-0.68781,1,-1,0,0,0,false,false,false,443.97998,-479.22,17.01,-0.00014835689,0.0047609075,0.03114694,0.99950343,896.60095,72.461,8.341001,0,0,-2.48331,0,1,0.07086614,1,0,false,false,true,21.949999,17.119999,16.48,-0.004539721,0.002166011,0.98754156,-0.1572778,-654.78094,-154.091,13.551,0.059809998,0.015509999,2.88531
300.6,1380.23,-629.11,119.24,0.96844435,-0.06190823,0.14801489,-0.19072023,97.510994,-1007.54095,-151.94101,2.9488099,3.39271,-0.68781,1,-1,0,0,0,false,false,false,451.44998,-478.62,17.01,-0.00009980372,0.004760907,0.020805113,0.9997721,901.49097,54.521,8.341001,0,0,-2.48151,0.43307087,1,0.031496063,1,0,false,false,true,16.49,15.839999,16.529999,-0.004539721,0.0018531126,0.98558056,-0.1691356,-651.36096,-160.981,13.8810005,0.06161,0.011309999,2.87421
300.60834,1381.0399,-637.5,117.93,0.96784264,-0.06918582,0.13408548,-0.20128332,97.480995,-1007.28094,-157.311,2.9488099,3.39271,-0.68781,1,-1,0,0,0,false,false,false,458.96,-478.16998,17.01,-0.00005125057,0.004760908,0.010468602,0.99993384,905.98096,36.420998,8.341001,0,0,-2.47961,0,1,0.03937008,1,0,false,false,true,11.059999,14.5,16.58,-0.0045559052,0.0015402143,0.9834854,-0.18092325,-649.91095,-168.321,13.871,0.060209997,0.00931,2.87451
300.61667,1381.85,-645.89,116.57,0.9668928,-0.07644186,0.12010747,-0.21177624,97.451,-1007.02094,-162.681,2.9488099,3.39271,-0.68781,1,-1,0,0,0,false,false,false,466.50998,-477.87,17.01,-0.000002697398,0.0047609075,0.0001375673,0.9999886,910.071,18.161,8.341001,0,0,-2.4776099,0.511811,1,0.05511811,1,0,false,false,true,5.64,13.099999,16.63,-0.0045828787,0.0012327108,0.9812482,-0.19268933,-646.751,-173.94101,13.651,0.057109997,0.008509999,2.8675098
300.625,1382.6599,-654.27997,115.17,0.965596,-0.083665535,0.10608639,-0.22219361,97.421,-1006.7609,-168.05101,2.9488099,3.39271,-0.68781,1,-1,0,0,0,false,false,false,474.09,-477.72,17.01,0.000045855766,0.0047609075,-0.010188115,0.9999367,913.751,-0.23099999,8.341001,0,0,-2.47551,0,1,0.05511811,1,0,false,false,true,0.25,11.65,16.68,-0.004609853,0.0009359971,0.9788769,-0.2043961,-645.871,-180.161,13.301,0.05281,0.0083099995,2.87251
300.63333,1383.47,-662.67,113.72,0.96395266,-0.0908622,0.09202747,-0.2325301,97.391,-1006.501,-173.421,2.9488099,3.39271,-0.68781,1,-1,0,0,0,false,false,false,481.69998,-477.72,17.01,0.00009440893,0.0047609075,-0.020503007,0.9997784,917.02094,-18.761,8.341001,0,0,-2.47341,0,1,0.05511811,1,0,false,false,true,-5.13,10.15,16.72,-0.0046314327,0.0006608626,0.97636056,-0.2160975,-643.24097,-184.311,12.861,0.04821,0.0083099995,2.8684099
300.64166,1384.28,-671.06,112.229996,0.96196246,-0.09802653,0.07793626,-0.24278565,97.361,-1006.24097,-178.791,2.9488099,3.39271,-0.68781,1,-1,0,0,0,false,false,false,489.34,-477.87997,17.01,0.00014296208,0.004760907,-0.030807106,0.99951386,919.881,-37.420998,8.341001,0,0,-2.47121,0.62992126,1,0.05511811,1,0,false,false,true,-10.49,8.61,16.76,-0.0046476168,0.00040191232,0.97370833,-0.2277503,-641.001,-187.661,12.411,0.043409996,0.008409999,2.8654099
300.65,1385.09,-679.44,110.7,0.95962834,-0.10515309,0.06381799,-0.25294945,97.33099,-1005.98096,-184.161,2.9488099,3.39271,-0.68781,1,-1,0,0,0,false,false,false,497.00998,-478.19,17.01,0.00019151527,0.0047609075,-0.041095026,0.99914384,922.321,-56.190998,8.341001,0,0,-2.46891,0,1,0.05511811,1,0,false,false,true,-15.83,7.0499997,16.8,-0.0046584057,0.00016454127,0.97091955,-0.23935992,-641.511,-191.86101,11.951,0.03851,0.008509999,2.87571
300.65833,1385.9,-687.82,109.119995,0.9569488,-0.11224185,0.049672753,-0.26302698,97.300995,-1005.72095,-189.531,2.9488099,3.39271,-0.68781,1,-1,0,0,0,false,false,false,504.69998,-478.66,17.01,0.00024006843,0.0047609075,-0.051372156,0.99866813,924.34094,-75.061,8.341001,0,0,-2.46661,0,1,0.05511811,1,0,false,false,true,-21.18,5.45,16.83,-0.0046638013,-0.00005664536,0.9679823,-0.25097495,-639.61096,-194.421,11.501,0.03411,0.008409999,2.87361
300.66666,1386.71,-696.2,107.5,0.9539261,-0.11929289,0.03551141,-0.2730074,97.270996,-1005.46094,-194.891,2.9488099,3.39271,-0.68781,1,-1,0,0,0,false,false,false,512.39996,-479.28998,17.01,0.0002886216,0.004760908,-0.061633106,0.99808747,925.941,-94.031,8.341001,0,0,-2.46421,0,1,0.05511811,1,0,false,false,true,-26.51,3.83,16.859999,-0.0046638013,-0.0002562528,0.9649079,-0.26254684,-640.65094,-199.571,11.091001,0.02971,0.0083099995,2.88871
300.675,1387.52,-704.57996,105.829994,0.9505605,-0.12630071,0.021339199,-0.28289068,97.241,-1005.2009,-200.251,2.9488099,3.39271,-0.68781,1,-1,0,0,0,false,false,false,520.12,-480.06998,17.01,0.00033717474,0.004755513,-0.07187786,0.997402,927.11096,-113.08099,8.341001,0,0,-2.4618099,1,1,0.05511811,1,0,false,false,true,-31.849998,2.1699998,16.88,-0.004658406,-0.00043967587,0.96167827,-0.2741403,-638.47095,-202.22101,10.701,0.026109999,0.008009999,2.88651
300.68332,1388.33,-712.95,104.119995,0.946854,-0.13326547,0.0071561974,-0.2926715,97.211,-1004.941,-205.61101,2.9488099,3.39271,-0.68781,1,-1,0,0,0,false,false,false,527.85,-481.00998,17.01,0.00038572788,0.004750117,-0.08210639,0.996612,927.86096,-132.201,8.341001,0,0,-2.45931,1,1,0.05511811,1,0,false,false,true,-37.17,0.48,16.9,-0.0046530114,-0.0006069146,0.958312,-0.2856852,-639.631,-208.071,10.371,0.02251,0.00771,2.90451
300.7,1389.95,-729.69,100.56,0.9384228,-0.14704381,-0.021209724,-0.3119148,97.151,-1004.42096,-216.33101,2.9488099,3.39271,-0.68781,1,-1,0,0,0,false,false,false,543.31,-483.37,17.01,0.0004828343,0.0047393288,-0.102498814,0.9947217,928.071,-170.61101,8.341001,0,0,-2.45421,1,1,0.047244094,1,0,false,false,true,-47.809998,-3.01,16.94,-0.0046260376,-0.00090902316,0.95111984,-0.30878583,-634.59094,-213.501,9.811,0.01701,0.00691,2.89961
300.70834,1390.76,-738.06,98.71,0.93370014,-0.15385747,-0.035381895,-0.3213719,97.120995,-1004.16095,-221.69101,2.9488099,3.39271,-0.68781,1,-1,0,0,0,false,false,false,551.04,-484.78998,17.01,0.0005313874,0.0047339336,-0.11266265,0.9936218,927.53094,-189.871,8.341001,0,0,-2.4516098,0.33070865,1,0.047244094,1,0,false,false,true,-53.1,-4.79,16.949999,-0.004609853,-0.0010384982,0.94731945,-0.3202552,-632.97095,-217.391,9.561,0.014609999,0.0065099997,2.90391
300.71667,1391.57,-746.43,96.82,0.928644,-0.1606118,-0.049543276,-0.33071032,97.090996,-1003.90094,-227.051,2.9488099,3.39271,-0.68781,1,-1,0,0,0,false,false,false,558.76996,-486.37,17.01,0.0005799406,0.004728539,-0.12280492,0.99241936,926.561,-209.161,8.341001,0,0,-2.44891,1,1,0.047244094,1,0,false,false,true,-58.37,-6.6,16.96,-0.004588274,-0.0011625786,0.9433757,-0.33169222,-631.201,-221.321,9.361,0.012509999,0.00611,2.90821
300.725,1392.38,-754.79,94.88,0.92325383,-0.16731213,-0.06368851,-0.3399301,97.061,-1003.6409,-232.411,2.9488099,3.39271,-0.68781,1,-1,0,0,0,false,false,false,566.49,-488.11,17.01,0.0006284937,0.0047231438,-0.13292558,0.9911145,925.16095,-228.47101,8.341001,0,0,-2.44621,0.9212598,1,0.047244094,1,0,false,false,true,-63.629997,-8.44,16.97,-0.0045666946,-0.0012758692,0.939288,-0.34309685,-631.451,-227.811,9.191,0.01041,0.00561,2.92671
300.73334,1393.19,-763.14996,92.9,0.91753227,-0.17394778,-0.07780674,-0.34903118,97.031,-1003.381,-237.761,2.9488099,3.39271,-0.68781,1,-1,0,0,0,false,false,false,574.2,-490.00998,17.01,0.0006770469,0.004717749,-0.14301929,0.98970836,923.33093,-247.791,8.341001,0,0,-2.44341,1,1,0.047244094,1,0,false,false,false,-68.89,-10.34,16.98,-0.0045451154,-0.0013783704,0.93503517,-0.35452306,-631.24097,-234.08101,9.041,0.00871,0.00511,2.94351
300.74167,1394.3099,-770.43,94.09,0.90642977,-0.17783204,-0.09052232,-0.37224507,134.561,-873.441,142.621,5.61121,2.04001,-0.59361,1,-1,0,0,0,false,false,false,581.89,-492.06998,17.01,0.0007256001,0.004712355,-0.15308604,0.9882013,921.08093,-267.101,8.341001,0,0,-2.44061,1,1,0.047244094,1,0,false,false,false,-74.15,-12.29,16.99,-0.004518142,-0.0014754769,0.93061626,-0.36596552,-630.621,-241.181,8.901,0.00721,0.00471,2.9616098
300.75,1395.4299,-777.70996,95.229996,0.8962347,-0.18106353,-0.10143604,-0.39203328,134.52101,-873.21094,137.16101,5.61121,2.04001,-0.59361,1,-1,0,0,0,false,false,false,589.57,-494.3,17.01,0.0007741533,0.00470696,-0.1631258,0.9865937,918.40094,-286.401,8.341001,0,0,-2.43771,1,1,0.047244094,1,0,false,false,false,-79.409996,-14.299999,17,-0.0044911676,-0.0015671883,0.92603046,-0.37741867,-629.311,-248.791,8.781,0.00601,0.0043099998,2.97921
300.75833,1396.5499,-784.98,96.329994,0.88548094,-0.18418175,-0.11228501,-0.4115733,134.481,-872.98096,131.701,5.61121,2.04001,-0.59361,1,-1,0,0,0,false,false,false,597.22,-496.69,17.01,0.0008227063,0.004701564,-0.17313854,0.98488575,915.29095,-305.671,8.341001,0,0,-2.43481,1,1,0.047244094,1,0,false,false,false,-84.65,-16.369999,17.01,-0.0044641932,-0.0016535048,0.92127484,-0.38888264,-627.261,-256.881,8.661,0.00501,0.00391,2.9962099
300.76666,1397.6699,-792.25,97.38,0.87417173,-0.18718666,-0.123063855,-0.43085974,134.44101,-872.751,126.251,5.61121,2.04001,-0.59361,1,-1,0,0,0,false,false,false,604.85,-499.24,17.01,0.0008712596,0.004690775,-0.18311898,0.98307914,911.751,-324.901,8.341001,0,0,-2.43191,1,1,0.047244094,1,0,false,false,false,-89.88,-18.51,17.01,-0.00443722,-0.001734427,0.916349,-0.40035203,-624.441,-265.421,8.541,0.00421,0.00351,3.01261
300.775,1398.7899,-799.51996,98.39,0.8623165,-0.19007286,-0.13376717,-0.44987643,134.401,-872.52094,120.800995,5.61121,2.04001,-0.59361,1,-1,0,0,0,false,false,false,612.45,-501.94998,17.01,0.00091981265,0.004679985,-0.19307236,0.9811728,907.79095,-344.091,8.341001,0,0,-2.42891,1,1,0.047244094,1,0,false,false,false,-95.079994,-20.72,17.01,-0.0044102455,-0.0018099541,0.911252,-0.41182145,-620.83093,-274.381,8.471001,0.00351,0.00311,3.0283098
300.78333,1399.9099,-806.79,99.35,0.8499223,-0.1928404,-0.14438418,-0.46861264,134.36101,-872.29095,115.351,5.61121,2.04001,-0.59361,1,-1,0,0,0,false,false,false,620.01,-504.81998,17.01,0.00096836593,0.004669196,-0.20299345,0.9791684,903.40094,-363.221,8.341001,0,0,-2.42591,1,1,0.047244094,1,0,false,false,false,-100.25,-23.01,17.01,-0.0043832716,-0.0018854813,0.90598375,-0.4232854,-616.40094,-283.721,8.4210005,0.00291,0.00281,3.04331
300.79166,1401.03,-814.06,100.27,0.83699876,-0.19548927,-0.15490945,-0.48705208,134.321,-872.061,109.90099,5.61121,2.04001,-0.59361,1,-1,0,0,0,false,false,false,627.54,-507.84998,17.01,0.0010169192,0.0046584066,-0.21288218,0.9770662,898.59094,-382.291,8.341001,0,0,-2.42291,1,1,0.047244094,1,0,false,false,false,-105.39,-25.369999,17.01,-0.0043509025,-0.0019556133,0.90054387,-0.43473858,-611.131,-293.411,8.391,0.00241,0.00251,3.05751
300.8,1402.15,-821.32996,101.14,0.8235506,-0.19801405,-0.16534303,-0.5051895,134.281,-871.83093,104.451,5.61121,2.04001,-0.59361,1,-1,0,0,0,false,false,false,635.02997,-511.03998,17.01,0.0010654721,0.0046476168,-0.2227331,0.97486776,893.36096,-401.281,8.341001,0,0,-2.41991,1,1,0.047244094,1,0,false,false,false,-110.479996,-27.82,17.01,-0.004318534,-0.0020257458,0.8949326,-0.4461756,-605.001,-303.411,8.371,0.00201,0.0023100001,3.0708098
300.80832,1403.27,-828.58997,101.97,0.80959016,-0.20041473,-0.17566872,-0.5230086,134.241,-871.60095,99.001,5.61121,2.04001,-0.59361,1,-1,0,0,0,false,false,false,642.47,-514.38,17.01,0.0011140255,0.0046368274,-0.23255168,0.9725723,887.71094,-420.191,8.341001,0,0,-2.41681,1,1,0.047244094,1,0,false,false,false,-115.52,-30.349998,17.01,-0.0042861653,-0.0020904834,0.8891499,-0.4575911,-598.001,-313.671,8.361,0.0016099999,0.00201,3.08321
300.81668,1404.39,-835.85,102.75,0.79512113,-0.20269133,-0.18588649,-0.5405039,134.201,-871.371,93.550995,5.61121,2.04001,-0.59361,1,-1,0,0,0,false,false,false,649.87,-517.88,17.01,0.0011625787,0.004626038,-0.24233249,0.9701815,881.65094,-439.001,8.341001,0,0,-2.4137099,1,1,0.047244094,1,0,false,false,false,-120.5,-32.96,17.01,-0.0042537963,-0.0021552208,0.88319886,-0.46897405,-590.121,-324.161,8.361,0.00131,0.0018099999,3.09461
300.825,1405.51,-843.11,103.479996,0.7801567,-0.20484391,-0.19598562,-0.55765945,134.16101,-871.1409,88.111,5.61121,2.04001,-0.59361,1,-1,0,0,0,false,false,false,657.22,-521.54,17.01,0.0012111318,0.0046152486,-0.25207552,0.9676958,875.18097,-457.711,8.341001,0,0,-2.41061,1,1,0.047244094,1,0,false,false,false,-125.42,-35.66,17.01,-0.004221428,-0.0022199587,0.87707764,-0.48032486,-581.35095,-334.821,8.361,0.00111,0.0016099999,3.10501
300.83334,1406.63,-850.37,104.17,0.7647056,-0.20686695,-0.20596603,-0.5744643,134.121,-870.91095,82.671,5.61121,2.04001,-0.59361,1,-1,0,0,0,false,false,false,664.51,-525.35,17.01,0.0012596849,0.0046044583,-0.2617808,0.9651155,868.30096,-476.301,8.341001,0,0,-2.40741,1,1,0.047244094,1,0,false,false,false,-130.26,-38.45,17.01,-0.0041890587,-0.0022793012,0.87078965,-0.49163228,-571.691,-345.611,8.361,0.00091,0.0014099999,3.11441
300.84167,1407.75,-857.63,104.81,0.74877465,-0.20876053,-0.21581696,-0.5909132,134.08101,-870.68097,77.230995,5.61121,2.04001,-0.59361,1,-1,0,0,0,false,false,false,671.75,-529.32,17.01,0.001308238,0.004593669,-0.2714483,0.9624411,861.011,-494.771,8.341001,0,0,-2.4042099,1,1,0.047244094,1,0,false,false,false,-135.02,-41.329998,17.01,-0.00415669,-0.0023386441,0.8643364,-0.5028913,-561.15094,-356.481,8.361,0.00081,0.00131,3.12271
300.85,1408.87,-864.88,105.409996,0.73237354,-0.21052463,-0.225533,-0.6069951,134.041,-870.46094,71.791,5.61121,2.04001,-0.59361,1,-1,0,0,0,false,false,false,678.93,-533.44,17.01,0.0013567914,0.0045828796,-0.28107804,0.959673,853.321,-513.11096,8.341001,0,0,-2.40101,1,1,0.047244094,1,0,false,false,false,-139.7,-44.3,17.01,-0.0041243215,-0.0023979868,0.8577191,-0.5140963,-549.73096,-367.391,8.361,0.00071,0.0012099999,3.13001
300.85834,1409.99,-872.13,105.96,0.71551675,-0.21215925,-0.2351088,-0.622694,134.001,-870.23096,66.351,5.61121,2.04001,-0.59361,1,-1,0,0,0,false,false,false,686.04,-537.72,17.01,0.0013999497,0.004566695,-0.29066464,0.95681304,845.23096,-531.30096,8.341001,-0.00010999999,0,-2.39781,1,1,0.047244094,1,0,false,false,false,-144.28,-47.36,17.01,-0.004091953,-0.0024573298,0.85094273,-0.5252367,-537.451,-378.291,8.361,0.00061,0.00111,3.13621
300.86667,1411.11,-879.38,106.47,0.69821244,-0.213659,-0.24453895,-0.6380045,133.961,-870.011,60.911,5.61121,2.04001,-0.59361,1,-1,0,0,0,false,false,false,693.07996,-542.14996,17.01,0.0014431081,0.004550511,-0.3002081,0.9538618,836.74097,-549.34094,8.341001,-0.00010999999,0,-2.39461,1,1,0.047244094,1,0,false,false,false,-148.76,-50.51,17.01,-0.004054189,-0.0025166722,0.8440061,-0.53631216,-524.321,-389.131,8.361,0.00040999998,0.0010099999,3.1412098
300.875,1412.23,-886.63,106.93,0.68047386,-0.21502389,-0.25381264,-0.6529158,133.921,-869.79095,55.470997,5.61121,2.04001,-0.59361,1,-1,0,0,0,false,false,false,700.05,-546.73,17.01,0.0014862665,0.0045343265,-0.30970836,0.9508196,827.86096,-567.22095,8.341001,-0.00010999999,0,-2.39131,1,1,0.047244094,1,0,false,false,false,-153.12999,-53.75,17.01,-0.0040164255,-0.0025706203,0.8369148,-0.54731226,-510.361,-399.871,8.361,0.00030999997,0.00091,3.14511
300.88333,1413.35,-893.88,107.35,-0.66230816,0.21625395,0.2629299,0.66742027,133.881,-869.571,50.040997,5.61121,2.04001,-0.59361,1,-1,0,0,0,false,false,false,706.95,-551.45996,17.01,0.0015294247,0.0045181415,-0.31916544,0.947687,818.58093,-584.951,8.341001,-0.00010999999,0,-2.38861,1,1,0.047244094,1,0,false,false,false,-157.37999,-57.079998,17.01,-0.003978662,-0.0026245683,0.82967156,-0.5582313,-495.591,-410.461,8.361,0.00030999997,0.00081,3.1479099
300.89166,1414.47,-901.12,107.72,-0.6437284,0.21734908,0.27187985,0.6815089,133.841,-869.35095,44.611,5.61121,2.04001,-0.59361,1,-1,0,0,0,false,false,false,713.76996,-556.33,17.01,0.0015725831,0.0045019574,-0.3285794,0.94446427,808.90094,-602.511,8.341001,0,0,-2.3863099,1,1,0.047244094,1,0,false,false,false,-161.51,-60.5,17.01,-0.0039408985,-0.0026785163,0.8222792,-0.56906414,-480.041,-420.85098,8.361,0.00030999997,0.00081,3.14951
300.9,1415.59,-908.36,108.049995,-0.6247494,0.21830936,0.28066266,0.6951672,133.80101,-869.131,39.181,5.61121,2.04001,-0.59361,1,-1,0,0,0,false,false,false,720.51,-561.35,17.01,0.0016157415,0.0044857734,-0.33795562,0.94114995,798.83093,-619.891,8.341001,0,0,-2.38441,1,1,0.047244094,1,0,false,false,false,-165.51,-64.01,17.01,-0.0039031352,-0.0027324643,0.81474113,-0.57980525,-463.741,-431.011,8.361,0.00021,0.00071,3.1500099
300.90833,1416.7,-915.6,108.329994,-0.60537666,0.21913476,0.28926736,0.7083949,133.761,-868.91095,33.751,5.61121,2.04001,-0.59361,1,-1,0,0,0,false,false,false,727.17,-566.51996,17.01,0.0016588998,0.0044695884,-0.3472886,0.9377461,788.371,-637.09094,8.341001,0,0,-2.3828099,1,1,0.047244094,1,0,false,false,false,-169.37,-67.6,17.01,-0.0038653715,-0.0027864121,0.8070606,-0.5904492,-446.721,-440.901,8.361,0.00021,0.00071,3.14941
300.91666,1417.8099,-922.83997,108.57,-0.5856263,0.21981992,0.29769406,0.72117907,133.72101,-868.691,28.321,5.61121,2.04001,-0.59361,1,-1,0,0,0,false,false,false,733.74,-571.83,17.01,0.0017020581,0.004453404,-0.3565839,0.93425107,777.53094,-654.09094,8.341001,0,0,-2.38151,1,1,0.047244094,1,0,false,false,false,-173.09,-71.27,17.01,-0.003827608,-0.0028403602,0.7992417,-0.60099065,-429.011,-450.481,8.361,0.00021,0.00061,3.1477098
300.925,1418.9199,-930.07996,108.759995,-0.56550896,0.22037017,0.30593196,0.7335135,133.681,-868.47095,22.890999,5.61121,2.04001,-0.59361,1,-1,0,0,0,false,false,false,740.22,-577.27997,17.01,0.0017452163,0.0044372194,-0.36583596,0.930667,766.311,-670.891,8.341001,0,0,-2.3805099,1,1,0.047244094,1,0,false,false,false,-176.67,-75.02,17.01,-0.0037898442,-0.0028943082,0.79129267,-0.61141884,-410.651,-459.711,8.361,0.00010999999,0.00061,3.1449099
300.93332,1420.0299,-937.32,108.909996,-0.5450411,0.2207802,0.31398103,0.74538726,133.641,-868.251,17.460999,5.61121,2.04001,-0.59361,1,-1,0,0,0,false,false,false,746.61,-582.87,17.01,0.0017883751,0.0044210358,-0.3750504,0.9269921,754.71094,-687.47095,8.341001,0,0,-2.37971,1,1,0.047244094,1,0,false,false,false,-180.09,-78.85,17.01,-0.0037520807,-0.002948256,0.78321403,-0.6217337,-391.681,-468.57098,8.371,0,0.00061,3.14101
300.94168,1421.14,-944.55,109.009995,-0.5242332,0.22105531,0.3218305,0.7567952,133.601,-868.03094,12.031,5.61121,2.04001,-0.59361,1,-1,0,0,0,false,false,false,752.89996,-588.6,17.01,0.0018315334,0.0044048512,-0.38422158,0.92322856,742.74097,-703.84094,8.341001,0,0,-2.37901,1,1,0.047244094,1,0,false,false,false,-183.34999,-82.75,17.01,-0.0037089225,-0.0029968095,0.77501076,-0.63193,-372.151,-477.021,8.371,0,0.00061,3.13601
300.95,1422.25,-951.77997,109.07,-0.50309634,0.22119018,0.32948035,0.76773137,133.561,-867.811,6.6109996,5.61121,2.04001,-0.59361,1,-1,0,0,0,false,false,false,759.08997,-594.47,17.01,0.0018746917,0.0043886667,-0.39335498,0.9193742,730.41095,-719.98096,8.341001,0,0,-2.37851,1,1,0.047244094,1,0,false,false,false,-186.45,-86.729996,17.01,-0.003665764,-0.0030453624,0.766688,-0.64200205,-352.091,-485.041,8.371,0,0.00051,3.12991
300.95834,1423.36,-959.00995,109.079994,-0.4816466,0.2211902,0.33692518,0.7781856,133.52101,-867.59094,1.191,5.61121,2.04001,-0.59361,1,-1,0,0,0,false,false,false,765.18,-600.47,17.01,0.0019178501,0.0043724827,-0.40244526,0.91543156,717.72095,-735.881,8.341001,0,0,-2.37811,1,1,0.047244094,1,0,false,false,false,-189.37999,-90.77,17.01,-0.0036226057,-0.0030939155,0.7582514,-0.6519447,-331.551,-492.611,8.371,0,0.00051,3.12271
300.96667,1424.47,-966.24,109.04,-0.4598946,0.22104989,0.34415963,0.78815466,133.481,-867.371,-4.2209997,5.61121,2.04001,-0.59361,1,-1,0,0,0,false,false,false,771.16,-606.6,17.01,0.0019610086,0.0043509034,-0.41149774,0.91139823,704.67096,-751.54095,8.341001,0,0,-2.37781,1,1,0.047244094,1,0,false,false,false,-192.14,-94.88,17.01,-0.0035794473,-0.0031424686,0.74970716,-0.66175246,-310.581,-499.701,8.371,0,0.00051,3.1145098
300.975,1425.58,-973.47,108.96,-0.43785146,0.2207694,0.35117832,0.7976344,133.44101,-867.15094,-9.6310005,5.61121,2.04001,-0.59361,1,-1,0,0,0,false,false,false,777.02997,-612.86,17.01,0.0020041664,0.0043293233,-0.420507,0.9072766,691.27094,-766.951,8.341001,0,0,-2.37761,1,1,0.047244094,1,0,false,false,false,-194.73,-99.04,17.01,-0.003536289,-0.0031910222,0.74105674,-0.67142546,-289.221,-506.301,8.371,0,0.00040999998,3.10531
300.98334,1426.69,-980.69,108.829994,-0.4155385,0.220354,0.35797578,0.8066134,133.401,-866.93097,-15.041,5.61121,2.04001,-0.59361,1,-1,0,0,0,false,false,false,782.79,-619.25,17.01,0.0020473248,0.004307744,-0.42947322,0.9030668,677.52094,-782.10095,8.341001,0,0,-2.37751,1,1,0.047244094,1,0,false,false,false,-197.14,-103.259995,17.01,-0.0034931304,-0.003239575,0.73230684,-0.68095803,-267.521,-512.40094,8.371,0,0.00040999998,3.09501
300.99167,1427.7999,-987.91,108.659996,-0.39296657,0.21979833,0.364552,0.81508756,133.36101,-866.71094,-20.450998,5.61121,2.04001,-0.59361,1,-1,0,0,0,false,false,false,788.44,-625.76996,17.01,0.0020904832,0.004286165,-0.43839625,0.89876896,663.43097,-796.98096,8.341001,0,0,-2.37741,1,1,0.047244094,1,0,false,false,false,-199.37,-107.53,17.01,-0.0034499723,-0.0032881282,0.72346455,-0.690345,-245.531,-517.99097,8.371,0,0.00030999997,3.08371
301,1428.9099,-995.13,108.439995,-0.37014648,0.21910779,0.37090176,0.82305235,133.321,-866.49097,-25.860998,5.61121,2.04001,-0.59361,1,-1,0,0,0,false,false,false,793.97,-632.41,17.01,0.0021336419,0.004264586,-0.44727615,0.89438313,649.001,-811.59094,8.341001,0,0,-2.37741,1,1,0.047244094,1,0,false,false,false,-201.42,-111.85,17.01,-0.0034068138,-0.0033312866,0.7145374,-0.6995809,-223.301,-523.061,8.371,0,0.00030999997,3.07141
301.00833,1430.02,-1002.35,108.18,-0.34709436,0.21827696,0.37701944,0.83050394,133.281,-866.27094,-31.270998,5.61121,2.04001,-0.59361,1,-1,0,0,0,false,false,false,799.38,-639.17,17.01,0.0021768003,0.004243007,-0.4561129,0.8899091,634.24097,-825.92096,8.341001,0,0,-2.37741,1,1,0.047244094,1,0,false,false,false,-203.28,-116.21,17.01,0.0033636554,0.003374445,-0.70552605,0.7086679,-200.871,-527.61096,8.371,0,0.00030999997,3.05811
301.01666,1431.13,-1009.57,107.869995,-0.32382655,0.21731132,0.3828998,0.83743644,133.241,-866.05096,-36.670998,5.61121,2.04001,-0.59361,1,-1,0,0,0,false,false,false,804.67,-646.05,17.01,0.0022199585,0.0042214277,-0.46490642,0.8853469,619.16095,-839.96094,8.341001,0,0,-2.37741,1,1,0.047244094,-1,0,false,false,false,-204.95,-120.61,17.01,0.003320497,0.0034176034,-0.6964412,0.71759796,-178.291,-531.631,8.371,0,0.00030999997,3.04381
301.025,1432.24,-1016.79,107.52,-0.3003537,0.21621078,0.38854283,0.8438453,133.201,-865.83093,-42.071,5.61121,2.04001,-0.59361,1,-1,0,0,0,false,false,false,809.82996,-653.05,17.01,0.0022631169,0.0041998485,-0.47365144,0.8806994,603.761,-853.71094,8.341001,0,0,-2.37751,1,1,0.047244094,-1,0,false,false,false,-206.44,-125.04,17.01,0.0032773386,0.0034607616,-0.68728614,0.72637105,-155.61101,-535.141,8.371,0,0.00030999997,3.02861
301.03333,1433.35,-1024,107.119995,-0.27669743,0.21497537,0.393943,0.8497252,133.16101,-865.61096,-47.470997,5.61121,2.04001,-0.59361,1,-1,0,0,0,false,false,false,814.86,-660.16,17.01,0.0023062755,0.0041782698,-0.4823533,0.87596375,588.04095,-867.15094,8.341001,0,0,-2.37761,1,1,0.047244094,-1,0,false,false,false,-207.73999,-129.5,17.01,0.0032341804,0.00350392,-0.6780664,0.7349851,-132.881,-538.131,8.371,0,0.00030999997,3.0125098
301.04166,1434.46,-1031.21,106.68,-0.25286853,0.2136051,0.39909506,0.85507506,133.121,-865.3909,-52.871,5.61121,2.04001,-0.59361,1,-1,0,0,0,false,false,false,819.76,-667.39,17.01,0.0023494337,0.00415669,-0.49100652,0.87114275,572.011,-880.29095,8.341001,0,0,-2.3777099,1,1,0.047244094,-1,0,false,false,false,-208.84999,-133.98,17.01,0.003191022,0.0035470785,-0.66878736,0.7434383,-110.131,-540.621,8.371,0,0.00030999997,2.9955099
301.05,1435.57,-1038.4199,106.189995,-0.22887783,0.21209997,0.40399894,0.8598915,133.08101,-865.17096,-58.271,5.61121,2.04001,-0.59361,1,-1,0,0,0,false,false,false,824.52997,-674.73,17.01,0.002392592,0.004135111,-0.4996113,0.86623645,555.68097,-893.11096,8.341001,0,0,-2.37781,1,1,0.047244094,-1,-0.03125,false,false,false,-209.76999,-138.48999,17.01,0.0031478636,0.003590237,-0.6594543,0.7517294,-87.410995,-542.621,8.371,-0.00010999999,0.00030999997,2.9776099
301.05832,1436.6799,-1045.63,105.659996,-0.2047468,0.21046533,0.40864924,0.8641694,133.041,-864.9509,-63.670998,5.61121,2.04001,-0.59361,1,-1,0,0,0,false,false,false,829.16,-682.17,17.01,0.0024357503,0.0041135317,-0.50816745,0.8612449,539.061,-905.61096,8.341001,0,0,-2.37791,1,1,0.047244094,-1,-0.03125,false,false,false,-210.5,-143.01,17.01,0.0030993104,0.0036280004,-0.6500781,0.7598523,-64.761,-544.141,8.371,-0.00021,0.00030999997,2.95891
301.06668,1437.7899,-1052.84,105.079994,-0.18048629,0.20869577,0.4130461,0.86790764,133.001,-864.73096,-69.071,5.61121,2.04001,-0.59361,1,-1,0,0,0,false,false,false,833.64996,-689.72,17.01,0.0024789087,0.004086558,-0.51667506,0.85616815,522.15094,-917.78094,8.341001,0,0,-2.37801,1,1,0.047244094,-1,-0.03125,false,false,false,-211.04,-147.54,17.01,0.003050757,0.003665764,-0.64065874,0.7678108,-42.220997,-545.191,8.371,-0.00021,0.00030999997,2.93941
301.075,1438.9,-1060.0399,104.46,-0.15611249,0.20679678,0.41718388,0.8711036,132.961,-864.511,-74.471,5.61121,2.04001,-0.59361,1,-1,0,0,0,false,false,false,838,-697.37,17.01,0.002516672,0.0040595834,-0.5251341,0.8510059,504.961,-929.621,8.341001,-0.00010999999,0,-2.37821,1,1,0.047244094,-1,-0.03125,false,false,false,-211.39,-152.08,17.01,0.003002204,0.0037035276,-0.63120705,0.7755996,-19.831,-545.80096,8.371,-0.00021,0.00030999997,2.9193099
301.08334,1440.01,-1067.24,103.79,-0.1316416,0.20476833,0.42106268,0.87375414,132.921,-864.29095,-79.861,5.61121,2.04001,-0.59361,1,-1,0,0,0,false,false,false,842.20996,-705.12,17.01,0.002554436,0.00403261,-0.53353924,0.8457618,487.491,-941.121,8.341001,-0.00010999999,0,-2.3784099,1,1,0.05511811,-1,-0.03125,false,false,false,-211.56,-156.62999,17.01,0.002953651,0.0037412911,-0.6217283,0.7832184,2.3809998,-545.98096,8.371,-0.00021,0.00021,2.89851
301.09167,1441.12,-1074.44,103.079994,-0.107089825,0.20261042,0.42467725,0.8758595,132.881,-864.071,-85.251,5.61121,2.04001,-0.59361,1,-1,0,0,0,false,false,false,846.26996,-712.95996,17.01,0.0025921995,0.004005636,-0.5418958,0.84043205,469.751,-952.27094,8.341001,0,0,-2.37851,1,1,0.05511811,-1,-0.03125,false,false,false,-211.54,-161.18,17.01,0.0029050978,0.0037790546,-0.6122227,0.79067093,24.380999,-545.751,8.371,-0.00021,0.00010999999,2.87721
301.1,1442.23,-1081.64,102.32,-0.082467854,0.20032844,0.42802745,0.8774167,132.841,-863.85095,-90.641,5.61121,2.04001,-0.59361,1,-1,0,0,0,false,false,false,850.18,-720.89996,17.01,0.0026299632,0.0039786627,-0.5501985,0.83502024,451.751,-963.061,8.341001,0,0,-2.37861,1,1,0.05511811,-1,-0.03125,false,false,false,-211.34,-165.73,17.01,0.0028565445,0.0038114234,-0.60270077,0.79795295,46.150997,-545.141,8.371,-0.00021,0.00010999999,2.85551
301.10834,1443.34,-1088.84,101.52,-0.05779736,0.19792233,0.43110794,0.8784259,132.80101,-863.631,-96.031,5.61121,2.04001,-0.59361,1,-1,0,0,0,false,false,false,853.94,-728.93,17.01,0.0026677265,0.0039516874,-0.55844706,0.8295263,433.491,-973.501,8.341001,0,0,-2.37871,1,1,0.05511811,-1,-0.03125,false,false,false,-210.95999,-170.26999,17.01,0.0028079913,0.0038437922,-0.5931628,0.8050684,67.671,-544.16095,8.371,-0.00010999999,0.00010999999,2.83351
301.11667,1444.45,-1096.03,100.67,-0.03308911,0.19539218,0.43391863,0.8788865,132.761,-863.41095,-101.421,5.61121,2.04001,-0.59361,1,-1,0,0,0,false,false,false,857.55,-737.04,17.01,0.0027054904,0.0039247144,-0.5666419,0.82395035,414.991,-983.571,8.341001,0,0,-2.37881,1,1,0.05511811,-1,-0.03125,false,false,false,-210.4,-174.8,17.01,0.0027594382,0.003876161,-0.58361936,0.8120133,88.910995,-542.84094,8.371,0,0.00010999999,2.81131
301.125,1445.5599,-1103.22,99.78,-0.008359279,0.19273794,0.43645957,0.87879753,132.72101,-863.191,-106.811,5.61121,2.04001,-0.59361,1,-1,0,0,0,false,false,false,861.01,-745.24,17.01,0.002743254,0.0038977405,-0.57478267,0.8182922,396.251,-993.27094,8.341001,0,0,-2.37891,1,1,0.05511811,-1,-0.0234375,false,false,false,-209.65999,-179.31999,17.01,0.0027162798,0.0039085294,-0.57406515,0.8187957,109.861,-541.191,8.371,0,0,2.78901
